{
    "mammoth lakes": {
        "boundingbox": [
            "37.580115",
            "37.659467",
            "-119.0613999",
            "-118.9370119"
        ],
        "lon": "-118.9668508",
        "class": "boundary",
        "licence": "Data \u00a9 OpenStreetMap contributors, ODbL 1.0. http://www.openstreetmap.org/copyright",
        "importance": 0.67062928815144,
        "icon": "https://nominatim.openstreetmap.org/images/mapicons/poi_boundary_administrative.p.20.png",
        "lat": "37.6432525",
        "osm_id": "33114461",
        "type": "administrative",
        "osm_type": "way",
        "place_id": "73282228",
        "display_name": "Mammoth Lakes, Mono County, California, United States of America"
    },
    "big bear lake": {
        "boundingbox": [
            "34.2375569",
            "34.2689983",
            "-116.9775303",
            "-116.8663043"
        ],
        "importance": 0.80624782713774,
        "class": "natural",
        "osm_id": "4045674",
        "type": "water",
        "lon": "-116.932209587315",
        "osm_type": "relation",
        "place_id": "159717820",
        "lat": "34.253293",
        "licence": "Data \u00a9 OpenStreetMap contributors, ODbL 1.0. http://www.openstreetmap.org/copyright",
        "display_name": "Big Bear Lake, Lagunita Lane, Big Bear Lake, San Bernardino County, California, 92315, United States of America"
    },
    "mentions": {
        "green creek lake": {
            "longitude": "-123.4849022",
            "blogLinks": [
                "http://thesierraweb.com/bridgeport/activities.cfm"
            ],
            "closest_to": "",
            "latitude": "41.9975089",
            "address": "Green Creek, Siskiyou County, California, United States of America",
            "locType": "stream"
        },
        "napa valley": {
            "longitude": "-84.4504647",
            "blogLinks": [
                "http://www.travbuddy.com/California-travel-guide-p85"
            ],
            "closest_to": "",
            "latitude": "39.0234679",
            "address": "Napa Valley, Cold Spring, Campbell County, Kentucky, 41076, United States of America",
            "locType": "residential"
        },
        "australia": {
            "longitude": "150.9261111",
            "blogLinks": [
                "https://www.pinterest.com/explore/lakes-in-california/"
            ],
            "closest_to": "",
            "latitude": "-32.6649999",
            "address": "California, Singleton, NSW, Australia",
            "locType": "hamlet"
        },
        "humboldt county": {
            "longitude": "-123.8997733",
            "blogLinks": [
                "http://www.travbuddy.com/California-travel-guide-p85"
            ],
            "closest_to": "",
            "latitude": "40.5997415",
            "address": "Humboldt County, California, United States of America",
            "locType": "administrative"
        },
        "cali": {
            "longitude": "-76.5647481471698",
            "blogLinks": [
                "https://www.yelp.com/biz/mammoth-mountain-ski-area-mammoth-lakes"
            ],
            "closest_to": "",
            "latitude": "3.41023085",
            "address": "California, Cali, Valle del Cauca, 760040, Colombia",
            "locType": "residential"
        },
        "durango": {
            "longitude": "-103.376588",
            "blogLinks": [
                "https://www.yelp.com/biz/mammoth-mountain-ski-area-mammoth-lakes"
            ],
            "closest_to": "",
            "latitude": "25.7613615",
            "address": "California, G\u00f3mez Palacio, Durango, M\u00e9xico",
            "locType": "village"
        },
        "mammoth": {
            "longitude": "-121.3549877",
            "blogLinks": [
                "https://windyscotty.wordpress.com/ten-best-places-to-visit-in-the-eastern-sierra/",
                "https://www.yelp.com/biz/mammoth-mountain-ski-area-mammoth-lakes"
            ],
            "closest_to": "",
            "latitude": "41.7304379",
            "address": "Mammoth, Modoc County, California, United States of America",
            "locType": "hamlet"
        },
        "l.a.": {
            "longitude": "-67.9369134",
            "blogLinks": [
                "http://thesierraweb.com/bridgeport/activities.cfm"
            ],
            "closest_to": "",
            "latitude": "-13.8305494",
            "address": "California, Provincia Abel Iturralde, LPZ, Bolivia",
            "locType": "hamlet"
        },
        "green creek": {
            "longitude": "-123.4849022",
            "blogLinks": [
                "http://thesierraweb.com/bridgeport/activities.cfm"
            ],
            "closest_to": "",
            "latitude": "41.9975089",
            "address": "Green Creek, Siskiyou County, California, United States of America",
            "locType": "stream"
        },
        "u.s.": {
            "longitude": "-61.5489543",
            "blogLinks": [
                "http://www.bigbearlake.net/about-big-bear/facts"
            ],
            "closest_to": "",
            "latitude": "-32.5446226",
            "address": "La California, Municipio de Las Rosas, Departamento Belgrano, Sta. Fe, Argentina",
            "locType": "hamlet"
        },
        "california": {
            "longitude": "-72.945787",
            "blogLinks": [
                "http://www.travbuddy.com/California-travel-guide-p85",
                "http://sanfrancisco.cbslocal.com/top-lists/getaway-guide-weekend-road-trip-to-mammoth-lakes/",
                "https://www.pinterest.com/explore/lakes-in-california/",
                "https://www.yelp.com/biz/mammoth-mountain-ski-area-mammoth-lakes",
                "http://www.mammothmountain.com/winter/plan-a-vacation/plan-a-vacation/getting-here",
                "http://www.visitmammoth.com/",
                "http://www.bigbearlake.net/about-big-bear/facts",
                "http://www.indeed.com/jobs?q=Mammoth+Lakes+$40,000&start=20"
            ],
            "closest_to": "",
            "latitude": "7.3480915",
            "address": "California, Santander, Colombia",
            "locType": "village"
        },
        "mexico": {
            "longitude": "-111.8196666",
            "blogLinks": [
                "https://www.nps.gov/yose/planyourvisit/jmt.htm"
            ],
            "closest_to": "",
            "latitude": "28.973",
            "address": "California, Hermosillo, Sonora, M\u00e9xico",
            "locType": "village"
        },
        "eureka": {
            "longitude": "-124.1636728",
            "blogLinks": [
                "http://www.travbuddy.com/California-travel-guide-p85"
            ],
            "closest_to": "",
            "latitude": "40.8020712",
            "address": "Eureka, Humboldt County, California, United States of America",
            "locType": "city"
        }
    }
}