{
    "carlsbad": {
        "type": "city",
        "osm_id": "2305279",
        "class": "place",
        "importance": 0.66828891079931,
        "lat": "33.1580933",
        "lon": "-117.3505938",
        "boundingbox": [
            "33.0601812",
            "33.1824213",
            "-117.3588312",
            "-117.2162645"
        ],
        "display_name": "Carlsbad, San Diego County, California, United States of America",
        "licence": "Data \u00a9 OpenStreetMap contributors, ODbL 1.0. http://www.openstreetmap.org/copyright",
        "icon": "https://nominatim.openstreetmap.org/images/mapicons/poi_place_city.p.20.png",
        "place_id": "159570669",
        "osm_type": "relation"
    },
    "san bernardino": {
        "type": "city",
        "osm_id": "253639",
        "class": "place",
        "importance": 0.81183700771795,
        "lat": "34.1083449",
        "lon": "-117.2897651",
        "boundingbox": [
            "34.050346",
            "34.230706",
            "-117.4024519",
            "-117.1649719"
        ],
        "display_name": "San Bernardino, San Bernardino County, California, United States of America",
        "licence": "Data \u00a9 OpenStreetMap contributors, ODbL 1.0. http://www.openstreetmap.org/copyright",
        "icon": "https://nominatim.openstreetmap.org/images/mapicons/poi_place_city.p.20.png",
        "place_id": "159293643",
        "osm_type": "relation"
    },
    "mentions": {
        "france": {
            "latitude": "34.2013715",
            "closest_to": "",
            "address": "France, Sherman Way, Canoga Park, LA, Los Angeles County, California, 91307, United States of America",
            "locType": "cafe",
            "blogLinks": [
                "http://wikitravel.org/en/San_Diego"
            ],
            "longitude": "-118.5935353"
        },
        "el paso": {
            "latitude": "36.8487922",
            "closest_to": "",
            "address": "El Paso, Clovis, Fresno County, California, 93611, United States of America",
            "locType": "residential",
            "blogLinks": [
                "http://wikitravel.org/en/San_Diego"
            ],
            "longitude": "-119.6823199"
        },
        "santa rosa": {
            "latitude": "38.4404675",
            "closest_to": "",
            "address": "Santa Rosa, Sonoma County, California, United States of America",
            "locType": "city",
            "blogLinks": [
                "http://activerain.com/blogsview/711985/carlsbad-things-to-do---visit-and-enjoy-southern-california-s-marvelous-topography"
            ],
            "longitude": "-122.7144313"
        },
        "usa": {
            "latitude": "36.7014631",
            "closest_to": "",
            "address": "California, United States of America",
            "locType": "administrative",
            "blogLinks": [
                "http://www.distancesfrom.com/us/travel-from-San-Bernardino-to-Carlsbad/TravelFromHistory/33466015.aspx",
                "http://www.distancesfrom.com/us/directions-from-San-Bernardino-to-Carlsbad/DirectionHistory/33466015.aspx",
                "http://www.distancesfrom.com/us/how-far-is-San-Bernardino-from-Carlsbad/HowFarHistory/22820972.aspx",
                "http://www.distancesfrom.com/us/distance-from-Carlsbad-to-San-Bernardino/DistanceHistory/22820972.aspx",
                "http://www.distancesfrom.com/us/Trip-Cost-from-Carlsbad-to-San-Bernardino/TripCostHistory/22820972.aspx",
                "http://www.distancesfrom.com/us/flight-distance-from-San-Bernardino-to-Carlsbad/FlightHistory/33466015.aspx",
                "http://www.distancesfrom.com/us/directions-from-Carlsbad-to-San-Bernardino/DirectionHistory/22820972.aspx"
            ],
            "longitude": "-118.7559973"
        },
        "l.a.": {
            "latitude": "-13.8305494",
            "closest_to": "",
            "address": "California, Provincia Abel Iturralde, LPZ, Bolivia",
            "locType": "hamlet",
            "blogLinks": [
                "http://wikitravel.org/en/San_Diego"
            ],
            "longitude": "-67.9369134"
        },
        "yuma": {
            "latitude": "32.749997",
            "closest_to": "",
            "address": "Yuma Main Canal, Imperial County, California, United States of America",
            "locType": "canal",
            "blogLinks": [
                "http://wikitravel.org/en/San_Diego"
            ],
            "longitude": "-114.6287508"
        },
        "state parks": {
            "latitude": "37.4648304",
            "closest_to": "",
            "address": "California State Mining and Mineral Museum, 5005, Fairgrounds Road, Mormon Bar, Mariposa County, California, 95338, United States of America",
            "locType": "museum",
            "blogLinks": [
                "https://www.tripadvisor.com/ShowTopic-g60750-i41-k4277257-Places_to_visit_round_trip_between_Las_Vegas_San_Diego-San_Diego_California.html"
            ],
            "longitude": "-119.948196593988"
        },
        "monterey bay": {
            "latitude": "36.7999557",
            "closest_to": "",
            "address": "Monterey Bay, Monterey County, California, United States of America",
            "locType": "bay",
            "blogLinks": [
                "http://wikitravel.org/en/San_Diego"
            ],
            "longitude": "-121.9010667"
        },
        "states": {
            "latitude": "36.7014631",
            "closest_to": "",
            "address": "California, United States of America",
            "locType": "administrative",
            "blogLinks": [
                "https://www.tripadvisor.com/ShowTopic-g60750-i41-k4277257-Places_to_visit_round_trip_between_Las_Vegas_San_Diego-San_Diego_California.html"
            ],
            "longitude": "-118.7559973"
        },
        "broadway": {
            "latitude": "37.7958391",
            "closest_to": "",
            "address": "Broadway, Russian Hill, SF, California, 94109;94115, United States of America",
            "locType": "primary",
            "blogLinks": [
                "http://wikitravel.org/en/San_Diego"
            ],
            "longitude": "-122.4226908"
        },
        "us": {
            "latitude": "36.7014631",
            "closest_to": "",
            "address": "California, United States of America",
            "locType": "administrative",
            "blogLinks": [
                "http://distancecalculator.globefeed.com/US_Distance_Calculator.asp?state=CA",
                "http://wikitravel.org/en/San_Diego",
                "http://www.distancesfrom.com/us/travel-from-San-Bernardino-to-Carlsbad/TravelFromHistory/33466015.aspx"
            ],
            "longitude": "-118.7559973"
        },
        "mission bay": {
            "latitude": "37.7707742",
            "closest_to": "",
            "address": "Mission Bay, SF, California, 94158, United States of America",
            "locType": "neighbourhood",
            "blogLinks": [
                "http://wikitravel.org/en/San_Diego"
            ],
            "longitude": "-122.3911711"
        },
        "san francisco bay area": {
            "latitude": "37.7884969",
            "closest_to": "",
            "address": "San Francisco Bay Area, SF, California, United States of America",
            "locType": "region",
            "blogLinks": [
                "http://wikitravel.org/en/San_Diego"
            ],
            "longitude": "-122.3558472"
        },
        "carlsbad san bernardino": {
            "latitude": "34.1621918",
            "closest_to": "",
            "address": "Carlsbad Avenue, Big River, San Bernardino County, California, 92242, United States of America",
            "locType": "residential",
            "blogLinks": [
                "http://www.distancesfrom.com/us/distance-from-Carlsbad-to-San-Bernardino/DistanceHistory/22820972.aspx"
            ],
            "longitude": "-114.3683961"
        },
        "idaho": {
            "latitude": "37.413354",
            "closest_to": "",
            "address": "Idaho, Rovana, Inyo County, California, United States of America",
            "locType": "residential",
            "blogLinks": [
                "http://wikitravel.org/en/San_Diego"
            ],
            "longitude": "-118.6119669"
        },
        "utah": {
            "latitude": "37.413408",
            "closest_to": "",
            "address": "Utah, Rovana, Inyo County, California, United States of America",
            "locType": "residential",
            "blogLinks": [
                "http://wikitravel.org/en/San_Diego"
            ],
            "longitude": "-118.6125359"
        },
        "tecate": {
            "latitude": "32.43593355",
            "closest_to": "",
            "address": "Tecate, Baja California, M\u00e9xico",
            "locType": "administrative",
            "blogLinks": [
                "http://wikitravel.org/en/San_Diego"
            ],
            "longitude": "-116.273657068655"
        },
        "monterrey": {
            "latitude": "32.5492861",
            "closest_to": "",
            "address": "Monterrey, Mexicali, Baja California, M\u00e9xico",
            "locType": "village",
            "blogLinks": [
                "http://activerain.com/blogsview/711985/carlsbad-things-to-do---visit-and-enjoy-southern-california-s-marvelous-topography"
            ],
            "longitude": "-115.0704122"
        },
        "st. didacus": {
            "latitude": "34.3061118",
            "closest_to": "",
            "address": "Saint Didacus School, Fellows Avenue, Sylmar, LA, Los Angeles County, California, 91342, United States of America",
            "locType": "school",
            "blogLinks": [
                "http://wikitravel.org/en/San_Diego"
            ],
            "longitude": "-118.4445275"
        },
        "spain": {
            "latitude": "37.1412332",
            "closest_to": "",
            "address": "La California, Mor\u00f3n de la Frontera, Sevilla, Andaluc\u00eda, Espa\u00f1a",
            "locType": "locality",
            "blogLinks": [
                "http://wikitravel.org/en/San_Diego"
            ],
            "longitude": "-5.4610806"
        },
        "pacific rim": {
            "latitude": "40.8702874",
            "closest_to": "",
            "address": "Pacific Rim, 1021, I Street, Arcata, Humboldt County, California, 95518-4448, United States of America",
            "locType": "restaurant",
            "blogLinks": [
                "http://wikitravel.org/en/San_Diego"
            ],
            "longitude": "-124.0877889"
        },
        "mid-city": {
            "latitude": "37.5133425",
            "closest_to": "",
            "address": "Middle Bair Island, Redwood City, San Mateo County, California, United States of America",
            "locType": "island",
            "blogLinks": [
                "http://wikitravel.org/en/San_Diego"
            ],
            "longitude": "-122.2303835"
        },
        "central coast": {
            "latitude": "35.3611193",
            "closest_to": "",
            "address": "Central Coast Street, Bakersfield, Kern County, California, 93314, United States of America",
            "locType": "residential",
            "blogLinks": [
                "http://wikitravel.org/en/San_Diego"
            ],
            "longitude": "-119.1665989"
        },
        "u.s.": {
            "latitude": "-32.5446226",
            "closest_to": "",
            "address": "La California, Municipio de Las Rosas, Departamento Belgrano, Sta. Fe, Argentina",
            "locType": "hamlet",
            "blogLinks": [
                "http://wikitravel.org/en/San_Diego"
            ],
            "longitude": "-61.5489543"
        },
        "las vegas": {
            "latitude": "36.17310935",
            "closest_to": "",
            "address": "California Hotel, Sky Walk(Connection from Main Street to California, Cultural Corridor, Vegas Heights, Las Vegas, Clark County, Nevada, 89101, United States of America",
            "locType": "hotel",
            "blogLinks": [
                "https://www.tripadvisor.com/ShowTopic-g60750-i41-k4277257-Places_to_visit_round_trip_between_Las_Vegas_San_Diego-San_Diego_California.html"
            ],
            "longitude": "-115.144667930325"
        },
        "united states": {
            "latitude": "36.7014631",
            "closest_to": "",
            "address": "California, United States of America",
            "locType": "administrative",
            "blogLinks": [
                "https://www.tripadvisor.com/Attractions-g33009-Activities-San_Bernardino_California.html",
                "http://wikitravel.org/en/San_Diego"
            ],
            "longitude": "-118.7559973"
        },
        "washington": {
            "latitude": "40.0657724",
            "closest_to": "",
            "address": "California, Washington County, Pennsylvania, United States of America",
            "locType": "administrative",
            "blogLinks": [
                "http://wikitravel.org/en/San_Diego"
            ],
            "longitude": "-79.8918435"
        },
        "mexico": {
            "latitude": "28.973",
            "closest_to": "",
            "address": "California, Hermosillo, Sonora, M\u00e9xico",
            "locType": "village",
            "blogLinks": [
                "http://wikitravel.org/en/San_Diego"
            ],
            "longitude": "-111.8196666"
        },
        "ballast point": {
            "latitude": "33.4306128",
            "closest_to": "",
            "address": "Ballast Point, Two Harbors, Los Angeles County, California, United States of America",
            "locType": "locality",
            "blogLinks": [
                "http://wikitravel.org/en/San_Diego"
            ],
            "longitude": "-118.5054834"
        },
        "nevada": {
            "latitude": "39.3540335",
            "closest_to": "",
            "address": "Nevada County, California, United States of America",
            "locType": "administrative",
            "blogLinks": [
                "http://wikitravel.org/en/San_Diego"
            ],
            "longitude": "-120.8089842"
        },
        "pacific ocean": {
            "latitude": "36.16305775",
            "closest_to": "",
            "address": "Pacific Ocean, Cabrillo Highway, Monterey County, California, 93920, United States of America",
            "locType": "cliff",
            "blogLinks": [
                "http://wikitravel.org/en/San_Diego"
            ],
            "longitude": "-121.678715787326"
        },
        "north county": {
            "latitude": "39.7452174",
            "closest_to": "",
            "address": "California, 16th Street, Upper Downtown, Denver, Denver County, Colorado, 80211, United States of America",
            "locType": "bus_stop",
            "blogLinks": [
                "http://wikitravel.org/en/San_Diego"
            ],
            "longitude": "-104.992379"
        },
        "san francisco": {
            "latitude": "37.7792808",
            "closest_to": "",
            "address": "SF, California, United States of America",
            "locType": "city",
            "blogLinks": [
                "http://activerain.com/blogsview/711985/carlsbad-things-to-do---visit-and-enjoy-southern-california-s-marvelous-topography",
                "http://wikitravel.org/en/San_Diego"
            ],
            "longitude": "-122.4192362"
        },
        "sacramento": {
            "latitude": "38.5815719",
            "closest_to": "",
            "address": "Sacramento, Sacramento County, California, United States of America",
            "locType": "city",
            "blogLinks": [
                "http://wikitravel.org/en/San_Diego"
            ],
            "longitude": "-121.4943995"
        },
        "gila bend": {
            "latitude": "32.8134269",
            "closest_to": "",
            "address": "Gila Bend Drive, Seeley, Imperial County, California, 92243, United States of America",
            "locType": "residential",
            "blogLinks": [
                "http://wikitravel.org/en/San_Diego"
            ],
            "longitude": "-115.6753603"
        },
        "calif": {
            "latitude": "37.786376",
            "closest_to": "",
            "address": "California, Woodstock, Alameda, Alameda County, California, 94501, United States of America",
            "locType": "residential",
            "blogLinks": [
                "https://www.yelp.com/biz/oceanside-metrolink-train-station-oceanside"
            ],
            "longitude": "-122.2902806"
        },
        "shanghai": {
            "latitude": "37.34935045",
            "closest_to": "",
            "address": "Shanghai, Jackson Street, Hensley Historic District, Japantown, San Jos\u00e9, Santa Clara County, California, 95112, United States of America",
            "locType": "yes",
            "blogLinks": [
                "http://wikitravel.org/en/San_Diego"
            ],
            "longitude": "-121.894015266141"
        },
        "palomar": {
            "latitude": "23.48019285",
            "closest_to": "",
            "address": "Palomar, Calzada Maestros Misioneros de 1930, Santiago, Los Cabos, Baja California Sur, M\u00e9xico",
            "locType": "hotel",
            "blogLinks": [
                "https://www.yelp.com/biz/oceanside-metrolink-train-station-oceanside"
            ],
            "longitude": "-109.715262801301"
        },
        "campo": {
            "latitude": "37.8974258",
            "closest_to": "",
            "address": "El Campo, Marin County, California, United States of America",
            "locType": "hamlet",
            "blogLinks": [
                "http://wikitravel.org/en/San_Diego"
            ],
            "longitude": "-122.4652506"
        },
        "belgium": {
            "latitude": "39.7276351",
            "closest_to": "",
            "address": "Belgium Avenue, Chico, Butte County, California, 95928, United States of America",
            "locType": "residential",
            "blogLinks": [
                "http://wikitravel.org/en/San_Diego"
            ],
            "longitude": "-121.785498"
        },
        "ca": {
            "latitude": "37.8242285466918",
            "closest_to": "",
            "address": "Piedmont, Alameda County, California, ca, United States of America",
            "locType": "postcode",
            "blogLinks": [
                "http://www.distancesfrom.com/us/travel-from-San-Bernardino-to-Carlsbad/TravelFromHistory/33466015.aspx",
                "http://www.distancesfrom.com/us/directions-from-San-Bernardino-to-Carlsbad/DirectionHistory/33466015.aspx",
                "http://activerain.com/blogsview/711985/carlsbad-things-to-do---visit-and-enjoy-southern-california-s-marvelous-topography",
                "http://www.distancesfrom.com/us/how-far-is-San-Bernardino-from-Carlsbad/HowFarHistory/22820972.aspx",
                "http://www.distancesfrom.com/us/distance-from-Carlsbad-to-San-Bernardino/DistanceHistory/22820972.aspx",
                "http://www.distancesfrom.com/us/Trip-Cost-from-Carlsbad-to-San-Bernardino/TripCostHistory/22820972.aspx",
                "http://www.distancesfrom.com/us/flight-distance-from-San-Bernardino-to-Carlsbad/FlightHistory/33466015.aspx",
                "http://www.distancesfrom.com/us/directions-from-Carlsbad-to-San-Bernardino/DirectionHistory/22820972.aspx"
            ],
            "longitude": "-122.232613735941"
        },
        "kumeyaay": {
            "latitude": "32.6464696",
            "closest_to": "",
            "address": "Kumeyaay Highway, Titus, San Diego County, California, 91934, United States of America",
            "locType": "motorway",
            "blogLinks": [
                "http://wikitravel.org/en/San_Diego"
            ],
            "longitude": "-116.1858258"
        },
        "san luis obispo": {
            "latitude": "35.2827525",
            "closest_to": "",
            "address": "San Luis Obispo, San Luis Obispo County, California, United States of America",
            "locType": "city",
            "blogLinks": [
                "http://wikitravel.org/en/San_Diego"
            ],
            "longitude": "-120.6596155"
        },
        "tempe": {
            "latitude": "33.4248191",
            "closest_to": "",
            "address": "California, Tempe Cascade, Maricopa County, Arizona, 8, United States of America",
            "locType": "service",
            "blogLinks": [
                "http://wikitravel.org/en/San_Diego"
            ],
            "longitude": "-111.8872863"
        },
        "downtown": {
            "latitude": "37.8036295",
            "closest_to": "",
            "address": "Downtown, Oakland, Alameda County, California, 94612, United States of America",
            "locType": "neighbourhood",
            "blogLinks": [
                "http://wikitravel.org/en/San_Diego"
            ],
            "longitude": "-122.2715243"
        },
        "balboa park": {
            "latitude": "37.72494875",
            "closest_to": "",
            "address": "Balboa Park, Sergeant John V Young Lane, Ingleside, SF, California, 94112, United States of America",
            "locType": "park",
            "blogLinks": [
                "https://www.yelp.com/topic/la-mesa-best-places-for-public-sex",
                "http://wikitravel.org/en/San_Diego"
            ],
            "longitude": "-122.444804424152"
        },
        "montana": {
            "latitude": "37.413991",
            "closest_to": "",
            "address": "Montana, Rovana, Inyo County, California, United States of America",
            "locType": "residential",
            "blogLinks": [
                "http://wikitravel.org/en/San_Diego"
            ],
            "longitude": "-118.6129969"
        },
        "az": {
            "latitude": "33.3547482",
            "closest_to": "",
            "address": "California, Gold Canyon RV & Golf Resort, San Tan Valley, Pinal County, Arizona, 85219, United States of America",
            "locType": "service",
            "blogLinks": [
                "http://wikitravel.org/en/San_Diego"
            ],
            "longitude": "-111.4698532"
        },
        "denmark": {
            "latitude": "57.4379493",
            "closest_to": "",
            "address": "California, Lodsgade, Frederikshavn, Frederikshavn Kommune, Region Nordjylland, 9900, Danmark",
            "locType": "cafe",
            "blogLinks": [
                "http://wikitravel.org/en/San_Diego"
            ],
            "longitude": "10.5361043"
        },
        "chandler": {
            "latitude": "36.5873787",
            "closest_to": "",
            "address": "Chandler, Selma, Fresno County, California, 93662, United States of America",
            "locType": "residential",
            "blogLinks": [
                "http://wikitravel.org/en/San_Diego"
            ],
            "longitude": "-119.633388"
        },
        "california": {
            "latitude": "7.3480915",
            "closest_to": "",
            "address": "California, Santander, Colombia",
            "locType": "village",
            "blogLinks": [
                "http://distancecalculator.globefeed.com/US_Distance_Calculator.asp?state=CA",
                "http://www.smartdestinations.com/blog/san_diego/",
                "http://activerain.com/blogsview/711985/carlsbad-things-to-do---visit-and-enjoy-southern-california-s-marvelous-topography",
                "https://www.tripadvisor.com/ShowTopic-g60750-i41-k4277257-Places_to_visit_round_trip_between_Las_Vegas_San_Diego-San_Diego_California.html",
                "http://visitcarlsbad.com/attractions",
                "http://wikitravel.org/en/San_Diego"
            ],
            "longitude": "-72.945787"
        },
        "las vegas strip": {
            "latitude": "36.12050715",
            "closest_to": "",
            "address": "California Pizza Kitchen, South Las Vegas Boulevard, Hughes Center, Paradise, Clark County, Nevada, 89123, United States of America",
            "locType": "restaurant",
            "blogLinks": [
                "http://wikitravel.org/en/San_Diego"
            ],
            "longitude": "-115.173775796208"
        },
        "italy": {
            "latitude": "45.659844",
            "closest_to": "",
            "address": "California, MB, LOM, Italia",
            "locType": "village",
            "blogLinks": [
                "http://wikitravel.org/en/San_Diego"
            ],
            "longitude": "9.3130453"
        },
        "united kingdom": {
            "latitude": "52.4422729",
            "closest_to": "",
            "address": "California, Birmingham, West Midlands, England, UK",
            "locType": "village",
            "blogLinks": [
                "https://www.yelp.com/biz/oceanside-metrolink-train-station-oceanside"
            ],
            "longitude": "-1.9796882"
        },
        "old town": {
            "latitude": "35.142943",
            "closest_to": "",
            "address": "Old Town, Golden Hills, Kern County, California, United States of America",
            "locType": "locality",
            "blogLinks": [
                "https://www.yelp.com/biz/oceanside-metrolink-train-station-oceanside",
                "http://wikitravel.org/en/San_Diego"
            ],
            "longitude": "-118.4954422"
        },
        "america": {
            "latitude": "36.2573198",
            "closest_to": "",
            "address": "America, Kings County, California, 93246, United States of America",
            "locType": "residential",
            "blogLinks": [
                "http://wikitravel.org/en/San_Diego"
            ],
            "longitude": "-119.8948706"
        },
        "imperial valley": {
            "latitude": "33.0305487",
            "closest_to": "",
            "address": "Imperial County, California, United States of America",
            "locType": "administrative",
            "blogLinks": [
                "http://wikitravel.org/en/San_Diego"
            ],
            "longitude": "-115.3595665"
        },
        "black 's beach": {
            "latitude": "33.3358674",
            "closest_to": "",
            "address": "Black Sea Avenue, Salton Sea Beach, Imperial County, California, United States of America",
            "locType": "residential",
            "blogLinks": [
                "http://wikitravel.org/en/San_Diego"
            ],
            "longitude": "-115.9938426"
        },
        "la": {
            "latitude": "36.7014631",
            "closest_to": "",
            "address": "California, United States of America",
            "locType": "administrative",
            "blogLinks": [
                "https://www.yelp.com/biz/oceanside-metrolink-train-station-oceanside"
            ],
            "longitude": "-118.7559973"
        },
        "germany": {
            "latitude": "50.9590814",
            "closest_to": "",
            "address": "California, Lassallestra\u00dfe, M\u00fclheim, K\u00f6ln, Regierungsbezirk K\u00f6ln, Nordrhein-Westfalen, 50667-51149, Deutschland",
            "locType": "beauty",
            "blogLinks": [
                "http://wikitravel.org/en/San_Diego"
            ],
            "longitude": "7.009217"
        },
        "new zealand": {
            "latitude": "-41.1069272",
            "closest_to": "",
            "address": "California Drive, Totara Park, Upper Hutt, Upper Hutt City, Wellington, 5371, New Zealand/Aotearoa",
            "locType": "tertiary",
            "blogLinks": [
                "http://wikitravel.org/en/San_Diego"
            ],
            "longitude": "175.0832904"
        }
    }
}