{
    "fresno": {
        "type": "city",
        "osm_id": "33120274",
        "class": "place",
        "importance": 0.79213103374115,
        "lat": "36.748793",
        "lon": "-119.714839601149",
        "boundingbox": [
            "36.747122",
            "36.75042",
            "-119.7159249",
            "-119.7091549"
        ],
        "display_name": "Fresno, Fresno County, California, United States of America",
        "licence": "Data \u00a9 OpenStreetMap contributors, ODbL 1.0. http://www.openstreetmap.org/copyright",
        "icon": "https://nominatim.openstreetmap.org/images/mapicons/poi_place_city.p.20.png",
        "place_id": "72530219",
        "osm_type": "way"
    },
    "mentions": {
        "pacific coast highway": {
            "latitude": "33.6595127",
            "closest_to": "",
            "address": "Pacific Coast Highway, Huntington Beach, Orange County, California, 92648, United States of America",
            "locType": "primary",
            "blogLinks": [
                "http://www.travbuddy.com/California-travel-guide-p85",
                "http://traveltips.usatoday.com/driving-sacramento-los-angeles-108352.html"
            ],
            "longitude": "-118.0051687"
        },
        "fort irwin": {
            "latitude": "35.2627527",
            "closest_to": "",
            "address": "Fort Irwin, San Bernardino County, California, United States of America",
            "locType": "hamlet",
            "blogLinks": [
                "http://www.roadsideamerica.com/location/ca"
            ],
            "longitude": "-116.6847523"
        },
        "california pizza kitchen": {
            "latitude": "34.0622772",
            "closest_to": "",
            "address": "California Pizza Kitchen, 10956, Weyburn Avenue, Westwood Village, Westwood, LA, Los Angeles County, California, 90024, United States of America",
            "locType": "restaurant",
            "blogLinks": [
                "https://www.cheaptickets.com/lp/flights/602988/180049/fresno-to-sacramento"
            ],
            "longitude": "-118.4471444"
        },
        "temecula": {
            "latitude": "33.4946353",
            "closest_to": "",
            "address": "Temecula, Riverside County, California, United States of America",
            "locType": "city",
            "blogLinks": [
                "http://www.roadsideamerica.com/location/ca"
            ],
            "longitude": "-117.147366"
        },
        "highway 101": {
            "latitude": "32.9967358",
            "closest_to": "",
            "address": "Highway 101, Solana Beach, San Diego County, California, 92075, United States of America",
            "locType": "primary",
            "blogLinks": [
                "http://traveltips.usatoday.com/driving-sacramento-los-angeles-108352.html"
            ],
            "longitude": "-117.2731974"
        },
        "arizona": {
            "latitude": "34.4631398",
            "closest_to": "",
            "address": "Arizona, San Bernardino County, California, 92371, United States of America",
            "locType": "track",
            "blogLinks": [
                "https://americarocksdude.wordpress.com/2011/07/07/roadside-attractions-between-texas-and-california/"
            ],
            "longitude": "-117.5060679"
        },
        "norco": {
            "latitude": "33.9323307",
            "closest_to": "",
            "address": "Norco, Riverside County, California, 92860, United States of America",
            "locType": "city",
            "blogLinks": [
                "http://www.roadsideamerica.com/location/ca"
            ],
            "longitude": "-117.55089"
        },
        "vancouver": {
            "latitude": "34.824773",
            "closest_to": "",
            "address": "Vancouver, San Bernardino County, California, United States of America",
            "locType": "residential",
            "blogLinks": [
                "https://answers.yahoo.com/question/index?qid=20100313162058AAQOdwu"
            ],
            "longitude": "-117.4634669"
        },
        "humboldt county": {
            "latitude": "40.5997415",
            "closest_to": "",
            "address": "Humboldt County, California, United States of America",
            "locType": "administrative",
            "blogLinks": [
                "http://www.travbuddy.com/California-travel-guide-p85"
            ],
            "longitude": "-123.8997733"
        },
        "huntington beach": {
            "latitude": "33.6783336",
            "closest_to": "",
            "address": "Huntington Beach, Orange County, California, United States of America",
            "locType": "city",
            "blogLinks": [
                "http://www.roadsideamerica.com/location/ca"
            ],
            "longitude": "-118.0000165"
        },
        "venice": {
            "latitude": "33.995044",
            "closest_to": "",
            "address": "Venice, LA, Los Angeles County, California, United States of America",
            "locType": "suburb",
            "blogLinks": [
                "http://www.roadsideamerica.com/location/ca"
            ],
            "longitude": "-118.4668874"
        },
        "palmdale": {
            "latitude": "34.5793131",
            "closest_to": "",
            "address": "Palmdale, Los Angeles County, California, United States of America",
            "locType": "city",
            "blogLinks": [
                "http://www.roadsideamerica.com/location/ca"
            ],
            "longitude": "-118.1171107"
        },
        "las angeles": {
            "latitude": "33.9995929",
            "closest_to": "",
            "address": "California, Obregon Street, West Whittier, Rosemead, Los Angeles County, California, 90606, United States of America",
            "locType": "abandoned",
            "blogLinks": [
                "http://www.travbuddy.com/California-travel-guide-p85"
            ],
            "longitude": "-118.0668337"
        },
        "santa fe springs": {
            "latitude": "33.9482434",
            "closest_to": "",
            "address": "Santa Fe Springs, Los Angeles County, California, United States of America",
            "locType": "city",
            "blogLinks": [
                "http://www.roadsideamerica.com/location/ca"
            ],
            "longitude": "-118.0676102"
        },
        "wa": {
            "latitude": "40.0657724",
            "closest_to": "",
            "address": "California, Washington County, Pennsylvania, United States of America",
            "locType": "administrative",
            "blogLinks": [
                "https://answers.yahoo.com/question/index?qid=20100313162058AAQOdwu"
            ],
            "longitude": "-79.8918435"
        },
        "antelope valley": {
            "latitude": "34.67743",
            "closest_to": "",
            "address": "Antelope Valley College, West Avenue K, Lancaster, Los Angeles County, California, 93536, United States of America",
            "locType": "college",
            "blogLinks": [
                "http://gocalifornia.about.com/od/topcalifornia/ss/Los-Angeles-to-San-Francisco-on-I-5.htm"
            ],
            "longitude": "-118.1865629"
        },
        "philadelphia": {
            "latitude": "33.8943097",
            "closest_to": "",
            "address": "Philadelphia Court, Riverside, Riverside County, California, 92503, United States of America",
            "locType": "residential",
            "blogLinks": [
                "https://www.cheaptickets.com/lp/flights/602988/180049/fresno-to-sacramento"
            ],
            "longitude": "-117.4828685"
        },
        "tonga": {
            "latitude": "32.579494",
            "closest_to": "",
            "address": "Via Tonga, Otay Mesa West, San Ysidro, San Diego, San Diego County, California, 92154, United States of America",
            "locType": "residential",
            "blogLinks": [
                "http://www.roadsideamerica.com/location/ca"
            ],
            "longitude": "-117.0612559"
        },
        "burbank": {
            "latitude": "34.1816482",
            "closest_to": "",
            "address": "Burbank, Los Angeles County, California, United States of America",
            "locType": "city",
            "blogLinks": [
                "http://www.travbuddy.com/California-travel-guide-p85",
                "http://www.roadsideamerica.com/location/ca"
            ],
            "longitude": "-118.3258553"
        },
        "southern california": {
            "latitude": "34.0224149",
            "closest_to": "",
            "address": "University of Southern California, Watt Way, Saint James Park, LA, Los Angeles County, California, 90089, United States of America",
            "locType": "university",
            "blogLinks": [
                "https://www.trekaroo.com/places/california/snapshot"
            ],
            "longitude": "-118.286343973446"
        },
        "los angeles county": {
            "latitude": "34.3155072",
            "closest_to": "",
            "address": "Los Angeles County, California, United States of America",
            "locType": "administrative",
            "blogLinks": [
                "http://www.travbuddy.com/California-travel-guide-p85"
            ],
            "longitude": "-118.2096813"
        },
        "guadalupe": {
            "latitude": "29.0350656",
            "closest_to": "",
            "address": "Isla Guadalupe, Ensenada, Baja California, M\u00e9xico",
            "locType": "island",
            "blogLinks": [
                "http://www.roadsideamerica.com/location/ca"
            ],
            "longitude": "-118.269896818344"
        },
        "newport beach": {
            "latitude": "33.6170092",
            "closest_to": "",
            "address": "Newport Beach, Orange County, California, United States of America",
            "locType": "city",
            "blogLinks": [
                "http://www.travbuddy.com/California-travel-guide-p85",
                "http://www.roadsideamerica.com/location/ca"
            ],
            "longitude": "-117.92944"
        },
        "california-nevada": {
            "latitude": "36.17310935",
            "closest_to": "",
            "address": "California Hotel, Sky Walk(Connection from Main Street to California, Cultural Corridor, Vegas Heights, Las Vegas, Clark County, Nevada, 89101, United States of America",
            "locType": "hotel",
            "blogLinks": [
                "http://www.travbuddy.com/California-travel-guide-p85"
            ],
            "longitude": "-115.144667930325"
        },
        "uk": {
            "latitude": "52.4422729",
            "closest_to": "",
            "address": "California, Birmingham, West Midlands, England, UK",
            "locType": "village",
            "blogLinks": [
                "https://www.tripadvisor.com/ShowTopic-g61000-i315-k5072708-What_Is_there_to_see_between_Yosemite_and_Sacramento-Yosemite_National_Park_California.html"
            ],
            "longitude": "-1.9796882"
        },
        "cahuenga": {
            "latitude": "34.1369912",
            "closest_to": "",
            "address": "Cahuenga Peak, LA, Los Angeles County, California, United States of America",
            "locType": "peak",
            "blogLinks": [
                "https://answers.yahoo.com/question/index?qid=20100313162058AAQOdwu"
            ],
            "longitude": "-118.3258335"
        },
        "tulelake": {
            "latitude": "41.9559885",
            "closest_to": "",
            "address": "Tulelake, Siskiyou County, California, United States of America",
            "locType": "city",
            "blogLinks": [
                "http://www.roadsideamerica.com/location/ca"
            ],
            "longitude": "-121.4774915"
        },
        "mexico": {
            "latitude": "28.973",
            "closest_to": "",
            "address": "California, Hermosillo, Sonora, M\u00e9xico",
            "locType": "village",
            "blogLinks": [
                "http://www.roadsideamerica.com/location/ca",
                "https://americarocksdude.wordpress.com/2011/07/07/roadside-attractions-between-texas-and-california/"
            ],
            "longitude": "-111.8196666"
        },
        "rialto": {
            "latitude": "34.1064001",
            "closest_to": "",
            "address": "Rialto, San Bernardino County, California, United States of America",
            "locType": "city",
            "blogLinks": [
                "http://www.roadsideamerica.com/location/ca/all"
            ],
            "longitude": "-117.3703234"
        },
        "mentone": {
            "latitude": "34.05884",
            "closest_to": "",
            "address": "Mentone, Reservoir Canal Road, Crafton, San Bernardino County, California, 92374, United States of America",
            "locType": "administrative",
            "blogLinks": [
                "http://www.roadsideamerica.com/location/ca"
            ],
            "longitude": "-117.109606374724"
        },
        "hollywood": {
            "latitude": "34.1028268",
            "closest_to": "",
            "address": "Hollywood, LA, Los Angeles County, California, United States of America",
            "locType": "suburb",
            "blogLinks": [
                "http://www.travbuddy.com/California-travel-guide-p85",
                "http://www.roadsideamerica.com/location/ca",
                "https://answers.yahoo.com/question/index?qid=20100313162058AAQOdwu",
                "https://www.trekaroo.com/places/california/snapshot"
            ],
            "longitude": "-118.3299898"
        },
        "apple valley": {
            "latitude": "34.5008311",
            "closest_to": "",
            "address": "Apple Valley, San Bernardino County, California, United States of America",
            "locType": "administrative",
            "blogLinks": [
                "http://www.roadsideamerica.com/location/ca"
            ],
            "longitude": "-117.1858758"
        },
        "costa mesa": {
            "latitude": "33.6633386",
            "closest_to": "",
            "address": "Costa Mesa, Orange County, California, United States of America",
            "locType": "city",
            "blogLinks": [
                "http://www.roadsideamerica.com/location/ca"
            ],
            "longitude": "-117.9033169"
        },
        "northern california": {
            "latitude": "32.7349196",
            "closest_to": "",
            "address": "Northern Frontier, San Diego, San Diego County, California, United States of America",
            "locType": "locality",
            "blogLinks": [
                "http://www.visitcentralvalley.com/places/"
            ],
            "longitude": "-117.1545973"
        },
        "buena park": {
            "latitude": "33.870413",
            "closest_to": "",
            "address": "Buena Park, Orange County, California, United States of America",
            "locType": "city",
            "blogLinks": [
                "http://www.roadsideamerica.com/location/ca"
            ],
            "longitude": "-117.9962164"
        },
        "texas": {
            "latitude": "29.7181118",
            "closest_to": "",
            "address": "California, Baytown, Harris County, Texas, 77520, United States of America",
            "locType": "residential",
            "blogLinks": [
                "https://americarocksdude.wordpress.com/2011/07/07/roadside-attractions-between-texas-and-california/"
            ],
            "longitude": "-94.997906"
        },
        "sylmar": {
            "latitude": "34.3076252",
            "closest_to": "",
            "address": "Sylmar, LA, Los Angeles County, California, United States of America",
            "locType": "suburb",
            "blogLinks": [
                "http://www.roadsideamerica.com/location/ca",
                "http://gocalifornia.about.com/od/topcalifornia/ss/Los-Angeles-to-San-Francisco-on-I-5.htm"
            ],
            "longitude": "-118.4492147"
        },
        "greater los angeles": {
            "latitude": "33.9864031",
            "closest_to": "",
            "address": "Greater Cornerstone Baptist Church, Figueroa Street, Wildasin, Florence, LA, Los Angeles County, California, 90044, United States of America",
            "locType": "place_of_worship",
            "blogLinks": [
                "https://www.trekaroo.com/places/california/snapshot"
            ],
            "longitude": "-118.2822963"
        },
        "santa clarita": {
            "latitude": "34.3916641",
            "closest_to": "",
            "address": "Santa Clarita, Los Angeles County, California, United States of America",
            "locType": "city",
            "blogLinks": [
                "http://www.roadsideamerica.com/location/ca",
                "http://gocalifornia.about.com/od/topcalifornia/ss/Los-Angeles-to-San-Francisco-on-I-5.htm"
            ],
            "longitude": "-118.5425859"
        },
        "eureka": {
            "latitude": "40.8020712",
            "closest_to": "",
            "address": "Eureka, Humboldt County, California, United States of America",
            "locType": "city",
            "blogLinks": [
                "http://www.travbuddy.com/California-travel-guide-p85"
            ],
            "longitude": "-124.1636728"
        },
        "croatia": {
            "latitude": "45.4955091",
            "closest_to": "",
            "address": "California, Ravna Dolina, Grad Umag, Istarska \u017eupanija, 524785, Hrvatska",
            "locType": "camp_site",
            "blogLinks": [
                "http://beautifulplacestovisit.com/tag/california/"
            ],
            "longitude": "13.500736"
        },
        "castaic": {
            "latitude": "34.4888822",
            "closest_to": "",
            "address": "Castaic, Los Angeles County, California, United States of America",
            "locType": "hamlet",
            "blogLinks": [
                "http://gocalifornia.about.com/od/topcalifornia/ss/Los-Angeles-to-San-Francisco-on-I-5.htm"
            ],
            "longitude": "-118.6228655"
        },
        "indio": {
            "latitude": "33.7192808",
            "closest_to": "",
            "address": "Indio, Riverside County, California, United States of America",
            "locType": "city",
            "blogLinks": [
                "http://www.roadsideamerica.com/location/ca"
            ],
            "longitude": "-116.2188053"
        },
        "califia": {
            "latitude": "34.4290422",
            "closest_to": "",
            "address": "Califia Court, Santa Barbara County, California, 93111, United States of America",
            "locType": "residential",
            "blogLinks": [
                "http://www.roadsideamerica.com/location/ca"
            ],
            "longitude": "-119.8065791"
        },
        "willow creek": {
            "latitude": "40.9395774",
            "closest_to": "",
            "address": "Willow Creek, Humboldt County, California, United States of America",
            "locType": "hamlet",
            "blogLinks": [
                "http://www.roadsideamerica.com/location/ca"
            ],
            "longitude": "-123.6314411"
        },
        "italy": {
            "latitude": "45.659844",
            "closest_to": "",
            "address": "California, MB, LOM, Italia",
            "locType": "village",
            "blogLinks": [
                "http://sacramento.cbslocal.com/top-lists/getaway-guide-weekend-road-trip-to-reno/"
            ],
            "longitude": "9.3130453"
        },
        "united kingdom": {
            "latitude": "52.4422729",
            "closest_to": "",
            "address": "California, Birmingham, West Midlands, England, UK",
            "locType": "village",
            "blogLinks": [
                "http://www.travbuddy.com/California-travel-guide-p85",
                "https://www.tripadvisor.com/Attractions-g32414-Activities-Fresno_California.html"
            ],
            "longitude": "-1.9796882"
        },
        "simi valley": {
            "latitude": "34.2694474",
            "closest_to": "",
            "address": "Simi Valley, Ventura County, California, United States of America",
            "locType": "city",
            "blogLinks": [
                "http://www.roadsideamerica.com/location/ca"
            ],
            "longitude": "-118.7814819"
        },
        "denver": {
            "latitude": "33.6996403",
            "closest_to": "",
            "address": "Denver, Heritage Park Apartments, El Camino Real, Irvine, Orange County, California, 92604, United States of America",
            "locType": "residential",
            "blogLinks": [
                "https://www.cheaptickets.com/lp/flights/602988/180049/fresno-to-sacramento"
            ],
            "longitude": "-117.7762651"
        },
        "sierra nevada range": {
            "latitude": "33.9545792",
            "closest_to": "",
            "address": "Via Sierra Nevada, Riverside, Riverside County, California, 92507, United States of America",
            "locType": "residential",
            "blogLinks": [
                "https://www.trekaroo.com/places/california/snapshot"
            ],
            "longitude": "-117.3273329"
        },
        "us hwy 101": {
            "latitude": "32.9967358",
            "closest_to": "",
            "address": "Highway 101, Solana Beach, San Diego County, California, 92075, United States of America",
            "locType": "primary",
            "blogLinks": [
                "http://gocalifornia.about.com/od/topcalifornia/ss/Los-Angeles-to-San-Francisco-on-I-5.htm"
            ],
            "longitude": "-117.2731974"
        },
        "glendale": {
            "latitude": "34.1423455",
            "closest_to": "",
            "address": "Glendale, Los Angeles County, California, United States of America",
            "locType": "city",
            "blogLinks": [
                "http://www.roadsideamerica.com/location/ca"
            ],
            "longitude": "-118.248367"
        },
        "yermo": {
            "latitude": "34.9049849",
            "closest_to": "",
            "address": "Yermo, San Bernardino County, California, United States of America",
            "locType": "hamlet",
            "blogLinks": [
                "http://www.roadsideamerica.com/location/ca"
            ],
            "longitude": "-116.8203126"
        },
        "airport boulevard": {
            "latitude": "33.9634961",
            "closest_to": "",
            "address": "Airport Boulevard, Westchester, Playa Vista, LA, Los Angeles County, California, 90045, United States of America",
            "locType": "secondary",
            "blogLinks": [
                "https://www.cheaptickets.com/lp/flights/602988/180049/fresno-to-sacramento"
            ],
            "longitude": "-118.3853594"
        },
        "santa barbara": {
            "latitude": "34.4221319",
            "closest_to": "",
            "address": "Santa Barbara, Santa Barbara County, California, United States of America",
            "locType": "city",
            "blogLinks": [
                "http://traveltips.usatoday.com/driving-sacramento-los-angeles-108352.html"
            ],
            "longitude": "-119.7026672"
        },
        "l.a.": {
            "latitude": "-13.8305494",
            "closest_to": "",
            "address": "California, Provincia Abel Iturralde, LPZ, Bolivia",
            "locType": "hamlet",
            "blogLinks": [
                "http://traveltips.usatoday.com/driving-sacramento-los-angeles-108352.html",
                "https://www.trekaroo.com/places/california/snapshot"
            ],
            "longitude": "-67.9369134"
        },
        "san diego county": {
            "latitude": "32.9637838",
            "closest_to": "",
            "address": "San Diego County, California, United States of America",
            "locType": "administrative",
            "blogLinks": [
                "https://www.trekaroo.com/places/california/snapshot"
            ],
            "longitude": "-116.7706276"
        },
        "madera wine trail": {
            "latitude": "33.5034444",
            "closest_to": "",
            "address": "Avenida Madera, The Groves, Temecula Valley Wine Country, Valle de los Caballos, Riverside County, California, 92592, United States of America",
            "locType": "residential",
            "blogLinks": [
                "http://www.visitcentralvalley.com/places/"
            ],
            "longitude": "-117.0211202"
        },
        "glendora": {
            "latitude": "34.1361187",
            "closest_to": "",
            "address": "Glendora, Los Angeles County, California, United States of America",
            "locType": "city",
            "blogLinks": [
                "http://www.roadsideamerica.com/location/ca"
            ],
            "longitude": "-117.8653389"
        },
        "east los angeles": {
            "latitude": "34.0239015",
            "closest_to": "",
            "address": "East Los Angeles, Belvedere Gardens, Los Angeles County, California, United States of America",
            "locType": "suburb",
            "blogLinks": [
                "http://www.roadsideamerica.com/location/ca"
            ],
            "longitude": "-118.1720156"
        },
        "orange county": {
            "latitude": "33.7500378",
            "closest_to": "",
            "address": "Orange County, California, United States of America",
            "locType": "administrative",
            "blogLinks": [
                "http://www.travbuddy.com/California-travel-guide-p85",
                "https://answers.yahoo.com/question/index?qid=20100313162058AAQOdwu"
            ],
            "longitude": "-117.870493"
        },
        "los angeles": {
            "latitude": "34.0543942",
            "closest_to": "",
            "address": "LA, Los Angeles County, California, United States of America",
            "locType": "city",
            "blogLinks": [
                "http://www.travbuddy.com/California-travel-guide-p85",
                "https://www.cheaptickets.com/lp/flights/602988/180049/fresno-to-sacramento",
                "http://gocalifornia.about.com/od/topcalifornia/ss/Los-Angeles-to-San-Francisco-on-I-5.htm",
                "https://answers.yahoo.com/question/index?qid=20100313162058AAQOdwu",
                "http://www.roadsideamerica.com/location/ca",
                "http://traveltips.usatoday.com/driving-sacramento-los-angeles-108352.html"
            ],
            "longitude": "-118.2439408"
        },
        "national parks": {
            "latitude": "35.0310157",
            "closest_to": "",
            "address": "National Parks Service Road, San Bernardino County, California, United States of America",
            "locType": "residential",
            "blogLinks": [
                "http://www.visitcentralvalley.com/places/"
            ],
            "longitude": "-115.383967"
        },
        "granada hills": {
            "latitude": "34.2647247",
            "closest_to": "",
            "address": "Granada Hills, Northridge, LA, Los Angeles County, California, 91344, United States of America",
            "locType": "neighbourhood",
            "blogLinks": [
                "http://www.roadsideamerica.com/location/ca/all"
            ],
            "longitude": "-118.5231414"
        },
        "aguanga": {
            "latitude": "33.4428094",
            "closest_to": "",
            "address": "Aguanga, Riverside County, California, United States of America",
            "locType": "hamlet",
            "blogLinks": [
                "http://www.roadsideamerica.com/location/ca"
            ],
            "longitude": "-116.8650234"
        },
        "napa valley": {
            "latitude": "39.0234679",
            "closest_to": "",
            "address": "Napa Valley, Cold Spring, Campbell County, Kentucky, 41076, United States of America",
            "locType": "residential",
            "blogLinks": [
                "http://www.travbuddy.com/California-travel-guide-p85",
                "https://www.trekaroo.com/places/california/snapshot"
            ],
            "longitude": "-84.4504647"
        },
        "san pedro": {
            "latitude": "33.7358518",
            "closest_to": "",
            "address": "San Pedro, LA, Los Angeles County, California, United States of America",
            "locType": "suburb",
            "blogLinks": [
                "http://www.roadsideamerica.com/location/ca",
                "http://gocalifornia.about.com/od/topcalifornia/ss/Los-Angeles-to-San-Francisco-on-I-5.htm"
            ],
            "longitude": "-118.2922933"
        },
        "interstate 680": {
            "latitude": "33.704135",
            "closest_to": "",
            "address": "Interstate 10, Desert Center, Riverside County, California, 92239, United States of America",
            "locType": "motorway",
            "blogLinks": [
                "http://traveltips.usatoday.com/driving-sacramento-los-angeles-108352.html"
            ],
            "longitude": "-115.44222"
        },
        "san diego": {
            "latitude": "32.7174209",
            "closest_to": "",
            "address": "San Diego, San Diego County, California, United States of America",
            "locType": "city",
            "blogLinks": [
                "http://www.travbuddy.com/California-travel-guide-p85",
                "http://www.roadsideamerica.com/location/ca",
                "http://gocalifornia.about.com/od/topcalifornia/ss/Los-Angeles-to-San-Francisco-on-I-5.htm",
                "https://answers.yahoo.com/question/index?qid=20100313162058AAQOdwu"
            ],
            "longitude": "-117.1627713"
        },
        "woodland hills": {
            "latitude": "34.1683386",
            "closest_to": "",
            "address": "Woodland Hills, LA, Los Angeles County, California, United States of America",
            "locType": "suburb",
            "blogLinks": [
                "http://www.roadsideamerica.com/location/ca"
            ],
            "longitude": "-118.6059196"
        },
        "california coast": {
            "latitude": "32.7586361",
            "closest_to": "",
            "address": "California Coast Credit Union, Park Boulevard, Hillcrest, San Diego, San Diego County, California, 92116, United States of America",
            "locType": "bank",
            "blogLinks": [
                "https://www.trekaroo.com/places/california/snapshot"
            ],
            "longitude": "-117.1464145"
        },
        "inglewood": {
            "latitude": "33.9616801",
            "closest_to": "",
            "address": "Inglewood, Los Angeles County, California, United States of America",
            "locType": "city",
            "blogLinks": [
                "http://www.roadsideamerica.com/location/ca"
            ],
            "longitude": "-118.353131"
        },
        "u.s.": {
            "latitude": "-32.5446226",
            "closest_to": "",
            "address": "La California, Municipio de Las Rosas, Departamento Belgrano, Sta. Fe, Argentina",
            "locType": "hamlet",
            "blogLinks": [
                "http://gocalifornia.about.com/od/topcalifornia/ss/Los-Angeles-to-San-Francisco-on-I-5.htm"
            ],
            "longitude": "-61.5489543"
        },
        "big bear lake": {
            "latitude": "34.253293",
            "closest_to": "",
            "address": "Big Bear Lake, Lagunita Lane, Big Bear Lake, San Bernardino County, California, 92315, United States of America",
            "locType": "water",
            "blogLinks": [
                "http://www.travbuddy.com/California-travel-guide-p85"
            ],
            "longitude": "-116.932209587315"
        },
        "juarez": {
            "latitude": "17.0712913",
            "closest_to": "",
            "address": "California, Calzada Ni\u00f1os H\u00e9roes de Chapultepec, Oaxaca, Oaxaca de Ju\u00e1rez, Oaxaca, 68050, M\u00e9xico",
            "locType": "hotel",
            "blogLinks": [
                "https://americarocksdude.wordpress.com/2011/07/07/roadside-attractions-between-texas-and-california/"
            ],
            "longitude": "-96.7190592"
        },
        "los angeles international airport": {
            "latitude": "33.94211345",
            "closest_to": "",
            "address": "Los Angeles International Airport, Gate 41, Westchester, Playa del Rey, LA, Los Angeles County, California, 90245, United States of America",
            "locType": "aerodrome",
            "blogLinks": [
                "https://www.trekaroo.com/places/california/snapshot"
            ],
            "longitude": "-118.407057290249"
        },
        "minden": {
            "latitude": "34.1345751",
            "closest_to": "",
            "address": "Minden Place, Highland Park, LA, Los Angeles County, California, 90041, United States of America",
            "locType": "residential",
            "blogLinks": [
                "http://sacramento.cbslocal.com/top-lists/getaway-guide-weekend-road-trip-to-reno/"
            ],
            "longitude": "-118.1868003"
        },
        "carlsbad": {
            "latitude": "33.1580933",
            "closest_to": "",
            "address": "Carlsbad, San Diego County, California, United States of America",
            "locType": "city",
            "blogLinks": [
                "http://www.travbuddy.com/California-travel-guide-p85",
                "http://www.roadsideamerica.com/location/ca"
            ],
            "longitude": "-117.3505938"
        },
        "pasadena": {
            "latitude": "34.1476452",
            "closest_to": "",
            "address": "Pasadena, Los Angeles County, California, United States of America",
            "locType": "city",
            "blogLinks": [
                "http://www.roadsideamerica.com/location/ca"
            ],
            "longitude": "-118.1444778"
        },
        "barstow": {
            "latitude": "34.8957684",
            "closest_to": "",
            "address": "Barstow, San Bernardino County, California, United States of America",
            "locType": "administrative",
            "blogLinks": [
                "http://www.travbuddy.com/California-travel-guide-p85",
                "http://www.roadsideamerica.com/location/ca"
            ],
            "longitude": "-117.0172076"
        },
        "beverly hills": {
            "latitude": "34.0736204",
            "closest_to": "",
            "address": "Beverly Hills, Los Angeles County, California, United States of America",
            "locType": "city",
            "blogLinks": [
                "http://www.travbuddy.com/California-travel-guide-p85"
            ],
            "longitude": "-118.4003562"
        },
        "malibu": {
            "latitude": "33.7932142",
            "closest_to": "",
            "address": "Malibu, Palm Springs, Riverside County, California, 92264, United States of America",
            "locType": "residential",
            "blogLinks": [
                "http://www.travbuddy.com/California-travel-guide-p85",
                "http://www.roadsideamerica.com/location/ca"
            ],
            "longitude": "-116.5023561"
        },
        "garberville": {
            "latitude": "40.1005685",
            "closest_to": "",
            "address": "Garberville, Humboldt County, California, United States of America",
            "locType": "village",
            "blogLinks": [
                "http://www.roadsideamerica.com/location/ca"
            ],
            "longitude": "-123.7961393"
        },
        "baldwin park": {
            "latitude": "34.0854739",
            "closest_to": "",
            "address": "Baldwin Park, Los Angeles County, California, United States of America",
            "locType": "city",
            "blogLinks": [
                "http://www.roadsideamerica.com/location/ca"
            ],
            "longitude": "-117.961176"
        },
        "washington": {
            "latitude": "40.0657724",
            "closest_to": "",
            "address": "California, Washington County, Pennsylvania, United States of America",
            "locType": "administrative",
            "blogLinks": [
                "http://traveltips.usatoday.com/driving-sacramento-los-angeles-108352.html"
            ],
            "longitude": "-79.8918435"
        },
        "san fernando valley": {
            "latitude": "34.2819461",
            "closest_to": "",
            "address": "San Fernando, Los Angeles County, California, United States of America",
            "locType": "administrative",
            "blogLinks": [
                "http://traveltips.usatoday.com/driving-sacramento-los-angeles-108352.html"
            ],
            "longitude": "-118.4389718"
        },
        "ventura": {
            "latitude": "34.4458248",
            "closest_to": "",
            "address": "Ventura County, California, United States of America",
            "locType": "administrative",
            "blogLinks": [
                "http://traveltips.usatoday.com/driving-sacramento-los-angeles-108352.html"
            ],
            "longitude": "-119.0779358"
        },
        "whittier": {
            "latitude": "33.9748932",
            "closest_to": "",
            "address": "Whittier, Los Angeles County, California, United States of America",
            "locType": "city",
            "blogLinks": [
                "http://www.roadsideamerica.com/location/ca"
            ],
            "longitude": "-118.0336974"
        },
        "california": {
            "latitude": "7.3480915",
            "closest_to": "",
            "address": "California, Santander, Colombia",
            "locType": "village",
            "blogLinks": [
                "http://www.travbuddy.com/California-travel-guide-p85",
                "http://beautifulplacestovisit.com/tag/california/",
                "https://www.cheaptickets.com/lp/flights/602988/180049/fresno-to-sacramento",
                "https://www.tripadvisor.com/ShowTopic-g61000-i315-k5072708-What_Is_there_to_see_between_Yosemite_and_Sacramento-Yosemite_National_Park_California.html",
                "http://gocalifornia.about.com/od/topcalifornia/ss/Los-Angeles-to-San-Francisco-on-I-5.htm",
                "https://www.trekaroo.com/places/california/snapshot",
                "http://www.roadsideamerica.com/location/ca/all",
                "http://www.roadsideamerica.com/location/ca",
                "http://traveltips.usatoday.com/driving-sacramento-los-angeles-108352.html",
                "http://www.visitcentralvalley.com/places/"
            ],
            "longitude": "-72.945787"
        },
        "long beach": {
            "latitude": "33.78538945",
            "closest_to": "",
            "address": "Long Beach, Los Angeles County, California, United States of America",
            "locType": "city",
            "blogLinks": [
                "http://www.travbuddy.com/California-travel-guide-p85"
            ],
            "longitude": "-118.158049215311"
        },
        "new mexico": {
            "latitude": "32.2644096",
            "closest_to": "",
            "address": "California Lateral, Mesilla, Do\u00f1a Ana County, New Mexico, United States of America",
            "locType": "drain",
            "blogLinks": [
                "https://americarocksdude.wordpress.com/2011/07/07/roadside-attractions-between-texas-and-california/"
            ],
            "longitude": "-106.8036705"
        },
        "palm springs": {
            "latitude": "33.8246269",
            "closest_to": "",
            "address": "Palm Springs, Riverside County, California, United States of America",
            "locType": "city",
            "blogLinks": [
                "http://www.roadsideamerica.com/location/ca",
                "https://www.trekaroo.com/places/california/snapshot"
            ],
            "longitude": "-116.5403029"
        },
        "arcata": {
            "latitude": "40.8665166",
            "closest_to": "",
            "address": "Arcata, Humboldt County, California, United States of America",
            "locType": "city",
            "blogLinks": [
                "http://www.roadsideamerica.com/location/ca"
            ],
            "longitude": "-124.0828395"
        },
        "north hollywood": {
            "latitude": "34.1729044",
            "closest_to": "",
            "address": "North Hollywood, LA, Los Angeles County, California, United States of America",
            "locType": "suburb",
            "blogLinks": [
                "http://www.roadsideamerica.com/location/ca"
            ],
            "longitude": "-118.374037"
        },
        "mount shasta": {
            "latitude": "41.3098746",
            "closest_to": "",
            "address": "Mount Shasta, Siskiyou County, California, United States of America",
            "locType": "city",
            "blogLinks": [
                "https://www.trekaroo.com/places/california/snapshot"
            ],
            "longitude": "-122.3105665"
        }
    },
    "sacramento": {
        "type": "city",
        "osm_id": "6232940",
        "class": "place",
        "importance": 0.80674211027009,
        "lat": "38.5815719",
        "lon": "-121.4943995",
        "boundingbox": [
            "38.437574",
            "38.685507",
            "-121.5601199",
            "-121.3627399"
        ],
        "display_name": "Sacramento, Sacramento County, California, United States of America",
        "licence": "Data \u00a9 OpenStreetMap contributors, ODbL 1.0. http://www.openstreetmap.org/copyright",
        "icon": "https://nominatim.openstreetmap.org/images/mapicons/poi_place_city.p.20.png",
        "place_id": "159758891",
        "osm_type": "relation"
    }
}