{
    "los angeles": {
        "type": "city",
        "osm_id": "207359",
        "class": "place",
        "importance": 1.0289952798766,
        "lat": "34.0543942",
        "lon": "-118.2439408",
        "boundingbox": [
            "33.7036216",
            "34.337306",
            "-118.6681901",
            "-118.1552946"
        ],
        "display_name": "LA, Los Angeles County, California, United States of America",
        "licence": "Data \u00a9 OpenStreetMap contributors, ODbL 1.0. http://www.openstreetmap.org/copyright",
        "icon": "https://nominatim.openstreetmap.org/images/mapicons/poi_place_city.p.20.png",
        "place_id": "159250198",
        "osm_type": "relation"
    },
    "mentions": {
        "highway 101": {
            "latitude": "32.9967358",
            "closest_to": "",
            "address": "Highway 101, Solana Beach, San Diego County, California, 92075, United States of America",
            "locType": "primary",
            "blogLinks": [
                "http://travelblog.viator.com/road-trip-san-francisco-los-angeles/"
            ],
            "longitude": "-117.2731974"
        },
        "san luis obispo museum of art": {
            "latitude": "35.2795773",
            "closest_to": "",
            "address": "San Luis Obispo Museum of Art, 1010, Broad Street, San Luis Obispo, San Luis Obispo County, California, 93401, United States of America",
            "locType": "museum",
            "blogLinks": [
                "http://travelblog.viator.com/road-trip-san-francisco-los-angeles/"
            ],
            "longitude": "-120.6649345"
        },
        "mcway falls trail": {
            "latitude": "36.1578211",
            "closest_to": "",
            "address": "McWay Falls, Monterey County, California, United States of America",
            "locType": "waterfall",
            "blogLinks": [
                "http://travelblog.viator.com/road-trip-san-francisco-los-angeles/"
            ],
            "longitude": "-121.6723957"
        },
        "carmel-by-the-sea": {
            "latitude": "36.5552387",
            "closest_to": "",
            "address": "Carmel-by-the-Sea, Monterey County, California, United States of America",
            "locType": "city",
            "blogLinks": [
                "http://travelblog.viator.com/road-trip-san-francisco-los-angeles/",
                "http://www.hopper.com/articles/291/five-great-stops-between-los-angeles-and-san-francisco-on-the-pacific-coast-highway",
                "https://www.gapyear.com/articles/216212/13-incredible-stops-on-the-pacific-coast-highway"
            ],
            "longitude": "-121.9232878"
        },
        "dairy valley": {
            "latitude": "40.8662807",
            "closest_to": "",
            "address": "Russell Dairy Creek, Lassen County, California, United States of America",
            "locType": "ditch",
            "blogLinks": [
                "http://www.greatamericancountry.com/living/at-home/10-great-neighborhoods-in-los-angeles"
            ],
            "longitude": "-121.0659096"
        },
        "kanan road": {
            "latitude": "34.1468377",
            "closest_to": "",
            "address": "Kanan Road, Agoura Hills, Los Angeles County, California, 91301, United States of America",
            "locType": "primary",
            "blogLinks": [
                "http://gocalifornia.about.com/od/calamenu/ss/los-angeles-beaches.htm"
            ],
            "longitude": "-118.7610928"
        },
        "santa cruz": {
            "latitude": "36.9735903",
            "closest_to": "",
            "address": "Santa Cruz, Santa Cruz County, California, United States of America",
            "locType": "city",
            "blogLinks": [
                "https://www.gapyear.com/articles/216212/13-incredible-stops-on-the-pacific-coast-highway"
            ],
            "longitude": "-122.0260569"
        },
        "california coast": {
            "latitude": "32.7586361",
            "closest_to": "",
            "address": "California Coast Credit Union, Park Boulevard, Hillcrest, San Diego, San Diego County, California, 92116, United States of America",
            "locType": "bank",
            "blogLinks": [
                "https://www.tripadvisor.com/Travel-g28926-c174834/California:United-States:Coast.Highway.Route.From.La.To.San.Diego.html"
            ],
            "longitude": "-117.1464145"
        },
        "point dume state beach": {
            "latitude": "34.0028699",
            "closest_to": "",
            "address": "Point Dume State Beach, Point Dume Path: Please stay on trail!, Malibu, Los Angeles County, California, United States of America",
            "locType": "nature_reserve",
            "blogLinks": [
                "http://gocalifornia.about.com/od/calamenu/ss/los-angeles-beaches.htm"
            ],
            "longitude": "-118.806471967307"
        },
        "national parks": {
            "latitude": "35.0310157",
            "closest_to": "",
            "address": "National Parks Service Road, San Bernardino County, California, United States of America",
            "locType": "residential",
            "blogLinks": [
                "http://vagabond3.com/los-angeles-to-colorado/"
            ],
            "longitude": "-115.383967"
        },
        "cross creek road": {
            "latitude": "34.0356416",
            "closest_to": "",
            "address": "Cross Creek Road, Malibu, Los Angeles County, California, 90265, United States of America",
            "locType": "tertiary",
            "blogLinks": [
                "http://gocalifornia.about.com/od/calamenu/ss/los-angeles-beaches.htm"
            ],
            "longitude": "-118.6853746"
        },
        "mission beach": {
            "latitude": "32.7827144",
            "closest_to": "",
            "address": "Mission Beach, San Diego County, California, United States of America",
            "locType": "hamlet",
            "blogLinks": [
                "https://www.gapyear.com/articles/216212/13-incredible-stops-on-the-pacific-coast-highway"
            ],
            "longitude": "-117.2525056"
        },
        "encinitas": {
            "latitude": "33.0369867",
            "closest_to": "",
            "address": "Encinitas, San Diego County, California, United States of America",
            "locType": "city",
            "blogLinks": [
                "https://www.tripadvisor.com/Travel-g28926-c174834/California:United-States:Coast.Highway.Route.From.La.To.San.Diego.html"
            ],
            "longitude": "-117.2919817"
        },
        "colorado": {
            "latitude": "33.71351445",
            "closest_to": "",
            "address": "Colorado, Walnut, Irvine, Orange County, California, 92606, United States of America",
            "locType": "residential",
            "blogLinks": [
                "http://vagabond3.com/los-angeles-to-colorado/"
            ],
            "longitude": "-117.791165718199"
        },
        "' soda lake": {
            "latitude": "35.23913735",
            "closest_to": "",
            "address": "Soda Lake, Soda Lake Road, San Luis Obispo County, California, United States of America",
            "locType": "water",
            "blogLinks": [
                "https://www.gapyear.com/articles/216212/13-incredible-stops-on-the-pacific-coast-highway"
            ],
            "longitude": "-119.895515964214"
        },
        "san jose": {
            "latitude": "37.3361905",
            "closest_to": "",
            "address": "San Jos\u00e9, Santa Clara County, California, United States of America",
            "locType": "city",
            "blogLinks": [
                "http://www.trippy.com/question/California-Where-to-stay-half-way-between-S-F--and-L-A",
                "https://www.gapyear.com/articles/216212/13-incredible-stops-on-the-pacific-coast-highway"
            ],
            "longitude": "-121.8905832"
        },
        "santa monica beach": {
            "latitude": "34.159111",
            "closest_to": "",
            "address": "Santa Monica Drive, Channel Islands Beach, Ventura County, California, 93035, United States of America",
            "locType": "residential",
            "blogLinks": [
                "https://www.timeout.com/los-angeles/things-to-do/best-beaches-in-la-top-coastal-escapes-to-surf-swim-and-play"
            ],
            "longitude": "-119.2203179"
        },
        "arlington theatre": {
            "latitude": "34.4242119",
            "closest_to": "",
            "address": "Arlington Theatre, 1317, State Street, Santa Barbara, Santa Barbara County, California, 93101, United States of America",
            "locType": "theatre",
            "blogLinks": [
                "https://www.gapyear.com/articles/216212/13-incredible-stops-on-the-pacific-coast-highway"
            ],
            "longitude": "-119.70696995537"
        },
        "ocean beach": {
            "latitude": "32.7477784",
            "closest_to": "",
            "address": "Ocean Beach, San Diego, San Diego County, California, United States of America",
            "locType": "region",
            "blogLinks": [
                "http://travelblog.viator.com/road-trip-san-francisco-los-angeles/"
            ],
            "longitude": "-117.249321"
        },
        "santa cruz beach boardwalk": {
            "latitude": "36.96446855",
            "closest_to": "",
            "address": "Santa Cruz Beach Boardwalk, Boardwalk, Beach & Boardwalk District (Commercial), Seabright, Santa Cruz, Santa Cruz County, California, 1982, United States of America",
            "locType": "attraction",
            "blogLinks": [
                "http://travelblog.viator.com/road-trip-san-francisco-los-angeles/",
                "https://www.gapyear.com/articles/216212/13-incredible-stops-on-the-pacific-coast-highway"
            ],
            "longitude": "-122.016027247326"
        },
        "las vegas": {
            "latitude": "36.17310935",
            "closest_to": "",
            "address": "California Hotel, Sky Walk(Connection from Main Street to California, Cultural Corridor, Vegas Heights, Las Vegas, Clark County, Nevada, 89101, United States of America",
            "locType": "hotel",
            "blogLinks": [
                "http://vagabond3.com/los-angeles-to-colorado/",
                "http://www.greatamericancountry.com/living/at-home/10-great-neighborhoods-in-los-angeles"
            ],
            "longitude": "-115.144667930325"
        },
        "ano nuevo state park": {
            "latitude": "37.1642859",
            "closest_to": "",
            "address": "A\u00f1o Nuevo State Park, White House Canyon Road, San Mateo County, California, United States of America",
            "locType": "park",
            "blogLinks": [
                "https://www.gapyear.com/articles/216212/13-incredible-stops-on-the-pacific-coast-highway"
            ],
            "longitude": "-122.328030779329"
        },
        "san francisco": {
            "latitude": "37.7792808",
            "closest_to": "",
            "address": "SF, California, United States of America",
            "locType": "city",
            "blogLinks": [
                "http://travelblog.viator.com/road-trip-san-francisco-los-angeles/",
                "http://www.hopper.com/articles/291/five-great-stops-between-los-angeles-and-san-francisco-on-the-pacific-coast-highway",
                "http://www.trippy.com/question/California-Where-to-stay-half-way-between-S-F--and-L-A",
                "https://www.gapyear.com/articles/216212/13-incredible-stops-on-the-pacific-coast-highway"
            ],
            "longitude": "-122.4192362"
        },
        "el matador": {
            "latitude": "36.8099274",
            "closest_to": "",
            "address": "El Matador, Burl Avenue, Clovis, Fresno County, California, 93611, United States of America",
            "locType": "restaurant",
            "blogLinks": [
                "http://gocalifornia.about.com/od/calamenu/ss/los-angeles-beaches.htm",
                "https://www.timeout.com/los-angeles/things-to-do/best-beaches-in-la-top-coastal-escapes-to-surf-swim-and-play"
            ],
            "longitude": "-119.6754762"
        },
        "alcatraz island": {
            "latitude": "37.8267283",
            "closest_to": "",
            "address": "Alcatraz Island, SF, California, United States of America",
            "locType": "island",
            "blogLinks": [
                "https://www.gapyear.com/articles/216212/13-incredible-stops-on-the-pacific-coast-highway"
            ],
            "longitude": "-122.422746492409"
        },
        "alaska": {
            "latitude": "33.7147833",
            "closest_to": "",
            "address": "Alaska, Walnut, Irvine, Orange County, California, 92606, United States of America",
            "locType": "residential",
            "blogLinks": [
                "http://www.travelmath.com/drive-distance/from/Long+Beach,+CA/to/Los+Angeles,+CA"
            ],
            "longitude": "-117.7917164"
        },
        "highland avenue": {
            "latitude": "34.135757",
            "closest_to": "",
            "address": "Highland Avenue, San Bernardino, San Bernardino County, California, 92346, United States of America",
            "locType": "primary",
            "blogLinks": [
                "http://gocalifornia.about.com/od/calamenu/ss/los-angeles-beaches.htm"
            ],
            "longitude": "-117.1953088"
        },
        "lincoln": {
            "latitude": "38.8598295",
            "closest_to": "",
            "address": "Lincoln, Placer County, California, United States of America",
            "locType": "city",
            "blogLinks": [
                "https://www.tripadvisor.com/Travel-g28926-c174834/California:United-States:Coast.Highway.Route.From.La.To.San.Diego.html"
            ],
            "longitude": "-121.342391957924"
        },
        "antelope": {
            "latitude": "38.7082357",
            "closest_to": "",
            "address": "Antelope, Sacramento County, California, United States of America",
            "locType": "hamlet",
            "blogLinks": [
                "http://www.greatamericancountry.com/living/at-home/10-great-neighborhoods-in-los-angeles"
            ],
            "longitude": "-121.3299512"
        },
        "american riviera": {
            "latitude": "38.576666",
            "closest_to": "",
            "address": "American River Drive, La Riviera, Sacramento County, California, 95608, United States of America",
            "locType": "tertiary",
            "blogLinks": [
                "http://travelblog.viator.com/road-trip-san-francisco-los-angeles/",
                "http://www.hopper.com/articles/291/five-great-stops-between-los-angeles-and-san-francisco-on-the-pacific-coast-highway"
            ],
            "longitude": "-121.3602199"
        },
        "san luis obispo": {
            "latitude": "35.2827525",
            "closest_to": "",
            "address": "San Luis Obispo, San Luis Obispo County, California, United States of America",
            "locType": "city",
            "blogLinks": [
                "http://travelblog.viator.com/road-trip-san-francisco-los-angeles/",
                "http://www.trippy.com/question/California-Where-to-stay-half-way-between-S-F--and-L-A",
                "https://www.gapyear.com/articles/216212/13-incredible-stops-on-the-pacific-coast-highway"
            ],
            "longitude": "-120.6596155"
        },
        "matador beach": {
            "latitude": "34.0392256",
            "closest_to": "",
            "address": "El Matador Beach Road, Malibu, Los Angeles County, California, 90265, United States of America",
            "locType": "service",
            "blogLinks": [
                "http://gocalifornia.about.com/od/calamenu/ss/los-angeles-beaches.htm"
            ],
            "longitude": "-118.8755672"
        },
        "east beach": {
            "latitude": "37.8061771",
            "closest_to": "",
            "address": "East Beach, Mason Street, Presidio Heights, SF, California, 94129, United States of America",
            "locType": "beach",
            "blogLinks": [
                "https://www.gapyear.com/articles/216212/13-incredible-stops-on-the-pacific-coast-highway"
            ],
            "longitude": "-122.452368017781"
        },
        "bubblegum alley": {
            "latitude": "35.2791663",
            "closest_to": "",
            "address": "Bubblegum Alley, San Luis Obispo, San Luis Obispo County, California, 93405, United States of America",
            "locType": "attraction",
            "blogLinks": [
                "https://www.gapyear.com/articles/216212/13-incredible-stops-on-the-pacific-coast-highway"
            ],
            "longitude": "-120.6638629"
        },
        "bryce canyon": {
            "latitude": "33.5740174",
            "closest_to": "",
            "address": "Bryce Canyon, Aliso Viejo, Orange County, California, 92656, United States of America",
            "locType": "residential",
            "blogLinks": [
                "http://vagabond3.com/los-angeles-to-colorado/"
            ],
            "longitude": "-117.7368111"
        },
        "rancho santa ana botanic gardens": {
            "latitude": "34.1115449",
            "closest_to": "",
            "address": "Rancho Santa Ana Botanic Garden, College Avenue, Claremont, Los Angeles County, California, 91711, United States of America",
            "locType": "park",
            "blogLinks": [
                "http://www.greatamericancountry.com/living/at-home/10-great-neighborhoods-in-los-angeles"
            ],
            "longitude": "-117.7149677"
        },
        "old town": {
            "latitude": "35.142943",
            "closest_to": "",
            "address": "Old Town, Golden Hills, Kern County, California, United States of America",
            "locType": "locality",
            "blogLinks": [
                "https://www.gapyear.com/articles/216212/13-incredible-stops-on-the-pacific-coast-highway"
            ],
            "longitude": "-118.4954422"
        },
        "dume state beach": {
            "latitude": "34.0028699",
            "closest_to": "",
            "address": "Point Dume State Beach, Point Dume Path: Please stay on trail!, Malibu, Los Angeles County, California, United States of America",
            "locType": "nature_reserve",
            "blogLinks": [
                "http://gocalifornia.about.com/od/calamenu/ss/los-angeles-beaches.htm"
            ],
            "longitude": "-118.806471967307"
        },
        "leucadia": {
            "latitude": "33.0692223",
            "closest_to": "",
            "address": "Leucadia, San Diego County, California, United States of America",
            "locType": "hamlet",
            "blogLinks": [
                "https://www.tripadvisor.com/Travel-g28926-c174834/California:United-States:Coast.Highway.Route.From.La.To.San.Diego.html"
            ],
            "longitude": "-117.3026809"
        },
        "valencia": {
            "latitude": "34.1466768",
            "closest_to": "",
            "address": "Valencia, San Bernardino County, California, United States of America",
            "locType": "hamlet",
            "blogLinks": [
                "http://www.greatamericancountry.com/living/at-home/10-great-neighborhoods-in-los-angeles"
            ],
            "longitude": "-117.2725426"
        },
        "national park": {
            "latitude": "37.7488554",
            "closest_to": "",
            "address": "Yosemite, Village Drive, Yosemite Village, Yosemite Valley, Mariposa County, California, United States of America",
            "locType": "attraction",
            "blogLinks": [
                "http://vagabond3.com/los-angeles-to-colorado/"
            ],
            "longitude": "-119.5893389"
        },
        "malibu lagoon state beach": {
            "latitude": "34.03385755",
            "closest_to": "",
            "address": "Malibu Lagoon State Beach, Pacific Coast Highway, Malibu, Los Angeles County, California, 90265, United States of America",
            "locType": "beach",
            "blogLinks": [
                "http://gocalifornia.about.com/od/calamenu/ss/los-angeles-beaches.htm"
            ],
            "longitude": "-118.679064060789"
        },
        "us hwy 101": {
            "latitude": "32.9967358",
            "closest_to": "",
            "address": "Highway 101, Solana Beach, San Diego County, California, 92075, United States of America",
            "locType": "primary",
            "blogLinks": [
                "http://gocalifornia.about.com/od/calamenu/ss/los-angeles-beaches.htm"
            ],
            "longitude": "-117.2731974"
        },
        "lobero theatre": {
            "latitude": "34.4216681",
            "closest_to": "",
            "address": "Lobero Theatre, Anacapa Street, Santa Barbara, Santa Barbara County, California, 93105, United States of America",
            "locType": "theatre",
            "blogLinks": [
                "https://www.gapyear.com/articles/216212/13-incredible-stops-on-the-pacific-coast-highway"
            ],
            "longitude": "-119.700020768116"
        },
        "san fernando": {
            "latitude": "34.2819461",
            "closest_to": "",
            "address": "San Fernando, Los Angeles County, California, United States of America",
            "locType": "administrative",
            "blogLinks": [
                "http://www.greatamericancountry.com/living/at-home/10-great-neighborhoods-in-los-angeles"
            ],
            "longitude": "-118.4389718"
        },
        "santa barbara": {
            "latitude": "34.4221319",
            "closest_to": "",
            "address": "Santa Barbara, Santa Barbara County, California, United States of America",
            "locType": "city",
            "blogLinks": [
                "http://travelblog.viator.com/road-trip-san-francisco-los-angeles/",
                "http://www.hopper.com/articles/291/five-great-stops-between-los-angeles-and-san-francisco-on-the-pacific-coast-highway",
                "http://www.trippy.com/question/California-Where-to-stay-half-way-between-S-F--and-L-A",
                "https://www.gapyear.com/articles/216212/13-incredible-stops-on-the-pacific-coast-highway"
            ],
            "longitude": "-119.7026672"
        },
        "chicago": {
            "latitude": "37.7850531",
            "closest_to": "",
            "address": "Chicago, Woodstock, Alameda, Alameda County, California, 94501, United States of America",
            "locType": "residential",
            "blogLinks": [
                "http://www.trippy.com/question/California-Where-to-stay-half-way-between-S-F--and-L-A"
            ],
            "longitude": "-122.2872948"
        },
        "san diego county": {
            "latitude": "32.9637838",
            "closest_to": "",
            "address": "San Diego County, California, United States of America",
            "locType": "administrative",
            "blogLinks": [
                "https://www.tripadvisor.com/Travel-g28926-c174834/California:United-States:Coast.Highway.Route.From.La.To.San.Diego.html",
                "http://gocalifornia.about.com/od/calamenu/ss/los-angeles-beaches.htm",
                "https://www.gapyear.com/articles/216212/13-incredible-stops-on-the-pacific-coast-highway"
            ],
            "longitude": "-116.7706276"
        },
        "san onofre": {
            "latitude": "33.3803575",
            "closest_to": "",
            "address": "San Onofre, San Diego County, California, United States of America",
            "locType": "hamlet",
            "blogLinks": [
                "http://gocalifornia.about.com/od/calamenu/ss/los-angeles-beaches.htm"
            ],
            "longitude": "-117.5736036"
        },
        "claremont": {
            "latitude": "34.0966764",
            "closest_to": "",
            "address": "Claremont, Los Angeles County, California, United States of America",
            "locType": "city",
            "blogLinks": [
                "http://www.greatamericancountry.com/living/at-home/10-great-neighborhoods-in-los-angeles"
            ],
            "longitude": "-117.7197784"
        },
        "malibu road": {
            "latitude": "37.6492006",
            "closest_to": "",
            "address": "Malibu Road, Hayward, Alameda County, California, 94545, United States of America",
            "locType": "residential",
            "blogLinks": [
                "http://gocalifornia.about.com/od/calamenu/ss/los-angeles-beaches.htm"
            ],
            "longitude": "-122.1132903"
        },
        "california state parks": {
            "latitude": "38.4366423",
            "closest_to": "",
            "address": "California State Parks, Adobe Canyon Road, Kenwood, Sonoma County, California, 95452, United States of America",
            "locType": "theatre",
            "blogLinks": [
                "http://gocalifornia.about.com/od/calamenu/ss/los-angeles-beaches.htm"
            ],
            "longitude": "-122.5126798"
        },
        "oceanside": {
            "latitude": "33.1958696",
            "closest_to": "",
            "address": "Oceanside, San Diego County, California, United States of America",
            "locType": "city",
            "blogLinks": [
                "https://www.tripadvisor.com/Travel-g28926-c174834/California:United-States:Coast.Highway.Route.From.La.To.San.Diego.html"
            ],
            "longitude": "-117.3794833"
        },
        "hawthorn boulevard": {
            "latitude": "32.7250912",
            "closest_to": "",
            "address": "West Hawthorn Street, Hillcrest, San Diego, San Diego County, California, 92101, United States of America",
            "locType": "secondary",
            "blogLinks": [
                "http://gocalifornia.about.com/od/calamenu/ss/los-angeles-beaches.htm"
            ],
            "longitude": "-117.1734461"
        },
        "monterey": {
            "latitude": "36.5844165",
            "closest_to": "",
            "address": "Monterey, Monterey County, California, United States of America",
            "locType": "city",
            "blogLinks": [
                "http://www.trippy.com/question/California-Where-to-stay-half-way-between-S-F--and-L-A",
                "https://www.gapyear.com/articles/216212/13-incredible-stops-on-the-pacific-coast-highway",
                "https://www.timeout.com/los-angeles/things-to-do/great-things-to-do-in-los-angeles"
            ],
            "longitude": "-121.866792846206"
        },
        "pfeiffer beach": {
            "latitude": "36.23934855",
            "closest_to": "",
            "address": "Pfeiffer Beach, Sycamore Canyon Road, Big Sur, Monterey County, California, 93920, United States of America",
            "locType": "beach",
            "blogLinks": [
                "https://www.gapyear.com/articles/216212/13-incredible-stops-on-the-pacific-coast-highway"
            ],
            "longitude": "-121.81778571416"
        },
        "bixby bridge": {
            "latitude": "36.3710197",
            "closest_to": "",
            "address": "Bixby Creek Bridge, Notleys Landing, Monterey County, California, 93923, United States of America",
            "locType": "primary",
            "blogLinks": [
                "https://www.gapyear.com/articles/216212/13-incredible-stops-on-the-pacific-coast-highway"
            ],
            "longitude": "-121.9017572"
        },
        "point sur state historic park": {
            "latitude": "36.315378",
            "closest_to": "",
            "address": "Point Sur State Historic Park, Cabrillo Highway, Big Sur, Monterey County, California, 93923, United States of America",
            "locType": "park",
            "blogLinks": [
                "https://www.gapyear.com/articles/216212/13-incredible-stops-on-the-pacific-coast-highway"
            ],
            "longitude": "-121.881955510784"
        },
        "u.s.": {
            "latitude": "-32.5446226",
            "closest_to": "",
            "address": "La California, Municipio de Las Rosas, Departamento Belgrano, Sta. Fe, Argentina",
            "locType": "hamlet",
            "blogLinks": [
                "https://www.tripadvisor.com/Travel_Guide-g32655-Los_Angeles_California.html"
            ],
            "longitude": "-61.5489543"
        },
        "black mountain ranch": {
            "latitude": "37.302427",
            "closest_to": "",
            "address": "Black Ranch Road, Oakhurst, Madera County, California, 93644, United States of America",
            "locType": "residential",
            "blogLinks": [
                "http://vagabond3.com/los-angeles-to-colorado/"
            ],
            "longitude": "-119.6150609"
        },
        "southern orange county beach": {
            "latitude": "33.6301901",
            "closest_to": "",
            "address": "Southern Hills Drive, Newport Center, Newport Beach, Orange County, California, 92660, United States of America",
            "locType": "residential",
            "blogLinks": [
                "https://www.tripadvisor.com/Travel-g28926-c174834/California:United-States:Coast.Highway.Route.From.La.To.San.Diego.html"
            ],
            "longitude": "-117.8689039"
        },
        "utah": {
            "latitude": "37.413408",
            "closest_to": "",
            "address": "Utah, Rovana, Inyo County, California, United States of America",
            "locType": "residential",
            "blogLinks": [
                "http://vagabond3.com/los-angeles-to-colorado/",
                "https://www.timeout.com/los-angeles/things-to-do/best-beaches-in-la-top-coastal-escapes-to-surf-swim-and-play"
            ],
            "longitude": "-118.6125359"
        },
        "point dume": {
            "latitude": "34.001631",
            "closest_to": "",
            "address": "Point Dume, Malibu, Los Angeles County, California, United States of America",
            "locType": "peak",
            "blogLinks": [
                "http://gocalifornia.about.com/od/calamenu/ss/los-angeles-beaches.htm"
            ],
            "longitude": "-118.8066755"
        },
        "u.s": {
            "latitude": "-32.5446226",
            "closest_to": "",
            "address": "La California, Municipio de Las Rosas, Departamento Belgrano, Sta. Fe, Argentina",
            "locType": "hamlet",
            "blogLinks": [
                "http://losangeles.cbslocal.com/top-lists/best-fun-for-kids-in-long-beach/"
            ],
            "longitude": "-61.5489543"
        },
        "san simeon": {
            "latitude": "35.6438587",
            "closest_to": "",
            "address": "San Simeon, San Luis Obispo County, California, United States of America",
            "locType": "hamlet",
            "blogLinks": [
                "http://www.hopper.com/articles/291/five-great-stops-between-los-angeles-and-san-francisco-on-the-pacific-coast-highway",
                "http://www.trippy.com/question/California-Where-to-stay-half-way-between-S-F--and-L-A",
                "https://www.gapyear.com/articles/216212/13-incredible-stops-on-the-pacific-coast-highway"
            ],
            "longitude": "-121.1907532"
        },
        "mir": {
            "latitude": "37.3823701",
            "closest_to": "",
            "address": "Mir Mirou Drive, Los Altos Hills, Santa Clara County, California, 94022, United States of America",
            "locType": "residential",
            "blogLinks": [
                "https://www.timeout.com/los-angeles/things-to-do/great-things-to-do-in-los-angeles"
            ],
            "longitude": "-122.1700025"
        },
        "malibu beach inn": {
            "latitude": "34.0371052",
            "closest_to": "",
            "address": "Surfrider Beach Club, Pacific Coast Highway, Malibu, Los Angeles County, California, 90265, United States of America",
            "locType": "motel",
            "blogLinks": [
                "https://www.timeout.com/los-angeles/things-to-do/best-beaches-in-la-top-coastal-escapes-to-surf-swim-and-play"
            ],
            "longitude": "-118.6779234"
        },
        "oxnard": {
            "latitude": "34.1976308",
            "closest_to": "",
            "address": "Oxnard, Ventura County, California, United States of America",
            "locType": "city",
            "blogLinks": [
                "https://www.gapyear.com/articles/216212/13-incredible-stops-on-the-pacific-coast-highway"
            ],
            "longitude": "-119.1803817"
        },
        "malibu lagoon": {
            "latitude": "34.0337414",
            "closest_to": "",
            "address": "Malibu Lagoon, Pacific Coast Highway, Malibu, Los Angeles County, California, 90265, United States of America",
            "locType": "water",
            "blogLinks": [
                "http://gocalifornia.about.com/od/calamenu/ss/los-angeles-beaches.htm"
            ],
            "longitude": "-118.681785448203"
        },
        "south": {
            "latitude": "33.3054766",
            "closest_to": "",
            "address": "South, Los Angeles County, California, United States of America",
            "locType": "peak",
            "blogLinks": [
                "http://vagabond3.com/los-angeles-to-colorado/"
            ],
            "longitude": "-118.3432299"
        },
        "malibu": {
            "latitude": "33.7932142",
            "closest_to": "",
            "address": "Malibu, Palm Springs, Riverside County, California, 92264, United States of America",
            "locType": "residential",
            "blogLinks": [
                "http://www.greatamericancountry.com/living/at-home/10-great-neighborhoods-in-los-angeles",
                "https://www.tripadvisor.com/Travel-g28926-c174834/California:United-States:Coast.Highway.Route.From.La.To.San.Diego.html",
                "http://gocalifornia.about.com/od/calamenu/ss/los-angeles-beaches.htm",
                "https://www.gapyear.com/articles/216212/13-incredible-stops-on-the-pacific-coast-highway",
                "https://www.timeout.com/los-angeles/things-to-do/best-beaches-in-la-top-coastal-escapes-to-surf-swim-and-play"
            ],
            "longitude": "-116.5023561"
        },
        "interstate freeway": {
            "latitude": "33.7269731",
            "closest_to": "",
            "address": "Interstate 10, Indio, Riverside County, California, 92201, United States of America",
            "locType": "motorway",
            "blogLinks": [
                "https://www.tripadvisor.com/Travel-g28926-c174834/California:United-States:Coast.Highway.Route.From.La.To.San.Diego.html"
            ],
            "longitude": "-116.2024855"
        },
        "surfrider beach": {
            "latitude": "34.0329862",
            "closest_to": "",
            "address": "Surfrider Beach, Pacific Coast Highway, Malibu, Los Angeles County, California, 90265, United States of America",
            "locType": "beach",
            "blogLinks": [
                "http://gocalifornia.about.com/od/calamenu/ss/los-angeles-beaches.htm"
            ],
            "longitude": "-118.6798114"
        },
        "san fernando valley": {
            "latitude": "34.2819461",
            "closest_to": "",
            "address": "San Fernando, Los Angeles County, California, United States of America",
            "locType": "administrative",
            "blogLinks": [
                "https://www.gapyear.com/articles/216212/13-incredible-stops-on-the-pacific-coast-highway",
                "https://www.tripadvisor.com/Travel_Guide-g32655-Los_Angeles_California.html",
                "http://www.greatamericancountry.com/living/at-home/10-great-neighborhoods-in-los-angeles"
            ],
            "longitude": "-118.4389718"
        },
        "palisades": {
            "latitude": "32.974109",
            "closest_to": "",
            "address": "Palisades, San Diego County, California, United States of America",
            "locType": "hamlet",
            "blogLinks": [
                "http://www.greatamericancountry.com/living/at-home/10-great-neighborhoods-in-los-angeles"
            ],
            "longitude": "-117.0493668"
        },
        "ventura": {
            "latitude": "34.4458248",
            "closest_to": "",
            "address": "Ventura County, California, United States of America",
            "locType": "administrative",
            "blogLinks": [
                "http://travelblog.viator.com/road-trip-san-francisco-los-angeles/",
                "https://www.gapyear.com/articles/216212/13-incredible-stops-on-the-pacific-coast-highway"
            ],
            "longitude": "-119.0779358"
        },
        "denver": {
            "latitude": "33.6996403",
            "closest_to": "",
            "address": "Denver, Heritage Park Apartments, El Camino Real, Irvine, Orange County, California, 92604, United States of America",
            "locType": "residential",
            "blogLinks": [
                "http://vagabond3.com/los-angeles-to-colorado/"
            ],
            "longitude": "-117.7762651"
        },
        "california": {
            "latitude": "7.3480915",
            "closest_to": "",
            "address": "California, Santander, Colombia",
            "locType": "village",
            "blogLinks": [
                "http://www.trippy.com/question/California-Where-to-stay-half-way-between-S-F--and-L-A",
                "https://www.gapyear.com/articles/216212/13-incredible-stops-on-the-pacific-coast-highway",
                "https://www.timeout.com/los-angeles/things-to-do/best-beaches-in-la-top-coastal-escapes-to-surf-swim-and-play",
                "http://travelblog.viator.com/road-trip-san-francisco-los-angeles/",
                "http://gocalifornia.about.com/od/calamenu/ss/los-angeles-beaches.htm",
                "https://www.timeout.com/los-angeles/things-to-do/great-things-to-do-in-los-angeles",
                "http://www.greatamericancountry.com/living/at-home/10-great-neighborhoods-in-los-angeles",
                "http://www.travelmath.com/drive-distance/from/Long+Beach,+CA/to/Los+Angeles,+CA"
            ],
            "longitude": "-72.945787"
        },
        "america": {
            "latitude": "36.2573198",
            "closest_to": "",
            "address": "America, Kings County, California, 93246, United States of America",
            "locType": "residential",
            "blogLinks": [
                "https://www.timeout.com/los-angeles/things-to-do/great-things-to-do-in-los-angeles"
            ],
            "longitude": "-119.8948706"
        },
        "santa barbara botanic garden": {
            "latitude": "34.456953",
            "closest_to": "",
            "address": "Santa Barbara Botanic Gardens, Mission Canyon Road, Mission Canyon, Santa Barbara County, California, 93105, United States of America",
            "locType": "park",
            "blogLinks": [
                "https://www.gapyear.com/articles/216212/13-incredible-stops-on-the-pacific-coast-highway"
            ],
            "longitude": "-119.709585108231"
        },
        "el matador beach": {
            "latitude": "34.0392256",
            "closest_to": "",
            "address": "El Matador Beach Road, Malibu, Los Angeles County, California, 90265, United States of America",
            "locType": "service",
            "blogLinks": [
                "http://gocalifornia.about.com/od/calamenu/ss/los-angeles-beaches.htm"
            ],
            "longitude": "-118.8755672"
        },
        "pismo beach": {
            "latitude": "35.1427533",
            "closest_to": "",
            "address": "Pismo Beach, San Luis Obispo County, California, United States of America",
            "locType": "city",
            "blogLinks": [
                "http://www.hopper.com/articles/291/five-great-stops-between-los-angeles-and-san-francisco-on-the-pacific-coast-highway",
                "http://www.trippy.com/question/California-Where-to-stay-half-way-between-S-F--and-L-A",
                "https://www.gapyear.com/articles/216212/13-incredible-stops-on-the-pacific-coast-highway"
            ],
            "longitude": "-120.6412826"
        },
        "california state beach": {
            "latitude": "35.1711237",
            "closest_to": "",
            "address": "California Polytechnic State University Pier, Avila Beach, San Luis Obispo County, California, 93424, United States of America",
            "locType": "service",
            "blogLinks": [
                "http://gocalifornia.about.com/od/calamenu/ss/los-angeles-beaches.htm"
            ],
            "longitude": "-120.7409115"
        },
        "brentwood": {
            "latitude": "37.9317766",
            "closest_to": "",
            "address": "Brentwood, Contra Costa County, California, United States of America",
            "locType": "city",
            "blogLinks": [
                "https://www.tripadvisor.com/Travel_Guide-g32655-Los_Angeles_California.html"
            ],
            "longitude": "-121.6960265"
        },
        "greenleaf": {
            "latitude": "33.6802757",
            "closest_to": "",
            "address": "Greenleaf, Woodbridge, Irvine, Orange County, California, 92604, United States of America",
            "locType": "residential",
            "blogLinks": [
                "http://www.greatamericancountry.com/living/at-home/10-great-neighborhoods-in-los-angeles"
            ],
            "longitude": "-117.8005007"
        },
        "griffith park": {
            "latitude": "38.68813",
            "closest_to": "",
            "address": "Griffith Park, Citrus Heights, Sacramento County, California, 95621, United States of America",
            "locType": "service",
            "blogLinks": [
                "https://www.timeout.com/los-angeles/things-to-do/great-things-to-do-in-los-angeles"
            ],
            "longitude": "-121.3121659"
        },
        "carrillo state beach": {
            "latitude": "34.0441745",
            "closest_to": "",
            "address": "Leo Carrillo State Beach, Beach Access Road, Los Angeles County, California, 90265, United States of America",
            "locType": "park",
            "blogLinks": [
                "http://gocalifornia.about.com/od/calamenu/ss/los-angeles-beaches.htm"
            ],
            "longitude": "-118.9392625"
        },
        "monterey bay": {
            "latitude": "36.7999557",
            "closest_to": "",
            "address": "Monterey Bay, Monterey County, California, United States of America",
            "locType": "bay",
            "blogLinks": [
                "http://travelblog.viator.com/road-trip-san-francisco-los-angeles/",
                "http://www.hopper.com/articles/291/five-great-stops-between-los-angeles-and-san-francisco-on-the-pacific-coast-highway",
                "https://www.gapyear.com/articles/216212/13-incredible-stops-on-the-pacific-coast-highway"
            ],
            "longitude": "-121.9010667"
        },
        "nepenthe": {
            "latitude": "36.2218116",
            "closest_to": "",
            "address": "Nepenthe, 48510, Cabrillo Highway, Posts, Monterey County, California, 93920-9549, United States of America",
            "locType": "restaurant",
            "blogLinks": [
                "http://travelblog.viator.com/road-trip-san-francisco-los-angeles/"
            ],
            "longitude": "-121.7596564"
        },
        "san luis obispo county": {
            "latitude": "35.3540209",
            "closest_to": "",
            "address": "San Luis Obispo County, California, United States of America",
            "locType": "administrative",
            "blogLinks": [
                "http://www.hopper.com/articles/291/five-great-stops-between-los-angeles-and-san-francisco-on-the-pacific-coast-highway"
            ],
            "longitude": "-120.3757162"
        },
        "us": {
            "latitude": "36.7014631",
            "closest_to": "",
            "address": "California, United States of America",
            "locType": "administrative",
            "blogLinks": [
                "http://losangeles.cbslocal.com/top-lists/best-fun-for-kids-in-long-beach/"
            ],
            "longitude": "-118.7559973"
        },
        "florida": {
            "latitude": "29.8738433",
            "closest_to": "",
            "address": "California, Lanark Village, Franklin County, Florida, 32323, United States of America",
            "locType": "residential",
            "blogLinks": [
                "http://vagabond3.com/los-angeles-to-colorado/"
            ],
            "longitude": "-84.6071504"
        },
        "wilder ranch state park": {
            "latitude": "36.96021805",
            "closest_to": "",
            "address": "Wilder Ranch State Park, Coast Road, Westside, Santa Cruz County, California, 95060, United States of America",
            "locType": "park",
            "blogLinks": [
                "https://www.gapyear.com/articles/216212/13-incredible-stops-on-the-pacific-coast-highway"
            ],
            "longitude": "-122.079566815934"
        },
        "east la": {
            "latitude": "34.0188696",
            "closest_to": "",
            "address": "La Cadena Drive, Highgrove, Riverside County, California, 92501, United States of America",
            "locType": "primary",
            "blogLinks": [
                "https://www.tripadvisor.com/Travel_Guide-g32655-Los_Angeles_California.html"
            ],
            "longitude": "-117.3396683"
        },
        "la piedra": {
            "latitude": "36.8102272",
            "closest_to": "",
            "address": "Piedra, Piedra Post Office, Fresno County, California, United States of America",
            "locType": "locality",
            "blogLinks": [
                "https://www.timeout.com/los-angeles/things-to-do/best-beaches-in-la-top-coastal-escapes-to-surf-swim-and-play"
            ],
            "longitude": "-119.3820697"
        },
        "santa monica mountains": {
            "latitude": "34.11008435",
            "closest_to": "",
            "address": "Santa Monica Mountains National Recreation Area, Simes Lane, Seminole Hot Springs, Los Angeles County, California, 91301, United States of America",
            "locType": "protected_area",
            "blogLinks": [
                "http://www.greatamericancountry.com/living/at-home/10-great-neighborhoods-in-los-angeles"
            ],
            "longitude": "-118.789983284662"
        },
        "tamarindo": {
            "latitude": "24.1200849",
            "closest_to": "",
            "address": "Tamarindo, La Paz, Baja California Sur, 23080, M\u00e9xico",
            "locType": "residential",
            "blogLinks": [
                "https://www.timeout.com/los-angeles/things-to-do/best-beaches-in-la-top-coastal-escapes-to-surf-swim-and-play"
            ],
            "longitude": "-110.3210271"
        },
        "pacific": {
            "latitude": "38.7601815",
            "closest_to": "",
            "address": "Pacific, El Dorado County, California, United States of America",
            "locType": "hamlet",
            "blogLinks": [
                "http://travelblog.viator.com/road-trip-san-francisco-los-angeles/",
                "https://www.tripadvisor.com/Travel-g28926-c174834/California:United-States:Coast.Highway.Route.From.La.To.San.Diego.html",
                "http://www.visitlongbeach.com/attractions/",
                "http://losangeles.cbslocal.com/top-lists/best-fun-for-kids-in-long-beach/"
            ],
            "longitude": "-120.507146"
        },
        "rainforest cafe": {
            "latitude": "37.8082053",
            "closest_to": "",
            "address": "Rainforest Cafe, Jefferson Street, Russian Hill, SF, California, 94133, United States of America",
            "locType": "fast_food",
            "blogLinks": [
                "https://www.tripadvisor.com/Travel_Guide-g32655-Los_Angeles_California.html"
            ],
            "longitude": "-122.4147151"
        },
        "los angeles orange": {
            "latitude": "33.9282867",
            "closest_to": "",
            "address": "California Baptist University, Magnolia Avenue, Riverside, Riverside County, California, 92879, United States of America",
            "locType": "university",
            "blogLinks": [
                "http://www.greatamericancountry.com/living/at-home/10-great-neighborhoods-in-los-angeles"
            ],
            "longitude": "-117.427248540447"
        },
        "old road": {
            "latitude": "34.3328446",
            "closest_to": "",
            "address": "The Old Road, LA, Los Angeles County, California, SCV, United States of America",
            "locType": "primary",
            "blogLinks": [
                "http://www.greatamericancountry.com/living/at-home/10-great-neighborhoods-in-los-angeles"
            ],
            "longitude": "-118.506284"
        },
        "normandy": {
            "latitude": "33.1326991",
            "closest_to": "",
            "address": "1120, The Normandy, Escondido, San Diego County, California, 92025, United States of America",
            "locType": "residential",
            "blogLinks": [
                "http://gocalifornia.about.com/od/calamenu/ss/los-angeles-beaches.htm"
            ],
            "longitude": "-117.069605317756"
        },
        "mcway falls": {
            "latitude": "36.1578211",
            "closest_to": "",
            "address": "McWay Falls, Monterey County, California, United States of America",
            "locType": "waterfall",
            "blogLinks": [
                "https://www.gapyear.com/articles/216212/13-incredible-stops-on-the-pacific-coast-highway"
            ],
            "longitude": "-121.6723957"
        },
        "colorado springs": {
            "latitude": "38.9373474",
            "closest_to": "",
            "address": "California Drive, El Paso County, Colorado, 80927, United States of America",
            "locType": "residential",
            "blogLinks": [
                "http://vagabond3.com/los-angeles-to-colorado/"
            ],
            "longitude": "-104.6899179"
        },
        "central coast": {
            "latitude": "35.3611193",
            "closest_to": "",
            "address": "Central Coast Street, Bakersfield, Kern County, California, 93314, United States of America",
            "locType": "residential",
            "blogLinks": [
                "http://travelblog.viator.com/road-trip-san-francisco-los-angeles/"
            ],
            "longitude": "-119.1665989"
        },
        "islay hill": {
            "latitude": "35.2455305",
            "closest_to": "",
            "address": "Islay Hill, San Luis Obispo, San Luis Obispo County, California, United States of America",
            "locType": "peak",
            "blogLinks": [
                "https://www.gapyear.com/articles/216212/13-incredible-stops-on-the-pacific-coast-highway"
            ],
            "longitude": "-120.622392"
        },
        "malibu pier": {
            "latitude": "34.0364323",
            "closest_to": "",
            "address": "Malibu Pier, Pacific Coast Highway, Malibu, Los Angeles County, California, 90265, United States of America",
            "locType": "pier",
            "blogLinks": [
                "https://www.timeout.com/los-angeles/things-to-do/best-beaches-in-la-top-coastal-escapes-to-surf-swim-and-play"
            ],
            "longitude": "-118.676144945982"
        },
        "monterey bay aquarium": {
            "latitude": "36.61809095",
            "closest_to": "",
            "address": "MBA, 886, Cannery Row, Monterey, Monterey County, California, 93940, United States of America",
            "locType": "aquarium",
            "blogLinks": [
                "http://travelblog.viator.com/road-trip-san-francisco-los-angeles/",
                "http://www.hopper.com/articles/291/five-great-stops-between-los-angeles-and-san-francisco-on-the-pacific-coast-highway",
                "http://www.trippy.com/question/California-Where-to-stay-half-way-between-S-F--and-L-A",
                "https://www.gapyear.com/articles/216212/13-incredible-stops-on-the-pacific-coast-highway"
            ],
            "longitude": "-121.901680002002"
        },
        "l.a.": {
            "latitude": "-13.8305494",
            "closest_to": "",
            "address": "California, Provincia Abel Iturralde, LPZ, Bolivia",
            "locType": "hamlet",
            "blogLinks": [
                "http://www.trippy.com/question/California-Where-to-stay-half-way-between-S-F--and-L-A",
                "https://www.tripadvisor.com/Travel_Guide-g32655-Los_Angeles_California.html"
            ],
            "longitude": "-67.9369134"
        },
        "earth": {
            "latitude": "35.4780569",
            "closest_to": "",
            "address": "Mountain Pass Rare Earth Mine, Mountain Pass, San Bernardino County, California, 92364, United States of America",
            "locType": "quarry",
            "blogLinks": [
                "http://vagabond3.com/los-angeles-to-colorado/",
                "https://www.tripadvisor.com/Travel_Guide-g32655-Los_Angeles_California.html"
            ],
            "longitude": "-115.541994345811"
        },
        "valencia town center": {
            "latitude": "34.41642985",
            "closest_to": "",
            "address": "Valencia Town Center, Valencia, Santa Clarita, Los Angeles County, California, 91355, United States of America",
            "locType": "retail",
            "blogLinks": [
                "http://www.greatamericancountry.com/living/at-home/10-great-neighborhoods-in-los-angeles"
            ],
            "longitude": "-118.557273163561"
        },
        "paradise cove": {
            "latitude": "37.8962016",
            "closest_to": "",
            "address": "Paradise Cove, El Campo, Marin County, California, 94920, United States of America",
            "locType": "residential",
            "blogLinks": [
                "http://gocalifornia.about.com/od/calamenu/ss/los-angeles-beaches.htm"
            ],
            "longitude": "-122.4689008"
        },
        "black hill": {
            "latitude": "34.1788953",
            "closest_to": "",
            "address": "Black Hill, San Bernardino County, California, United States of America",
            "locType": "peak",
            "blogLinks": [
                "https://www.gapyear.com/articles/216212/13-incredible-stops-on-the-pacific-coast-highway"
            ],
            "longitude": "-116.49196"
        },
        "state beach": {
            "latitude": "34.03385755",
            "closest_to": "",
            "address": "Malibu Lagoon State Beach, Pacific Coast Highway, Malibu, Los Angeles County, California, 90265, United States of America",
            "locType": "beach",
            "blogLinks": [
                "http://gocalifornia.about.com/od/calamenu/ss/los-angeles-beaches.htm",
                "http://www.trippy.com/question/California-Where-to-stay-half-way-between-S-F--and-L-A",
                "https://www.timeout.com/los-angeles/things-to-do/best-beaches-in-la-top-coastal-escapes-to-surf-swim-and-play"
            ],
            "longitude": "-118.679064060789"
        },
        "balboa island": {
            "latitude": "33.6064778",
            "closest_to": "",
            "address": "Balboa Island, Newport Beach, Orange County, California, United States of America",
            "locType": "suburb",
            "blogLinks": [
                "https://www.tripadvisor.com/Travel-g28926-c174834/California:United-States:Coast.Highway.Route.From.La.To.San.Diego.html"
            ],
            "longitude": "-117.8920818"
        },
        "temescal canyon road": {
            "latitude": "33.7831163",
            "closest_to": "",
            "address": "Temescal Canyon Road, Arcilla, Temescal Valley, Riverside County, California, 92530, United States of America",
            "locType": "secondary",
            "blogLinks": [
                "http://gocalifornia.about.com/od/calamenu/ss/los-angeles-beaches.htm"
            ],
            "longitude": "-117.4889887"
        },
        "gaffey street": {
            "latitude": "36.9867714",
            "closest_to": "",
            "address": "Gaffey Creek, Santa Cruz County, California, United States of America",
            "locType": "stream",
            "blogLinks": [
                "https://www.tripadvisor.com/Travel-g28926-c174834/California:United-States:Coast.Highway.Route.From.La.To.San.Diego.html"
            ],
            "longitude": "-121.7234429"
        },
        "hawaii": {
            "latitude": "36.8347819",
            "closest_to": "",
            "address": "Hawaii, Fresno County, California, 93650, United States of America",
            "locType": "service",
            "blogLinks": [
                "http://www.travelmath.com/drive-distance/from/Long+Beach,+CA/to/Los+Angeles,+CA"
            ],
            "longitude": "-119.7966952"
        },
        "los alamos": {
            "latitude": "34.7379311",
            "closest_to": "",
            "address": "Los Alamos, Bell Street, Los Alamos, Santa Barbara County, California, 93455, United States of America",
            "locType": "administrative",
            "blogLinks": [
                "http://travelblog.viator.com/road-trip-san-francisco-los-angeles/"
            ],
            "longitude": "-120.26591036241"
        },
        "santa clarita": {
            "latitude": "34.3916641",
            "closest_to": "",
            "address": "Santa Clarita, Los Angeles County, California, United States of America",
            "locType": "city",
            "blogLinks": [
                "http://www.greatamericancountry.com/living/at-home/10-great-neighborhoods-in-los-angeles"
            ],
            "longitude": "-118.5425859"
        },
        "solana beach": {
            "latitude": "32.9905597",
            "closest_to": "",
            "address": "Solana Beach, San Diego County, California, United States of America",
            "locType": "city",
            "blogLinks": [
                "https://www.tripadvisor.com/Travel-g28926-c174834/California:United-States:Coast.Highway.Route.From.La.To.San.Diego.html"
            ],
            "longitude": "-117.2691315"
        },
        "dume beach": {
            "latitude": "34.0028699",
            "closest_to": "",
            "address": "Point Dume State Beach, Point Dume Path: Please stay on trail!, Malibu, Los Angeles County, California, United States of America",
            "locType": "nature_reserve",
            "blogLinks": [
                "http://gocalifornia.about.com/od/calamenu/ss/los-angeles-beaches.htm"
            ],
            "longitude": "-118.806471967307"
        },
        "washington street": {
            "latitude": "32.7415883",
            "closest_to": "",
            "address": "Washington Street, Kurtz Street, Hillcrest, San Diego, San Diego County, California, 92103, United States of America",
            "locType": "station",
            "blogLinks": [
                "http://gocalifornia.about.com/od/calamenu/ss/los-angeles-beaches.htm"
            ],
            "longitude": "-117.1842757"
        },
        "balboa park": {
            "latitude": "37.72494875",
            "closest_to": "",
            "address": "Balboa Park, Sergeant John V Young Lane, Ingleside, SF, California, 94112, United States of America",
            "locType": "park",
            "blogLinks": [
                "https://www.gapyear.com/articles/216212/13-incredible-stops-on-the-pacific-coast-highway"
            ],
            "longitude": "-122.444804424152"
        },
        "rio theatre": {
            "latitude": "36.9801486",
            "closest_to": "",
            "address": "Rio Theatre, Soquel Avenue, Soquel Avenue Commercial Corridor, Eastside, Santa Cruz, Santa Cruz County, California, 95062, United States of America",
            "locType": "theatre",
            "blogLinks": [
                "https://www.gapyear.com/articles/216212/13-incredible-stops-on-the-pacific-coast-highway"
            ],
            "longitude": "-122.0104295"
        },
        "abalone cove": {
            "latitude": "34.17974",
            "closest_to": "",
            "address": "Abalone Cove, Port Hueneme, Ventura County, California, 93041, United States of America",
            "locType": "residential",
            "blogLinks": [
                "http://gocalifornia.about.com/od/calamenu/ss/los-angeles-beaches.htm"
            ],
            "longitude": "-119.2143939"
        },
        "zuma beach": {
            "latitude": "34.0214393",
            "closest_to": "",
            "address": "Zuma Beach, Zuma Beach Access Road, Malibu, Los Angeles County, California, United States of America",
            "locType": "beach",
            "blogLinks": [
                "http://gocalifornia.about.com/od/calamenu/ss/los-angeles-beaches.htm"
            ],
            "longitude": "-118.831034805743"
        },
        "italy": {
            "latitude": "45.659844",
            "closest_to": "",
            "address": "California, MB, LOM, Italia",
            "locType": "village",
            "blogLinks": [
                "http://www.greatamericancountry.com/living/at-home/10-great-neighborhoods-in-los-angeles"
            ],
            "longitude": "9.3130453"
        },
        "ventura county": {
            "latitude": "34.4458248",
            "closest_to": "",
            "address": "Ventura County, California, United States of America",
            "locType": "administrative",
            "blogLinks": [
                "https://www.timeout.com/los-angeles/things-to-do/best-beaches-in-la-top-coastal-escapes-to-surf-swim-and-play"
            ],
            "longitude": "-119.0779358"
        },
        "golden gate park": {
            "latitude": "37.7693681",
            "closest_to": "",
            "address": "Golden Gate Park, Overlook Drive, Richmond District, SF, California, 94122, United States of America",
            "locType": "park",
            "blogLinks": [
                "https://www.gapyear.com/articles/216212/13-incredible-stops-on-the-pacific-coast-highway"
            ],
            "longitude": "-122.482183611177"
        },
        "neptune": {
            "latitude": "33.7953668",
            "closest_to": "",
            "address": "Neptune, Palm Springs, Riverside County, California, 92264, United States of America",
            "locType": "residential",
            "blogLinks": [
                "https://www.timeout.com/los-angeles/things-to-do/best-beaches-in-la-top-coastal-escapes-to-surf-swim-and-play"
            ],
            "longitude": "-116.5067839"
        },
        "santa lucia mountain": {
            "latitude": "34.4379129",
            "closest_to": "",
            "address": "Santa Lucia, Santa Barbara County, California, 93111, United States of America",
            "locType": "residential",
            "blogLinks": [
                "http://travelblog.viator.com/road-trip-san-francisco-los-angeles/"
            ],
            "longitude": "-119.8003246"
        },
        "la": {
            "latitude": "36.7014631",
            "closest_to": "",
            "address": "California, United States of America",
            "locType": "administrative",
            "blogLinks": [
                "https://www.tripadvisor.com/Travel_Guide-g32655-Los_Angeles_California.html",
                "https://www.timeout.com/los-angeles/things-to-do/best-beaches-in-la-top-coastal-escapes-to-surf-swim-and-play",
                "http://gocalifornia.about.com/od/calamenu/ss/los-angeles-beaches.htm",
                "http://www.trippy.com/question/California-Where-to-stay-half-way-between-S-F--and-L-A",
                "https://www.timeout.com/los-angeles/things-to-do/great-things-to-do-in-los-angeles"
            ],
            "longitude": "-118.7559973"
        },
        "paradise cove beach": {
            "latitude": "33.4267962",
            "closest_to": "",
            "address": "Paradise Cove, Old Hunting Road, El Rancho Escondido, Los Angeles County, California, United States of America",
            "locType": "beach",
            "blogLinks": [
                "http://gocalifornia.about.com/od/calamenu/ss/los-angeles-beaches.htm"
            ],
            "longitude": "-118.424867193274"
        },
        "new zealand": {
            "latitude": "-41.1069272",
            "closest_to": "",
            "address": "California Drive, Totara Park, Upper Hutt, Upper Hutt City, Wellington, 5371, New Zealand/Aotearoa",
            "locType": "tertiary",
            "blogLinks": [
                "http://www.trippy.com/question/California-Where-to-stay-half-way-between-S-F--and-L-A"
            ],
            "longitude": "175.0832904"
        },
        "union square": {
            "latitude": "37.78794125",
            "closest_to": "",
            "address": "Union Square, Post Street, Chinatown, SF, California, 94115, United States of America",
            "locType": "park",
            "blogLinks": [
                "https://www.gapyear.com/articles/216212/13-incredible-stops-on-the-pacific-coast-highway"
            ],
            "longitude": "-122.407502671706"
        },
        "philadelphia street": {
            "latitude": "34.0338142",
            "closest_to": "",
            "address": "Philadelphia Street, Ontario, San Bernardino County, California, 91761, United States of America",
            "locType": "tertiary",
            "blogLinks": [
                "http://www.greatamericancountry.com/living/at-home/10-great-neighborhoods-in-los-angeles"
            ],
            "longitude": "-117.5981519"
        },
        "el matador state beach": {
            "latitude": "34.03821",
            "closest_to": "",
            "address": "El Matador State Beach, El Matador Beach Road, Malibu, Los Angeles County, California, 90265, United States of America",
            "locType": "park",
            "blogLinks": [
                "http://gocalifornia.about.com/od/calamenu/ss/los-angeles-beaches.htm",
                "https://www.tripadvisor.com/Travel_Guide-g32655-Los_Angeles_California.html"
            ],
            "longitude": "-118.87629"
        },
        "united kingdom": {
            "latitude": "52.4422729",
            "closest_to": "",
            "address": "California, Birmingham, West Midlands, England, UK",
            "locType": "village",
            "blogLinks": [
                "http://www.visitlongbeach.com/attractions/"
            ],
            "longitude": "-1.9796882"
        },
        "monterey county": {
            "latitude": "36.2231079",
            "closest_to": "",
            "address": "Monterey County, California, United States of America",
            "locType": "administrative",
            "blogLinks": [
                "http://travelblog.viator.com/road-trip-san-francisco-los-angeles/"
            ],
            "longitude": "-121.3877427"
        },
        "oregon": {
            "latitude": "33.7123207",
            "closest_to": "",
            "address": "Oregon, Walnut, Irvine, Orange County, California, 92606, United States of America",
            "locType": "residential",
            "blogLinks": [
                "https://www.gapyear.com/articles/216212/13-incredible-stops-on-the-pacific-coast-highway"
            ],
            "longitude": "-117.7911567"
        },
        "coronado bridge": {
            "latitude": "32.6904606",
            "closest_to": "",
            "address": "San Diego-Coronado Bridge, San Diego, San Diego County, California, 92118, United States of America",
            "locType": "motorway",
            "blogLinks": [
                "https://www.gapyear.com/articles/216212/13-incredible-stops-on-the-pacific-coast-highway"
            ],
            "longitude": "-117.1524863"
        },
        "chinatown": {
            "latitude": "37.7999301",
            "closest_to": "",
            "address": "Chinatown, Oakland, Alameda County, California, ca, United States of America",
            "locType": "neighbourhood",
            "blogLinks": [
                "https://www.timeout.com/los-angeles/things-to-do/great-things-to-do-in-los-angeles"
            ],
            "longitude": "-122.2702385"
        },
        "balboa peninsula": {
            "latitude": "33.5975",
            "closest_to": "",
            "address": "Balboa Peninsula, Newport Beach, Orange County, California, United States of America",
            "locType": "suburb",
            "blogLinks": [
                "https://www.tripadvisor.com/Travel-g28926-c174834/California:United-States:Coast.Highway.Route.From.La.To.San.Diego.html"
            ],
            "longitude": "-117.8860521"
        },
        "half moon bay": {
            "latitude": "37.4635519",
            "closest_to": "",
            "address": "Half Moon Bay, San Mateo County, California, United States of America",
            "locType": "city",
            "blogLinks": [
                "https://www.gapyear.com/articles/216212/13-incredible-stops-on-the-pacific-coast-highway"
            ],
            "longitude": "-122.4285861"
        },
        "carrillo state park": {
            "latitude": "34.05181445",
            "closest_to": "",
            "address": "Leo Carrillo State Park, Pacific Coast Highway, Solromar, Ventura County, California, United States of America",
            "locType": "park",
            "blogLinks": [
                "http://gocalifornia.about.com/od/calamenu/ss/los-angeles-beaches.htm"
            ],
            "longitude": "-118.960850079816"
        },
        "rodeo drive": {
            "latitude": "32.824444",
            "closest_to": "",
            "address": "Rodeo Drive, La Jolla, San Diego, San Diego County, California, 92037, United States of America",
            "locType": "residential",
            "blogLinks": [
                "https://www.gapyear.com/articles/216212/13-incredible-stops-on-the-pacific-coast-highway",
                "http://www.greatamericancountry.com/living/at-home/10-great-neighborhoods-in-los-angeles"
            ],
            "longitude": "-117.2609329"
        },
        "lombard street": {
            "latitude": "37.802076",
            "closest_to": "",
            "address": "1079, Lombard Street, Russian Hill, SF, California, 94109, United States of America",
            "locType": "residential",
            "blogLinks": [
                "https://www.gapyear.com/articles/216212/13-incredible-stops-on-the-pacific-coast-highway"
            ],
            "longitude": "-122.418809"
        },
        "san fernando road": {
            "latitude": "34.3113261",
            "closest_to": "",
            "address": "San Fernando Road, Sylmar, LA, Los Angeles County, California, 91344, United States of America",
            "locType": "primary",
            "blogLinks": [
                "http://www.greatamericancountry.com/living/at-home/10-great-neighborhoods-in-los-angeles"
            ],
            "longitude": "-118.4749246"
        },
        "laguna beach": {
            "latitude": "33.5420888",
            "closest_to": "",
            "address": "Laguna Beach, Orange County, California, United States of America",
            "locType": "city",
            "blogLinks": [
                "https://www.tripadvisor.com/Travel-g28926-c174834/California:United-States:Coast.Highway.Route.From.La.To.San.Diego.html",
                "https://www.gapyear.com/articles/216212/13-incredible-stops-on-the-pacific-coast-highway"
            ],
            "longitude": "-117.7834146"
        },
        "san diego": {
            "latitude": "32.7174209",
            "closest_to": "",
            "address": "San Diego, San Diego County, California, United States of America",
            "locType": "city",
            "blogLinks": [
                "http://gocalifornia.about.com/od/calamenu/ss/los-angeles-beaches.htm",
                "https://www.gapyear.com/articles/216212/13-incredible-stops-on-the-pacific-coast-highway"
            ],
            "longitude": "-117.1627713"
        },
        "cambria": {
            "latitude": "35.5641381",
            "closest_to": "",
            "address": "Cambria, San Luis Obispo County, California, United States of America",
            "locType": "administrative",
            "blogLinks": [
                "http://www.trippy.com/question/California-Where-to-stay-half-way-between-S-F--and-L-A"
            ],
            "longitude": "-121.0807467"
        },
        "palos verdes drive": {
            "latitude": "37.5310595",
            "closest_to": "",
            "address": "Palos Verdes Drive, San Mateo, San Mateo County, California, 94403, United States of America",
            "locType": "residential",
            "blogLinks": [
                "https://www.tripadvisor.com/Travel-g28926-c174834/California:United-States:Coast.Highway.Route.From.La.To.San.Diego.html",
                "http://gocalifornia.about.com/od/calamenu/ss/los-angeles-beaches.htm"
            ],
            "longitude": "-122.328956"
        },
        "bixby creek bridge": {
            "latitude": "36.3710197",
            "closest_to": "",
            "address": "Bixby Creek Bridge, Notleys Landing, Monterey County, California, 93923, United States of America",
            "locType": "primary",
            "blogLinks": [
                "http://travelblog.viator.com/road-trip-san-francisco-los-angeles/"
            ],
            "longitude": "-121.9017572"
        },
        "washington": {
            "latitude": "40.0657724",
            "closest_to": "",
            "address": "California, Washington County, Pennsylvania, United States of America",
            "locType": "administrative",
            "blogLinks": [
                "http://gocalifornia.about.com/od/calamenu/ss/los-angeles-beaches.htm",
                "http://www.greatamericancountry.com/living/at-home/10-great-neighborhoods-in-los-angeles"
            ],
            "longitude": "-79.8918435"
        },
        "silicon valley": {
            "latitude": "37.4105333",
            "closest_to": "",
            "address": "Carnegie Mellon Silicon Valley, South Akron Road, Santa Clara County, California, 94035-0016, United States of America",
            "locType": "school",
            "blogLinks": [
                "https://www.gapyear.com/articles/216212/13-incredible-stops-on-the-pacific-coast-highway"
            ],
            "longitude": "-122.0597491"
        },
        "rose avenue": {
            "latitude": "33.9189797",
            "closest_to": "",
            "address": "Rose Avenue, Riverside, Riverside County, California, 92505, United States of America",
            "locType": "residential",
            "blogLinks": [
                "http://gocalifornia.about.com/od/calamenu/ss/los-angeles-beaches.htm"
            ],
            "longitude": "-117.4909612"
        },
        "pacific ocean": {
            "latitude": "36.16305775",
            "closest_to": "",
            "address": "Pacific Ocean, Cabrillo Highway, Monterey County, California, 93920, United States of America",
            "locType": "cliff",
            "blogLinks": [
                "http://travelblog.viator.com/road-trip-san-francisco-los-angeles/",
                "http://www.hopper.com/articles/291/five-great-stops-between-los-angeles-and-san-francisco-on-the-pacific-coast-highway",
                "http://www.greatamericancountry.com/living/at-home/10-great-neighborhoods-in-los-angeles"
            ],
            "longitude": "-121.678715787326"
        },
        "catalina island": {
            "latitude": "33.3890232",
            "closest_to": "",
            "address": "Santa Catalina Island, Los Angeles County, California, United States of America",
            "locType": "island",
            "blogLinks": [
                "http://gocalifornia.about.com/od/calamenu/ss/los-angeles-beaches.htm"
            ],
            "longitude": "-118.424154004558"
        },
        "carlsbad": {
            "latitude": "33.1580933",
            "closest_to": "",
            "address": "Carlsbad, San Diego County, California, United States of America",
            "locType": "city",
            "blogLinks": [
                "https://www.tripadvisor.com/Travel-g28926-c174834/California:United-States:Coast.Highway.Route.From.La.To.San.Diego.html"
            ],
            "longitude": "-117.3505938"
        },
        "united states": {
            "latitude": "36.7014631",
            "closest_to": "",
            "address": "California, United States of America",
            "locType": "administrative",
            "blogLinks": [
                "https://www.tripadvisor.com/Travel-g28926-c174834/California:United-States:Coast.Highway.Route.From.La.To.San.Diego.html",
                "https://www.tripadvisor.com/Travel_Guide-g32655-Los_Angeles_California.html"
            ],
            "longitude": "-118.7559973"
        },
        "morro bay": {
            "latitude": "35.3658075",
            "closest_to": "",
            "address": "Morro Bay, San Luis Obispo County, California, United States of America",
            "locType": "city",
            "blogLinks": [
                "http://www.trippy.com/question/California-Where-to-stay-half-way-between-S-F--and-L-A"
            ],
            "longitude": "-120.8499012"
        },
        "s.f.": {
            "latitude": "19.9908291",
            "closest_to": "",
            "address": "California, Bosque de Canalejas, Jilotepec, M\u00e9xico, 54270, M\u00e9xico",
            "locType": "residential",
            "blogLinks": [
                "http://www.trippy.com/question/California-Where-to-stay-half-way-between-S-F--and-L-A"
            ],
            "longitude": "-99.6183945"
        },
        "costa rica": {
            "latitude": "9.9327612",
            "closest_to": "",
            "address": "California, Carmen, Cant\u00f3n San Jos\u00e9, Provincia San Jos\u00e9, 10101, Costa Rica",
            "locType": "administrative",
            "blogLinks": [
                "https://www.timeout.com/los-angeles/things-to-do/best-beaches-in-la-top-coastal-escapes-to-surf-swim-and-play"
            ],
            "longitude": "-84.0665223"
        },
        "ventura beach": {
            "latitude": "32.772073",
            "closest_to": "",
            "address": "Ventura Place, Pacific Beach, San Diego, San Diego County, California, 92109, United States of America",
            "locType": "unclassified",
            "blogLinks": [
                "https://www.gapyear.com/articles/216212/13-incredible-stops-on-the-pacific-coast-highway"
            ],
            "longitude": "-117.2514716"
        },
        "westward beach road": {
            "latitude": "34.0111964",
            "closest_to": "",
            "address": "Westward Beach Road, Malibu, Los Angeles County, California, 90265, United States of America",
            "locType": "tertiary",
            "blogLinks": [
                "http://gocalifornia.about.com/od/calamenu/ss/los-angeles-beaches.htm"
            ],
            "longitude": "-118.8169488"
        },
        "big sur bakery": {
            "latitude": "36.2359105",
            "closest_to": "",
            "address": "Big Sur Bakery, 47540, Cabrillo Highway, Posts, Monterey County, California, 93920, United States of America",
            "locType": "bakery",
            "blogLinks": [
                "http://travelblog.viator.com/road-trip-san-francisco-los-angeles/"
            ],
            "longitude": "-121.7693642"
        },
        "san diego freeway": {
            "latitude": "32.7285162",
            "closest_to": "",
            "address": "San Diego Freeway, Hillcrest, San Diego, San Diego County, California, 92101, United States of America",
            "locType": "motorway",
            "blogLinks": [
                "https://www.tripadvisor.com/Travel-g28926-c174834/California:United-States:Coast.Highway.Route.From.La.To.San.Diego.html"
            ],
            "longitude": "-117.1690377"
        },
        "south bay": {
            "latitude": "37.794096",
            "closest_to": "",
            "address": "South Bay, Sea Cliff Avenue, Seacliff, SF, California, 94121, United States of America",
            "locType": "bay",
            "blogLinks": [
                "http://gocalifornia.about.com/od/calamenu/ss/los-angeles-beaches.htm",
                "https://www.timeout.com/los-angeles/things-to-do/best-beaches-in-la-top-coastal-escapes-to-surf-swim-and-play"
            ],
            "longitude": "-122.4927499"
        },
        "riviera": {
            "latitude": "38.568972",
            "closest_to": "",
            "address": "La Riviera, Sparks Way, Mayhew, Sacramento County, California, 95827, United States of America",
            "locType": "administrative",
            "blogLinks": [
                "http://www.travelmath.com/drive-distance/from/Long+Beach,+CA/to/Los+Angeles,+CA"
            ],
            "longitude": "-121.351801220501"
        },
        "westward beach": {
            "latitude": "34.0078097",
            "closest_to": "",
            "address": "Westward Beach, Westward Beach Road, Malibu, Los Angeles County, California, 90265, United States of America",
            "locType": "beach",
            "blogLinks": [
                "http://gocalifornia.about.com/od/calamenu/ss/los-angeles-beaches.htm"
            ],
            "longitude": "-118.814488160399"
        },
        "palomar": {
            "latitude": "23.48019285",
            "closest_to": "",
            "address": "Palomar, Calzada Maestros Misioneros de 1930, Santiago, Los Cabos, Baja California Sur, M\u00e9xico",
            "locType": "hotel",
            "blogLinks": [
                "https://www.gapyear.com/articles/216212/13-incredible-stops-on-the-pacific-coast-highway"
            ],
            "longitude": "-109.715262801301"
        },
        "south orange county": {
            "latitude": "33.6589297",
            "closest_to": "",
            "address": "S, Bellecour Way, Bellecour Way Apartments, Foothill Ranch, Lake Forest, Orange County, California, 92630, United States of America",
            "locType": "yes",
            "blogLinks": [
                "https://www.tripadvisor.com/Travel-g28926-c174834/California:United-States:Coast.Highway.Route.From.La.To.San.Diego.html"
            ],
            "longitude": "-117.667997530973"
        },
        "pacific beach": {
            "latitude": "32.7978268",
            "closest_to": "",
            "address": "Pacific Beach, San Diego, San Diego County, California, United States of America",
            "locType": "suburb",
            "blogLinks": [
                "https://www.gapyear.com/articles/216212/13-incredible-stops-on-the-pacific-coast-highway"
            ],
            "longitude": "-117.2403182"
        },
        "bay": {
            "latitude": "33.6899249",
            "closest_to": "",
            "address": "Bay, Meadows Mobile Home Park, El Camino Real, Irvine, Orange County, California, 92406, United States of America",
            "locType": "service",
            "blogLinks": [
                "http://travelblog.viator.com/road-trip-san-francisco-los-angeles/",
                "http://gocalifornia.about.com/od/calamenu/ss/los-angeles-beaches.htm"
            ],
            "longitude": "-117.7729354"
        },
        "grand junction": {
            "latitude": "39.055029",
            "closest_to": "",
            "address": "California, Junction City, Geary County, Kansas, 66442, United States of America",
            "locType": "residential",
            "blogLinks": [
                "http://vagabond3.com/los-angeles-to-colorado/"
            ],
            "longitude": "-96.8116219"
        },
        "trinidad": {
            "latitude": "41.059291",
            "closest_to": "",
            "address": "Trinidad, Humboldt County, California, United States of America",
            "locType": "city",
            "blogLinks": [
                "http://vagabond3.com/los-angeles-to-colorado/"
            ],
            "longitude": "-124.1431245"
        },
        "las virgenes road": {
            "latitude": "34.1481173",
            "closest_to": "",
            "address": "Las Virgenes Road, Calabasas, Los Angeles County, California, 91302, United States of America",
            "locType": "primary",
            "blogLinks": [
                "http://gocalifornia.about.com/od/calamenu/ss/los-angeles-beaches.htm"
            ],
            "longitude": "-118.6977611"
        },
        "carmel": {
            "latitude": "38.75511285",
            "closest_to": "",
            "address": "Carmel, Roseville, Placer County, California, 95747, United States of America",
            "locType": "residential",
            "blogLinks": [
                "http://travelblog.viator.com/road-trip-san-francisco-los-angeles/",
                "http://www.hopper.com/articles/291/five-great-stops-between-los-angeles-and-san-francisco-on-the-pacific-coast-highway",
                "http://www.trippy.com/question/California-Where-to-stay-half-way-between-S-F--and-L-A"
            ],
            "longitude": "-121.353308848273"
        },
        "san diego bay": {
            "latitude": "32.6500534",
            "closest_to": "",
            "address": "San Diego Bay, Leyte Road, Crown Island, Coronado, San Diego County, California, 92118, United States of America",
            "locType": "bay",
            "blogLinks": [
                "https://www.gapyear.com/articles/216212/13-incredible-stops-on-the-pacific-coast-highway"
            ],
            "longitude": "-117.1341977"
        }
    },
    "long beach": {
        "type": "city",
        "osm_id": "112100",
        "class": "place",
        "importance": 0.87291598958998,
        "lat": "33.78538945",
        "lon": "-118.158049215311",
        "boundingbox": [
            "33.6905847",
            "33.8855951",
            "-118.2489659",
            "-118.0632824"
        ],
        "display_name": "Long Beach, Los Angeles County, California, United States of America",
        "licence": "Data \u00a9 OpenStreetMap contributors, ODbL 1.0. http://www.openstreetmap.org/copyright",
        "icon": "https://nominatim.openstreetmap.org/images/mapicons/poi_place_city.p.20.png",
        "place_id": "158641779",
        "osm_type": "relation"
    }
}