{
    "san bernardino": {
        "type": "city",
        "osm_id": "253639",
        "class": "place",
        "importance": 0.81183700771795,
        "lat": "34.1083449",
        "lon": "-117.2897651",
        "boundingbox": [
            "34.050346",
            "34.230706",
            "-117.4024519",
            "-117.1649719"
        ],
        "display_name": "San Bernardino, San Bernardino County, California, United States of America",
        "licence": "Data \u00a9 OpenStreetMap contributors, ODbL 1.0. http://www.openstreetmap.org/copyright",
        "icon": "https://nominatim.openstreetmap.org/images/mapicons/poi_place_city.p.20.png",
        "place_id": "159293643",
        "osm_type": "relation"
    },
    "mentions": {
        "highway 101": {
            "latitude": "32.9967358",
            "closest_to": "",
            "address": "Highway 101, Solana Beach, San Diego County, California, 92075, United States of America",
            "locType": "primary",
            "blogLinks": [
                "http://www.parks.ca.gov/?page_id=22722"
            ],
            "longitude": "-117.2731974"
        },
        "primm": {
            "latitude": "37.333961",
            "closest_to": "",
            "address": "Primm Avenue, Little Saigon, San Jos\u00e9, Santa Clara County, California, 95122, United States of America",
            "locType": "residential",
            "blogLinks": [
                "https://www.tripadvisor.com/ShowTopic-g32655-i61-k6808882-Route_66_from_LA_to_Las_Vegas-Los_Angeles_California.html"
            ],
            "longitude": "-121.8420481"
        },
        "carmel-by-the-sea": {
            "latitude": "36.5552387",
            "closest_to": "",
            "address": "Carmel-by-the-Sea, Monterey County, California, United States of America",
            "locType": "city",
            "blogLinks": [
                "http://www.hopper.com/articles/291/five-great-stops-between-los-angeles-and-san-francisco-on-the-pacific-coast-highway"
            ],
            "longitude": "-121.9232878"
        },
        "india": {
            "latitude": "32.72025735",
            "closest_to": "",
            "address": "Star of India, North Harbor Drive, Hillcrest, San Diego, San Diego County, California, 92106, United States of America",
            "locType": "attraction",
            "blogLinks": [
                "http://wikitravel.org/en/San_Diego"
            ],
            "longitude": "-117.173543004762"
        },
        "broadway": {
            "latitude": "37.7958391",
            "closest_to": "",
            "address": "Broadway, Russian Hill, SF, California, 94109;94115, United States of America",
            "locType": "primary",
            "blogLinks": [
                "http://wikitravel.org/en/San_Diego",
                "http://gocalifornia.about.com/od/topcalifornia/ss/route-66.htm"
            ],
            "longitude": "-122.4226908"
        },
        "linda vista road": {
            "latitude": "32.805611",
            "closest_to": "",
            "address": "Linda Vista Road, Mission Valley, San Diego, San Diego County, California, 92111, United States of America",
            "locType": "secondary",
            "blogLinks": [
                "http://wikitravel.org/en/San_Diego"
            ],
            "longitude": "-117.1553189"
        },
        "us hwy 101": {
            "latitude": "32.9967358",
            "closest_to": "",
            "address": "Highway 101, Solana Beach, San Diego County, California, 92075, United States of America",
            "locType": "primary",
            "blogLinks": [
                "http://gocalifornia.about.com/od/topcalifornia/ss/route-66.htm"
            ],
            "longitude": "-117.2731974"
        },
        "san diego county": {
            "latitude": "32.9637838",
            "closest_to": "",
            "address": "San Diego County, California, United States of America",
            "locType": "administrative",
            "blogLinks": [
                "http://wikitravel.org/en/San_Diego",
                "http://traveltips.usatoday.com/tourist-attractions-highway-15-california-nevada-107323.html"
            ],
            "longitude": "-116.7706276"
        },
        "san francisco bay area": {
            "latitude": "37.7884969",
            "closest_to": "",
            "address": "San Francisco Bay Area, SF, California, United States of America",
            "locType": "region",
            "blogLinks": [
                "http://wikitravel.org/en/San_Diego"
            ],
            "longitude": "-122.3558472"
        },
        "imperial beach": {
            "latitude": "32.5839444",
            "closest_to": "",
            "address": "Imperial Beach, San Diego County, California, United States of America",
            "locType": "city",
            "blogLinks": [
                "http://wikitravel.org/en/San_Diego"
            ],
            "longitude": "-117.1130848"
        },
        "mission beach": {
            "latitude": "32.7827144",
            "closest_to": "",
            "address": "Mission Beach, San Diego County, California, United States of America",
            "locType": "hamlet",
            "blogLinks": [
                "http://wikitravel.org/en/San_Diego"
            ],
            "longitude": "-117.2525056"
        },
        "imperial valley": {
            "latitude": "33.0305487",
            "closest_to": "",
            "address": "Imperial County, California, United States of America",
            "locType": "administrative",
            "blogLinks": [
                "http://wikitravel.org/en/San_Diego"
            ],
            "longitude": "-115.3595665"
        },
        "la jolla": {
            "latitude": "32.8472711",
            "closest_to": "",
            "address": "La Jolla, San Diego, San Diego County, California, United States of America",
            "locType": "suburb",
            "blogLinks": [
                "http://wikitravel.org/en/San_Diego"
            ],
            "longitude": "-117.2742085"
        },
        "spain": {
            "latitude": "37.1412332",
            "closest_to": "",
            "address": "La California, Mor\u00f3n de la Frontera, Sevilla, Andaluc\u00eda, Espa\u00f1a",
            "locType": "locality",
            "blogLinks": [
                "http://wikitravel.org/en/San_Diego",
                "http://www.parks.ca.gov/?page_id=22722"
            ],
            "longitude": "-5.4610806"
        },
        "encinitas": {
            "latitude": "33.0369867",
            "closest_to": "",
            "address": "Encinitas, San Diego County, California, United States of America",
            "locType": "city",
            "blogLinks": [
                "http://wikitravel.org/en/San_Diego"
            ],
            "longitude": "-117.2919817"
        },
        "san rafael": {
            "latitude": "37.9735346",
            "closest_to": "",
            "address": "San Rafael, Marin County, California, United States of America",
            "locType": "city",
            "blogLinks": [
                "http://www.parks.ca.gov/?page_id=22722"
            ],
            "longitude": "-122.5310873"
        },
        "palm desert": {
            "latitude": "33.7288179",
            "closest_to": "",
            "address": "Palm Desert, Riverside County, California, United States of America",
            "locType": "city",
            "blogLinks": [
                "https://www.tripadvisor.com/ShowTopic-g32655-i61-k6808882-Route_66_from_LA_to_Las_Vegas-Los_Angeles_California.html",
                "http://www.bestplaces.net/city/california/san_bernardino"
            ],
            "longitude": "-116.382571"
        },
        "cuyamaca rancho state park": {
            "latitude": "32.86396725",
            "closest_to": "",
            "address": "Cuyamaca Rancho State Park, Highway 79, Guatay, San Diego County, California, 92036, United States of America",
            "locType": "park",
            "blogLinks": [
                "http://wikitravel.org/en/San_Diego"
            ],
            "longitude": "-116.591579345466"
        },
        "solana beach": {
            "latitude": "32.9905597",
            "closest_to": "",
            "address": "Solana Beach, San Diego County, California, United States of America",
            "locType": "city",
            "blogLinks": [
                "http://wikitravel.org/en/San_Diego"
            ],
            "longitude": "-117.2691315"
        },
        "chino creek": {
            "latitude": "39.7711088",
            "closest_to": "",
            "address": "Chino Creek, Butte County, California, United States of America",
            "locType": "stream",
            "blogLinks": [
                "http://californiaoutdoorplayground.com/San-Bernardino-Tourism-Blog/June-2016/Summer-Fun-Places-for-Kids-Part-One.aspx"
            ],
            "longitude": "-121.4221926"
        },
        "san jose": {
            "latitude": "37.3361905",
            "closest_to": "",
            "address": "San Jos\u00e9, Santa Clara County, California, United States of America",
            "locType": "city",
            "blogLinks": [
                "http://www.parks.ca.gov/?page_id=22722"
            ],
            "longitude": "-121.8905832"
        },
        "u.s.": {
            "latitude": "-32.5446226",
            "closest_to": "",
            "address": "La California, Municipio de Las Rosas, Departamento Belgrano, Sta. Fe, Argentina",
            "locType": "hamlet",
            "blogLinks": [
                "http://wikitravel.org/en/San_Diego",
                "http://koa.com/states-provinces/california/",
                "http://www.bestplaces.net/city/california/san_bernardino"
            ],
            "longitude": "-61.5489543"
        },
        "ocean beach": {
            "latitude": "32.7477784",
            "closest_to": "",
            "address": "Ocean Beach, San Diego, San Diego County, California, United States of America",
            "locType": "region",
            "blogLinks": [
                "http://wikitravel.org/en/San_Diego"
            ],
            "longitude": "-117.249321"
        },
        "hillcrest": {
            "latitude": "32.7483621",
            "closest_to": "",
            "address": "Hillcrest, San Diego, San Diego County, California, United States of America",
            "locType": "suburb",
            "blogLinks": [
                "http://wikitravel.org/en/San_Diego"
            ],
            "longitude": "-117.1609795"
        },
        "santa fe depot": {
            "latitude": "32.7167353",
            "closest_to": "",
            "address": "Santa Fe Depot, Martin Luther King Promenade, Hillcrest, San Diego, San Diego County, California, 92101, United States of America",
            "locType": "station",
            "blogLinks": [
                "http://wikitravel.org/en/San_Diego"
            ],
            "longitude": "-117.1698167"
        },
        "baker": {
            "latitude": "35.0421963",
            "closest_to": "",
            "address": "Baker, Kern County, California, United States of America",
            "locType": "hamlet",
            "blogLinks": [
                "http://traveltips.usatoday.com/tourist-attractions-highway-15-california-nevada-107323.html",
                "https://www.tripadvisor.com/ShowTopic-g32655-i61-k6808882-Route_66_from_LA_to_Las_Vegas-Los_Angeles_California.html"
            ],
            "longitude": "-117.6675603"
        },
        "shanghai": {
            "latitude": "37.34935045",
            "closest_to": "",
            "address": "Shanghai, Jackson Street, Hensley Historic District, Japantown, San Jos\u00e9, Santa Clara County, California, 95112, United States of America",
            "locType": "yes",
            "blogLinks": [
                "http://wikitravel.org/en/San_Diego"
            ],
            "longitude": "-121.894015266141"
        },
        "latin america": {
            "latitude": "32.88513545",
            "closest_to": "",
            "address": "Latin America Hall, North Torrey Pines Road, La Jolla, San Diego, San Diego County, California, 92037, United States of America",
            "locType": "yes",
            "blogLinks": [
                "http://wikitravel.org/en/San_Diego"
            ],
            "longitude": "-117.243474813578"
        },
        "santee": {
            "latitude": "32.8383828",
            "closest_to": "",
            "address": "Santee, San Diego County, California, United States of America",
            "locType": "city",
            "blogLinks": [
                "http://wikitravel.org/en/San_Diego"
            ],
            "longitude": "-116.9739166"
        },
        "viejas arena": {
            "latitude": "32.77380925",
            "closest_to": "",
            "address": "Viejas Arena, Aztec Walk, San Diego, San Diego County, California, 92182, United States of America",
            "locType": "sports_centre",
            "blogLinks": [
                "http://wikitravel.org/en/San_Diego"
            ],
            "longitude": "-117.074548235413"
        },
        "american riviera": {
            "latitude": "38.576666",
            "closest_to": "",
            "address": "American River Drive, La Riviera, Sacramento County, California, 95608, United States of America",
            "locType": "tertiary",
            "blogLinks": [
                "http://www.hopper.com/articles/291/five-great-stops-between-los-angeles-and-san-francisco-on-the-pacific-coast-highway"
            ],
            "longitude": "-121.3602199"
        },
        "chandler": {
            "latitude": "36.5873787",
            "closest_to": "",
            "address": "Chandler, Selma, Fresno County, California, 93662, United States of America",
            "locType": "residential",
            "blogLinks": [
                "http://wikitravel.org/en/San_Diego"
            ],
            "longitude": "-119.633388"
        },
        "morena blvd": {
            "latitude": "32.816795",
            "closest_to": "",
            "address": "Morena Boulevard, Pacific Beach, San Diego, San Diego County, California, 92110, United States of America",
            "locType": "secondary",
            "blogLinks": [
                "http://wikitravel.org/en/San_Diego"
            ],
            "longitude": "-117.2209089"
        },
        "north park": {
            "latitude": "32.7408842",
            "closest_to": "",
            "address": "North Park, San Diego, San Diego County, California, 92104, United States of America",
            "locType": "neighbourhood",
            "blogLinks": [
                "http://wikitravel.org/en/San_Diego"
            ],
            "longitude": "-117.1305876"
        },
        "goffs rd": {
            "latitude": "34.7547621",
            "closest_to": "",
            "address": "Goffs Road, Essex, San Bernardino County, California, United States of America",
            "locType": "secondary",
            "blogLinks": [
                "http://gocalifornia.about.com/od/topcalifornia/ss/route-66.htm"
            ],
            "longitude": "-115.2214411"
        },
        "fremont": {
            "latitude": "37.5482697",
            "closest_to": "",
            "address": "Fremont, Alameda County, California, United States of America",
            "locType": "city",
            "blogLinks": [
                "http://www.parks.ca.gov/?page_id=22722"
            ],
            "longitude": "-121.9885718"
        },
        "old town": {
            "latitude": "35.142943",
            "closest_to": "",
            "address": "Old Town, Golden Hills, Kern County, California, United States of America",
            "locType": "locality",
            "blogLinks": [
                "http://wikitravel.org/en/San_Diego",
                "http://californiathroughmylens.com/route-66-attractions-barstow-victorville"
            ],
            "longitude": "-118.4954422"
        },
        "santa cruz": {
            "latitude": "36.9735903",
            "closest_to": "",
            "address": "Santa Cruz, Santa Cruz County, California, United States of America",
            "locType": "city",
            "blogLinks": [
                "http://www.parks.ca.gov/?page_id=22722",
                "http://koa.com/states-provinces/california/"
            ],
            "longitude": "-122.0260569"
        },
        "interstate highway": {
            "latitude": "33.704135",
            "closest_to": "",
            "address": "Interstate 10, Desert Center, Riverside County, California, 92239, United States of America",
            "locType": "motorway",
            "blogLinks": [
                "http://gocalifornia.about.com/od/topcalifornia/ss/route-66.htm"
            ],
            "longitude": "-115.44222"
        },
        "torrey pines state beach": {
            "latitude": "32.91754945",
            "closest_to": "",
            "address": "Torrey Pines State Beach, Yucca Point Trail, Del Mar, San Diego, San Diego County, California, 92121, United States of America",
            "locType": "beach",
            "blogLinks": [
                "http://wikitravel.org/en/San_Diego"
            ],
            "longitude": "-117.259044437013"
        },
        "san diego river": {
            "latitude": "32.7686163",
            "closest_to": "",
            "address": "San Diego River, San Diego, San Diego County, California, United States of America",
            "locType": "river",
            "blogLinks": [
                "http://www.parks.ca.gov/?page_id=22722"
            ],
            "longitude": "-117.1585474"
        },
        "black 's beach": {
            "latitude": "33.3358674",
            "closest_to": "",
            "address": "Black Sea Avenue, Salton Sea Beach, Imperial County, California, United States of America",
            "locType": "residential",
            "blogLinks": [
                "http://wikitravel.org/en/San_Diego"
            ],
            "longitude": "-115.9938426"
        },
        "old town-mission valley": {
            "latitude": "32.7566177",
            "closest_to": "",
            "address": "Old Town, San Diego, San Diego County, California, United States of America",
            "locType": "suburb",
            "blogLinks": [
                "http://wikitravel.org/en/San_Diego"
            ],
            "longitude": "-117.2028231"
        },
        "mount tamalpais": {
            "latitude": "37.879988",
            "closest_to": "",
            "address": "Tamalpais-Homestead Valley, Wendy Way, Almonte, Tamalpais Valley, Marin County, California, 94941, United States of America",
            "locType": "census",
            "blogLinks": [
                "http://www.parks.ca.gov/?page_id=22722"
            ],
            "longitude": "-122.535021480702"
        },
        "el paso": {
            "latitude": "36.8487922",
            "closest_to": "",
            "address": "El Paso, Clovis, Fresno County, California, 93611, United States of America",
            "locType": "residential",
            "blogLinks": [
                "http://wikitravel.org/en/San_Diego"
            ],
            "longitude": "-119.6823199"
        },
        "alameda": {
            "latitude": "37.6090291",
            "closest_to": "",
            "address": "Alameda County, California, United States of America",
            "locType": "administrative",
            "blogLinks": [
                "http://www.parks.ca.gov/?page_id=22722"
            ],
            "longitude": "-121.8991419"
        },
        "san miguel": {
            "latitude": "35.7524679",
            "closest_to": "",
            "address": "San Miguel, San Luis Obispo County, California, United States of America",
            "locType": "village",
            "blogLinks": [
                "http://www.parks.ca.gov/?page_id=22722"
            ],
            "longitude": "-120.6962825"
        },
        "santa barbara": {
            "latitude": "34.4221319",
            "closest_to": "",
            "address": "Santa Barbara, Santa Barbara County, California, United States of America",
            "locType": "city",
            "blogLinks": [
                "http://www.parks.ca.gov/?page_id=22722",
                "http://www.hopper.com/articles/291/five-great-stops-between-los-angeles-and-san-francisco-on-the-pacific-coast-highway"
            ],
            "longitude": "-119.7026672"
        },
        "oceanside": {
            "latitude": "33.1958696",
            "closest_to": "",
            "address": "Oceanside, San Diego County, California, United States of America",
            "locType": "city",
            "blogLinks": [
                "http://wikitravel.org/en/San_Diego",
                "http://www.parks.ca.gov/?page_id=22722"
            ],
            "longitude": "-117.3794833"
        },
        "tijuana": {
            "latitude": "32.5008626",
            "closest_to": "",
            "address": "Tijuana, Baja California, M\u00e9xico",
            "locType": "city",
            "blogLinks": [
                "http://wikitravel.org/en/San_Diego"
            ],
            "longitude": "-116.9641656"
        },
        "yuma": {
            "latitude": "32.749997",
            "closest_to": "",
            "address": "Yuma Main Canal, Imperial County, California, United States of America",
            "locType": "canal",
            "blogLinks": [
                "http://wikitravel.org/en/San_Diego"
            ],
            "longitude": "-114.6287508"
        },
        "northern san diego county": {
            "latitude": "32.7349196",
            "closest_to": "",
            "address": "Northern Frontier, San Diego, San Diego County, California, United States of America",
            "locType": "locality",
            "blogLinks": [
                "http://wikitravel.org/en/San_Diego"
            ],
            "longitude": "-117.1545973"
        },
        "san ysidro blvd": {
            "latitude": "32.5520013",
            "closest_to": "",
            "address": "San Ysidro, San Diego, San Diego County, California, United States of America",
            "locType": "suburb",
            "blogLinks": [
                "http://wikitravel.org/en/San_Diego"
            ],
            "longitude": "-117.0430812"
        },
        "pacific crest trail": {
            "latitude": "38.69418",
            "closest_to": "",
            "address": "Pacific Crest Trail, Pleasant Valley, El Dorado County, California, 95667, United States of America",
            "locType": "residential",
            "blogLinks": [
                "http://cms.sbcounty.gov/parks/Activities/Camping.aspx"
            ],
            "longitude": "-120.6375709"
        },
        "san diego zoo safari park": {
            "latitude": "33.096694",
            "closest_to": "",
            "address": "San Diego Zoo Safari Park, 15500, San Pasqual Valley Road, San Diego, San Diego County, California, 92025, United States of America",
            "locType": "zoo",
            "blogLinks": [
                "http://wikitravel.org/en/San_Diego"
            ],
            "longitude": "-116.995039439834"
        },
        "mt vernon": {
            "latitude": "35.6971844",
            "closest_to": "",
            "address": "Mount Vernon, Kern County, California, United States of America",
            "locType": "peak",
            "blogLinks": [
                "http://gocalifornia.about.com/od/topcalifornia/ss/route-66.htm"
            ],
            "longitude": "-119.9662482"
        },
        "el cajon": {
            "latitude": "32.7947731",
            "closest_to": "",
            "address": "El Cajon, San Diego County, California, United States of America",
            "locType": "city",
            "blogLinks": [
                "http://wikitravel.org/en/San_Diego"
            ],
            "longitude": "-116.9625268"
        },
        "oakland": {
            "latitude": "37.8044557",
            "closest_to": "",
            "address": "Oakland, Alameda County, California, United States of America",
            "locType": "city",
            "blogLinks": [
                "http://www.parks.ca.gov/?page_id=22722"
            ],
            "longitude": "-122.2713562"
        },
        "monterey": {
            "latitude": "36.5844165",
            "closest_to": "",
            "address": "Monterey, Monterey County, California, United States of America",
            "locType": "city",
            "blogLinks": [
                "http://californiathroughmylens.com/route-66-attractions-barstow-victorville"
            ],
            "longitude": "-121.866792846206"
        },
        "palomar airport road": {
            "latitude": "33.1291437",
            "closest_to": "",
            "address": "Palomar Airport Road, Carlsbad, San Diego County, California, 92009, United States of America",
            "locType": "primary",
            "blogLinks": [
                "http://wikitravel.org/en/San_Diego"
            ],
            "longitude": "-117.2418974"
        },
        "summit valley": {
            "latitude": "35.1277437",
            "closest_to": "",
            "address": "Summit, Tehachapi, Kern County, California, United States of America",
            "locType": "locality",
            "blogLinks": [
                "http://cms.sbcounty.gov/parks/Activities/Camping.aspx"
            ],
            "longitude": "-118.4139725"
        },
        "palomar mountain": {
            "latitude": "33.3228128",
            "closest_to": "",
            "address": "Palomar Mountain, San Diego County, California, United States of America",
            "locType": "hamlet",
            "blogLinks": [
                "http://wikitravel.org/en/San_Diego",
                "http://traveltips.usatoday.com/tourist-attractions-highway-15-california-nevada-107323.html"
            ],
            "longitude": "-116.8786358"
        },
        "mountain springs rd": {
            "latitude": "34.8298792",
            "closest_to": "",
            "address": "Mountain Springs Road, San Bernardino County, California, United States of America",
            "locType": "secondary",
            "blogLinks": [
                "http://gocalifornia.about.com/od/topcalifornia/ss/route-66.htm"
            ],
            "longitude": "-115.0509214"
        },
        "laguna st.": {
            "latitude": "37.8048689",
            "closest_to": "",
            "address": "Laguna Street, Marina District, SF, California, 14123, United States of America",
            "locType": "secondary",
            "blogLinks": [
                "http://www.parks.ca.gov/?page_id=22722"
            ],
            "longitude": "-122.4320022"
        },
        "pacific rim": {
            "latitude": "40.8702874",
            "closest_to": "",
            "address": "Pacific Rim, 1021, I Street, Arcata, Humboldt County, California, 95518-4448, United States of America",
            "locType": "restaurant",
            "blogLinks": [
                "http://wikitravel.org/en/San_Diego"
            ],
            "longitude": "-124.0877889"
        },
        "la jolla shores": {
            "latitude": "32.8556028",
            "closest_to": "",
            "address": "La Jolla Shores, San Diego County, California, United States of America",
            "locType": "hamlet",
            "blogLinks": [
                "http://wikitravel.org/en/San_Diego"
            ],
            "longitude": "-117.2536478"
        },
        "salinas river": {
            "latitude": "35.2891002",
            "closest_to": "",
            "address": "Salinas River, San Luis Obispo County, California, United States of America",
            "locType": "river",
            "blogLinks": [
                "http://www.parks.ca.gov/?page_id=22722"
            ],
            "longitude": "-120.3596546"
        },
        "creek hot springs": {
            "latitude": "40.0187792",
            "closest_to": "",
            "address": "Hot Springs, Plumas County, California, United States of America",
            "locType": "hamlet",
            "blogLinks": [
                "https://www.virtualtourist.com/travel/North_America/United_States_of_America/California/San_Bernardino-755456/Things_To_Do-San_Bernardino-TG-C-1.html"
            ],
            "longitude": "-121.0338461"
        },
        "balboa park | balboa park-hillcrest": {
            "latitude": "32.7310521",
            "closest_to": "",
            "address": "Balboa Park, Plaza de Balboa, North Park, Hillcrest, San Diego, San Diego County, California, 92101, United States of America",
            "locType": "park",
            "blogLinks": [
                "http://wikitravel.org/en/San_Diego"
            ],
            "longitude": "-117.146580648446"
        },
        "montgomery field": {
            "latitude": "32.8149052",
            "closest_to": "",
            "address": "Montgomery Field, John J Montgomery Drive, Mission Valley, San Diego, San Diego County, California, 92123, United States of America",
            "locType": "aerodrome",
            "blogLinks": [
                "http://wikitravel.org/en/San_Diego"
            ],
            "longitude": "-117.140320448768"
        },
        "las vegas": {
            "latitude": "36.17310935",
            "closest_to": "",
            "address": "California Hotel, Sky Walk(Connection from Main Street to California, Cultural Corridor, Vegas Heights, Las Vegas, Clark County, Nevada, 89101, United States of America",
            "locType": "hotel",
            "blogLinks": [
                "http://traveltips.usatoday.com/tourist-attractions-highway-15-california-nevada-107323.html",
                "https://www.tripadvisor.com/ShowTopic-g32655-i61-k6808882-Route_66_from_LA_to_Las_Vegas-Los_Angeles_California.html"
            ],
            "longitude": "-115.144667930325"
        },
        "soledad": {
            "latitude": "36.4269452",
            "closest_to": "",
            "address": "Soledad, Monterey County, California, United States of America",
            "locType": "city",
            "blogLinks": [
                "http://www.parks.ca.gov/?page_id=22722"
            ],
            "longitude": "-121.3272146"
        },
        "palou": {
            "latitude": "37.732919",
            "closest_to": "",
            "address": "Palou Avenue, Bayview District, SF, California, 94124, United States of America",
            "locType": "residential",
            "blogLinks": [
                "http://www.parks.ca.gov/?page_id=22722"
            ],
            "longitude": "-122.3890349"
        },
        "paso robles": {
            "latitude": "35.6267654",
            "closest_to": "",
            "address": "Paso Robles, San Luis Obispo County, California, United States of America",
            "locType": "city",
            "blogLinks": [
                "http://www.parks.ca.gov/?page_id=22722"
            ],
            "longitude": "-120.6912455"
        },
        "needles": {
            "latitude": "34.8480597",
            "closest_to": "",
            "address": "Needles, San Bernardino County, California, United States of America",
            "locType": "city",
            "blogLinks": [
                "http://gocalifornia.about.com/od/topcalifornia/ss/route-66.htm"
            ],
            "longitude": "-114.6141315"
        },
        "amboy": {
            "latitude": "34.5577721",
            "closest_to": "",
            "address": "Amboy, San Bernardino County, California, United States of America",
            "locType": "hamlet",
            "blogLinks": [
                "https://www.tripadvisor.com/ShowTopic-g32655-i61-k6808882-Route_66_from_LA_to_Las_Vegas-Los_Angeles_California.html"
            ],
            "longitude": "-115.744441"
        },
        "north county": {
            "latitude": "39.7452174",
            "closest_to": "",
            "address": "California, 16th Street, Upper Downtown, Denver, Denver County, Colorado, 80211, United States of America",
            "locType": "bus_stop",
            "blogLinks": [
                "http://wikitravel.org/en/San_Diego"
            ],
            "longitude": "-104.992379"
        },
        "sacramento": {
            "latitude": "38.5815719",
            "closest_to": "",
            "address": "Sacramento, Sacramento County, California, United States of America",
            "locType": "city",
            "blogLinks": [
                "http://wikitravel.org/en/San_Diego"
            ],
            "longitude": "-121.4943995"
        },
        "la mesa": {
            "latitude": "32.7678288",
            "closest_to": "",
            "address": "La Mesa, San Diego County, California, United States of America",
            "locType": "city",
            "blogLinks": [
                "http://wikitravel.org/en/San_Diego"
            ],
            "longitude": "-117.0230838"
        },
        "gila bend": {
            "latitude": "32.8134269",
            "closest_to": "",
            "address": "Gila Bend Drive, Seeley, Imperial County, California, 92243, United States of America",
            "locType": "residential",
            "blogLinks": [
                "http://wikitravel.org/en/San_Diego"
            ],
            "longitude": "-115.6753603"
        },
        "essex": {
            "latitude": "34.7336097",
            "closest_to": "",
            "address": "Essex, San Bernardino County, California, United States of America",
            "locType": "hamlet",
            "blogLinks": [
                "http://gocalifornia.about.com/od/topcalifornia/ss/route-66.htm"
            ],
            "longitude": "-115.2449793"
        },
        "san simeon": {
            "latitude": "35.6438587",
            "closest_to": "",
            "address": "San Simeon, San Luis Obispo County, California, United States of America",
            "locType": "hamlet",
            "blogLinks": [
                "http://www.hopper.com/articles/291/five-great-stops-between-los-angeles-and-san-francisco-on-the-pacific-coast-highway"
            ],
            "longitude": "-121.1907532"
        },
        "mir": {
            "latitude": "37.3823701",
            "closest_to": "",
            "address": "Mir Mirou Drive, Los Altos Hills, Santa Clara County, California, 94022, United States of America",
            "locType": "residential",
            "blogLinks": [
                "https://www.timeout.com/los-angeles/things-to-do/great-things-to-do-in-los-angeles"
            ],
            "longitude": "-122.1700025"
        },
        "balboa park-hillcrest": {
            "latitude": "32.7310521",
            "closest_to": "",
            "address": "Balboa Park, Plaza de Balboa, North Park, Hillcrest, San Diego, San Diego County, California, 92101, United States of America",
            "locType": "park",
            "blogLinks": [
                "http://wikitravel.org/en/San_Diego"
            ],
            "longitude": "-117.146580648446"
        },
        "mission hills": {
            "latitude": "32.7528279",
            "closest_to": "",
            "address": "Mission Hills, San Diego County, California, United States of America",
            "locType": "hamlet",
            "blogLinks": [
                "http://www.parks.ca.gov/?page_id=22722"
            ],
            "longitude": "-117.1869788"
        },
        "la jolla cove": {
            "latitude": "32.85051835",
            "closest_to": "",
            "address": "La Jolla Cove, Coast Boulevard, La Jolla, San Diego, San Diego County, California, 92037, United States of America",
            "locType": "beach",
            "blogLinks": [
                "http://wikitravel.org/en/San_Diego"
            ],
            "longitude": "-117.273024234204"
        },
        "mediterranean": {
            "latitude": "33.7439509",
            "closest_to": "",
            "address": "Mediterranean, Palm Desert, Riverside County, California, 92211, United States of America",
            "locType": "residential",
            "blogLinks": [
                "http://wikitravel.org/en/San_Diego"
            ],
            "longitude": "-116.3534838"
        },
        "belgium": {
            "latitude": "39.7276351",
            "closest_to": "",
            "address": "Belgium Avenue, Chico, Butte County, California, 95928, United States of America",
            "locType": "residential",
            "blogLinks": [
                "http://wikitravel.org/en/San_Diego"
            ],
            "longitude": "-121.785498"
        },
        "pismo beach": {
            "latitude": "35.1427533",
            "closest_to": "",
            "address": "Pismo Beach, San Luis Obispo County, California, United States of America",
            "locType": "city",
            "blogLinks": [
                "http://www.hopper.com/articles/291/five-great-stops-between-los-angeles-and-san-francisco-on-the-pacific-coast-highway"
            ],
            "longitude": "-120.6412826"
        },
        "laurel street": {
            "latitude": "32.7313904",
            "closest_to": "",
            "address": "Laurel Street, Hillcrest, San Diego, San Diego County, California, 92101, United States of America",
            "locType": "secondary",
            "blogLinks": [
                "http://wikitravel.org/en/San_Diego"
            ],
            "longitude": "-117.1594735"
        },
        "little italy": {
            "latitude": "32.7234579",
            "closest_to": "",
            "address": "Little Italy, San Diego County, California, United States of America",
            "locType": "hamlet",
            "blogLinks": [
                "http://wikitravel.org/en/San_Diego"
            ],
            "longitude": "-117.1682719"
        },
        "argentina": {
            "latitude": "-31.451096",
            "closest_to": "",
            "address": "California, C\u00f3rdoba, Departamento Capital, Cba., Argentina",
            "locType": "administrative",
            "blogLinks": [
                "http://www.parks.ca.gov/?page_id=22722"
            ],
            "longitude": "-64.205523"
        },
        "tempe": {
            "latitude": "33.4248191",
            "closest_to": "",
            "address": "California, Tempe Cascade, Maricopa County, Arizona, 8, United States of America",
            "locType": "service",
            "blogLinks": [
                "http://wikitravel.org/en/San_Diego"
            ],
            "longitude": "-111.8872863"
        },
        "downtown": {
            "latitude": "37.8036295",
            "closest_to": "",
            "address": "Downtown, Oakland, Alameda County, California, 94612, United States of America",
            "locType": "neighbourhood",
            "blogLinks": [
                "http://wikitravel.org/en/San_Diego"
            ],
            "longitude": "-122.2715243"
        },
        "germany": {
            "latitude": "50.9590814",
            "closest_to": "",
            "address": "California, Lassallestra\u00dfe, M\u00fclheim, K\u00f6ln, Regierungsbezirk K\u00f6ln, Nordrhein-Westfalen, 50667-51149, Deutschland",
            "locType": "beauty",
            "blogLinks": [
                "http://wikitravel.org/en/San_Diego"
            ],
            "longitude": "7.009217"
        },
        "montana": {
            "latitude": "37.413991",
            "closest_to": "",
            "address": "Montana, Rovana, Inyo County, California, United States of America",
            "locType": "residential",
            "blogLinks": [
                "http://wikitravel.org/en/San_Diego"
            ],
            "longitude": "-118.6129969"
        },
        "az": {
            "latitude": "33.3547482",
            "closest_to": "",
            "address": "California, Gold Canyon RV & Golf Resort, San Tan Valley, Pinal County, Arizona, 85219, United States of America",
            "locType": "service",
            "blogLinks": [
                "http://wikitravel.org/en/San_Diego"
            ],
            "longitude": "-111.4698532"
        },
        "lindbergh field": {
            "latitude": "32.73336075",
            "closest_to": "",
            "address": "San Diego International Airport, Air Lane, Old Town, San Diego, San Diego County, California, 92101, United States of America",
            "locType": "aerodrome",
            "blogLinks": [
                "http://wikitravel.org/en/San_Diego"
            ],
            "longitude": "-117.193463366077"
        },
        "california": {
            "latitude": "7.3480915",
            "closest_to": "",
            "address": "California, Santander, Colombia",
            "locType": "village",
            "blogLinks": [
                "http://californiathroughmylens.com/route-66-attractions-barstow-victorville",
                "http://gocalifornia.about.com/od/topcalifornia/ss/route-66.htm",
                "http://www.parks.ca.gov/?page_id=22722",
                "https://www.virtualtourist.com/travel/North_America/United_States_of_America/California/San_Bernardino-755456/Things_To_Do-San_Bernardino-TG-C-1.html",
                "http://distancecalculator.globefeed.com/US_Distance_Calculator.asp?state=CA",
                "http://wikitravel.org/en/San_Diego",
                "http://traveltips.usatoday.com/tourist-attractions-highway-15-california-nevada-107323.html",
                "https://www.tripadvisor.com/ShowTopic-g32655-i61-k6808882-Route_66_from_LA_to_Las_Vegas-Los_Angeles_California.html",
                "https://www.timeout.com/los-angeles/things-to-do/great-things-to-do-in-los-angeles",
                "https://www.pinterest.com/pin/270075308874996476/",
                "http://californiaoutdoorplayground.com/San-Bernardino-Tourism-Blog/June-2016/Summer-Fun-Places-for-Kids-Part-One.aspx"
            ],
            "longitude": "-72.945787"
        },
        "las vegas strip": {
            "latitude": "36.12050715",
            "closest_to": "",
            "address": "California Pizza Kitchen, South Las Vegas Boulevard, Hughes Center, Paradise, Clark County, Nevada, 89123, United States of America",
            "locType": "restaurant",
            "blogLinks": [
                "http://wikitravel.org/en/San_Diego"
            ],
            "longitude": "-115.173775796208"
        },
        "colorado river": {
            "latitude": "33.58648635",
            "closest_to": "",
            "address": "Colorado River, Riviera Drive, East Blythe, Riverside County, California, 92225, United States of America",
            "locType": "water",
            "blogLinks": [
                "http://gocalifornia.about.com/od/topcalifornia/ss/route-66.htm"
            ],
            "longitude": "-114.542164096234"
        },
        "america": {
            "latitude": "36.2573198",
            "closest_to": "",
            "address": "America, Kings County, California, 93246, United States of America",
            "locType": "residential",
            "blogLinks": [
                "http://wikitravel.org/en/San_Diego",
                "http://gocalifornia.about.com/od/topcalifornia/ss/route-66.htm",
                "https://www.timeout.com/los-angeles/things-to-do/great-things-to-do-in-los-angeles"
            ],
            "longitude": "-119.8948706"
        },
        "san bernardino county": {
            "latitude": "34.8253019",
            "closest_to": "",
            "address": "San Bernardino County, California, United States of America",
            "locType": "administrative",
            "blogLinks": [
                "https://www.virtualtourist.com/travel/North_America/United_States_of_America/California/San_Bernardino-755456/Things_To_Do-San_Bernardino-TG-C-1.html",
                "http://gocalifornia.about.com/od/topcalifornia/ss/route-66.htm",
                "http://www.bestplaces.net/city/california/san_bernardino",
                "http://californiaoutdoorplayground.com/San-Bernardino-Tourism-Blog/June-2016/Summer-Fun-Places-for-Kids-Part-One.aspx"
            ],
            "longitude": "-116.0833143"
        },
        "san francisco solano": {
            "latitude": "38.21389995",
            "closest_to": "",
            "address": "California Missions Museum, Arnold Drive, McGill, Sonoma County, California, United States of America",
            "locType": "museum",
            "blogLinks": [
                "http://www.parks.ca.gov/?page_id=22722"
            ],
            "longitude": "-122.458560315194"
        },
        "san buenaventura": {
            "latitude": "34.2783355",
            "closest_to": "",
            "address": "Ventura, Ventura County, California, United States of America",
            "locType": "city",
            "blogLinks": [
                "http://www.parks.ca.gov/?page_id=22722"
            ],
            "longitude": "-119.2931742"
        },
        "rome": {
            "latitude": "41.9628634",
            "closest_to": "",
            "address": "California, Via della Missione, Tivoli, Paterno, Tivoli, RM, LAZ, 00019, Italia",
            "locType": "pub",
            "blogLinks": [
                "http://www.parks.ca.gov/?page_id=22722"
            ],
            "longitude": "12.7977613"
        },
        "golden state": {
            "latitude": "39.6712719",
            "closest_to": "",
            "address": "Golden State Island, Butte County, California, United States of America",
            "locType": "island",
            "blogLinks": [
                "http://gocalifornia.about.com/od/topcalifornia/ss/route-66.htm",
                "http://www.parks.ca.gov/?page_id=22722",
                "http://koa.com/states-provinces/california/"
            ],
            "longitude": "-121.9619226"
        },
        "griffith park": {
            "latitude": "38.68813",
            "closest_to": "",
            "address": "Griffith Park, Citrus Heights, Sacramento County, California, 95621, United States of America",
            "locType": "service",
            "blogLinks": [
                "https://www.timeout.com/los-angeles/things-to-do/great-things-to-do-in-los-angeles"
            ],
            "longitude": "-121.3121659"
        },
        "fenner": {
            "latitude": "34.8158313",
            "closest_to": "",
            "address": "Fenner, San Bernardino County, California, United States of America",
            "locType": "hamlet",
            "blogLinks": [
                "http://gocalifornia.about.com/od/topcalifornia/ss/route-66.htm"
            ],
            "longitude": "-115.179145"
        },
        "' ocean beach": {
            "latitude": "32.7477784",
            "closest_to": "",
            "address": "Ocean Beach, San Diego, San Diego County, California, United States of America",
            "locType": "region",
            "blogLinks": [
                "http://wikitravel.org/en/San_Diego"
            ],
            "longitude": "-117.249321"
        },
        "monterey bay": {
            "latitude": "36.7999557",
            "closest_to": "",
            "address": "Monterey Bay, Monterey County, California, United States of America",
            "locType": "bay",
            "blogLinks": [
                "http://wikitravel.org/en/San_Diego",
                "http://www.parks.ca.gov/?page_id=22722",
                "http://koa.com/states-provinces/california/",
                "http://www.hopper.com/articles/291/five-great-stops-between-los-angeles-and-san-francisco-on-the-pacific-coast-highway"
            ],
            "longitude": "-121.9010667"
        },
        "qualcomm stadium": {
            "latitude": "32.7810139",
            "closest_to": "",
            "address": "Qualcomm Stadium, Qualcomm Way, Mission Valley, San Diego, San Diego County, California, 92123, United States of America",
            "locType": "station",
            "blogLinks": [
                "http://wikitravel.org/en/San_Diego"
            ],
            "longitude": "-117.1196206"
        },
        "mid-city": {
            "latitude": "37.5133425",
            "closest_to": "",
            "address": "Middle Bair Island, Redwood City, San Mateo County, California, United States of America",
            "locType": "island",
            "blogLinks": [
                "http://wikitravel.org/en/San_Diego"
            ],
            "longitude": "-122.2303835"
        },
        "us": {
            "latitude": "36.7014631",
            "closest_to": "",
            "address": "California, United States of America",
            "locType": "administrative",
            "blogLinks": [
                "http://gocalifornia.about.com/od/topcalifornia/ss/route-66.htm",
                "https://www.virtualtourist.com/travel/North_America/United_States_of_America/California/San_Bernardino-755456/Things_To_Do-San_Bernardino-TG-C-1.html",
                "http://distancecalculator.globefeed.com/US_Distance_Calculator.asp?state=CA",
                "http://wikitravel.org/en/San_Diego",
                "http://traveltips.usatoday.com/tourist-attractions-highway-15-california-nevada-107323.html",
                "https://www.tripadvisor.com/ShowTopic-g32655-i61-k6808882-Route_66_from_LA_to_Las_Vegas-Los_Angeles_California.html"
            ],
            "longitude": "-118.7559973"
        },
        "utah": {
            "latitude": "37.413408",
            "closest_to": "",
            "address": "Utah, Rovana, Inyo County, California, United States of America",
            "locType": "residential",
            "blogLinks": [
                "http://wikitravel.org/en/San_Diego"
            ],
            "longitude": "-118.6125359"
        },
        "tecate": {
            "latitude": "32.43593355",
            "closest_to": "",
            "address": "Tecate, Baja California, M\u00e9xico",
            "locType": "administrative",
            "blogLinks": [
                "http://wikitravel.org/en/San_Diego"
            ],
            "longitude": "-116.273657068655"
        },
        "monterrey": {
            "latitude": "32.5492861",
            "closest_to": "",
            "address": "Monterrey, Mexicali, Baja California, M\u00e9xico",
            "locType": "village",
            "blogLinks": [
                "http://www.parks.ca.gov/?page_id=22722"
            ],
            "longitude": "-115.0704122"
        },
        "san luis rey": {
            "latitude": "33.2319797",
            "closest_to": "",
            "address": "San Luis Rey, San Diego County, California, United States of America",
            "locType": "hamlet",
            "blogLinks": [
                "http://www.parks.ca.gov/?page_id=22722"
            ],
            "longitude": "-117.3236484"
        },
        "san luis obispo county": {
            "latitude": "35.3540209",
            "closest_to": "",
            "address": "San Luis Obispo County, California, United States of America",
            "locType": "administrative",
            "blogLinks": [
                "http://www.hopper.com/articles/291/five-great-stops-between-los-angeles-and-san-francisco-on-the-pacific-coast-highway"
            ],
            "longitude": "-120.3757162"
        },
        "williams": {
            "latitude": "39.1546137",
            "closest_to": "",
            "address": "Williams, Colusa County, California, United States of America",
            "locType": "city",
            "blogLinks": [
                "http://gocalifornia.about.com/od/topcalifornia/ss/route-66.htm"
            ],
            "longitude": "-122.1494186"
        },
        "san juan bautista": {
            "latitude": "36.8455173",
            "closest_to": "",
            "address": "San Juan Bautista, San Benito County, California, United States of America",
            "locType": "city",
            "blogLinks": [
                "http://www.parks.ca.gov/?page_id=22722"
            ],
            "longitude": "-121.5379893"
        },
        "stateline": {
            "latitude": "38.9582412",
            "closest_to": "",
            "address": "Stateline, El Dorado County, California, United States of America",
            "locType": "hamlet",
            "blogLinks": [
                "https://www.tripadvisor.com/ShowTopic-g32655-i61-k6808882-Route_66_from_LA_to_Las_Vegas-Los_Angeles_California.html"
            ],
            "longitude": "-119.9437918"
        },
        "town-mission valley": {
            "latitude": "32.7537731",
            "closest_to": "",
            "address": "Old Town San Diego State Historic Park, Twiggs Street, Old Town, San Diego, San Diego County, California, 92110, United States of America",
            "locType": "park",
            "blogLinks": [
                "http://wikitravel.org/en/San_Diego"
            ],
            "longitude": "-117.194891467408"
        },
        "yerba buena island": {
            "latitude": "37.8099281",
            "closest_to": "",
            "address": "Yerba Buena Island, SF, California, United States of America",
            "locType": "island",
            "blogLinks": [
                "http://www.parks.ca.gov/?page_id=22722"
            ],
            "longitude": "-122.3660816"
        },
        "central coast": {
            "latitude": "35.3611193",
            "closest_to": "",
            "address": "Central Coast Street, Bakersfield, Kern County, California, 93314, United States of America",
            "locType": "residential",
            "blogLinks": [
                "http://wikitravel.org/en/San_Diego"
            ],
            "longitude": "-119.1665989"
        },
        "escondido": {
            "latitude": "33.1216751",
            "closest_to": "",
            "address": "Escondido, San Diego County, California, United States of America",
            "locType": "city",
            "blogLinks": [
                "http://wikitravel.org/en/San_Diego",
                "http://traveltips.usatoday.com/tourist-attractions-highway-15-california-nevada-107323.html"
            ],
            "longitude": "-117.0814848"
        },
        "los angeles-area": {
            "latitude": "10.4820788",
            "closest_to": "",
            "address": "Edificio Los \u00c1ngeles, California, \u00c1rea Comercial de Las Mercedes, Baruta, Municipio Baruta, Miranda, Regi\u00f3n Capital, 1060, Venezuela",
            "locType": "yes",
            "blogLinks": [
                "https://www.virtualtourist.com/travel/North_America/United_States_of_America/California/San_Bernardino-755456/Things_To_Do-San_Bernardino-TG-C-1.html"
            ],
            "longitude": "-66.8624931597836"
        },
        "chicago": {
            "latitude": "37.7850531",
            "closest_to": "",
            "address": "Chicago, Woodstock, Alameda, Alameda County, California, 94501, United States of America",
            "locType": "residential",
            "blogLinks": [
                "https://www.virtualtourist.com/travel/North_America/United_States_of_America/California/San_Bernardino-755456/Things_To_Do-San_Bernardino-TG-C-1.html"
            ],
            "longitude": "-122.2872948"
        },
        "laughlin": {
            "latitude": "39.3257211",
            "closest_to": "",
            "address": "Laughlin Range, Mendocino County, California, United States of America",
            "locType": "peak",
            "blogLinks": [
                "https://www.tripadvisor.com/ShowTopic-g32655-i61-k6808882-Route_66_from_LA_to_Las_Vegas-Los_Angeles_California.html"
            ],
            "longitude": "-123.270841"
        },
        "southwest": {
            "latitude": "40.4370184",
            "closest_to": "",
            "address": "Southwest, Lassen Peak Highway, Tehama County, California, United States of America",
            "locType": "camp_site",
            "blogLinks": [
                "https://www.tripadvisor.com/ShowTopic-g32655-i61-k6808882-Route_66_from_LA_to_Las_Vegas-Los_Angeles_California.html",
                "http://www.bestplaces.net/city/california/san_bernardino"
            ],
            "longitude": "-121.5324607"
        },
        "lompoc": {
            "latitude": "34.6391501",
            "closest_to": "",
            "address": "Lompoc, Santa Barbara County, California, United States of America",
            "locType": "city",
            "blogLinks": [
                "http://www.parks.ca.gov/?page_id=22722"
            ],
            "longitude": "-120.4579408"
        },
        "santa clara": {
            "latitude": "37.3541132",
            "closest_to": "",
            "address": "Santa Clara, Santa Clara County, California, United States of America",
            "locType": "city",
            "blogLinks": [
                "http://www.parks.ca.gov/?page_id=22722"
            ],
            "longitude": "-121.9551743"
        },
        "old town transit center": {
            "latitude": "32.7548849",
            "closest_to": "",
            "address": "Old Town Transit Center, Congress Street, Old Town, San Diego, San Diego County, California, 92110, United States of America",
            "locType": "station",
            "blogLinks": [
                "http://wikitravel.org/en/San_Diego"
            ],
            "longitude": "-117.1994928"
        },
        "l.a.": {
            "latitude": "-13.8305494",
            "closest_to": "",
            "address": "California, Provincia Abel Iturralde, LPZ, Bolivia",
            "locType": "hamlet",
            "blogLinks": [
                "http://wikitravel.org/en/San_Diego",
                "https://www.tripadvisor.com/ShowTopic-g32655-i61-k6808882-Route_66_from_LA_to_Las_Vegas-Los_Angeles_California.html"
            ],
            "longitude": "-67.9369134"
        },
        "mission valley": {
            "latitude": "32.7768074",
            "closest_to": "",
            "address": "Mission Valley, San Diego, San Diego County, California, United States of America",
            "locType": "suburb",
            "blogLinks": [
                "http://wikitravel.org/en/San_Diego"
            ],
            "longitude": "-117.1520977"
        },
        "kumeyaay": {
            "latitude": "32.6464696",
            "closest_to": "",
            "address": "Kumeyaay Highway, Titus, San Diego County, California, 91934, United States of America",
            "locType": "motorway",
            "blogLinks": [
                "http://wikitravel.org/en/San_Diego"
            ],
            "longitude": "-116.1858258"
        },
        "kettner blvd.": {
            "latitude": "32.725143",
            "closest_to": "",
            "address": "Kettner Boulevard, Hillcrest, San Diego, San Diego County, California, 92101, United States of America",
            "locType": "secondary",
            "blogLinks": [
                "http://wikitravel.org/en/San_Diego"
            ],
            "longitude": "-117.1698529"
        },
        "gaslamp quarter": {
            "latitude": "32.7109444",
            "closest_to": "",
            "address": "Gaslamp Quarter, San Diego County, California, United States of America",
            "locType": "hamlet",
            "blogLinks": [
                "http://wikitravel.org/en/San_Diego"
            ],
            "longitude": "-117.1597028"
        },
        "inland san diego county": {
            "latitude": "33.119939",
            "closest_to": "",
            "address": "Inland Rail Trail, Escondido, San Diego County, California, 92025, United States of America",
            "locType": "cycleway",
            "blogLinks": [
                "http://wikitravel.org/en/San_Diego"
            ],
            "longitude": "-117.0913462"
        },
        "legoland california": {
            "latitude": "33.1278683",
            "closest_to": "",
            "address": "Legoland California, 1, LEGOLAND drive, Carlsbad, San Diego County, California, 92008, United States of America",
            "locType": "theme_park",
            "blogLinks": [
                "http://wikitravel.org/en/San_Diego"
            ],
            "longitude": "-117.311664211922"
        },
        "san diego airport": {
            "latitude": "33.1278146",
            "closest_to": "",
            "address": "California Bank & Trust, 2501, Palomar Airport Road, Carlsbad, San Diego County, California, 92011, United States of America",
            "locType": "bank",
            "blogLinks": [
                "http://wikitravel.org/en/San_Diego"
            ],
            "longitude": "-117.270809764613"
        },
        "balboa park": {
            "latitude": "37.72494875",
            "closest_to": "",
            "address": "Balboa Park, Sergeant John V Young Lane, Ingleside, SF, California, 94112, United States of America",
            "locType": "park",
            "blogLinks": [
                "http://wikitravel.org/en/San_Diego"
            ],
            "longitude": "-122.444804424152"
        },
        "n. torrey pines rd": {
            "latitude": "32.9358252",
            "closest_to": "",
            "address": "North Torrey Pines Road, Del Mar, San Diego, San Diego County, California, 92014, United States of America",
            "locType": "primary",
            "blogLinks": [
                "http://wikitravel.org/en/San_Diego"
            ],
            "longitude": "-117.2608353"
        },
        "mojave desert": {
            "latitude": "35.1456319",
            "closest_to": "",
            "address": "Mojave Desert, Utility Road, San Bernardino County, California, United States of America",
            "locType": "desert",
            "blogLinks": [
                "http://gocalifornia.about.com/od/topcalifornia/ss/route-66.htm",
                "http://www.bestplaces.net/city/california/san_bernardino"
            ],
            "longitude": "-115.548963686646"
        },
        "santa fe railroad": {
            "latitude": "37.9313328",
            "closest_to": "",
            "address": "Santa Fe Railroad, West Ohio Avenue, Atchison Village, Richmond, Contra Costa County, California, 94804, United States of America",
            "locType": "abandoned",
            "blogLinks": [
                "http://gocalifornia.about.com/od/topcalifornia/ss/route-66.htm"
            ],
            "longitude": "-122.3742068"
        },
        "poway": {
            "latitude": "32.9628234",
            "closest_to": "",
            "address": "Poway, San Diego County, California, United States of America",
            "locType": "city",
            "blogLinks": [
                "http://wikitravel.org/en/San_Diego"
            ],
            "longitude": "-117.0358645"
        },
        "italy": {
            "latitude": "45.659844",
            "closest_to": "",
            "address": "California, MB, LOM, Italia",
            "locType": "village",
            "blogLinks": [
                "http://wikitravel.org/en/San_Diego"
            ],
            "longitude": "9.3130453"
        },
        "salinas valley": {
            "latitude": "36.6744117",
            "closest_to": "",
            "address": "Salinas, Monterey County, California, United States of America",
            "locType": "city",
            "blogLinks": [
                "http://www.parks.ca.gov/?page_id=22722"
            ],
            "longitude": "-121.6550371"
        },
        "camp pendleton": {
            "latitude": "33.2167022",
            "closest_to": "",
            "address": "Camp Pendleton Boat Basin, San Diego County, California, United States of America",
            "locType": "dock",
            "blogLinks": [
                "http://wikitravel.org/en/San_Diego"
            ],
            "longitude": "-117.4000394"
        },
        "la": {
            "latitude": "36.7014631",
            "closest_to": "",
            "address": "California, United States of America",
            "locType": "administrative",
            "blogLinks": [
                "https://www.virtualtourist.com/travel/North_America/United_States_of_America/California/San_Bernardino-755456/Things_To_Do-San_Bernardino-TG-C-1.html",
                "http://www.bestplaces.net/city/california/san_bernardino",
                "https://www.timeout.com/los-angeles/things-to-do/great-things-to-do-in-los-angeles"
            ],
            "longitude": "-118.7559973"
        },
        "foothill boulevard": {
            "latitude": "32.809746",
            "closest_to": "",
            "address": "Foothill Boulevard, Pacific Beach, San Diego, San Diego County, California, 92109, United States of America",
            "locType": "secondary",
            "blogLinks": [
                "http://gocalifornia.about.com/od/topcalifornia/ss/route-66.htm"
            ],
            "longitude": "-117.2474369"
        },
        "new zealand": {
            "latitude": "-41.1069272",
            "closest_to": "",
            "address": "California Drive, Totara Park, Upper Hutt, Upper Hutt City, Wellington, 5371, New Zealand/Aotearoa",
            "locType": "tertiary",
            "blogLinks": [
                "http://wikitravel.org/en/San_Diego"
            ],
            "longitude": "175.0832904"
        },
        "nevada": {
            "latitude": "39.3540335",
            "closest_to": "",
            "address": "Nevada County, California, United States of America",
            "locType": "administrative",
            "blogLinks": [
                "http://wikitravel.org/en/San_Diego",
                "http://traveltips.usatoday.com/tourist-attractions-highway-15-california-nevada-107323.html",
                "https://www.tripadvisor.com/ShowTopic-g32655-i61-k6808882-Route_66_from_LA_to_Las_Vegas-Los_Angeles_California.html"
            ],
            "longitude": "-120.8089842"
        },
        "san diego international airport": {
            "latitude": "32.73336075",
            "closest_to": "",
            "address": "San Diego International Airport, Air Lane, Old Town, San Diego, San Diego County, California, 92101, United States of America",
            "locType": "aerodrome",
            "blogLinks": [
                "http://wikitravel.org/en/San_Diego"
            ],
            "longitude": "-117.193463366077"
        },
        "mission trails regional park": {
            "latitude": "32.7958834",
            "closest_to": "",
            "address": "Mission Trails Regional Park, Lake Shore Drive, San Diego, San Diego County, California, 91942:92119, United States of America",
            "locType": "park",
            "blogLinks": [
                "http://wikitravel.org/en/San_Diego"
            ],
            "longitude": "-117.0366957"
        },
        "solvang": {
            "latitude": "34.5958572",
            "closest_to": "",
            "address": "Solvang, Santa Barbara County, California, United States of America",
            "locType": "city",
            "blogLinks": [
                "http://www.parks.ca.gov/?page_id=22722"
            ],
            "longitude": "-120.1390893"
        },
        "chinatown": {
            "latitude": "37.7999301",
            "closest_to": "",
            "address": "Chinatown, Oakland, Alameda County, California, ca, United States of America",
            "locType": "neighbourhood",
            "blogLinks": [
                "https://www.timeout.com/los-angeles/things-to-do/great-things-to-do-in-los-angeles"
            ],
            "longitude": "-122.2702385"
        },
        "antique station": {
            "latitude": "38.56593065",
            "closest_to": "",
            "address": "57th Street Antique Mall, Sacramento, Sacramento County, California, 95819, United States of America",
            "locType": "retail",
            "blogLinks": [
                "http://californiathroughmylens.com/route-66-attractions-barstow-victorville"
            ],
            "longitude": "-121.432587801138"
        },
        "northern california": {
            "latitude": "32.7349196",
            "closest_to": "",
            "address": "Northern Frontier, San Diego, San Diego County, California, United States of America",
            "locType": "locality",
            "blogLinks": [
                "http://koa.com/states-provinces/california/"
            ],
            "longitude": "-117.1545973"
        },
        "baja mexico": {
            "latitude": "32.499412",
            "closest_to": "",
            "address": "Instituto Mexico de Baja California, Avenida Las Palmas, Tijuana, Baja California, 22106, M\u00e9xico",
            "locType": "school",
            "blogLinks": [
                "http://wikitravel.org/en/San_Diego"
            ],
            "longitude": "-116.9866449"
        },
        "mexico": {
            "latitude": "28.973",
            "closest_to": "",
            "address": "California, Hermosillo, Sonora, M\u00e9xico",
            "locType": "village",
            "blogLinks": [
                "http://wikitravel.org/en/San_Diego",
                "https://www.tripadvisor.com/ShowTopic-g32655-i61-k6808882-Route_66_from_LA_to_Las_Vegas-Los_Angeles_California.html"
            ],
            "longitude": "-111.8196666"
        },
        "national city": {
            "latitude": "32.6781085",
            "closest_to": "",
            "address": "National City, San Diego County, California, United States of America",
            "locType": "city",
            "blogLinks": [
                "http://wikitravel.org/en/San_Diego"
            ],
            "longitude": "-117.0991966"
        },
        "lemon grove": {
            "latitude": "32.7425516",
            "closest_to": "",
            "address": "Lemon Grove, San Diego County, California, United States of America",
            "locType": "city",
            "blogLinks": [
                "http://wikitravel.org/en/San_Diego"
            ],
            "longitude": "-117.0314171"
        },
        "naval air station": {
            "latitude": "32.701613",
            "closest_to": "",
            "address": "Naval Air Station North Island, F West Road, Coronado, San Diego County, California, 92135, United States of America",
            "locType": "military",
            "blogLinks": [
                "http://wikitravel.org/en/San_Diego"
            ],
            "longitude": "-117.2043364"
        },
        "santa ines": {
            "latitude": "22.88332",
            "closest_to": "",
            "address": "Santa Ines, Cabo San Lucas, Los Cabos, Baja California Sur, 23543, M\u00e9xico",
            "locType": "residential",
            "blogLinks": [
                "http://www.parks.ca.gov/?page_id=22722"
            ],
            "longitude": "-109.9425933"
        },
        "clairemont mesa": {
            "latitude": "32.8302448",
            "closest_to": "",
            "address": "Clairemont Mesa Boulevard, Pacific Beach, San Diego, San Diego County, California, 92117, United States of America",
            "locType": "secondary",
            "blogLinks": [
                "http://wikitravel.org/en/San_Diego"
            ],
            "longitude": "-117.215436"
        },
        "mission bay": {
            "latitude": "37.7707742",
            "closest_to": "",
            "address": "Mission Bay, SF, California, 94158, United States of America",
            "locType": "neighbourhood",
            "blogLinks": [
                "http://wikitravel.org/en/San_Diego"
            ],
            "longitude": "-122.3911711"
        },
        "bradford ridge": {
            "latitude": "38.0771417",
            "closest_to": "",
            "address": "Bradford Island, Contra Costa County, California, United States of America",
            "locType": "island",
            "blogLinks": [
                "https://www.virtualtourist.com/travel/North_America/United_States_of_America/California/San_Bernardino-755456/Things_To_Do-San_Bernardino-TG-C-1.html"
            ],
            "longitude": "-121.6632871"
        },
        "idaho": {
            "latitude": "37.413354",
            "closest_to": "",
            "address": "Idaho, Rovana, Inyo County, California, United States of America",
            "locType": "residential",
            "blogLinks": [
                "http://wikitravel.org/en/San_Diego"
            ],
            "longitude": "-118.6119669"
        },
        "san antonio valley": {
            "latitude": "38.1838069",
            "closest_to": "",
            "address": "San Antonio, Marin County, California, United States of America",
            "locType": "hamlet",
            "blogLinks": [
                "http://www.parks.ca.gov/?page_id=22722"
            ],
            "longitude": "-122.5913722"
        },
        "petco park": {
            "latitude": "32.70717575",
            "closest_to": "",
            "address": "Petco Park, 100, Park Boulevard, Hillcrest, San Diego, San Diego County, California, 92101, United States of America",
            "locType": "stadium",
            "blogLinks": [
                "http://wikitravel.org/en/San_Diego"
            ],
            "longitude": "-117.156886653262"
        },
        "san andreas": {
            "latitude": "38.1875605",
            "closest_to": "",
            "address": "San Andreas, Angels Road, Toyanza Subdivision, Calaveras County, California, 95249, United States of America",
            "locType": "administrative",
            "blogLinks": [
                "http://www.parks.ca.gov/?page_id=22722"
            ],
            "longitude": "-120.675382525556"
        },
        "san diego": {
            "latitude": "32.7174209",
            "closest_to": "",
            "address": "San Diego, San Diego County, California, United States of America",
            "locType": "city",
            "blogLinks": [
                "http://wikitravel.org/en/San_Diego",
                "http://traveltips.usatoday.com/tourist-attractions-highway-15-california-nevada-107323.html",
                "http://www.parks.ca.gov/?page_id=22722"
            ],
            "longitude": "-117.1627713"
        },
        "arroyo parkway": {
            "latitude": "38.6709801",
            "closest_to": "",
            "address": "Willow Creek, Folsom, Sacramento County, California, United States of America",
            "locType": "stream",
            "blogLinks": [
                "http://gocalifornia.about.com/od/topcalifornia/ss/route-66.htm"
            ],
            "longitude": "-121.1287517"
        },
        "kettner blvd": {
            "latitude": "32.725143",
            "closest_to": "",
            "address": "Kettner Boulevard, Hillcrest, San Diego, San Diego County, California, 92101, United States of America",
            "locType": "secondary",
            "blogLinks": [
                "http://wikitravel.org/en/San_Diego"
            ],
            "longitude": "-117.1698529"
        },
        "sonoma": {
            "latitude": "38.5110803",
            "closest_to": "",
            "address": "Sonoma County, California, United States of America",
            "locType": "administrative",
            "blogLinks": [
                "http://www.bestplaces.net/city/california/san_bernardino"
            ],
            "longitude": "-122.8473387"
        },
        "newberry springs": {
            "latitude": "34.8272104",
            "closest_to": "",
            "address": "Newberry Springs, San Bernardino County, California, United States of America",
            "locType": "hamlet",
            "blogLinks": [
                "https://www.tripadvisor.com/ShowTopic-g32655-i61-k6808882-Route_66_from_LA_to_Las_Vegas-Los_Angeles_California.html"
            ],
            "longitude": "-116.6883643"
        },
        "san ysidro": {
            "latitude": "32.5520013",
            "closest_to": "",
            "address": "San Ysidro, San Diego, San Diego County, California, United States of America",
            "locType": "suburb",
            "blogLinks": [
                "http://wikitravel.org/en/San_Diego"
            ],
            "longitude": "-117.0430812"
        },
        "san diego mission rd.": {
            "latitude": "32.784578",
            "closest_to": "",
            "address": "San Diego Mission Road, City Heights, San Diego, San Diego County, California, 92108, United States of America",
            "locType": "tertiary",
            "blogLinks": [
                "http://www.parks.ca.gov/?page_id=22722"
            ],
            "longitude": "-117.1091279"
        },
        "lassen": {
            "latitude": "40.7685579",
            "closest_to": "",
            "address": "Lassen County, California, United States of America",
            "locType": "administrative",
            "blogLinks": [
                "http://koa.com/states-provinces/california/"
            ],
            "longitude": "-120.7309979"
        },
        "san francisco": {
            "latitude": "37.7792808",
            "closest_to": "",
            "address": "SF, California, United States of America",
            "locType": "city",
            "blogLinks": [
                "http://wikitravel.org/en/San_Diego",
                "http://www.parks.ca.gov/?page_id=22722",
                "http://koa.com/states-provinces/california/",
                "http://www.hopper.com/articles/291/five-great-stops-between-los-angeles-and-san-francisco-on-the-pacific-coast-highway"
            ],
            "longitude": "-122.4192362"
        },
        "monterey bay aquarium": {
            "latitude": "36.61809095",
            "closest_to": "",
            "address": "MBA, 886, Cannery Row, Monterey, Monterey County, California, 93940, United States of America",
            "locType": "aquarium",
            "blogLinks": [
                "http://www.hopper.com/articles/291/five-great-stops-between-los-angeles-and-san-francisco-on-the-pacific-coast-highway"
            ],
            "longitude": "-121.901680002002"
        },
        "carlsbad": {
            "latitude": "33.1580933",
            "closest_to": "",
            "address": "Carlsbad, San Diego County, California, United States of America",
            "locType": "city",
            "blogLinks": [
                "http://wikitravel.org/en/San_Diego"
            ],
            "longitude": "-117.3505938"
        },
        "united states": {
            "latitude": "36.7014631",
            "closest_to": "",
            "address": "California, United States of America",
            "locType": "administrative",
            "blogLinks": [
                "http://wikitravel.org/en/San_Diego",
                "http://gocalifornia.about.com/od/topcalifornia/ss/route-66.htm"
            ],
            "longitude": "-118.7559973"
        },
        "campo": {
            "latitude": "37.8974258",
            "closest_to": "",
            "address": "El Campo, Marin County, California, United States of America",
            "locType": "hamlet",
            "blogLinks": [
                "http://wikitravel.org/en/San_Diego"
            ],
            "longitude": "-122.4652506"
        },
        "mission blvd.": {
            "latitude": "32.799358",
            "closest_to": "",
            "address": "Mission Boulevard, Pacific Beach, San Diego, San Diego County, California, 92109, United States of America",
            "locType": "secondary",
            "blogLinks": [
                "http://www.parks.ca.gov/?page_id=22722"
            ],
            "longitude": "-117.2563629"
        },
        "salem": {
            "latitude": "39.0652059",
            "closest_to": "",
            "address": "California, Cincinnati, Hamilton County, Ohio, United States of America",
            "locType": "suburb",
            "blogLinks": [
                "https://www.pinterest.com/pin/270075308874996476/"
            ],
            "longitude": "-84.4272385"
        },
        "chula vista": {
            "latitude": "32.6400541",
            "closest_to": "",
            "address": "Chula Vista, San Diego County, California, United States of America",
            "locType": "city",
            "blogLinks": [
                "http://wikitravel.org/en/San_Diego"
            ],
            "longitude": "-117.0841954"
        },
        "shelter island": {
            "latitude": "32.7113133",
            "closest_to": "",
            "address": "Shelter Island, San Diego, San Diego County, California, United States of America",
            "locType": "island",
            "blogLinks": [
                "http://wikitravel.org/en/San_Diego"
            ],
            "longitude": "-117.2300318"
        },
        "mohawk": {
            "latitude": "39.778787",
            "closest_to": "",
            "address": "Mohawk, Plumas County, California, United States of America",
            "locType": "hamlet",
            "blogLinks": [
                "http://californiathroughmylens.com/route-66-attractions-barstow-victorville"
            ],
            "longitude": "-120.635497"
        },
        "albuquerque": {
            "latitude": "32.8074701",
            "closest_to": "",
            "address": "Albuquerque Street, Pacific Beach, San Diego, San Diego County, California, 92109, United States of America",
            "locType": "residential",
            "blogLinks": [
                "http://gocalifornia.about.com/od/topcalifornia/ss/route-66.htm"
            ],
            "longitude": "-117.2184314"
        },
        "barstow": {
            "latitude": "34.8957684",
            "closest_to": "",
            "address": "Barstow, San Bernardino County, California, United States of America",
            "locType": "administrative",
            "blogLinks": [
                "http://californiathroughmylens.com/route-66-attractions-barstow-victorville",
                "http://traveltips.usatoday.com/tourist-attractions-highway-15-california-nevada-107323.html",
                "http://gocalifornia.about.com/od/topcalifornia/ss/route-66.htm",
                "https://www.tripadvisor.com/ShowTopic-g32655-i61-k6808882-Route_66_from_LA_to_Las_Vegas-Los_Angeles_California.html"
            ],
            "longitude": "-117.0172076"
        },
        "yosemite national park": {
            "latitude": "37.84054795",
            "closest_to": "",
            "address": "Yosemite National Park, Mt. Hoffmann Trail, Mariposa County, California, United States of America",
            "locType": "national_park",
            "blogLinks": [
                "http://koa.com/states-provinces/california/"
            ],
            "longitude": "-119.516587698025"
        },
        "lethbridge": {
            "latitude": "32.971272",
            "closest_to": "",
            "address": "Lethbridge Way, San Diego, San Diego County, California, 92129, United States of America",
            "locType": "residential",
            "blogLinks": [
                "http://wikitravel.org/en/San_Diego"
            ],
            "longitude": "-117.1296619"
        },
        "sassafras street": {
            "latitude": "32.7353092",
            "closest_to": "",
            "address": "Sassafras Street, Hillcrest, San Diego, San Diego County, California, 92103, United States of America",
            "locType": "secondary",
            "blogLinks": [
                "http://wikitravel.org/en/San_Diego"
            ],
            "longitude": "-117.1792479"
        },
        "riverside county": {
            "latitude": "33.7219991",
            "closest_to": "",
            "address": "Riverside County, California, United States of America",
            "locType": "administrative",
            "blogLinks": [
                "http://www.bestplaces.net/city/california/san_bernardino"
            ],
            "longitude": "-116.0372471"
        },
        "washington": {
            "latitude": "40.0657724",
            "closest_to": "",
            "address": "California, Washington County, Pennsylvania, United States of America",
            "locType": "administrative",
            "blogLinks": [
                "http://wikitravel.org/en/San_Diego",
                "https://www.pinterest.com/pin/270075308874996476/"
            ],
            "longitude": "-79.8918435"
        },
        "ocean avenue": {
            "latitude": "37.7320759",
            "closest_to": "",
            "address": "Ocean Ave, Ocean Avenue, Saint Francis Wood, SF, California, 94132, United States of America",
            "locType": "tram_stop",
            "blogLinks": [
                "http://gocalifornia.about.com/od/topcalifornia/ss/route-66.htm"
            ],
            "longitude": "-122.4736116"
        },
        "palomar observatory": {
            "latitude": "33.35397575",
            "closest_to": "",
            "address": "Palomar Observatory, Palomar Mountain, San Diego County, California, 92060, United States of America",
            "locType": "observatory",
            "blogLinks": [
                "http://traveltips.usatoday.com/tourist-attractions-highway-15-california-nevada-107323.html"
            ],
            "longitude": "-116.861374227895"
        },
        "denmark": {
            "latitude": "57.4379493",
            "closest_to": "",
            "address": "California, Lodsgade, Frederikshavn, Frederikshavn Kommune, Region Nordjylland, 9900, Danmark",
            "locType": "cafe",
            "blogLinks": [
                "http://wikitravel.org/en/San_Diego"
            ],
            "longitude": "10.5361043"
        },
        "st. louis": {
            "latitude": "39.6985046",
            "closest_to": "",
            "address": "Saint Louis, Sierra County, California, United States of America",
            "locType": "hamlet",
            "blogLinks": [
                "http://www.parks.ca.gov/?page_id=22722"
            ],
            "longitude": "-120.9249513"
        },
        "san luis obispo": {
            "latitude": "35.2827525",
            "closest_to": "",
            "address": "San Luis Obispo, San Luis Obispo County, California, United States of America",
            "locType": "city",
            "blogLinks": [
                "http://wikitravel.org/en/San_Diego",
                "http://www.parks.ca.gov/?page_id=22722"
            ],
            "longitude": "-120.6596155"
        },
        "pacific beach": {
            "latitude": "32.7978268",
            "closest_to": "",
            "address": "Pacific Beach, San Diego, San Diego County, California, United States of America",
            "locType": "suburb",
            "blogLinks": [
                "http://wikitravel.org/en/San_Diego"
            ],
            "longitude": "-117.2403182"
        },
        "mcclellan-palomar airport": {
            "latitude": "33.12754605",
            "closest_to": "",
            "address": "McClellan-Palomar Airport, Aircraft Road, Carlsbad, San Diego County, California, 92011, United States of America",
            "locType": "aerodrome",
            "blogLinks": [
                "http://wikitravel.org/en/San_Diego"
            ],
            "longitude": "-117.281400045984"
        },
        "west broadway": {
            "latitude": "32.7157697",
            "closest_to": "",
            "address": "West Broadway, Hillcrest, San Diego, San Diego County, California, 92101, United States of America",
            "locType": "secondary",
            "blogLinks": [
                "http://wikitravel.org/en/San_Diego"
            ],
            "longitude": "-117.167374"
        },
        "pacific ocean": {
            "latitude": "36.16305775",
            "closest_to": "",
            "address": "Pacific Ocean, Cabrillo Highway, Monterey County, California, 93920, United States of America",
            "locType": "cliff",
            "blogLinks": [
                "http://wikitravel.org/en/San_Diego",
                "http://gocalifornia.about.com/od/topcalifornia/ss/route-66.htm",
                "http://koa.com/states-provinces/california/",
                "http://www.hopper.com/articles/291/five-great-stops-between-los-angeles-and-san-francisco-on-the-pacific-coast-highway",
                "http://www.bestplaces.net/city/california/san_bernardino"
            ],
            "longitude": "-121.678715787326"
        },
        "santa fe": {
            "latitude": "32.4395109",
            "closest_to": "",
            "address": "Santa Fe, Tijuana, Baja California, M\u00e9xico",
            "locType": "village",
            "blogLinks": [
                "https://www.tripadvisor.com/ShowTopic-g32655-i61-k6808882-Route_66_from_LA_to_Las_Vegas-Los_Angeles_California.html"
            ],
            "longitude": "-117.0336822"
        },
        "carmel": {
            "latitude": "38.75511285",
            "closest_to": "",
            "address": "Carmel, Roseville, Placer County, California, 95747, United States of America",
            "locType": "residential",
            "blogLinks": [
                "http://www.parks.ca.gov/?page_id=22722",
                "http://www.hopper.com/articles/291/five-great-stops-between-los-angeles-and-san-francisco-on-the-pacific-coast-highway"
            ],
            "longitude": "-121.353308848273"
        },
        "california desert": {
            "latitude": "33.7348741",
            "closest_to": "",
            "address": "California Drive, Palm Desert, Riverside County, California, 92211, United States of America",
            "locType": "residential",
            "blogLinks": [
                "http://wikitravel.org/en/San_Diego"
            ],
            "longitude": "-116.317684"
        },
        "san diego bay": {
            "latitude": "32.6500534",
            "closest_to": "",
            "address": "San Diego Bay, Leyte Road, Crown Island, Coronado, San Diego County, California, 92118, United States of America",
            "locType": "bay",
            "blogLinks": [
                "http://wikitravel.org/en/San_Diego"
            ],
            "longitude": "-117.1341977"
        },
        "mission beach-pacific beach": {
            "latitude": "32.7846357",
            "closest_to": "",
            "address": "The Mission, 3795, Mission Boulevard, Pacific Beach, San Diego, San Diego County, California, 92109, United States of America",
            "locType": "cafe",
            "blogLinks": [
                "http://wikitravel.org/en/San_Diego"
            ],
            "longitude": "-117.2527558"
        }
    },
    "los angeles": {
        "type": "city",
        "osm_id": "207359",
        "class": "place",
        "importance": 1.0289952798766,
        "lat": "34.0543942",
        "lon": "-118.2439408",
        "boundingbox": [
            "33.7036216",
            "34.337306",
            "-118.6681901",
            "-118.1552946"
        ],
        "display_name": "LA, Los Angeles County, California, United States of America",
        "licence": "Data \u00a9 OpenStreetMap contributors, ODbL 1.0. http://www.openstreetmap.org/copyright",
        "icon": "https://nominatim.openstreetmap.org/images/mapicons/poi_place_city.p.20.png",
        "place_id": "159250198",
        "osm_type": "relation"
    }
}