{
    "mammoth lakes": {
        "type": "administrative",
        "osm_id": "33114461",
        "class": "boundary",
        "importance": 0.67062928815144,
        "lat": "37.6432525",
        "lon": "-118.9668508",
        "boundingbox": [
            "37.580115",
            "37.659467",
            "-119.0613999",
            "-118.9370119"
        ],
        "display_name": "Mammoth Lakes, Mono County, California, United States of America",
        "licence": "Data \u00a9 OpenStreetMap contributors, ODbL 1.0. http://www.openstreetmap.org/copyright",
        "icon": "https://nominatim.openstreetmap.org/images/mapicons/poi_boundary_administrative.p.20.png",
        "place_id": "73282228",
        "osm_type": "way"
    },
    "mentions": {
        "pacific coast highway": {
            "latitude": "33.6595127",
            "closest_to": "",
            "address": "Pacific Coast Highway, Huntington Beach, Orange County, California, 92648, United States of America",
            "locType": "primary",
            "blogLinks": [
                "http://www.travbuddy.com/California-travel-guide-p85"
            ],
            "longitude": "-118.0051687"
        },
        "sunset strip": {
            "latitude": "33.7224763",
            "closest_to": "",
            "address": "Sunset Strip, Happy Wanderer, Indio, Riverside County, California, 92201, United States of America",
            "locType": "living_street",
            "blogLinks": [
                "http://www.travbuddy.com/California-popular-cities-p85"
            ],
            "longitude": "-116.1940439"
        },
        "willowside road": {
            "latitude": "38.4378902",
            "closest_to": "",
            "address": "Willowside Road, Sonoma County, California, 95401, United States of America",
            "locType": "tertiary",
            "blogLinks": [
                "http://www.traillink.com/state/ca-trails.aspx"
            ],
            "longitude": "-122.8067225"
        },
        "irvine": {
            "latitude": "33.6856969",
            "closest_to": "",
            "address": "Irvine, Orange County, California, United States of America",
            "locType": "city",
            "blogLinks": [
                "http://www.tripleblaze.com/best/?c=59",
                "http://www.traillink.com/state/ca-trails.aspx"
            ],
            "longitude": "-117.8259818"
        },
        "highway 101": {
            "latitude": "32.9967358",
            "closest_to": "",
            "address": "Highway 101, Solana Beach, San Diego County, California, 92075, United States of America",
            "locType": "primary",
            "blogLinks": [
                "https://www.quora.com/What-are-some-towns-I-should-stop-in-sights-to-see-and-activities-to-do-on-a-central-to-northern-California-road-trip"
            ],
            "longitude": "-117.2731974"
        },
        "buenaventura boulevard": {
            "latitude": "40.560305",
            "closest_to": "",
            "address": "Buenaventura Boulevard, Redding, Shasta County, California, 96001, United States of America",
            "locType": "secondary",
            "blogLinks": [
                "http://www.traillink.com/state/ca-trails.aspx"
            ],
            "longitude": "-122.4034079"
        },
        "mackerricher haul road trail": {
            "latitude": "39.47837565",
            "closest_to": "",
            "address": "MacKerricher State Park, Haul Road Multiuse Path, Cleone, Mendocino County, California, 95437, United States of America",
            "locType": "nature_reserve",
            "blogLinks": [
                "http://www.traillink.com/state/ca-trails.aspx"
            ],
            "longitude": "-123.802797591692"
        },
        "sebastopol": {
            "latitude": "38.4021359",
            "closest_to": "",
            "address": "Sebastopol, Sonoma County, California, United States of America",
            "locType": "city",
            "blogLinks": [
                "http://www.traillink.com/state/ca-trails.aspx",
                "https://www.quora.com/What-are-some-towns-I-should-stop-in-sights-to-see-and-activities-to-do-on-a-central-to-northern-California-road-trip"
            ],
            "longitude": "-122.8238805"
        },
        "humboldt county": {
            "latitude": "40.5997415",
            "closest_to": "",
            "address": "Humboldt County, California, United States of America",
            "locType": "administrative",
            "blogLinks": [
                "http://www.travbuddy.com/California-travel-guide-p85",
                "http://www.travbuddy.com/California-popular-cities-p85"
            ],
            "longitude": "-123.8997733"
        },
        "ten mile beach trail": {
            "latitude": "39.5262749",
            "closest_to": "",
            "address": "Ten Mile Beach, Ocean View Drive, Inglenook, Mendocino County, California, 95437, United States of America",
            "locType": "beach",
            "blogLinks": [
                "http://www.traillink.com/state/ca-trails.aspx"
            ],
            "longitude": "-123.7764046"
        },
        "larkspur": {
            "latitude": "37.9340915",
            "closest_to": "",
            "address": "Larkspur, Marin County, California, United States of America",
            "locType": "city",
            "blogLinks": [
                "http://www.traillink.com/state/ca-trails.aspx"
            ],
            "longitude": "-122.5352538"
        },
        "ridge crest": {
            "latitude": "32.8072739",
            "closest_to": "",
            "address": "Crest, San Diego County, California, United States of America",
            "locType": "hamlet",
            "blogLinks": [
                "https://www.quora.com/What-are-some-towns-I-should-stop-in-sights-to-see-and-activities-to-do-on-a-central-to-northern-California-road-trip"
            ],
            "longitude": "-116.8680799"
        },
        "san diego county": {
            "latitude": "32.9637838",
            "closest_to": "",
            "address": "San Diego County, California, United States of America",
            "locType": "administrative",
            "blogLinks": [
                "http://www.traillink.com/state/ca-trails.aspx",
                "http://www.travbuddy.com/California-popular-cities-p85"
            ],
            "longitude": "-116.7706276"
        },
        "los angeles metro": {
            "latitude": "14.7119101",
            "closest_to": "",
            "address": "East Los Angeles, California Village, San Bartolome, Quezon City, District V, Quezon City, Metro Manila, 1116, Philippines",
            "locType": "residential",
            "blogLinks": [
                "http://www.traillink.com/state/ca-trails.aspx"
            ],
            "longitude": "121.0228751"
        },
        "novato": {
            "latitude": "38.1061979",
            "closest_to": "",
            "address": "Novato, Marin County, California, United States of America",
            "locType": "city",
            "blogLinks": [
                "http://www.traillink.com/state/ca-trails.aspx"
            ],
            "longitude": "-122.568119"
        },
        "redding": {
            "latitude": "40.5863563",
            "closest_to": "",
            "address": "Redding, Shasta County, California, United States of America",
            "locType": "city",
            "blogLinks": [
                "http://www.traillink.com/state/ca-trails.aspx"
            ],
            "longitude": "-122.3916753"
        },
        "bolinas": {
            "latitude": "37.9093702",
            "closest_to": "",
            "address": "Bolinas, Marin County, California, United States of America",
            "locType": "hamlet",
            "blogLinks": [
                "https://www.quora.com/What-are-some-towns-I-should-stop-in-sights-to-see-and-activities-to-do-on-a-central-to-northern-California-road-trip"
            ],
            "longitude": "-122.6863732"
        },
        "la jolla": {
            "latitude": "32.8472711",
            "closest_to": "",
            "address": "La Jolla, San Diego, San Diego County, California, United States of America",
            "locType": "suburb",
            "blogLinks": [
                "http://www.traillink.com/state/ca-trails.aspx"
            ],
            "longitude": "-117.2742085"
        },
        "santa rosa": {
            "latitude": "38.4404675",
            "closest_to": "",
            "address": "Santa Rosa, Sonoma County, California, United States of America",
            "locType": "city",
            "blogLinks": [
                "http://www.traillink.com/state/ca-trails.aspx"
            ],
            "longitude": "-122.7144313"
        },
        "tioga": {
            "latitude": "33.795473",
            "closest_to": "",
            "address": "Tioga, Thousand Palms, Cathedral City, Riverside County, California, 92276, United States of America",
            "locType": "residential",
            "blogLinks": [
                "http://www.roadtripamerica.com/forum/showthread.php?42874-Mammoth-Lakes-to-Yosemite-April-2016"
            ],
            "longitude": "-116.3540448"
        },
        "point arena": {
            "latitude": "38.908798",
            "closest_to": "",
            "address": "Point Arena, Mendocino County, California, United States of America",
            "locType": "city",
            "blogLinks": [
                "https://www.quora.com/What-are-some-towns-I-should-stop-in-sights-to-see-and-activities-to-do-on-a-central-to-northern-California-road-trip"
            ],
            "longitude": "-123.6930725"
        },
        "san rafael": {
            "latitude": "37.9735346",
            "closest_to": "",
            "address": "San Rafael, Marin County, California, United States of America",
            "locType": "city",
            "blogLinks": [
                "http://www.traillink.com/state/ca-trails.aspx"
            ],
            "longitude": "-122.5310873"
        },
        "fort bragg": {
            "latitude": "39.4447345",
            "closest_to": "",
            "address": "Fort Bragg, Mendocino County, California, United States of America",
            "locType": "city",
            "blogLinks": [
                "http://www.traillink.com/state/ca-trails.aspx"
            ],
            "longitude": "-123.802699105743"
        },
        "colorado": {
            "latitude": "33.71351445",
            "closest_to": "",
            "address": "Colorado, Walnut, Irvine, Orange County, California, 92606, United States of America",
            "locType": "residential",
            "blogLinks": [
                "https://www.quora.com/What-are-some-towns-I-should-stop-in-sights-to-see-and-activities-to-do-on-a-central-to-northern-California-road-trip"
            ],
            "longitude": "-117.791165718199"
        },
        "laguna creek west": {
            "latitude": "14.215853",
            "closest_to": "",
            "address": "California, Land Mark Subdivision, Calamba, Laguna, Calabarzon, 4027, Philippines",
            "locType": "residential",
            "blogLinks": [
                "http://www.traillink.com/state/ca-trails.aspx"
            ],
            "longitude": "121.141842"
        },
        "sonoma valley": {
            "latitude": "38.29331315",
            "closest_to": "",
            "address": "Sonoma Valley Chevron, 540, West Napa Street, Sonoma, Sonoma County, California, 95476, United States of America",
            "locType": "fuel",
            "blogLinks": [
                "http://www.traillink.com/state/ca-trails.aspx"
            ],
            "longitude": "-122.469385770353"
        },
        "sacramento river": {
            "latitude": "39.5840295",
            "closest_to": "",
            "address": "Sacramento River, Glenn County, California, United States of America",
            "locType": "river",
            "blogLinks": [
                "http://www.traillink.com/state/ca-trails.aspx"
            ],
            "longitude": "-121.9960598"
        },
        "mission bay park": {
            "latitude": "32.77845005",
            "closest_to": "",
            "address": "Mission Bay Park, Fiesta Island Road, Old Town, San Diego, San Diego County, California, 92109, United States of America",
            "locType": "park",
            "blogLinks": [
                "http://www.traillink.com/state/ca-trails.aspx"
            ],
            "longitude": "-117.221346323052"
        },
        "karnataka": {
            "latitude": "12.9759858",
            "closest_to": "",
            "address": "California Pizza Kitchen, 10th Main Road, Indiranagar 2nd Stage, Indiranagar, Bengaluru, Bangalore Urban, Karnataka, 560001, India",
            "locType": "restaurant",
            "blogLinks": [
                "https://www.quora.com/Which-are-some-of-the-best-places-to-visit-in-California-for-couples"
            ],
            "longitude": "77.640789"
        },
        "baquiano trail": {
            "latitude": "37.6021384",
            "closest_to": "",
            "address": "Baquiano Trail, Vallemar, Pacifica, San Mateo County, California, 94044, United States of America",
            "locType": "track",
            "blogLinks": [
                "http://www.traillink.com/state/ca-trails.aspx"
            ],
            "longitude": "-122.4666308"
        },
        "gateway drive": {
            "latitude": "32.725044",
            "closest_to": "",
            "address": "Gateway Drive, North Park, San Diego, San Diego County, California, 92105, United States of America",
            "locType": "residential",
            "blogLinks": [
                "http://www.traillink.com/state/ca-trails.aspx"
            ],
            "longitude": "-117.1082529"
        },
        "yreka": {
            "latitude": "41.7326157",
            "closest_to": "",
            "address": "Yreka, Siskiyou County, California, United States of America",
            "locType": "city",
            "blogLinks": [
                "https://www.quora.com/What-are-some-towns-I-should-stop-in-sights-to-see-and-activities-to-do-on-a-central-to-northern-California-road-trip"
            ],
            "longitude": "-122.6377654"
        },
        "las vegas": {
            "latitude": "36.17310935",
            "closest_to": "",
            "address": "California Hotel, Sky Walk(Connection from Main Street to California, Cultural Corridor, Vegas Heights, Las Vegas, Clark County, Nevada, 89101, United States of America",
            "locType": "hotel",
            "blogLinks": [
                "http://www.roadtripamerica.com/forum/showthread.php?42874-Mammoth-Lakes-to-Yosemite-April-2016",
                "https://www.tripadvisor.ca/ShowTopic-g28926-i29-k2867965-Drive_from_Las_Vegas_to_California-California.html",
                "https://www.tripadvisor.com.au/ShowTopic-g28926-i29-k6070171-Infinity_Tours_Western_Panorama-California.html"
            ],
            "longitude": "-115.144667930325"
        },
        "lucas valley road": {
            "latitude": "38.0269907",
            "closest_to": "",
            "address": "Lucas Valley Road, Terra Linda, San Rafael, Marin County, California, 94903, United States of America",
            "locType": "secondary",
            "blogLinks": [
                "http://www.traillink.com/state/ca-trails.aspx"
            ],
            "longitude": "-122.5543134"
        },
        "san francisco": {
            "latitude": "37.7792808",
            "closest_to": "",
            "address": "SF, California, United States of America",
            "locType": "city",
            "blogLinks": [
                "http://www.travbuddy.com/California-travel-guide-p85",
                "http://www.roadtripamerica.com/forum/showthread.php?42874-Mammoth-Lakes-to-Yosemite-April-2016",
                "https://www.quora.com/What-are-some-towns-I-should-stop-in-sights-to-see-and-activities-to-do-on-a-central-to-northern-California-road-trip",
                "https://www.tripadvisor.com.au/ShowTopic-g28926-i29-k6070171-Infinity_Tours_Western_Panorama-California.html",
                "https://www.tripadvisor.com/Tourism-g33026-San_Luis_Obispo_San_Luis_Obispo_County_California-Vacations.html",
                "http://californiathroughmylens.com/highway-395-roadtrip",
                "http://www.traillink.com/state/ca-trails.aspx",
                "http://www.travbuddy.com/California-popular-cities-p85"
            ],
            "longitude": "-122.4192362"
        },
        "bush creek trail": {
            "latitude": "39.7509432",
            "closest_to": "",
            "address": "Bush Creek, Butte County, California, United States of America",
            "locType": "stream",
            "blogLinks": [
                "http://www.traillink.com/state/ca-trails.aspx"
            ],
            "longitude": "-121.3850911"
        },
        "mumbai": {
            "latitude": "19.0547704",
            "closest_to": "",
            "address": "California Pizza Kitchen, Bandra Kurla Complex Road, MIG Colony, Bandra East, Mumbai, Greater Bombay, Maharashtra, 400050, India",
            "locType": "restaurant",
            "blogLinks": [
                "https://www.quora.com/Which-are-some-of-the-best-places-to-visit-in-California-for-couples"
            ],
            "longitude": "72.850446"
        },
        "bellagio": {
            "latitude": "33.5203333",
            "closest_to": "",
            "address": "Bellagio, Laguna Niguel, Orange County, California, 92677, United States of America",
            "locType": "residential",
            "blogLinks": [
                "https://www.tripadvisor.ca/ShowTopic-g28926-i29-k2867965-Drive_from_Las_Vegas_to_California-California.html"
            ],
            "longitude": "-117.7012358"
        },
        "india": {
            "latitude": "32.72025735",
            "closest_to": "",
            "address": "Star of India, North Harbor Drive, Hillcrest, San Diego, San Diego County, California, 92106, United States of America",
            "locType": "attraction",
            "blogLinks": [
                "http://www.roadtripamerica.com/forum/showthread.php?42874-Mammoth-Lakes-to-Yosemite-April-2016",
                "https://www.quora.com/Which-are-some-of-the-best-places-to-visit-in-California-for-couples"
            ],
            "longitude": "-117.173543004762"
        },
        "new jersey": {
            "latitude": "33.7147613",
            "closest_to": "",
            "address": "New Jersey, Walnut, Irvine, Orange County, California, 92606, United States of America",
            "locType": "residential",
            "blogLinks": [
                "https://www.quora.com/What-are-some-towns-I-should-stop-in-sights-to-see-and-activities-to-do-on-a-central-to-northern-California-road-trip"
            ],
            "longitude": "-117.7902855"
        },
        "magnolia avenue": {
            "latitude": "33.9572744",
            "closest_to": "",
            "address": "Magnolia Avenue, Riverside County, California, United States of America",
            "locType": "hamlet",
            "blogLinks": [
                "http://www.traillink.com/state/ca-trails.aspx"
            ],
            "longitude": "-117.4175056"
        },
        "ukiah": {
            "latitude": "39.1501662",
            "closest_to": "",
            "address": "Ukiah, Mendocino County, California, United States of America",
            "locType": "city",
            "blogLinks": [
                "http://www.traillink.com/state/ca-trails.aspx"
            ],
            "longitude": "-123.207786"
        },
        "riverside": {
            "latitude": "33.9533546",
            "closest_to": "",
            "address": "Riverside, Riverside County, California, United States of America",
            "locType": "city",
            "blogLinks": [
                "http://www.traillink.com/state/ca-trails.aspx"
            ],
            "longitude": "-117.3961622"
        },
        "north colton avenue": {
            "latitude": "34.076539",
            "closest_to": "",
            "address": "North Colton Avenue, Colton, San Bernardino County, California, 92324, United States of America",
            "locType": "primary",
            "blogLinks": [
                "http://www.traillink.com/state/ca-trails.aspx"
            ],
            "longitude": "-117.3099673"
        },
        "eureka": {
            "latitude": "40.8020712",
            "closest_to": "",
            "address": "Eureka, Humboldt County, California, United States of America",
            "locType": "city",
            "blogLinks": [
                "http://www.travbuddy.com/California-travel-guide-p85",
                "http://www.traillink.com/state/ca-trails.aspx",
                "http://www.travbuddy.com/California-popular-cities-p85",
                "https://www.quora.com/What-are-some-towns-I-should-stop-in-sights-to-see-and-activities-to-do-on-a-central-to-northern-California-road-trip"
            ],
            "longitude": "-124.1636728"
        },
        "san bernardino": {
            "latitude": "34.1083449",
            "closest_to": "",
            "address": "San Bernardino, San Bernardino County, California, United States of America",
            "locType": "city",
            "blogLinks": [
                "http://www.traillink.com/state/ca-trails.aspx"
            ],
            "longitude": "-117.2897651"
        },
        "victorville": {
            "latitude": "34.5361067",
            "closest_to": "",
            "address": "Victorville, San Bernardino County, California, United States of America",
            "locType": "city",
            "blogLinks": [
                "http://californiathroughmylens.com/highway-395-roadtrip"
            ],
            "longitude": "-117.2911564"
        },
        "belize": {
            "latitude": "32.6698025",
            "closest_to": "",
            "address": "Belize, Chula Vista, San Diego County, California, 91914, United States of America",
            "locType": "residential",
            "blogLinks": [
                "https://www.quora.com/Which-are-some-of-the-best-places-to-visit-in-California-for-couples"
            ],
            "longitude": "-116.9808867"
        },
        "mount tamalpais": {
            "latitude": "37.879988",
            "closest_to": "",
            "address": "Tamalpais-Homestead Valley, Wendy Way, Almonte, Tamalpais Valley, Marin County, California, 94941, United States of America",
            "locType": "census",
            "blogLinks": [
                "http://www.traillink.com/state/ca-trails.aspx"
            ],
            "longitude": "-122.535021480702"
        },
        "tamales bay": {
            "latitude": "32.7992103",
            "closest_to": "",
            "address": "Tamales Ancira, Garnet Avenue, Pacific Beach, San Diego, San Diego County, California, 92109, United States of America",
            "locType": "restaurant",
            "blogLinks": [
                "https://www.quora.com/What-are-some-towns-I-should-stop-in-sights-to-see-and-activities-to-do-on-a-central-to-northern-California-road-trip"
            ],
            "longitude": "-117.2442142"
        },
        "little river": {
            "latitude": "39.2707318",
            "closest_to": "",
            "address": "Little River, Mendocino County, California, United States of America",
            "locType": "hamlet",
            "blogLinks": [
                "http://www.traillink.com/state/ca-trails.aspx"
            ],
            "longitude": "-123.7883472"
        },
        "durham": {
            "latitude": "39.62651985",
            "closest_to": "",
            "address": "Durham, Hanlon Road, Durham, Butte County, California, 95938, United States of America",
            "locType": "administrative",
            "blogLinks": [
                "http://www.traillink.com/state/ca-trails.aspx"
            ],
            "longitude": "-121.803909344677"
        },
        "reno": {
            "latitude": "50.9590814",
            "closest_to": "",
            "address": "California, Lassallestra\u00dfe, M\u00fclheim, K\u00f6ln, Regierungsbezirk K\u00f6ln, Nordrhein-Westfalen, 50667-51149, Deutschland",
            "locType": "beauty",
            "blogLinks": [
                "https://www.quora.com/What-are-some-towns-I-should-stop-in-sights-to-see-and-activities-to-do-on-a-central-to-northern-California-road-trip"
            ],
            "longitude": "7.009217"
        },
        "lake almanor": {
            "latitude": "40.26270705",
            "closest_to": "",
            "address": "Lake Almanor, Lake Almanor West Drive, Almanor West, Plumas County, California, 96020, United States of America",
            "locType": "water",
            "blogLinks": [
                "http://www.traillink.com/state/ca-trails.aspx"
            ],
            "longitude": "-121.198222214854"
        },
        "west irvine trail": {
            "latitude": "33.7227037",
            "closest_to": "",
            "address": "West Irvine Trail, Lower Peters Canyon, Irvine, Orange County, California, 92602, United States of America",
            "locType": "cycleway",
            "blogLinks": [
                "http://www.traillink.com/state/ca-trails.aspx"
            ],
            "longitude": "-117.7860077"
        },
        "clover creek": {
            "latitude": "40.5809296",
            "closest_to": "",
            "address": "Clover Creek, Shasta County, California, United States of America",
            "locType": "stream",
            "blogLinks": [
                "http://www.traillink.com/state/ca-trails.aspx"
            ],
            "longitude": "-122.1209907"
        },
        "portola parkway": {
            "latitude": "33.6824455",
            "closest_to": "",
            "address": "Portola Parkway, Foothill Ranch, Lake Forest, Orange County, California, 92610, United States of America",
            "locType": "primary",
            "blogLinks": [
                "http://www.traillink.com/state/ca-trails.aspx"
            ],
            "longitude": "-117.6660476"
        },
        "lassen national forest": {
            "latitude": "40.42595515",
            "closest_to": "",
            "address": "Lassen National Forest, Champs Flat Road, Lassen County, California, United States of America",
            "locType": "national_park",
            "blogLinks": [
                "http://www.traillink.com/state/ca-trails.aspx"
            ],
            "longitude": "-121.04516139543"
        },
        "culver drive": {
            "latitude": "33.6840813",
            "closest_to": "",
            "address": "Culver Drive, Westpark, Irvine, Orange County, California, 92612, United States of America",
            "locType": "secondary",
            "blogLinks": [
                "http://www.traillink.com/state/ca-trails.aspx"
            ],
            "longitude": "-117.8084159"
        },
        "klamath": {
            "latitude": "41.533995",
            "closest_to": "",
            "address": "Klamath, Klamath Glen Road, Klamath Glen, Del Norte County, California, 95548, United States of America",
            "locType": "administrative",
            "blogLinks": [
                "https://www.quora.com/What-are-some-towns-I-should-stop-in-sights-to-see-and-activities-to-do-on-a-central-to-northern-California-road-trip"
            ],
            "longitude": "-124.015565064009"
        },
        "harbor drive": {
            "latitude": "34.5013497",
            "closest_to": "",
            "address": "Harbor Drive, San Bernardino County, California, 92392, United States of America",
            "locType": "residential",
            "blogLinks": [
                "http://www.traillink.com/state/ca-trails.aspx"
            ],
            "longitude": "-117.2654027"
        },
        "yorkshire": {
            "latitude": "33.616302",
            "closest_to": "",
            "address": "Yorkshire, Newport Center, Newport Beach, Orange County, California, 92657, United States of America",
            "locType": "residential",
            "blogLinks": [
                "https://www.quora.com/What-are-some-towns-I-should-stop-in-sights-to-see-and-activities-to-do-on-a-central-to-northern-California-road-trip"
            ],
            "longitude": "-117.8472009"
        },
        "santa ana river trail": {
            "latitude": "33.8861041",
            "closest_to": "",
            "address": "Santa Ana River Trail, Eastvale, Riverside County, California, United States of America",
            "locType": "track",
            "blogLinks": [
                "http://www.traillink.com/state/ca-trails.aspx"
            ],
            "longitude": "-117.6444344"
        },
        "lassen volcanic national park": {
            "latitude": "40.49138385",
            "closest_to": "",
            "address": "Lassen Volcanic National Park, Lassen Peak Highway, Shasta County, California, United States of America",
            "locType": "national_park",
            "blogLinks": [
                "http://www.traillink.com/state/ca-trails.aspx"
            ],
            "longitude": "-121.404335848657"
        },
        "shady canyon drive": {
            "latitude": "33.6503665",
            "closest_to": "",
            "address": "Shady Canyon Drive, Turtle Rock, Irvine, Orange County, California, 92603, United States of America",
            "locType": "residential",
            "blogLinks": [
                "http://www.traillink.com/state/ca-trails.aspx"
            ],
            "longitude": "-117.7843265"
        },
        "south coast plaza": {
            "latitude": "33.6907283",
            "closest_to": "",
            "address": "South Coast Plaza, Bear Street, Costa Mesa, Orange County, California, 92704, United States of America",
            "locType": "mall",
            "blogLinks": [
                "http://www.travbuddy.com/California-popular-cities-p85"
            ],
            "longitude": "-117.889168433903"
        },
        "willits": {
            "latitude": "39.4096043",
            "closest_to": "",
            "address": "Willits, Mendocino County, California, United States of America",
            "locType": "city",
            "blogLinks": [
                "https://www.quora.com/What-are-some-towns-I-should-stop-in-sights-to-see-and-activities-to-do-on-a-central-to-northern-California-road-trip"
            ],
            "longitude": "-123.3555601"
        },
        "san juan capistrano": {
            "latitude": "33.5016932",
            "closest_to": "",
            "address": "San Juan Capistrano, Orange County, California, United States of America",
            "locType": "city",
            "blogLinks": [
                "http://www.traillink.com/state/ca-trails.aspx",
                "http://www.travbuddy.com/California-popular-cities-p85"
            ],
            "longitude": "-117.6625508"
        },
        "newport harbor": {
            "latitude": "33.6083549",
            "closest_to": "",
            "address": "Newport Harbor Nautical Museum, 18th Street, Balboa Island, Newport Beach, Orange County, California, 92663, United States of America",
            "locType": "museum",
            "blogLinks": [
                "http://www.traillink.com/state/ca-trails.aspx"
            ],
            "longitude": "-117.9245022"
        },
        "lassen county": {
            "latitude": "40.7685579",
            "closest_to": "",
            "address": "Lassen County, California, United States of America",
            "locType": "administrative",
            "blogLinks": [
                "http://www.traillink.com/state/ca-trails.aspx"
            ],
            "longitude": "-120.7309979"
        },
        "sonoma county": {
            "latitude": "38.5110803",
            "closest_to": "",
            "address": "Sonoma County, California, United States of America",
            "locType": "administrative",
            "blogLinks": [
                "http://www.traillink.com/state/ca-trails.aspx"
            ],
            "longitude": "-122.8473387"
        },
        "geyserville": {
            "latitude": "38.707687",
            "closest_to": "",
            "address": "Geyserville, Sonoma County, California, United States of America",
            "locType": "hamlet",
            "blogLinks": [
                "http://www.tripleblaze.com/best/?c=59"
            ],
            "longitude": "-122.9024963"
        },
        "greenbelt": {
            "latitude": "33.9522968",
            "closest_to": "",
            "address": "Greenbelt Road, Eastvale, Riverside County, California, 91760, United States of America",
            "locType": "residential",
            "blogLinks": [
                "http://www.traillink.com/state/ca-trails.aspx"
            ],
            "longitude": "-117.5601658"
        },
        "hesperia": {
            "latitude": "34.4263886",
            "closest_to": "",
            "address": "Hesperia, San Bernardino County, California, United States of America",
            "locType": "city",
            "blogLinks": [
                "http://californiathroughmylens.com/highway-395-roadtrip"
            ],
            "longitude": "-117.3008783"
        },
        "south laguna": {
            "latitude": "33.5005827",
            "closest_to": "",
            "address": "South Laguna, Orange County, California, United States of America",
            "locType": "hamlet",
            "blogLinks": [
                "http://www.traillink.com/state/ca-trails.aspx"
            ],
            "longitude": "-117.7431096"
        },
        "bonita canyon trail": {
            "latitude": "33.6276954",
            "closest_to": "",
            "address": "Bonita Canyon Sports Park, Bonita Canyon Drive, Newport Center, Newport Beach, Orange County, California, 92612, United States of America",
            "locType": "park",
            "blogLinks": [
                "http://www.traillink.com/state/ca-trails.aspx"
            ],
            "longitude": "-117.853278311454"
        },
        "napa valley": {
            "latitude": "39.0234679",
            "closest_to": "",
            "address": "Napa Valley, Cold Spring, Campbell County, Kentucky, 41076, United States of America",
            "locType": "residential",
            "blogLinks": [
                "http://www.travbuddy.com/California-travel-guide-p85",
                "https://www.quora.com/What-are-some-towns-I-should-stop-in-sights-to-see-and-activities-to-do-on-a-central-to-northern-California-road-trip",
                "https://www.quora.com/Which-are-some-of-the-best-places-to-visit-in-California-for-couples"
            ],
            "longitude": "-84.4504647"
        },
        "marin county": {
            "latitude": "38.0409144",
            "closest_to": "",
            "address": "Marin County, California, United States of America",
            "locType": "administrative",
            "blogLinks": [
                "http://www.traillink.com/state/ca-trails.aspx"
            ],
            "longitude": "-122.6199637"
        },
        "hull creek": {
            "latitude": "39.5219893",
            "closest_to": "",
            "address": "Hull Mountain, Mendocino County, California, United States of America",
            "locType": "peak",
            "blogLinks": [
                "http://www.traillink.com/state/ca-trails.aspx"
            ],
            "longitude": "-122.9368793"
        },
        "irvine ranch": {
            "latitude": "33.6677446",
            "closest_to": "",
            "address": "15600, Irvine Ranch Water District, El Camino Real, Irvine, Orange County, California, 92618, United States of America",
            "locType": "industrial",
            "blogLinks": [
                "http://www.traillink.com/state/ca-trails.aspx"
            ],
            "longitude": "-117.766548806624"
        },
        "san diego creek trail": {
            "latitude": "33.6795768",
            "closest_to": "",
            "address": "San Diego Creek Trail, Woodbridge, Irvine, Orange County, California, 92614, United States of America",
            "locType": "cycleway",
            "blogLinks": [
                "http://www.traillink.com/state/ca-trails.aspx"
            ],
            "longitude": "-117.8038448"
        },
        "novato boulevard path": {
            "latitude": "38.0765229",
            "closest_to": "",
            "address": "Novato Blvd Bike Path Extension, Novato, Marin County, California, 94949, United States of America",
            "locType": "cycleway",
            "blogLinks": [
                "http://www.traillink.com/state/ca-trails.aspx"
            ],
            "longitude": "-122.5448885"
        },
        "san luis rey river trail": {
            "latitude": "33.2586949",
            "closest_to": "",
            "address": "San Luis Rey River, Oceanside, San Diego County, California, United States of America",
            "locType": "river",
            "blogLinks": [
                "http://www.traillink.com/state/ca-trails.aspx"
            ],
            "longitude": "-117.2623628"
        },
        "l.a.": {
            "latitude": "-13.8305494",
            "closest_to": "",
            "address": "California, Provincia Abel Iturralde, LPZ, Bolivia",
            "locType": "hamlet",
            "blogLinks": [
                "https://www.tripadvisor.com/Tourism-g33026-San_Luis_Obispo_San_Luis_Obispo_County_California-Vacations.html"
            ],
            "longitude": "-67.9369134"
        },
        "upper newport bay": {
            "latitude": "33.642243",
            "closest_to": "",
            "address": "Upper Newport Bay, Back Bay Drive, Newport Center, Newport Beach, Orange County, California, 92660, United States of America",
            "locType": "bay",
            "blogLinks": [
                "http://www.traillink.com/state/ca-trails.aspx"
            ],
            "longitude": "-117.8867234"
        },
        "butte county": {
            "latitude": "39.6519275",
            "closest_to": "",
            "address": "Butte County, California, United States of America",
            "locType": "administrative",
            "blogLinks": [
                "https://www.quora.com/What-are-some-towns-I-should-stop-in-sights-to-see-and-activities-to-do-on-a-central-to-northern-California-road-trip"
            ],
            "longitude": "-121.5858443"
        },
        "montclair": {
            "latitude": "34.0775104",
            "closest_to": "",
            "address": "Montclair, San Bernardino County, California, United States of America",
            "locType": "city",
            "blogLinks": [
                "http://www.traillink.com/state/ca-trails.aspx"
            ],
            "longitude": "-117.6897775"
        },
        "santiago creek trail": {
            "latitude": "33.8095041",
            "closest_to": "",
            "address": "Santiago Creek Trail, Orange, Orange County, California, 92687, United States of America",
            "locType": "track",
            "blogLinks": [
                "http://www.traillink.com/state/ca-trails.aspx"
            ],
            "longitude": "-117.7669135"
        },
        "genoa": {
            "latitude": "33.5248627",
            "closest_to": "",
            "address": "Genoa, Laguna Niguel, Orange County, California, 92677, United States of America",
            "locType": "residential",
            "blogLinks": [
                "http://californiathroughmylens.com/highway-395-roadtrip"
            ],
            "longitude": "-117.6929703"
        },
        "keswick reservoir": {
            "latitude": "40.61894595",
            "closest_to": "",
            "address": "Keswick Reservoir, FB Trail, Shasta County, California, 96089, United States of America",
            "locType": "water",
            "blogLinks": [
                "http://www.traillink.com/state/ca-trails.aspx"
            ],
            "longitude": "-122.445943371856"
        },
        "lower campus": {
            "latitude": "33.548242",
            "closest_to": "",
            "address": "Lower Campus Dr, Mission Viejo, Orange County, California, 92697, United States of America",
            "locType": "residential",
            "blogLinks": [
                "http://www.traillink.com/state/ca-trails.aspx"
            ],
            "longitude": "-117.6634499"
        },
        "westport beach": {
            "latitude": "33.637635",
            "closest_to": "",
            "address": "Westport, Newport Center, Newport Beach, Orange County, California, 92660, United States of America",
            "locType": "residential",
            "blogLinks": [
                "http://www.tripleblaze.com/best/?c=59"
            ],
            "longitude": "-117.8688239"
        },
        "centennial way trail": {
            "latitude": "33.7440136",
            "closest_to": "",
            "address": "Centennial Way, Browning, Tustin, Orange County, California, 92780, United States of America",
            "locType": "tertiary",
            "blogLinks": [
                "http://www.traillink.com/state/ca-trails.aspx"
            ],
            "longitude": "-117.8188299"
        },
        "russian river": {
            "latitude": "38.4825985",
            "closest_to": "",
            "address": "Russian River, Sonoma County, California, United States of America",
            "locType": "river",
            "blogLinks": [
                "https://www.quora.com/What-are-some-towns-I-should-stop-in-sights-to-see-and-activities-to-do-on-a-central-to-northern-California-road-trip"
            ],
            "longitude": "-123.0082118"
        },
        "santa ana": {
            "latitude": "33.7494951",
            "closest_to": "",
            "address": "Santa Ana, Orange County, California, United States of America",
            "locType": "city",
            "blogLinks": [
                "http://www.traillink.com/state/ca-trails.aspx"
            ],
            "longitude": "-117.8732212"
        },
        "cazadero": {
            "latitude": "38.533246",
            "closest_to": "",
            "address": "Cazadero, Sonoma County, California, United States of America",
            "locType": "hamlet",
            "blogLinks": [
                "http://www.traillink.com/state/ca-trails.aspx"
            ],
            "longitude": "-123.0852799"
        },
        "south": {
            "latitude": "33.3054766",
            "closest_to": "",
            "address": "South, Los Angeles County, California, United States of America",
            "locType": "peak",
            "blogLinks": [
                "http://californiathroughmylens.com/highway-395-roadtrip"
            ],
            "longitude": "-118.3432299"
        },
        "malibu": {
            "latitude": "33.7932142",
            "closest_to": "",
            "address": "Malibu, Palm Springs, Riverside County, California, 92264, United States of America",
            "locType": "residential",
            "blogLinks": [
                "http://www.travbuddy.com/California-travel-guide-p85",
                "http://www.tripleblaze.com/best/?c=8"
            ],
            "longitude": "-116.5023561"
        },
        "ft. bragg": {
            "latitude": "39.4447345",
            "closest_to": "",
            "address": "Fort Bragg, Mendocino County, California, United States of America",
            "locType": "city",
            "blogLinks": [
                "https://www.quora.com/What-are-some-towns-I-should-stop-in-sights-to-see-and-activities-to-do-on-a-central-to-northern-California-road-trip"
            ],
            "longitude": "-123.802699105743"
        },
        "south carlsbad": {
            "latitude": "33.1580933",
            "closest_to": "",
            "address": "Carlsbad, San Diego County, California, United States of America",
            "locType": "city",
            "blogLinks": [
                "http://www.tripleblaze.com/best/?c=59"
            ],
            "longitude": "-117.3505938"
        },
        "eel river": {
            "latitude": "39.8321893",
            "closest_to": "",
            "address": "Eel River, Mendocino County, California, United States of America",
            "locType": "river",
            "blogLinks": [
                "https://www.quora.com/What-are-some-towns-I-should-stop-in-sights-to-see-and-activities-to-do-on-a-central-to-northern-California-road-trip"
            ],
            "longitude": "-123.4171214"
        },
        "air museum": {
            "latitude": "32.72624805",
            "closest_to": "",
            "address": "San Diego Air & Space Museum, Pan American Plaza, Hillcrest, San Diego, San Diego County, California, 92101, United States of America",
            "locType": "museum",
            "blogLinks": [
                "https://www.quora.com/What-are-some-towns-I-should-stop-in-sights-to-see-and-activities-to-do-on-a-central-to-northern-California-road-trip"
            ],
            "longitude": "-117.154373558605"
        },
        "escondido": {
            "latitude": "33.1216751",
            "closest_to": "",
            "address": "Escondido, San Diego County, California, United States of America",
            "locType": "city",
            "blogLinks": [
                "http://www.traillink.com/state/ca-trails.aspx"
            ],
            "longitude": "-117.0814848"
        },
        "pintura drive": {
            "latitude": "32.828537",
            "closest_to": "",
            "address": "La Pintura Drive, La Jolla, San Diego, San Diego County, California, 92037, United States of America",
            "locType": "residential",
            "blogLinks": [
                "http://www.traillink.com/state/ca-trails.aspx"
            ],
            "longitude": "-117.2525629"
        },
        "sacramento river trail": {
            "latitude": "40.594122",
            "closest_to": "",
            "address": "Sacramento River Trail, Redding, Shasta County, California, 96001, United States of America",
            "locType": "footway",
            "blogLinks": [
                "http://www.traillink.com/state/ca-trails.aspx"
            ],
            "longitude": "-122.3983463"
        },
        "castaways park": {
            "latitude": "33.622882",
            "closest_to": "",
            "address": "Castaways North, Balboa Island, Newport Beach, Orange County, California, 92660, United States of America",
            "locType": "residential",
            "blogLinks": [
                "http://www.traillink.com/state/ca-trails.aspx"
            ],
            "longitude": "-117.9034352"
        },
        "denver": {
            "latitude": "33.6996403",
            "closest_to": "",
            "address": "Denver, Heritage Park Apartments, El Camino Real, Irvine, Orange County, California, 92604, United States of America",
            "locType": "residential",
            "blogLinks": [
                "https://www.quora.com/What-are-some-towns-I-should-stop-in-sights-to-see-and-activities-to-do-on-a-central-to-northern-California-road-trip"
            ],
            "longitude": "-117.7762651"
        },
        "california": {
            "latitude": "7.3480915",
            "closest_to": "",
            "address": "California, Santander, Colombia",
            "locType": "village",
            "blogLinks": [
                "http://www.travbuddy.com/California-travel-guide-p85",
                "http://www.tripleblaze.com/best/?c=8",
                "https://www.quora.com/Which-are-some-of-the-best-places-to-visit-in-California-for-couples",
                "https://www.quora.com/What-are-some-towns-I-should-stop-in-sights-to-see-and-activities-to-do-on-a-central-to-northern-California-road-trip",
                "https://www.tripadvisor.com/Tourism-g33026-San_Luis_Obispo_San_Luis_Obispo_County_California-Vacations.html",
                "http://californiathroughmylens.com/highway-395-roadtrip",
                "http://www.traillink.com/state/ca-trails.aspx",
                "http://www.travbuddy.com/California-popular-cities-p85"
            ],
            "longitude": "-72.945787"
        },
        "seattle": {
            "latitude": "41.9641881",
            "closest_to": "",
            "address": "Seattle, Dorris, Siskiyou County, California, 96023, United States of America",
            "locType": "residential",
            "blogLinks": [
                "https://www.quora.com/What-are-some-towns-I-should-stop-in-sights-to-see-and-activities-to-do-on-a-central-to-northern-California-road-trip"
            ],
            "longitude": "-121.9226289"
        },
        "santa gertrudis creek trail": {
            "latitude": "33.5404861",
            "closest_to": "",
            "address": "Santa Gertrudis Creek Trail, Summerfield, Four Seasons, Riverside County, California, 92591, United States of America",
            "locType": "cycleway",
            "blogLinks": [
                "http://www.traillink.com/state/ca-trails.aspx"
            ],
            "longitude": "-117.139228"
        },
        "new mexico": {
            "latitude": "32.2644096",
            "closest_to": "",
            "address": "California Lateral, Mesilla, Do\u00f1a Ana County, New Mexico, United States of America",
            "locType": "drain",
            "blogLinks": [
                "https://www.quora.com/What-are-some-towns-I-should-stop-in-sights-to-see-and-activities-to-do-on-a-central-to-northern-California-road-trip"
            ],
            "longitude": "-106.8036705"
        },
        "doheny state beach": {
            "latitude": "33.4601551",
            "closest_to": "",
            "address": "Doheny State Beach, Park Lantern Street, Dana Point, Orange County, California, 92624, United States of America",
            "locType": "park",
            "blogLinks": [
                "http://www.traillink.com/state/ca-trails.aspx"
            ],
            "longitude": "-117.676819688993"
        },
        "arcata": {
            "latitude": "40.8665166",
            "closest_to": "",
            "address": "Arcata, Humboldt County, California, United States of America",
            "locType": "city",
            "blogLinks": [
                "http://www.traillink.com/state/ca-trails.aspx"
            ],
            "longitude": "-124.0828395"
        },
        "castaways trail": {
            "latitude": "33.622882",
            "closest_to": "",
            "address": "Castaways North, Balboa Island, Newport Beach, Orange County, California, 92660, United States of America",
            "locType": "residential",
            "blogLinks": [
                "http://www.traillink.com/state/ca-trails.aspx"
            ],
            "longitude": "-117.9034352"
        },
        "topeka": {
            "latitude": "33.6911755",
            "closest_to": "",
            "address": "Topeka, El Camino Real, Irvine, Orange County, California, 92406, United States of America",
            "locType": "residential",
            "blogLinks": [
                "http://www.traillink.com/state/ca-trails.aspx"
            ],
            "longitude": "-117.7703945"
        },
        "sweeney ridge": {
            "latitude": "37.60933145",
            "closest_to": "",
            "address": "Sweeney Ridge (GGNRA), Sweeney Ridge Trail, Pacifica, San Mateo County, California, 94044, United States of America",
            "locType": "park",
            "blogLinks": [
                "http://www.traillink.com/state/ca-trails.aspx"
            ],
            "longitude": "-122.463853421956"
        },
        "lassen national park": {
            "latitude": "40.49138385",
            "closest_to": "",
            "address": "Lassen Volcanic National Park, Lassen Peak Highway, Shasta County, California, United States of America",
            "locType": "national_park",
            "blogLinks": [
                "http://californiathroughmylens.com/highway-395-roadtrip",
                "https://www.quora.com/What-are-some-towns-I-should-stop-in-sights-to-see-and-activities-to-do-on-a-central-to-northern-California-road-trip"
            ],
            "longitude": "-121.404335848657"
        },
        "st. helena": {
            "latitude": "38.5052288",
            "closest_to": "",
            "address": "St. Helena, Napa County, California, United States of America",
            "locType": "city",
            "blogLinks": [
                "https://www.quora.com/What-are-some-towns-I-should-stop-in-sights-to-see-and-activities-to-do-on-a-central-to-northern-California-road-trip"
            ],
            "longitude": "-122.4700423"
        },
        "alton avenue": {
            "latitude": "37.7501499",
            "closest_to": "",
            "address": "Alton Avenue, Forest Hill, SF, California, 94116, United States of America",
            "locType": "residential",
            "blogLinks": [
                "http://www.traillink.com/state/ca-trails.aspx"
            ],
            "longitude": "-122.4626136"
        },
        "ferndale": {
            "latitude": "40.5762406",
            "closest_to": "",
            "address": "Ferndale, Humboldt County, California, United States of America",
            "locType": "city",
            "blogLinks": [
                "https://www.quora.com/What-are-some-towns-I-should-stop-in-sights-to-see-and-activities-to-do-on-a-central-to-northern-California-road-trip"
            ],
            "longitude": "-124.2639441"
        },
        "san diego freeway": {
            "latitude": "32.7285162",
            "closest_to": "",
            "address": "San Diego Freeway, Hillcrest, San Diego, San Diego County, California, 92101, United States of America",
            "locType": "motorway",
            "blogLinks": [
                "http://www.traillink.com/state/ca-trails.aspx"
            ],
            "longitude": "-117.1690377"
        },
        "prince memorial greenway": {
            "latitude": "38.4353809",
            "closest_to": "",
            "address": "Prince Memorial Greenway, Santa Rosa, Sonoma County, California, 95401, United States of America",
            "locType": "cycleway",
            "blogLinks": [
                "http://www.traillink.com/state/ca-trails.aspx"
            ],
            "longitude": "-122.7177885"
        },
        "peters canyon trail": {
            "latitude": "33.7260187",
            "closest_to": "",
            "address": "Peters Canyon Trail, Lower Peters Canyon, Irvine, Orange County, California, 92602, United States of America",
            "locType": "bridleway",
            "blogLinks": [
                "http://www.traillink.com/state/ca-trails.aspx"
            ],
            "longitude": "-117.7772067"
        },
        "san luis rey river": {
            "latitude": "33.2586949",
            "closest_to": "",
            "address": "San Luis Rey River, Oceanside, San Diego County, California, United States of America",
            "locType": "river",
            "blogLinks": [
                "http://www.traillink.com/state/ca-trails.aspx"
            ],
            "longitude": "-117.2623628"
        },
        "mori ridge trail": {
            "latitude": "37.6180677",
            "closest_to": "",
            "address": "Mori Ridge Trail, Vallemar, Pacifica, San Mateo County, California, 94044, United States of America",
            "locType": "track",
            "blogLinks": [
                "http://www.traillink.com/state/ca-trails.aspx"
            ],
            "longitude": "-122.4724168"
        },
        "croatia": {
            "latitude": "45.4955091",
            "closest_to": "",
            "address": "California, Ravna Dolina, Grad Umag, Istarska \u017eupanija, 524785, Hrvatska",
            "locType": "camp_site",
            "blogLinks": [
                "https://www.quora.com/What-are-some-towns-I-should-stop-in-sights-to-see-and-activities-to-do-on-a-central-to-northern-California-road-trip"
            ],
            "longitude": "13.500736"
        },
        "santa ana river": {
            "latitude": "33.847255",
            "closest_to": "",
            "address": "Santa Ana River, Anaheim, Orange County, California, United States of America",
            "locType": "river",
            "blogLinks": [
                "http://www.traillink.com/state/ca-trails.aspx"
            ],
            "longitude": "-117.8400508"
        },
        "wendel": {
            "latitude": "40.3482346",
            "closest_to": "",
            "address": "Wendel, Lassen County, California, United States of America",
            "locType": "hamlet",
            "blogLinks": [
                "http://www.traillink.com/state/ca-trails.aspx"
            ],
            "longitude": "-120.233546"
        },
        "south inland center drive": {
            "latitude": "34.0901405",
            "closest_to": "",
            "address": "South Inland Center Drive, San Bernardino, San Bernardino County, California, 92408, United States of America",
            "locType": "primary",
            "blogLinks": [
                "http://www.traillink.com/state/ca-trails.aspx"
            ],
            "longitude": "-117.2961046"
        },
        "chico": {
            "latitude": "39.7284945",
            "closest_to": "",
            "address": "Chico, Butte County, California, United States of America",
            "locType": "city",
            "blogLinks": [
                "http://www.traillink.com/state/ca-trails.aspx",
                "https://www.quora.com/What-are-some-towns-I-should-stop-in-sights-to-see-and-activities-to-do-on-a-central-to-northern-California-road-trip"
            ],
            "longitude": "-121.8374776"
        },
        "oakville": {
            "latitude": "38.4368549",
            "closest_to": "",
            "address": "Oakville, Napa County, California, United States of America",
            "locType": "hamlet",
            "blogLinks": [
                "https://www.quora.com/What-are-some-towns-I-should-stop-in-sights-to-see-and-activities-to-do-on-a-central-to-northern-California-road-trip"
            ],
            "longitude": "-122.4022006"
        },
        "china ranch": {
            "latitude": "35.7996878",
            "closest_to": "",
            "address": "China Ranch, Inyo County, California, United States of America",
            "locType": "hamlet",
            "blogLinks": [
                "http://www.traillink.com/state/ca-trails.aspx"
            ],
            "longitude": "-116.1935827"
        },
        "wales": {
            "latitude": "-32.6649999",
            "closest_to": "",
            "address": "California, Singleton, NSW, Australia",
            "locType": "hamlet",
            "blogLinks": [
                "https://www.tripadvisor.ca/ShowTopic-g28926-i29-k8472550-Driving_from_San_Fran_to_San_Diego_via_Yosemite-California.html"
            ],
            "longitude": "150.9261111"
        },
        "alturas": {
            "latitude": "41.487123",
            "closest_to": "",
            "address": "Alturas, Modoc County, California, United States of America",
            "locType": "city",
            "blogLinks": [
                "http://www.traillink.com/state/ca-trails.aspx"
            ],
            "longitude": "-120.542327"
        },
        "kentfield": {
            "latitude": "37.9519958",
            "closest_to": "",
            "address": "Kentfield, Marin County, California, United States of America",
            "locType": "hamlet",
            "blogLinks": [
                "http://www.traillink.com/state/ca-trails.aspx"
            ],
            "longitude": "-122.5572115"
        },
        "sonoma": {
            "latitude": "38.5110803",
            "closest_to": "",
            "address": "Sonoma County, California, United States of America",
            "locType": "administrative",
            "blogLinks": [
                "http://www.tripleblaze.com/best/?c=59",
                "http://www.traillink.com/state/ca-trails.aspx",
                "https://www.quora.com/What-are-some-towns-I-should-stop-in-sights-to-see-and-activities-to-do-on-a-central-to-northern-California-road-trip"
            ],
            "longitude": "-122.8473387"
        },
        "san marcos": {
            "latitude": "33.1433723",
            "closest_to": "",
            "address": "San Marcos, San Diego County, California, United States of America",
            "locType": "city",
            "blogLinks": [
                "http://www.traillink.com/state/ca-trails.aspx"
            ],
            "longitude": "-117.1661448"
        },
        "newport beach": {
            "latitude": "33.6170092",
            "closest_to": "",
            "address": "Newport Beach, Orange County, California, United States of America",
            "locType": "city",
            "blogLinks": [
                "http://www.travbuddy.com/California-travel-guide-p85",
                "http://www.traillink.com/state/ca-trails.aspx",
                "http://www.travbuddy.com/California-popular-cities-p85"
            ],
            "longitude": "-117.92944"
        },
        "hicks canyon wash": {
            "latitude": "33.7272307",
            "closest_to": "",
            "address": "Hicks Canyon Wash, Irvine, Orange County, California, United States of America",
            "locType": "stream",
            "blogLinks": [
                "http://www.traillink.com/state/ca-trails.aspx"
            ],
            "longitude": "-117.7256271"
        },
        "coyote creek trail": {
            "latitude": "32.996227",
            "closest_to": "",
            "address": "Coyote Creek Trail, Poway, San Diego County, California, 92064, United States of America",
            "locType": "residential",
            "blogLinks": [
                "http://www.traillink.com/state/ca-trails.aspx"
            ],
            "longitude": "-116.9807429"
        },
        "mad river": {
            "latitude": "40.1546447",
            "closest_to": "",
            "address": "Mad River, Trinity County, California, United States of America",
            "locType": "river",
            "blogLinks": [
                "http://www.traillink.com/state/ca-trails.aspx"
            ],
            "longitude": "-123.215975"
        },
        "lake loop": {
            "latitude": "33.330509",
            "closest_to": "",
            "address": "The Loop, Pauma Valley, San Diego County, California, 92061, United States of America",
            "locType": "residential",
            "blogLinks": [
                "https://www.tripadvisor.ca/ShowTopic-g28926-i29-k2867965-Drive_from_Las_Vegas_to_California-California.html"
            ],
            "longitude": "-116.9821009"
        },
        "oceanside": {
            "latitude": "33.1958696",
            "closest_to": "",
            "address": "Oceanside, San Diego County, California, United States of America",
            "locType": "city",
            "blogLinks": [
                "http://www.traillink.com/state/ca-trails.aspx"
            ],
            "longitude": "-117.3794833"
        },
        "middle creek trail": {
            "latitude": "40.595273",
            "closest_to": "",
            "address": "Middle Creek Trail, Shasta County, California, 96087, United States of America",
            "locType": "cycleway",
            "blogLinks": [
                "http://www.traillink.com/state/ca-trails.aspx"
            ],
            "longitude": "-122.4511629"
        },
        "brush creek trail": {
            "latitude": "39.6904417",
            "closest_to": "",
            "address": "Brush Creek, Butte County, California, United States of America",
            "locType": "hamlet",
            "blogLinks": [
                "http://www.traillink.com/state/ca-trails.aspx"
            ],
            "longitude": "-121.3391308"
        },
        "san juan creek trail": {
            "latitude": "33.5411204",
            "closest_to": "",
            "address": "San Juan Creek Trail, Orange County, California, United States of America",
            "locType": "track",
            "blogLinks": [
                "http://www.traillink.com/state/ca-trails.aspx"
            ],
            "longitude": "-117.5495125"
        },
        "san bruno": {
            "latitude": "37.6304904",
            "closest_to": "",
            "address": "San Bruno, San Mateo County, California, United States of America",
            "locType": "city",
            "blogLinks": [
                "http://www.traillink.com/state/ca-trails.aspx"
            ],
            "longitude": "-122.4110834"
        },
        "university drive": {
            "latitude": "33.9652539",
            "closest_to": "",
            "address": "University Drive, Riverside, Riverside County, California, 92521, United States of America",
            "locType": "residential",
            "blogLinks": [
                "http://www.traillink.com/state/ca-trails.aspx"
            ],
            "longitude": "-117.3271935"
        },
        "australia": {
            "latitude": "-32.6649999",
            "closest_to": "",
            "address": "California, Singleton, NSW, Australia",
            "locType": "hamlet",
            "blogLinks": [
                "http://www.roadtripamerica.com/forum/showthread.php?42874-Mammoth-Lakes-to-Yosemite-April-2016"
            ],
            "longitude": "150.9261111"
        },
        "aliso creek": {
            "latitude": "33.602558",
            "closest_to": "",
            "address": "Aliso Creek, Laguna Woods, Orange County, California, United States of America",
            "locType": "stream",
            "blogLinks": [
                "http://www.tripleblaze.com/best/?c=8"
            ],
            "longitude": "-117.7034805"
        },
        "california-nevada": {
            "latitude": "36.17310935",
            "closest_to": "",
            "address": "California Hotel, Sky Walk(Connection from Main Street to California, Cultural Corridor, Vegas Heights, Las Vegas, Clark County, Nevada, 89101, United States of America",
            "locType": "hotel",
            "blogLinks": [
                "http://www.travbuddy.com/California-travel-guide-p85",
                "http://www.travbuddy.com/California-popular-cities-p85"
            ],
            "longitude": "-115.144667930325"
        },
        "uk": {
            "latitude": "52.4422729",
            "closest_to": "",
            "address": "California, Birmingham, West Midlands, England, UK",
            "locType": "village",
            "blogLinks": [
                "https://www.tripadvisor.ca/ShowTopic-g28926-i29-k8472550-Driving_from_San_Fran_to_San_Diego_via_Yosemite-California.html"
            ],
            "longitude": "-1.9796882"
        },
        "ridgeline drive": {
            "latitude": "33.9097826",
            "closest_to": "",
            "address": "Ridgeline Drive, Riverside, Riverside County, California, 92504, United States of America",
            "locType": "residential",
            "blogLinks": [
                "http://www.traillink.com/state/ca-trails.aspx"
            ],
            "longitude": "-117.3755432"
        },
        "brisbane": {
            "latitude": "37.6807661",
            "closest_to": "",
            "address": "Brisbane, San Mateo County, California, United States of America",
            "locType": "administrative",
            "blogLinks": [
                "http://www.traillink.com/state/ca-trails.aspx"
            ],
            "longitude": "-122.3999714"
        },
        "creek": {
            "latitude": "39.3751013",
            "closest_to": "",
            "address": "Creek, Mendocino County, California, United States of America",
            "locType": "stream",
            "blogLinks": [
                "http://www.tripleblaze.com/best/?c=8"
            ],
            "longitude": "-123.0482197"
        },
        "tustin branch trail": {
            "latitude": "33.7458511",
            "closest_to": "",
            "address": "Tustin, Orange County, California, United States of America",
            "locType": "city",
            "blogLinks": [
                "http://www.traillink.com/state/ca-trails.aspx"
            ],
            "longitude": "-117.8261659"
        },
        "santa": {
            "latitude": "22.4804035",
            "closest_to": "",
            "address": "California, Santa Isabel de las Lajas, Cienfuegos, Cuba",
            "locType": "hamlet",
            "blogLinks": [
                "http://www.traillink.com/state/ca-trails.aspx",
                "https://www.quora.com/What-are-some-towns-I-should-stop-in-sights-to-see-and-activities-to-do-on-a-central-to-northern-California-road-trip"
            ],
            "longitude": "-80.3796642"
        },
        "greece": {
            "latitude": "43.222537",
            "closest_to": "",
            "address": "California Drive, Greece Town, Monroe County, New York, 14616, United States of America",
            "locType": "residential",
            "blogLinks": [
                "https://www.quora.com/What-are-some-towns-I-should-stop-in-sights-to-see-and-activities-to-do-on-a-central-to-northern-California-road-trip"
            ],
            "longitude": "-77.6362609"
        },
        "solana beach": {
            "latitude": "32.9905597",
            "closest_to": "",
            "address": "Solana Beach, San Diego County, California, United States of America",
            "locType": "city",
            "blogLinks": [
                "http://www.traillink.com/state/ca-trails.aspx"
            ],
            "longitude": "-117.2691315"
        },
        "tiburon historical trail": {
            "latitude": "37.8734371",
            "closest_to": "",
            "address": "Tiburon, Marin County, California, United States of America",
            "locType": "administrative",
            "blogLinks": [
                "http://www.traillink.com/state/ca-trails.aspx"
            ],
            "longitude": "-122.4566121"
        },
        "willow street": {
            "latitude": "32.727379",
            "closest_to": "",
            "address": "Willow Street, Old Town, San Diego, San Diego County, California, 92106, United States of America",
            "locType": "residential",
            "blogLinks": [
                "http://www.traillink.com/state/ca-trails.aspx"
            ],
            "longitude": "-117.2313309"
        },
        "sorrento valley road trail": {
            "latitude": "32.8901826",
            "closest_to": "",
            "address": "Sorrento Valley Road, San Diego, San Diego County, California, 92121, United States of America",
            "locType": "primary",
            "blogLinks": [
                "http://www.traillink.com/state/ca-trails.aspx"
            ],
            "longitude": "-117.2077416"
        },
        "san diego river": {
            "latitude": "32.7686163",
            "closest_to": "",
            "address": "San Diego River, San Diego, San Diego County, California, United States of America",
            "locType": "river",
            "blogLinks": [
                "http://www.traillink.com/state/ca-trails.aspx"
            ],
            "longitude": "-117.1585474"
        },
        "roraima": {
            "latitude": "3.60107",
            "closest_to": "",
            "address": "California, Microrregi\u00e3o de Boa Vista, Mesorregi\u00e3o Norte de Roraima, RR, Regi\u00e3o Norte, Brasil",
            "locType": "hamlet",
            "blogLinks": [
                "https://www.quora.com/What-are-some-towns-I-should-stop-in-sights-to-see-and-activities-to-do-on-a-central-to-northern-California-road-trip"
            ],
            "longitude": "-61.5606166"
        },
        "hicks canyon community park": {
            "latitude": "33.7247013",
            "closest_to": "",
            "address": "Hicks Canyon Community Park, 3864, Viewpark Avenue, Lower Peters Canyon, Irvine, Orange County, California, 92602, United States of America",
            "locType": "park",
            "blogLinks": [
                "http://www.traillink.com/state/ca-trails.aspx"
            ],
            "longitude": "-117.77021369798"
        },
        "dunsmuir": {
            "latitude": "41.2082089",
            "closest_to": "",
            "address": "Dunsmuir, Siskiyou County, California, United States of America",
            "locType": "city",
            "blogLinks": [
                "https://www.quora.com/What-are-some-towns-I-should-stop-in-sights-to-see-and-activities-to-do-on-a-central-to-northern-California-road-trip"
            ],
            "longitude": "-122.2719528"
        },
        "hikshari trail": {
            "latitude": "40.767892",
            "closest_to": "",
            "address": "Hikshari' Trail, Eureka, Humboldt County, California, 95503, United States of America",
            "locType": "path",
            "blogLinks": [
                "http://www.traillink.com/state/ca-trails.aspx"
            ],
            "longitude": "-124.1965449"
        },
        "shasta county": {
            "latitude": "40.7965121",
            "closest_to": "",
            "address": "Shasta County, California, United States of America",
            "locType": "administrative",
            "blogLinks": [
                "http://www.traillink.com/state/ca-trails.aspx"
            ],
            "longitude": "-121.9979193"
        },
        "laguna niguel": {
            "latitude": "33.5225261",
            "closest_to": "",
            "address": "Laguna Niguel, Orange County, California, United States of America",
            "locType": "city",
            "blogLinks": [
                "http://www.traillink.com/state/ca-trails.aspx"
            ],
            "longitude": "-117.7075525"
        },
        "sweeney ridge trail": {
            "latitude": "37.5988452",
            "closest_to": "",
            "address": "Sweeney Ridge Trail, Pacifica, San Mateo County, California, 94066, United States of America",
            "locType": "track",
            "blogLinks": [
                "http://www.traillink.com/state/ca-trails.aspx"
            ],
            "longitude": "-122.4527936"
        },
        "san elijo": {
            "latitude": "33.0228",
            "closest_to": "",
            "address": "San Elijo, Olivenhain, San Diego County, California, 92091, United States of America",
            "locType": "residential",
            "blogLinks": [
                "http://www.tripleblaze.com/best/?c=59"
            ],
            "longitude": "-117.2283709"
        },
        "germany": {
            "latitude": "50.9590814",
            "closest_to": "",
            "address": "California, Lassallestra\u00dfe, M\u00fclheim, K\u00f6ln, Regierungsbezirk K\u00f6ln, Nordrhein-Westfalen, 50667-51149, Deutschland",
            "locType": "beauty",
            "blogLinks": [
                "https://www.tripadvisor.com/Tourism-g33026-San_Luis_Obispo_San_Luis_Obispo_County_California-Vacations.html"
            ],
            "longitude": "7.009217"
        },
        "sneath lane trail": {
            "latitude": "37.6111465",
            "closest_to": "",
            "address": "Sneath Lane Trail, Pacifica, San Mateo County, California, 94066, United States of America",
            "locType": "track",
            "blogLinks": [
                "http://www.traillink.com/state/ca-trails.aspx"
            ],
            "longitude": "-122.4536062"
        },
        "bonita canyon drive": {
            "latitude": "33.6327448",
            "closest_to": "",
            "address": "Bonita Canyon Drive, Turtle Rock, Irvine, Orange County, California, 92612, United States of America",
            "locType": "secondary",
            "blogLinks": [
                "http://www.traillink.com/state/ca-trails.aspx"
            ],
            "longitude": "-117.8383395"
        },
        "westwood": {
            "latitude": "40.3024675",
            "closest_to": "",
            "address": "Westwood, 3rd Street, Westwood, Lassen County, California, United States of America",
            "locType": "administrative",
            "blogLinks": [
                "http://www.traillink.com/state/ca-trails.aspx"
            ],
            "longitude": "-121.010399151458"
        },
        "amargosa river trail": {
            "latitude": "35.705121",
            "closest_to": "",
            "address": "Amargosa River, San Bernardino County, California, United States of America",
            "locType": "stream",
            "blogLinks": [
                "http://www.traillink.com/state/ca-trails.aspx"
            ],
            "longitude": "-116.4779082"
        },
        "gualala": {
            "latitude": "38.7674439",
            "closest_to": "",
            "address": "Gualala, Mendocino County, California, United States of America",
            "locType": "hamlet",
            "blogLinks": [
                "https://www.quora.com/What-are-some-towns-I-should-stop-in-sights-to-see-and-activities-to-do-on-a-central-to-northern-California-road-trip",
                "https://www.quora.com/Which-are-some-of-the-best-places-to-visit-in-California-for-couples"
            ],
            "longitude": "-123.529828"
        },
        "napa valley vine trail": {
            "latitude": "38.4022123",
            "closest_to": "",
            "address": "Napa Valley Vine Trail, Yountville, Napa County, California, 94599, United States of America",
            "locType": "cycleway",
            "blogLinks": [
                "http://www.traillink.com/state/ca-trails.aspx"
            ],
            "longitude": "-122.3640246"
        },
        "oregon": {
            "latitude": "33.7123207",
            "closest_to": "",
            "address": "Oregon, Walnut, Irvine, Orange County, California, 92606, United States of America",
            "locType": "residential",
            "blogLinks": [
                "http://californiathroughmylens.com/highway-395-roadtrip"
            ],
            "longitude": "-117.7911567"
        },
        "santa fe trail": {
            "latitude": "34.479865",
            "closest_to": "",
            "address": "Santa Fe Trail, Victorville, San Bernardino County, California, 92392, United States of America",
            "locType": "residential",
            "blogLinks": [
                "http://www.traillink.com/state/ca-trails.aspx"
            ],
            "longitude": "-117.3440682"
        },
        "santa rosa creek trail": {
            "latitude": "38.4852493",
            "closest_to": "",
            "address": "Santa Rosa Creek Trail, Sonoma County, California, United States of America",
            "locType": "track",
            "blogLinks": [
                "http://www.traillink.com/state/ca-trails.aspx"
            ],
            "longitude": "-122.5747493"
        },
        "northern california": {
            "latitude": "32.7349196",
            "closest_to": "",
            "address": "Northern Frontier, San Diego, San Diego County, California, United States of America",
            "locType": "locality",
            "blogLinks": [
                "http://www.traillink.com/state/ca-trails.aspx",
                "https://www.quora.com/What-are-some-towns-I-should-stop-in-sights-to-see-and-activities-to-do-on-a-central-to-northern-California-road-trip",
                "https://www.quora.com/Which-are-some-of-the-best-places-to-visit-in-California-for-couples"
            ],
            "longitude": "-117.1545973"
        },
        "balboa peninsula": {
            "latitude": "33.5975",
            "closest_to": "",
            "address": "Balboa Peninsula, Newport Beach, Orange County, California, United States of America",
            "locType": "suburb",
            "blogLinks": [
                "http://www.traillink.com/state/ca-trails.aspx"
            ],
            "longitude": "-117.8860521"
        },
        "sea trail": {
            "latitude": "33.31215995",
            "closest_to": "",
            "address": "Salton Sea, Imperial County, California, United States of America",
            "locType": "water",
            "blogLinks": [
                "http://www.traillink.com/state/ca-trails.aspx"
            ],
            "longitude": "-115.779429602876"
        },
        "mendocino": {
            "latitude": "39.3176491",
            "closest_to": "",
            "address": "Mendocino County, California, United States of America",
            "locType": "administrative",
            "blogLinks": [
                "http://www.traillink.com/state/ca-trails.aspx",
                "https://www.quora.com/What-are-some-towns-I-should-stop-in-sights-to-see-and-activities-to-do-on-a-central-to-northern-California-road-trip"
            ],
            "longitude": "-123.4126398"
        },
        "orange county": {
            "latitude": "33.7500378",
            "closest_to": "",
            "address": "Orange County, California, United States of America",
            "locType": "administrative",
            "blogLinks": [
                "http://www.travbuddy.com/California-travel-guide-p85",
                "http://californiathroughmylens.com/highway-395-roadtrip",
                "http://www.traillink.com/state/ca-trails.aspx",
                "http://www.travbuddy.com/California-popular-cities-p85"
            ],
            "longitude": "-117.870493"
        },
        "bon air road": {
            "latitude": "37.9488772",
            "closest_to": "",
            "address": "Bon Air Road, Skylark, Marin County, California, 94904, United States of America",
            "locType": "secondary",
            "blogLinks": [
                "http://www.traillink.com/state/ca-trails.aspx"
            ],
            "longitude": "-122.5365431"
        },
        "hamilton": {
            "latitude": "39.0652059",
            "closest_to": "",
            "address": "California, Cincinnati, Hamilton County, Ohio, United States of America",
            "locType": "suburb",
            "blogLinks": [
                "http://www.traillink.com/state/ca-trails.aspx"
            ],
            "longitude": "-84.4272385"
        },
        "cal park hill tunnel": {
            "latitude": "37.950764",
            "closest_to": "",
            "address": "Cal Park Hill Tunnel, Larkspur, Marin County, California, 94904, United States of America",
            "locType": "cycleway",
            "blogLinks": [
                "http://www.traillink.com/state/ca-trails.aspx"
            ],
            "longitude": "-122.5103119"
        },
        "san diego": {
            "latitude": "32.7174209",
            "closest_to": "",
            "address": "San Diego, San Diego County, California, United States of America",
            "locType": "city",
            "blogLinks": [
                "http://www.travbuddy.com/California-travel-guide-p85",
                "http://www.tripleblaze.com/best/?c=8",
                "https://www.tripadvisor.ca/ShowTopic-g28926-i29-k8472550-Driving_from_San_Fran_to_San_Diego_via_Yosemite-California.html",
                "https://www.quora.com/What-are-some-towns-I-should-stop-in-sights-to-see-and-activities-to-do-on-a-central-to-northern-California-road-trip",
                "http://californiathroughmylens.com/highway-395-roadtrip",
                "http://www.traillink.com/state/ca-trails.aspx",
                "http://www.travbuddy.com/California-popular-cities-p85"
            ],
            "longitude": "-117.1627713"
        },
        "mammoth": {
            "latitude": "41.7304379",
            "closest_to": "",
            "address": "Mammoth, Modoc County, California, United States of America",
            "locType": "hamlet",
            "blogLinks": [
                "http://californiathroughmylens.com/highway-395-roadtrip"
            ],
            "longitude": "-121.3549877"
        },
        "mckinleyville": {
            "latitude": "40.966005",
            "closest_to": "",
            "address": "McKinleyville, Airport Road, McKinleyville, Humboldt County, California, 95519, United States of America",
            "locType": "administrative",
            "blogLinks": [
                "http://www.traillink.com/state/ca-trails.aspx"
            ],
            "longitude": "-124.102789674524"
        },
        "big bear lake": {
            "latitude": "34.253293",
            "closest_to": "",
            "address": "Big Bear Lake, Lagunita Lane, Big Bear Lake, San Bernardino County, California, 92315, United States of America",
            "locType": "water",
            "blogLinks": [
                "http://www.travbuddy.com/California-travel-guide-p85",
                "http://www.travbuddy.com/California-popular-cities-p85"
            ],
            "longitude": "-116.932209587315"
        },
        "peters canyon bikeway": {
            "latitude": "33.7616924",
            "closest_to": "",
            "address": "Peters Canyon Trail, Tustin, Orange County, California, 92782, United States of America",
            "locType": "cycleway",
            "blogLinks": [
                "http://www.traillink.com/state/ca-trails.aspx"
            ],
            "longitude": "-117.7704326"
        },
        "iron mountain road": {
            "latitude": "34.8749292",
            "closest_to": "",
            "address": "Iron Mountain Road, San Bernardino County, California, United States of America",
            "locType": "residential",
            "blogLinks": [
                "http://www.traillink.com/state/ca-trails.aspx"
            ],
            "longitude": "-117.2306071"
        },
        "redwood": {
            "latitude": "33.45713595",
            "closest_to": "",
            "address": "Redwood, Wolf Creek, Temecula, Riverside County, California, 92592, United States of America",
            "locType": "residential",
            "blogLinks": [
                "https://www.quora.com/What-are-some-towns-I-should-stop-in-sights-to-see-and-activities-to-do-on-a-central-to-northern-California-road-trip"
            ],
            "longitude": "-117.094843184352"
        },
        "west newport beach": {
            "latitude": "33.6170092",
            "closest_to": "",
            "address": "Newport Beach, Orange County, California, United States of America",
            "locType": "city",
            "blogLinks": [
                "http://www.traillink.com/state/ca-trails.aspx"
            ],
            "longitude": "-117.92944"
        },
        "northwestern pacific": {
            "latitude": "37.9347036",
            "closest_to": "",
            "address": "Northwestern Pacific Railroad, Larkspur, Marin County, California, 94904, United States of America",
            "locType": "cycleway",
            "blogLinks": [
                "http://www.traillink.com/state/ca-trails.aspx"
            ],
            "longitude": "-122.5208845"
        },
        "jerry russom memorial park": {
            "latitude": "38.0207555",
            "closest_to": "",
            "address": "Jerry Russom Memorial Park, Canyon Oak Drive, Terra Linda, San Rafael, Marin County, California, 94903, United States of America",
            "locType": "park",
            "blogLinks": [
                "http://www.traillink.com/state/ca-trails.aspx"
            ],
            "longitude": "-122.5585897"
        },
        "carlsbad": {
            "latitude": "33.1580933",
            "closest_to": "",
            "address": "Carlsbad, San Diego County, California, United States of America",
            "locType": "city",
            "blogLinks": [
                "http://www.travbuddy.com/California-travel-guide-p85",
                "http://www.traillink.com/state/ca-trails.aspx",
                "http://www.travbuddy.com/California-popular-cities-p85"
            ],
            "longitude": "-117.3505938"
        },
        "marinwood": {
            "latitude": "38.0328458",
            "closest_to": "",
            "address": "Marinwood, Marin County, California, United States of America",
            "locType": "hamlet",
            "blogLinks": [
                "http://www.traillink.com/state/ca-trails.aspx"
            ],
            "longitude": "-122.5445936"
        },
        "fountaingrove parkway": {
            "latitude": "38.4875172",
            "closest_to": "",
            "address": "Fountaingrove Parkway, Santa Rosa, Sonoma County, California, 95409, United States of America",
            "locType": "secondary",
            "blogLinks": [
                "http://www.traillink.com/state/ca-trails.aspx"
            ],
            "longitude": "-122.693346"
        },
        "salt creek trail": {
            "latitude": "33.5061868",
            "closest_to": "",
            "address": "Salt Creek Trail, Laguna Niguel, Orange County, California, 92629, United States of America",
            "locType": "cycleway",
            "blogLinks": [
                "http://www.traillink.com/state/ca-trails.aspx"
            ],
            "longitude": "-117.7084332"
        },
        "barstow": {
            "latitude": "34.8957684",
            "closest_to": "",
            "address": "Barstow, San Bernardino County, California, United States of America",
            "locType": "administrative",
            "blogLinks": [
                "http://www.travbuddy.com/California-travel-guide-p85",
                "http://www.travbuddy.com/California-popular-cities-p85"
            ],
            "longitude": "-117.0172076"
        },
        "jamboree road": {
            "latitude": "33.7924583",
            "closest_to": "",
            "address": "Jamboree Road, Orange, Orange County, California, 92689, United States of America",
            "locType": "primary",
            "blogLinks": [
                "http://www.traillink.com/state/ca-trails.aspx"
            ],
            "longitude": "-117.7611921"
        },
        "south bay": {
            "latitude": "37.794096",
            "closest_to": "",
            "address": "South Bay, Sea Cliff Avenue, Seacliff, SF, California, 94121, United States of America",
            "locType": "bay",
            "blogLinks": [
                "http://www.travbuddy.com/California-popular-cities-p85"
            ],
            "longitude": "-122.4927499"
        },
        "trabuco creek": {
            "latitude": "33.6356065",
            "closest_to": "",
            "address": "Trabuco Creek, Rancho Santa Margarita, Orange County, California, United States of America",
            "locType": "stream",
            "blogLinks": [
                "http://www.traillink.com/state/ca-trails.aspx"
            ],
            "longitude": "-117.6184203"
        },
        "w. lindo avenue": {
            "latitude": "39.7489083",
            "closest_to": "",
            "address": "West Lindo Avenue, Chico, Butte County, California, 95926, United States of America",
            "locType": "residential",
            "blogLinks": [
                "http://www.traillink.com/state/ca-trails.aspx"
            ],
            "longitude": "-121.8551295"
        },
        "petaluma": {
            "latitude": "38.295411",
            "closest_to": "",
            "address": "Petaluma, Sonoma County, California, United States of America",
            "locType": "city",
            "blogLinks": [
                "http://www.traillink.com/state/ca-trails.aspx"
            ],
            "longitude": "-122.613693402033"
        },
        "south san francisco": {
            "latitude": "37.6549493",
            "closest_to": "",
            "address": "South San Francisco, San Mateo County, California, United States of America",
            "locType": "administrative",
            "blogLinks": [
                "http://www.traillink.com/state/ca-trails.aspx"
            ],
            "longitude": "-122.408125"
        },
        "sweetwater river": {
            "latitude": "32.6806087",
            "closest_to": "",
            "address": "Sweetwater River, San Diego County, California, United States of America",
            "locType": "river",
            "blogLinks": [
                "http://www.traillink.com/state/ca-trails.aspx"
            ],
            "longitude": "-117.0135197"
        },
        "loma verde preserve": {
            "latitude": "38.0568656",
            "closest_to": "",
            "address": "Loma Verde Preserve, Chicken Shack Fire Road, Novato, Marin County, California, 94949, United States of America",
            "locType": "park",
            "blogLinks": [
                "http://www.traillink.com/state/ca-trails.aspx"
            ],
            "longitude": "-122.547201"
        },
        "coronado island": {
            "latitude": "32.4172137",
            "closest_to": "",
            "address": "Isla Coronado Centro, Tijuana, Baja California, M\u00e9xico",
            "locType": "island",
            "blogLinks": [
                "https://www.tripadvisor.ca/ShowTopic-g28926-i29-k8472550-Driving_from_San_Fran_to_San_Diego_via_Yosemite-California.html"
            ],
            "longitude": "-117.260743289496"
        },
        "cloverdale": {
            "latitude": "38.8054624",
            "closest_to": "",
            "address": "Cloverdale, Sonoma County, California, United States of America",
            "locType": "city",
            "blogLinks": [
                "http://www.traillink.com/state/ca-trails.aspx"
            ],
            "longitude": "-123.0172226"
        },
        "susanville": {
            "latitude": "40.4162842",
            "closest_to": "",
            "address": "Susanville, Lassen County, California, United States of America",
            "locType": "city",
            "blogLinks": [
                "http://www.traillink.com/state/ca-trails.aspx",
                "https://www.quora.com/What-are-some-towns-I-should-stop-in-sights-to-see-and-activities-to-do-on-a-central-to-northern-California-road-trip"
            ],
            "longitude": "-120.6530062"
        },
        "park lane": {
            "latitude": "33.70494285",
            "closest_to": "",
            "address": "Park Lane, Walnut, Irvine, Orange County, California, 92606, United States of America",
            "locType": "residential",
            "blogLinks": [
                "http://www.traillink.com/state/ca-trails.aspx"
            ],
            "longitude": "-117.799942655583"
        },
        "el cajon trail": {
            "latitude": "32.7947731",
            "closest_to": "",
            "address": "El Cajon, San Diego County, California, United States of America",
            "locType": "city",
            "blogLinks": [
                "http://www.traillink.com/state/ca-trails.aspx"
            ],
            "longitude": "-116.9625268"
        },
        "san diego river trail": {
            "latitude": "32.8748895",
            "closest_to": "",
            "address": "San Diego River Trail, Blossom Valley, San Diego County, California, 92040, United States of America",
            "locType": "footway",
            "blogLinks": [
                "http://www.traillink.com/state/ca-trails.aspx"
            ],
            "longitude": "-116.8823495"
        },
        "calistoga": {
            "latitude": "38.582615",
            "closest_to": "",
            "address": "Calistoga, Napa County, California, United States of America",
            "locType": "city",
            "blogLinks": [
                "http://www.traillink.com/state/ca-trails.aspx",
                "http://www.travbuddy.com/California-popular-cities-p85",
                "https://www.quora.com/What-are-some-towns-I-should-stop-in-sights-to-see-and-activities-to-do-on-a-central-to-northern-California-road-trip",
                "https://www.quora.com/Which-are-some-of-the-best-places-to-visit-in-California-for-couples"
            ],
            "longitude": "-122.583325948608"
        },
        "shoreline park": {
            "latitude": "32.7136",
            "closest_to": "",
            "address": "Shoreline Park, Shelter Island Drive, San Diego, San Diego County, California, 92106, United States of America",
            "locType": "park",
            "blogLinks": [
                "http://www.traillink.com/state/ca-trails.aspx"
            ],
            "longitude": "-117.22651231152"
        },