{
    "riverside": {
        "type": "city",
        "osm_id": "98628503",
        "class": "place",
        "importance": 0.72980766319189,
        "lat": "33.9533546",
        "lon": "-117.3961622",
        "boundingbox": [
            "33.8724207",
            "34.0192691",
            "-117.5237611",
            "-117.2741721"
        ],
        "display_name": "Riverside, Riverside County, California, United States of America",
        "licence": "Data \u00a9 OpenStreetMap contributors, ODbL 1.0. http://www.openstreetmap.org/copyright",
        "icon": "https://nominatim.openstreetmap.org/images/mapicons/poi_place_city.p.20.png",
        "place_id": "85715402",
        "osm_type": "way"
    },
    "mentions": {
        "mount palomar ca": {
            "latitude": "33.1278146",
            "closest_to": "riverside",
            "address": "California Bank & Trust, 2501, Palomar Airport Road, Carlsbad, San Diego County, California, 92011, United States of America",
            "locType": "bank",
            "blogLinks": [
                "http://www.california-blog.com/"
            ],
            "longitude": "-117.270809764613"
        },
        "highway 101": {
            "latitude": "32.9967358",
            "closest_to": "riverside",
            "address": "Highway 101, Solana Beach, San Diego County, California, 92075, United States of America",
            "locType": "primary",
            "blogLinks": [
                "http://traveltips.usatoday.com/fun-things-los-angeles-san-francisco-14664.html"
            ],
            "longitude": "-117.2731974"
        },
        "arkansas": {
            "latitude": "37.7867077",
            "closest_to": "san jose",
            "address": "Arkansas, Woodstock, Alameda, Alameda County, California, 94501, United States of America",
            "locType": "residential",
            "blogLinks": [
                "https://en.wikipedia.org/wiki/List_of_National_Historic_Landmarks_in_California"
            ],
            "longitude": "-122.2896721"
        },
        "palos verdes peninsula ca": {
            "latitude": "33.77984925",
            "closest_to": "san jose",
            "address": "Palos Verdes Peninsula High School, Hawthorne Boulevard, Rolling Hills Estates, Los Angeles County, California, 90274, United States of America",
            "locType": "school",
            "blogLinks": [
                "http://www.california-blog.com/"
            ],
            "longitude": "-118.372196730215"
        },
        "pacific coast highway": {
            "latitude": "33.6595127",
            "closest_to": "san jose",
            "address": "Pacific Coast Highway, Huntington Beach, Orange County, California, 92648, United States of America",
            "locType": "primary",
            "blogLinks": [
                "http://traveltips.usatoday.com/fun-things-los-angeles-san-francisco-14664.html"
            ],
            "longitude": "-118.0051687"
        },
        "arizona": {
            "latitude": "34.4631398",
            "closest_to": "san jose",
            "address": "Arizona, San Bernardino County, California, 92371, United States of America",
            "locType": "track",
            "blogLinks": [
                "https://en.wikipedia.org/wiki/List_of_National_Historic_Landmarks_in_California"
            ],
            "longitude": "-117.5060679"
        },
        "morro rock ca": {
            "latitude": "35.369669",
            "closest_to": "san jose",
            "address": "Morro Rock, Morro Bay, San Luis Obispo County, California, United States of America",
            "locType": "peak",
            "blogLinks": [
                "http://www.california-blog.com/"
            ],
            "longitude": "-120.8676993"
        },
        "mount san gorgonio ca": {
            "latitude": "33.9121294",
            "closest_to": "riverside",
            "address": "San Gorgonio Avenue, Banning, Riverside County, California, 92220, United States of America",
            "locType": "secondary",
            "blogLinks": [
                "http://www.california-blog.com/"
            ],
            "longitude": "-116.8766731"
        },
        "mission bay ca": {
            "latitude": "37.7707742",
            "closest_to": "san jose",
            "address": "Mission Bay, SF, California, 94158, United States of America",
            "locType": "neighbourhood",
            "blogLinks": [
                "http://www.california-blog.com/"
            ],
            "longitude": "-122.3911711"
        },
        "san francisco maritime national historical park": {
            "latitude": "37.8065013",
            "closest_to": "san jose",
            "address": "San Francisco Maritime National Historical Park, Beach Street, Russian Hill, SF, California, 94109, United States of America",
            "locType": "park",
            "blogLinks": [
                "https://en.wikipedia.org/wiki/List_of_National_Historic_Landmarks_in_California"
            ],
            "longitude": "-122.4233938"
        },
        "presidio of san diego": {
            "latitude": "32.7551266",
            "closest_to": "riverside",
            "address": "Presidio Drive, Old Town, San Diego, San Diego County, California, 92103, United States of America",
            "locType": "residential",
            "blogLinks": [
                "https://en.wikipedia.org/wiki/List_of_National_Historic_Landmarks_in_California"
            ],
            "longitude": "-117.1903213"
        },
        "moreno valley ca": {
            "latitude": "33.937517",
            "closest_to": "riverside",
            "address": "Moreno Valley, Riverside County, California, United States of America",
            "locType": "city",
            "blogLinks": [
                "http://www.california-blog.com/"
            ],
            "longitude": "-117.2305943"
        },
        "oxnard": {
            "latitude": "34.1976308",
            "closest_to": "san jose",
            "address": "Oxnard, Ventura County, California, United States of America",
            "locType": "city",
            "blogLinks": [
                "http://traveltips.usatoday.com/fun-things-los-angeles-san-francisco-14664.html"
            ],
            "longitude": "-119.1803817"
        },
        "pacific coast": {
            "latitude": "33.8047323",
            "closest_to": "san jose",
            "address": "Pacific Coast, Florista Street, Los Alamitos, Orange County, California, 90720, United States of America",
            "locType": "yes",
            "blogLinks": [
                "https://en.wikipedia.org/wiki/List_of_National_Historic_Landmarks_in_California",
                "http://www.livability.com/ca"
            ],
            "longitude": "-118.063517668143"
        },
        "irvine": {
            "latitude": "33.6856969",
            "closest_to": "san jose",
            "address": "Irvine, Orange County, California, United States of America",
            "locType": "city",
            "blogLinks": [
                "http://www.livability.com/ca"
            ],
            "longitude": "-117.8259818"
        },
        "colorado river": {
            "latitude": "33.58648635",
            "closest_to": "riverside",
            "address": "Colorado River, Riviera Drive, East Blythe, Riverside County, California, 92225, United States of America",
            "locType": "water",
            "blogLinks": [
                "https://en.wikipedia.org/wiki/List_of_National_Historic_Landmarks_in_California"
            ],
            "longitude": "-114.542164096234"
        },
        "pacific": {
            "latitude": "38.7601815",
            "closest_to": "san jose",
            "address": "Pacific, El Dorado County, California, United States of America",
            "locType": "hamlet",
            "blogLinks": [
                "https://en.wikipedia.org/wiki/List_of_National_Historic_Landmarks_in_California"
            ],
            "longitude": "-120.507146"
        },
        "indian island": {
            "latitude": "38.940176",
            "closest_to": "san jose",
            "address": "Indian Island, Lake County, California, United States of America",
            "locType": "island",
            "blogLinks": [
                "https://en.wikipedia.org/wiki/List_of_National_Historic_Landmarks_in_California"
            ],
            "longitude": "-122.644707"
        },
        "colorado": {
            "latitude": "33.71351445",
            "closest_to": "san jose",
            "address": "Colorado, Walnut, Irvine, Orange County, California, 92606, United States of America",
            "locType": "residential",
            "blogLinks": [
                "https://www.tripadvisor.com/ShowTopic-g32655-i61-k5301561-Between_Los_Angels_and_San_Francisco_where_should_I_stop-Los_Angeles_California.html"
            ],
            "longitude": "-117.791165718199"
        },
        "santa clara": {
            "latitude": "37.3541132",
            "closest_to": "san jose",
            "address": "Santa Clara, Santa Clara County, California, United States of America",
            "locType": "city",
            "blogLinks": [
                "http://www.livability.com/ca"
            ],
            "longitude": "-121.9551743"
        },
        "old sacramento state historic park": {
            "latitude": "38.5891509",
            "closest_to": "san jose",
            "address": "Old Sacramento State Historic Park, Sacramento River Parkway, Sacramento, Sacramento County, California, 95814, United States of America",
            "locType": "park",
            "blogLinks": [
                "https://en.wikipedia.org/wiki/List_of_National_Historic_Landmarks_in_California"
            ],
            "longitude": "-121.505013401895"
        },
        "sweeney ridge": {
            "latitude": "37.60933145",
            "closest_to": "san jose",
            "address": "Sweeney Ridge (GGNRA), Sweeney Ridge Trail, Pacifica, San Mateo County, California, 94044, United States of America",
            "locType": "park",
            "blogLinks": [
                "https://en.wikipedia.org/wiki/List_of_National_Historic_Landmarks_in_California"
            ],
            "longitude": "-122.463853421956"
        },
        "monterey bay aquarium": {
            "latitude": "36.61809095",
            "closest_to": "san jose",
            "address": "MBA, 886, Cannery Row, Monterey, Monterey County, California, 93940, United States of America",
            "locType": "aquarium",
            "blogLinks": [
                "http://traveltips.usatoday.com/fun-things-los-angeles-san-francisco-14664.html"
            ],
            "longitude": "-121.901680002002"
        },
        "san jose": {
            "latitude": "37.3361905",
            "closest_to": "san jose",
            "address": "San Jos\u00e9, Santa Clara County, California, United States of America",
            "locType": "city",
            "blogLinks": [
                "http://www.livability.com/ca"
            ],
            "longitude": "-121.8905832"
        },
        "king city": {
            "latitude": "36.2127439",
            "closest_to": "san jose",
            "address": "King City, Monterey County, California, United States of America",
            "locType": "city",
            "blogLinks": [
                "http://traveltips.usatoday.com/fun-things-los-angeles-san-francisco-14664.html"
            ],
            "longitude": "-121.1260286"
        },
        "hearst castle": {
            "latitude": "35.6853689",
            "closest_to": "san jose",
            "address": "Hearst Castle, 750, Hearst Castle Road, San Simeon, San Luis Obispo County, California, 93452, United States of America",
            "locType": "museum",
            "blogLinks": [
                "http://traveltips.usatoday.com/fun-things-los-angeles-san-francisco-14664.html"
            ],
            "longitude": "-121.167587299509"
        },
        "santa barbara mission": {
            "latitude": "34.4662154",
            "closest_to": "san jose",
            "address": "KDB-FM (Santa Barbara), Gibraltar Road, Santa Barbara County, California, 93103, United States of America",
            "locType": "tower",
            "blogLinks": [
                "http://traveltips.usatoday.com/fun-things-los-angeles-san-francisco-14664.html"
            ],
            "longitude": "-119.6779962"
        },
        "old town san diego": {
            "latitude": "32.7542167",
            "closest_to": "riverside",
            "address": "Old Town San Diego, San Diego County, California, United States of America",
            "locType": "hamlet",
            "blogLinks": [
                "http://www.california-blog.com/"
            ],
            "longitude": "-117.1969792"
        },
        "big sur coast": {
            "latitude": "36.2019303",
            "closest_to": "san jose",
            "address": "Coast Gallery Big Sur, Cabrillo Highway, Posts, Monterey County, California, 93920, United States of America",
            "locType": "art",
            "blogLinks": [
                "https://www.tripadvisor.com/ShowTopic-g32655-i61-k5301561-Between_Los_Angels_and_San_Francisco_where_should_I_stop-Los_Angeles_California.html"
            ],
            "longitude": "-121.7255471"
        },
        "mount baldy ca": {
            "latitude": "34.2361168",
            "closest_to": "san jose",
            "address": "Mount Baldy, Los Angeles County, California, United States of America",
            "locType": "hamlet",
            "blogLinks": [
                "http://www.california-blog.com/"
            ],
            "longitude": "-117.6600552"
        },
        "san francisco bay": {
            "latitude": "37.708264",
            "closest_to": "san jose",
            "address": "San Francisco Bay, Ferry Landing, Alameda, Alameda County, California, 94502, United States of America",
            "locType": "bay",
            "blogLinks": [
                "https://en.wikipedia.org/wiki/List_of_National_Historic_Landmarks_in_California"
            ],
            "longitude": "-122.2802469"
        },
        "presidio park": {
            "latitude": "32.7572722",
            "closest_to": "riverside",
            "address": "Presidio Park, Cosoy Way, Old Town, San Diego, San Diego County, California, 92103, United States of America",
            "locType": "park",
            "blogLinks": [
                "https://en.wikipedia.org/wiki/List_of_National_Historic_Landmarks_in_California"
            ],
            "longitude": "-117.1944791"
        },
        "gilroy": {
            "latitude": "37.0065078",
            "closest_to": "san jose",
            "address": "Gilroy, Santa Clara County, California, United States of America",
            "locType": "city",
            "blogLinks": [
                "http://traveltips.usatoday.com/fun-things-los-angeles-san-francisco-14664.html"
            ],
            "longitude": "-121.5631722"
        },
        "monterey peninsula": {
            "latitude": "36.5878734",
            "closest_to": "san jose",
            "address": "Monterey Regional Airport, Airport Road, Seaside, Del Monte Heights, Monterey County, California, 93940, United States of America",
            "locType": "aerodrome",
            "blogLinks": [
                "https://www.tripadvisor.com/ShowTopic-g32655-i61-k5301561-Between_Los_Angels_and_San_Francisco_where_should_I_stop-Los_Angeles_California.html"
            ],
            "longitude": "-121.843618374407"
        },
        "alta california": {
            "latitude": "37.3964868",
            "closest_to": "san jose",
            "address": "Alta California, 20421, Geer Avenue, Irwin, Merced County, California, 95324, United States of America",
            "locType": "house",
            "blogLinks": [
                "https://en.wikipedia.org/wiki/List_of_National_Historic_Landmarks_in_California"
            ],
            "longitude": "-120.8579018"
        },
        "monterey presidio": {
            "latitude": "36.63696865",
            "closest_to": "san jose",
            "address": "Presidio of Monterey, Seaside, Monterey County, California, 93955, United States of America",
            "locType": "military",
            "blogLinks": [
                "https://en.wikipedia.org/wiki/List_of_National_Historic_Landmarks_in_California"
            ],
            "longitude": "-121.823572839106"
        },
        "sierra valley": {
            "latitude": "37.64066595",
            "closest_to": "san jose",
            "address": "Sierra Valley, 495, Lupin Street, Mammoth Lakes, Mono County, California, 93546, United States of America",
            "locType": "yes",
            "blogLinks": [
                "https://en.wikipedia.org/wiki/List_of_National_Historic_Landmarks_in_California"
            ],
            "longitude": "-118.9755129"
        },
        "morongo valley": {
            "latitude": "34.0537585",
            "closest_to": "riverside",
            "address": "Morongo Valley, Vista Drive, Morongo Valley, San Bernardino County, California, 92256, United States of America",
            "locType": "administrative",
            "blogLinks": [
                "http://www.california-blog.com/"
            ],
            "longitude": "-116.596723958419"
        },
        "berkeley": {
            "latitude": "37.8708393",
            "closest_to": "san jose",
            "address": "Berkeley, Alameda County, California, United States of America",
            "locType": "city",
            "blogLinks": [
                "http://www.livability.com/ca"
            ],
            "longitude": "-122.2728638"
        },
        "west coast": {
            "latitude": "34.0222263",
            "closest_to": "san jose",
            "address": "West Coast, Motor Avenue, Palms, LA, Los Angeles County, California, 90034-5702, United States of America",
            "locType": "plumber",
            "blogLinks": [
                "https://en.wikipedia.org/wiki/List_of_National_Historic_Landmarks_in_California"
            ],
            "longitude": "-118.4051087"
        },
        "san luis obispo": {
            "latitude": "35.2827525",
            "closest_to": "san jose",
            "address": "San Luis Obispo, San Luis Obispo County, California, United States of America",
            "locType": "city",
            "blogLinks": [
                "http://traveltips.usatoday.com/fun-things-los-angeles-san-francisco-14664.html"
            ],
            "longitude": "-120.6596155"
        },
        "monterey state historic park": {
            "latitude": "36.6037129",
            "closest_to": "san jose",
            "address": "Monterey State Historic Park, Decatur Street, Monterey, Monterey County, California, 93944, United States of America",
            "locType": "park",
            "blogLinks": [
                "https://en.wikipedia.org/wiki/List_of_National_Historic_Landmarks_in_California"
            ],
            "longitude": "-121.89495898106"
        },
        "morro bay ca": {
            "latitude": "35.3658075",
            "closest_to": "san jose",
            "address": "Morro Bay, San Luis Obispo County, California, United States of America",
            "locType": "city",
            "blogLinks": [
                "http://www.california-blog.com/"
            ],
            "longitude": "-120.8499012"
        },
        "monterey peninsula ca": {
            "latitude": "36.5878734",
            "closest_to": "san jose",
            "address": "Monterey Regional Airport, Airport Road, Seaside, Del Monte Heights, Monterey County, California, 93940, United States of America",
            "locType": "aerodrome",
            "blogLinks": [
                "http://www.california-blog.com/"
            ],
            "longitude": "-121.843618374407"
        },
        "los angeles maritime museum": {
            "latitude": "33.7389075",
            "closest_to": "san jose",
            "address": "Los Angeles Maritime Museum, Sampson Way, San Pedro, LA, Los Angeles County, California, 90731, United States of America",
            "locType": "museum",
            "blogLinks": [
                "https://en.wikipedia.org/wiki/List_of_National_Historic_Landmarks_in_California"
            ],
            "longitude": "-118.278682"
        },
        "mojave desert": {
            "latitude": "35.1456319",
            "closest_to": "riverside",
            "address": "Mojave Desert, Utility Road, San Bernardino County, California, United States of America",
            "locType": "desert",
            "blogLinks": [
                "https://en.wikipedia.org/wiki/List_of_National_Historic_Landmarks_in_California",
                "http://www.livability.com/ca"
            ],
            "longitude": "-115.548963686646"
        },
        "houston": {
            "latitude": "34.4422871",
            "closest_to": "san jose",
            "address": "Houston, Plum Canyon, Canyon Country, Los Angeles County, California, 91351, United States of America",
            "locType": "residential",
            "blogLinks": [
                "https://en.wikipedia.org/wiki/List_of_National_Historic_Landmarks_in_California"
            ],
            "longitude": "-118.4777157"
        },
        "tokyo": {
            "latitude": "34.0431787",
            "closest_to": "san jose",
            "address": "Southern California Institute of Architecture, 960, East 3rd Street, Arts District, Little Tokyo Historic District, LA, Los Angeles County, California, 90013, United States of America",
            "locType": "school",
            "blogLinks": [
                "https://www.tripadvisor.com/ShowTopic-g32655-i61-k5301561-Between_Los_Angels_and_San_Francisco_where_should_I_stop-Los_Angeles_California.html"
            ],
            "longitude": "-118.2328066"
        },
        "pearl harbor": {
            "latitude": "37.788139",
            "closest_to": "san jose",
            "address": "Pearl Harbor Road, Woodstock, Alameda, Alameda County, California, 94501, United States of America",
            "locType": "residential",
            "blogLinks": [
                "https://en.wikipedia.org/wiki/List_of_National_Historic_Landmarks_in_California"
            ],
            "longitude": "-122.2948823"
        },
        "santa cruz": {
            "latitude": "36.9735903",
            "closest_to": "san jose",
            "address": "Santa Cruz, Santa Cruz County, California, United States of America",
            "locType": "city",
            "blogLinks": [
                "https://www.tripadvisor.com/ShowTopic-g32655-i61-k5301561-Between_Los_Angels_and_San_Francisco_where_should_I_stop-Los_Angeles_California.html",
                "http://traveltips.usatoday.com/fun-things-los-angeles-san-francisco-14664.html"
            ],
            "longitude": "-122.0260569"
        },
        "monrovia": {
            "latitude": "34.1483499",
            "closest_to": "san jose",
            "address": "Monrovia, Los Angeles County, California, United States of America",
            "locType": "city",
            "blogLinks": [
                "http://www.california-blog.com/"
            ],
            "longitude": "-118.0014516"
        },
        "national park": {
            "latitude": "37.7488554",
            "closest_to": "san jose",
            "address": "Yosemite, Village Drive, Yosemite Village, Yosemite Valley, Mariposa County, California, United States of America",
            "locType": "attraction",
            "blogLinks": [
                "https://en.wikipedia.org/wiki/List_of_National_Historic_Landmarks_in_California"
            ],
            "longitude": "-119.5893389"
        },
        "la": {
            "latitude": "36.7014631",
            "closest_to": "san jose",
            "address": "California, United States of America",
            "locType": "administrative",
            "blogLinks": [
                "https://www.tripadvisor.com/ShowTopic-g32655-i61-k5301561-Between_Los_Angels_and_San_Francisco_where_should_I_stop-Los_Angeles_California.html",
                "http://traveltips.usatoday.com/fun-things-los-angeles-san-francisco-14664.html"
            ],
            "longitude": "-118.7559973"
        },
        "palm springs air museum ca": {
            "latitude": "33.83250375",
            "closest_to": "riverside",
            "address": "Palm Springs Air Museum, 745, North Gene Autry Trail, Palm Springs, Riverside County, California, 92262, United States of America",
            "locType": "museum",
            "blogLinks": [
                "http://www.california-blog.com/"
            ],
            "longitude": "-116.504677958796"
        },
        "mount san jacinto ca": {
            "latitude": "33.7839084",
            "closest_to": "riverside",
            "address": "San Jacinto, Riverside County, California, United States of America",
            "locType": "city",
            "blogLinks": [
                "http://www.california-blog.com/"
            ],
            "longitude": "-116.9586349"
        },
        "tule lake": {
            "latitude": "41.93667705",
            "closest_to": "san jose",
            "address": "Tule Lake, Bergman Road, Siskiyou County, California, 96134, United States of America",
            "locType": "wetland",
            "blogLinks": [
                "https://en.wikipedia.org/wiki/List_of_National_Historic_Landmarks_in_California"
            ],
            "longitude": "-121.517279333849"
        },
        "pebble beach ca": {
            "latitude": "36.5664874",
            "closest_to": "san jose",
            "address": "Pebble Beach, Monterey County, California, United States of America",
            "locType": "hamlet",
            "blogLinks": [
                "http://www.california-blog.com/"
            ],
            "longitude": "-121.9466112"
        },
        "san juan bautista historic district": {
            "latitude": "36.8460482",
            "closest_to": "san jose",
            "address": "San Juan Bautista Historic District, Polk Street, San Juan Bautista, San Benito County, California, 95045-0000, United States of America",
            "locType": "park",
            "blogLinks": [
                "https://en.wikipedia.org/wiki/List_of_National_Historic_Landmarks_in_California"
            ],
            "longitude": "-121.5366084"
        },
        "oregon": {
            "latitude": "33.7123207",
            "closest_to": "san jose",
            "address": "Oregon, Walnut, Irvine, Orange County, California, 92606, United States of America",
            "locType": "residential",
            "blogLinks": [
                "https://en.wikipedia.org/wiki/List_of_National_Historic_Landmarks_in_California"
            ],
            "longitude": "-117.7911567"
        },
        "ojai valley": {
            "latitude": "34.4480495",
            "closest_to": "san jose",
            "address": "Ojai, Ventura County, California, United States of America",
            "locType": "city",
            "blogLinks": [
                "http://www.california-blog.com/"
            ],
            "longitude": "-119.2428889"
        },
        "santa barbara": {
            "latitude": "34.4221319",
            "closest_to": "san jose",
            "address": "Santa Barbara, Santa Barbara County, California, United States of America",
            "locType": "city",
            "blogLinks": [
                "https://en.wikipedia.org/wiki/List_of_National_Historic_Landmarks_in_California",
                "http://www.livability.com/ca",
                "https://www.tripadvisor.com/ShowTopic-g32655-i61-k5301561-Between_Los_Angels_and_San_Francisco_where_should_I_stop-Los_Angeles_California.html",
                "http://traveltips.usatoday.com/fun-things-los-angeles-san-francisco-14664.html"
            ],
            "longitude": "-119.7026672"
        },
        "northern california": {
            "latitude": "32.7349196",
            "closest_to": "riverside",
            "address": "Northern Frontier, San Diego, San Diego County, California, United States of America",
            "locType": "locality",
            "blogLinks": [
                "https://en.wikipedia.org/wiki/List_of_National_Historic_Landmarks_in_California"
            ],
            "longitude": "-117.1545973"
        },
        "sonoma pueblo": {
            "latitude": "34.2897295",
            "closest_to": "san jose",
            "address": "Sonoma Way, Porter Ranch, LA, Los Angeles County, California, 91326, United States of America",
            "locType": "residential",
            "blogLinks": [
                "https://en.wikipedia.org/wiki/List_of_National_Historic_Landmarks_in_California"
            ],
            "longitude": "-118.5531494"
        },
        "buellton": {
            "latitude": "34.6134727",
            "closest_to": "san jose",
            "address": "Buellton, Santa Barbara County, California, United States of America",
            "locType": "city",
            "blogLinks": [
                "http://traveltips.usatoday.com/fun-things-los-angeles-san-francisco-14664.html"
            ],
            "longitude": "-120.1936691"
        },
        "us": {
            "latitude": "36.7014631",
            "closest_to": "san jose",
            "address": "California, United States of America",
            "locType": "administrative",
            "blogLinks": [
                "https://en.wikipedia.org/wiki/List_of_National_Historic_Landmarks_in_California",
                "https://www.tripadvisor.com/ShowTopic-g28926-i29-k6093097-Places_to_visit_Road_trip_San_Francisco_Los_Angeles-California.html",
                "https://www.tripadvisor.com/ShowTopic-g32655-i61-k5301561-Between_Los_Angels_and_San_Francisco_where_should_I_stop-Los_Angeles_California.html"
            ],
            "longitude": "-118.7559973"
        },
        "ventura": {
            "latitude": "34.4458248",
            "closest_to": "san jose",
            "address": "Ventura County, California, United States of America",
            "locType": "administrative",
            "blogLinks": [
                "http://traveltips.usatoday.com/fun-things-los-angeles-san-francisco-14664.html"
            ],
            "longitude": "-119.0779358"
        },
        "states": {
            "latitude": "36.7014631",
            "closest_to": "san jose",
            "address": "California, United States of America",
            "locType": "administrative",
            "blogLinks": [
                "https://www.tripadvisor.com/ShowTopic-g32655-i61-k5301561-Between_Los_Angels_and_San_Francisco_where_should_I_stop-Los_Angeles_California.html"
            ],
            "longitude": "-118.7559973"
        },
        "japan": {
            "latitude": "34.0833889",
            "closest_to": "san jose",
            "address": "Japan LA, Melrose Avenue, Park La Brea, Hollywood, LA, Los Angeles County, California, 90069, United States of America",
            "locType": "clothes",
            "blogLinks": [
                "https://en.wikipedia.org/wiki/List_of_National_Historic_Landmarks_in_California"
            ],
            "longitude": "-118.3494693"
        },
        "roaring camp": {
            "latitude": "39.0149756",
            "closest_to": "san jose",
            "address": "Roaring Camp, Plumas Lake, Yuba County, California, United States of America",
            "locType": "residential",
            "blogLinks": [
                "https://www.tripadvisor.com/ShowTopic-g32655-i61-k5301561-Between_Los_Angels_and_San_Francisco_where_should_I_stop-Los_Angeles_California.html"
            ],
            "longitude": "-121.5456237"
        },
        "los angeles": {
            "latitude": "34.0543942",
            "closest_to": "san jose",
            "address": "LA, Los Angeles County, California, United States of America",
            "locType": "city",
            "blogLinks": [
                "https://en.wikipedia.org/wiki/List_of_National_Historic_Landmarks_in_California",
                "https://www.tripadvisor.com/ShowTopic-g32655-i61-k5301561-Between_Los_Angels_and_San_Francisco_where_should_I_stop-Los_Angeles_California.html",
                "http://traveltips.usatoday.com/fun-things-los-angeles-san-francisco-14664.html"
            ],
            "longitude": "-118.2439408"
        },
        "monterey": {
            "latitude": "36.5844165",
            "closest_to": "san jose",
            "address": "Monterey, Monterey County, California, United States of America",
            "locType": "city",
            "blogLinks": [
                "https://en.wikipedia.org/wiki/List_of_National_Historic_Landmarks_in_California",
                "https://www.tripadvisor.com/ShowTopic-g32655-i61-k5301561-Between_Los_Angels_and_San_Francisco_where_should_I_stop-Los_Angeles_California.html",
                "http://traveltips.usatoday.com/fun-things-los-angeles-san-francisco-14664.html"
            ],
            "longitude": "-121.866792846206"
        },
        "north lake ca": {
            "latitude": "37.76958295",
            "closest_to": "san jose",
            "address": "North Lake, Chain of Lakes Drive East, Sunset District, SF, California, 94122, United States of America",
            "locType": "water",
            "blogLinks": [
                "http://www.california-blog.com/"
            ],
            "longitude": "-122.501983281136"
        },
        "petaluma adobe state historic park": {
            "latitude": "38.2565081",
            "closest_to": "san jose",
            "address": "Petaluma Adobe State Historic Park, Old Adobe Road, Sonoma County, California, 94954, United States of America",
            "locType": "park",
            "blogLinks": [
                "https://en.wikipedia.org/wiki/List_of_National_Historic_Landmarks_in_California"
            ],
            "longitude": "-122.583415289597"
        },
        "angel island state park": {
            "latitude": "37.8629304",
            "closest_to": "san jose",
            "address": "Angel Island State Park, Perimeter Road, Tiburon, Marin County, California, 94920, United States of America",
            "locType": "park",
            "blogLinks": [
                "https://en.wikipedia.org/wiki/List_of_National_Historic_Landmarks_in_California"
            ],
            "longitude": "-122.430363458873"
        },
        "julia pfeiffer burns state park": {
            "latitude": "36.16998345",
            "closest_to": "san jose",
            "address": "Julia Pfeiffer Burns State Park, Ewoldsen trail, Monterey County, California, United States of America",
            "locType": "park",
            "blogLinks": [
                "https://www.tripadvisor.com/ShowTopic-g28926-i29-k6093097-Places_to_visit_Road_trip_San_Francisco_Los_Angeles-California.html"
            ],
            "longitude": "-121.665388254615"
        },
        "oakland": {
            "latitude": "37.8044557",
            "closest_to": "san jose",
            "address": "Oakland, Alameda County, California, United States of America",
            "locType": "city",
            "blogLinks": [
                "https://en.wikipedia.org/wiki/List_of_National_Historic_Landmarks_in_California"
            ],
            "longitude": "-122.2713562"
        },
        "san diego": {
            "latitude": "32.7174209",
            "closest_to": "riverside",
            "address": "San Diego, San Diego County, California, United States of America",
            "locType": "city",
            "blogLinks": [
                "https://en.wikipedia.org/wiki/List_of_National_Historic_Landmarks_in_California",
                "http://traveltips.usatoday.com/fun-things-los-angeles-san-francisco-14664.html"
            ],
            "longitude": "-117.1627713"
        },
        "cambria": {
            "latitude": "35.5641381",
            "closest_to": "san jose",
            "address": "Cambria, San Luis Obispo County, California, United States of America",
            "locType": "administrative",
            "blogLinks": [
                "https://www.tripadvisor.com/ShowTopic-g28926-i29-k6093097-Places_to_visit_Road_trip_San_Francisco_Los_Angeles-California.html",
                "https://www.tripadvisor.com/ShowTopic-g32655-i61-k5301561-Between_Los_Angels_and_San_Francisco_where_should_I_stop-Los_Angeles_California.html"
            ],
            "longitude": "-121.0807467"
        },
        "america": {
            "latitude": "36.2573198",
            "closest_to": "san jose",
            "address": "America, Kings County, California, 93246, United States of America",
            "locType": "residential",
            "blogLinks": [
                "https://en.wikipedia.org/wiki/List_of_National_Historic_Landmarks_in_California",
                "http://www.livability.com/ca",
                "http://traveltips.usatoday.com/fun-things-los-angeles-san-francisco-14664.html"
            ],
            "longitude": "-119.8948706"
        },
        "california coast": {
            "latitude": "32.7586361",
            "closest_to": "riverside",
            "address": "California Coast Credit Union, Park Boulevard, Hillcrest, San Diego, San Diego County, California, 92116, United States of America",
            "locType": "bank",
            "blogLinks": [
                "http://traveltips.usatoday.com/fun-things-los-angeles-san-francisco-14664.html"
            ],
            "longitude": "-117.1464145"
        },
        "mono lake ca": {
            "latitude": "38.0077189",
            "closest_to": "san jose",
            "address": "Mono Lake, Mono County, California, United States of America",
            "locType": "water",
            "blogLinks": [
                "http://www.california-blog.com/"
            ],
            "longitude": "-118.967033937845"
        },
        "soledad": {
            "latitude": "36.4269452",
            "closest_to": "san jose",
            "address": "Soledad, Monterey County, California, United States of America",
            "locType": "city",
            "blogLinks": [
                "http://traveltips.usatoday.com/fun-things-los-angeles-san-francisco-14664.html"
            ],
            "longitude": "-121.3272146"
        },
        "napa valley ca": {
            "latitude": "38.2972603",
            "closest_to": "san jose",
            "address": "California Boulevard, Napa, Napa County, California, 94558, United States of America",
            "locType": "secondary",
            "blogLinks": [
                "http://www.california-blog.com/"
            ],
            "longitude": "-122.3002947"
        },
        "ontario": {
            "latitude": "34.065846",
            "closest_to": "san jose",
            "address": "Ontario, San Bernardino County, California, United States of America",
            "locType": "city",
            "blogLinks": [
                "http://www.california-blog.com/"
            ],
            "longitude": "-117.6484303"
        },
        "mission san diego": {
            "latitude": "32.7808782",
            "closest_to": "riverside",
            "address": "Mission San Diego, Ward Road, City Heights, San Diego, San Diego County, California, 92108, United States of America",
            "locType": "station",
            "blogLinks": [
                "https://en.wikipedia.org/wiki/List_of_National_Historic_Landmarks_in_California"
            ],
            "longitude": "-117.1109827"
        },
        "mendocino woodlands state park": {
            "latitude": "39.32969965",
            "closest_to": "san jose",
            "address": "Mendocino Woodlands State Park, Woodlands Area Trail, Mendocino County, California, United States of America",
            "locType": "park",
            "blogLinks": [
                "https://en.wikipedia.org/wiki/List_of_National_Historic_Landmarks_in_California"
            ],
            "longitude": "-123.700470782358"
        },
        "san francisco": {
            "latitude": "37.7792808",
            "closest_to": "san jose",
            "address": "SF, California, United States of America",
            "locType": "city",
            "blogLinks": [
                "https://en.wikipedia.org/wiki/List_of_National_Historic_Landmarks_in_California",
                "http://www.livability.com/ca",
                "https://www.tripadvisor.com/ShowTopic-g32655-i61-k5301561-Between_Los_Angels_and_San_Francisco_where_should_I_stop-Los_Angeles_California.html",
                "http://traveltips.usatoday.com/fun-things-los-angeles-san-francisco-14664.html"
            ],
            "longitude": "-122.4192362"
        },
        "california trail": {
            "latitude": "34.1159292",
            "closest_to": "san jose",
            "address": "California Trail, Sylvia Park, Los Angeles County, California, 90290, United States of America",
            "locType": "residential",
            "blogLinks": [
                "https://en.wikipedia.org/wiki/List_of_National_Historic_Landmarks_in_California"
            ],
            "longitude": "-118.5920458"
        },
        "sacramento": {
            "latitude": "38.5815719",
            "closest_to": "san jose",
            "address": "Sacramento, Sacramento County, California, United States of America",
            "locType": "city",
            "blogLinks": [
                "https://en.wikipedia.org/wiki/List_of_National_Historic_Landmarks_in_California"
            ],
            "longitude": "-121.4943995"
        },
        "bay area": {
            "latitude": "37.7884969",
            "closest_to": "san jose",
            "address": "San Francisco Bay Area, SF, California, United States of America",
            "locType": "region",
            "blogLinks": [
                "https://en.wikipedia.org/wiki/List_of_National_Historic_Landmarks_in_California"
            ],
            "longitude": "-122.3558472"
        },
        "united states": {
            "latitude": "36.7014631",
            "closest_to": "san jose",
            "address": "California, United States of America",
            "locType": "administrative",
            "blogLinks": [
                "https://en.wikipedia.org/wiki/List_of_National_Historic_Landmarks_in_California",
                "https://www.tripadvisor.com/ShowTopic-g32655-i61-k5301561-Between_Los_Angels_and_San_Francisco_where_should_I_stop-Los_Angeles_California.html"
            ],
            "longitude": "-118.7559973"
        },
        "morro bay": {
            "latitude": "35.3658075",
            "closest_to": "san jose",
            "address": "Morro Bay, San Luis Obispo County, California, United States of America",
            "locType": "city",
            "blogLinks": [
                "https://www.tripadvisor.com/ShowTopic-g32655-i61-k5301561-Between_Los_Angels_and_San_Francisco_where_should_I_stop-Los_Angeles_California.html",
                "http://traveltips.usatoday.com/fun-things-los-angeles-san-francisco-14664.html"
            ],
            "longitude": "-120.8499012"
        },
        "san simeon": {
            "latitude": "35.6438587",
            "closest_to": "san jose",
            "address": "San Simeon, San Luis Obispo County, California, United States of America",
            "locType": "hamlet",
            "blogLinks": [
                "https://www.tripadvisor.com/ShowTopic-g32655-i61-k5301561-Between_Los_Angels_and_San_Francisco_where_should_I_stop-Los_Angeles_California.html",
                "http://traveltips.usatoday.com/fun-things-los-angeles-san-francisco-14664.html"
            ],
            "longitude": "-121.1907532"
        },
        "almaden quicksilver county park": {
            "latitude": "37.1850743",
            "closest_to": "san jose",
            "address": "Almaden Quicksilver County Park, Santa Isabel Trail, Almaden, New Almaden, Santa Clara County, California, 95120, United States of America",
            "locType": "park",
            "blogLinks": [
                "https://en.wikipedia.org/wiki/List_of_National_Historic_Landmarks_in_California"
            ],
            "longitude": "-121.846334668715"
        },
        "riverside national cemetery": {
            "latitude": "33.87692125",
            "closest_to": "riverside",
            "address": "Riverside National Cemetery, 22495, Alessandro, Riverside County, California, 92518, United States of America",
            "locType": "cemetery",
            "blogLinks": [
                "http://www.california-blog.com/"
            ],
            "longitude": "-117.270726607134"
        },
        "newport beach ca": {
            "latitude": "33.6170092",
            "closest_to": "san jose",
            "address": "Newport Beach, Orange County, California, United States of America",
            "locType": "city",
            "blogLinks": [
                "http://www.california-blog.com/"
            ],
            "longitude": "-117.92944"
        },
        "pismo beach": {
            "latitude": "35.1427533",
            "closest_to": "san jose",
            "address": "Pismo Beach, San Luis Obispo County, California, United States of America",
            "locType": "city",
            "blogLinks": [
                "https://www.tripadvisor.com/ShowTopic-g32655-i61-k5301561-Between_Los_Angels_and_San_Francisco_where_should_I_stop-Los_Angeles_California.html",
                "http://traveltips.usatoday.com/fun-things-los-angeles-san-francisco-14664.html"
            ],
            "longitude": "-120.6412826"
        },
        "larkin house": {
            "latitude": "36.59810515",
            "closest_to": "san jose",
            "address": "Larkin House, Jefferson Street, Monterey, Monterey County, California, 93944, United States of America",
            "locType": "yes",
            "blogLinks": [
                "https://en.wikipedia.org/wiki/List_of_National_Historic_Landmarks_in_California"
            ],
            "longitude": "-121.896166042658"
        },
        "mojave desert ca": {
            "latitude": "35.1456319",
            "closest_to": "riverside",
            "address": "Mojave Desert, Utility Road, San Bernardino County, California, United States of America",
            "locType": "desert",
            "blogLinks": [
                "http://www.california-blog.com/"
            ],
            "longitude": "-115.548963686646"
        },
        "monterey bay aquarium ca": {
            "latitude": "36.61809095",
            "closest_to": "san jose",
            "address": "MBA, 886, Cannery Row, Monterey, Monterey County, California, 93940, United States of America",
            "locType": "aquarium",
            "blogLinks": [
                "http://www.california-blog.com/"
            ],
            "longitude": "-121.901680002002"
        },
        "californio": {
            "latitude": "37.5744603",
            "closest_to": "san jose",
            "address": "Californio, Centerville District, Fremont, Alameda County, California, 94587, United States of America",
            "locType": "path",
            "blogLinks": [
                "https://en.wikipedia.org/wiki/List_of_National_Historic_Landmarks_in_California"
            ],
            "longitude": "-122.0116874"
        },
        "barnsdall art park": {
            "latitude": "34.1004417",
            "closest_to": "san jose",
            "address": "Barnsdall Art Park, Upper Road, Little Armenia, LA, Los Angeles County, California, 90027, United States of America",
            "locType": "park",
            "blogLinks": [
                "https://en.wikipedia.org/wiki/List_of_National_Historic_Landmarks_in_California"
            ],
            "longitude": "-118.294214664916"
        },
        "madonna inn": {
            "latitude": "35.2673282",
            "closest_to": "san jose",
            "address": "Madonna Inn, 100, Madonna Road, San Luis Obispo, San Luis Obispo County, California, 93405, United States of America",
            "locType": "hotel",
            "blogLinks": [
                "http://traveltips.usatoday.com/fun-things-los-angeles-san-francisco-14664.html"
            ],
            "longitude": "-120.674725246222"
        },
        "kern river": {
            "latitude": "36.6816956",
            "closest_to": "san jose",
            "address": "Kern River, Tulare County, California, United States of America",
            "locType": "river",
            "blogLinks": [
                "http://www.california-blog.com/"
            ],
            "longitude": "-118.4124188"
        },
        "carmel": {
            "latitude": "38.75511285",
            "closest_to": "san jose",
            "address": "Carmel, Roseville, Placer County, California, 95747, United States of America",
            "locType": "residential",
            "blogLinks": [
                "https://www.tripadvisor.com/ShowTopic-g28926-i29-k6093097-Places_to_visit_Road_trip_San_Francisco_Los_Angeles-California.html",
                "https://www.tripadvisor.com/ShowTopic-g32655-i61-k5301561-Between_Los_Angels_and_San_Francisco_where_should_I_stop-Los_Angeles_California.html"
            ],
            "longitude": "-121.353308848273"
        },
        "pebble beach golf course": {
            "latitude": "36.56413635",
            "closest_to": "san jose",
            "address": "Pebble Beach Golf Course, Live Oak Meadow Road, Del Monte Forest, Monterey County, California, 93953, United States of America",
            "locType": "golf_course",
            "blogLinks": [
                "http://traveltips.usatoday.com/fun-things-los-angeles-san-francisco-14664.html"
            ],
            "longitude": "-121.937790801787"
        }
    },
    "san jose": {
        "type": "city",
        "osm_id": "112143",
        "class": "place",
        "importance": 0.79127376502597,
        "lat": "37.3361905",
        "lon": "-121.8905832",
        "boundingbox": [
            "37.124503",
            "37.4692175",
            "-122.0456719",
            "-121.5891529"
        ],
        "display_name": "San Jos\u00e9, Santa Clara County, California, United States of America",
        "licence": "Data \u00a9 OpenStreetMap contributors, ODbL 1.0. http://www.openstreetmap.org/copyright",
        "icon": "https://nominatim.openstreetmap.org/images/mapicons/poi_place_city.p.20.png",
        "place_id": "159251412",
        "osm_type": "relation"
    }
}