{
    "mentions": {
        "nicasio valley": {
            "latitude": "38.0615885",
            "closest_to": "sausalito",
            "address": "Nicasio, Marin County, California, United States of America",
            "locType": "hamlet",
            "blogLinks": [
                "http://www.visitmarin.org/things-to-do/attractions/"
            ],
            "longitude": "-122.6985974"
        },
        "golden gate bridge": {
            "latitude": "37.8302809",
            "closest_to": "sausalito",
            "address": "Golden Gate Bridge, Waldo, Marin County, California, 94965, United States of America",
            "locType": "motorway",
            "blogLinks": [
                "http://www.visitmarin.org/things-to-do/attractions/",
                "http://thisismyhappiness.com/2013/06/02/30-things-to-do-in-northern-california/",
                "http://www.visitsfbayarea.com/marin-county/sausalito",
                "http://www.sacbee.com/news/politics-government/capitol-alert/article67113452.html"
            ],
            "longitude": "-122.4798473"
        },
        "alcatraz": {
            "latitude": "37.8267283",
            "closest_to": "sausalito",
            "address": "Alcatraz Island, SF, California, United States of America",
            "locType": "island",
            "blogLinks": [
                "http://thisismyhappiness.com/2013/06/02/30-things-to-do-in-northern-california/"
            ],
            "longitude": "-122.422746492409"
        },
        "santa rosa": {
            "latitude": "38.4404675",
            "closest_to": "sausalito",
            "address": "Santa Rosa, Sonoma County, California, United States of America",
            "locType": "city",
            "blogLinks": [
                "https://www.tripadvisor.com/ShowTopic-g32999-i297-k3376974-Day_trips_from_Sacramento-Sacramento_California.html"
            ],
            "longitude": "-122.7144313"
        },
        "st. helena": {
            "latitude": "38.5052288",
            "closest_to": "sausalito",
            "address": "St. Helena, Napa County, California, United States of America",
            "locType": "city",
            "blogLinks": [
                "http://blog.sfgate.com/getlost/2013/04/04/reader-picks-20-must-see-small-towns/"
            ],
            "longitude": "-122.4700423"
        },
        "auburn": {
            "latitude": "38.8945939",
            "closest_to": "sacramento",
            "address": "Auburn, Placer County, California, United States of America",
            "locType": "city",
            "blogLinks": [
                "http://thisismyhappiness.com/2013/06/02/30-things-to-do-in-northern-california/"
            ],
            "longitude": "-121.0739896"
        },
        "olema": {
            "latitude": "38.0407566",
            "closest_to": "sausalito",
            "address": "Olema, Marin County, California, United States of America",
            "locType": "hamlet",
            "blogLinks": [
                "http://www.visitmarin.org/things-to-do/attractions/"
            ],
            "longitude": "-122.7880458"
        },
        "folsom lake": {
            "latitude": "38.7076846",
            "closest_to": "sacramento",
            "address": "Folsom Lake, Folsom Dam Road, Folsom, Sacramento County, California, 95630, United States of America",
            "locType": "reservoir",
            "blogLinks": [
                "https://www.tripadvisor.com/ShowTopic-g32999-i297-k3376974-Day_trips_from_Sacramento-Sacramento_California.html"
            ],
            "longitude": "-121.1566882"
        },
        "guerneville": {
            "latitude": "38.5116609",
            "closest_to": "sausalito",
            "address": "Guerneville, Orchard Road, El Bonita, Sonoma County, California, 95446, United States of America",
            "locType": "administrative",
            "blogLinks": [
                "http://blog.sfgate.com/getlost/2013/04/04/reader-picks-20-must-see-small-towns/"
            ],
            "longitude": "-122.987128549631"
        },
        "inverness": {
            "latitude": "38.080911",
            "closest_to": "sausalito",
            "address": "Inverness, Redwood Avenue, Bivalve, Marin County, California, 94956, United States of America",
            "locType": "census",
            "blogLinks": [
                "http://www.visitmarin.org/things-to-do/attractions/"
            ],
            "longitude": "-122.845358417249"
        },
        "northern marin county": {
            "latitude": "37.8796226",
            "closest_to": "sausalito",
            "address": "Northern Avenue, Tamalpais Valley, Marin County, California, 94941, United States of America",
            "locType": "residential",
            "blogLinks": [
                "http://www.visitmarin.org/things-to-do/attractions/"
            ],
            "longitude": "-122.5459418"
        },
        "larkspur": {
            "latitude": "37.9340915",
            "closest_to": "sausalito",
            "address": "Larkspur, Marin County, California, United States of America",
            "locType": "city",
            "blogLinks": [
                "http://www.visitmarin.org/things-to-do/attractions/"
            ],
            "longitude": "-122.5352538"
        },
        "el dorado county": {
            "latitude": "38.7574137",
            "closest_to": "sacramento",
            "address": "El Dorado County, California, United States of America",
            "locType": "administrative",
            "blogLinks": [
                "http://thisismyhappiness.com/2013/06/02/30-things-to-do-in-northern-california/"
            ],
            "longitude": "-120.5276128"
        },
        "meritage resort": {
            "latitude": "38.2460173",
            "closest_to": "sausalito",
            "address": "The Meritage Resort and Spa, Trefethen Way, Napa, Napa County, California, 94558, United States of America",
            "locType": "hotel",
            "blogLinks": [
                "http://thisismyhappiness.com/2013/06/02/30-things-to-do-in-northern-california/"
            ],
            "longitude": "-122.2740595"
        },
        "galleria mall": {
            "latitude": "37.72793965",
            "closest_to": "sausalito",
            "address": "Stonestown Galleria Mall, Winston Drive, Saint Francis Wood, SF, California, 94132, United States of America",
            "locType": "mall",
            "blogLinks": [
                "https://www.tripadvisor.com/ShowTopic-g32999-i297-k3376974-Day_trips_from_Sacramento-Sacramento_California.html"
            ],
            "longitude": "-122.477022432232"
        },
        "broadway": {
            "latitude": "37.7958391",
            "closest_to": "sausalito",
            "address": "Broadway, Russian Hill, SF, California, 94109;94115, United States of America",
            "locType": "primary",
            "blogLinks": [
                "http://thisismyhappiness.com/2013/06/02/30-things-to-do-in-northern-california/"
            ],
            "longitude": "-122.4226908"
        },
        "arden fair mall": {
            "latitude": "38.6015147",
            "closest_to": "sacramento",
            "address": "Arden Fair Mall, Bowling Green Drive, Ben Ali, Sacramento, Sacramento County, California, 95815, United States of America",
            "locType": "mall",
            "blogLinks": [
                "http://www.10best.com/destinations/california/sacramento/"
            ],
            "longitude": "-121.427096665039"
        },
        "san francisco bay area": {
            "latitude": "37.7884969",
            "closest_to": "sausalito",
            "address": "San Francisco Bay Area, SF, California, United States of America",
            "locType": "region",
            "blogLinks": [
                "http://www.visitmarin.org/things-to-do/attractions/",
                "http://www.visitsfbayarea.com/marin-county/sausalito"
            ],
            "longitude": "-122.3558472"
        },
        "novato": {
            "latitude": "38.1061979",
            "closest_to": "sausalito",
            "address": "Novato, Marin County, California, United States of America",
            "locType": "city",
            "blogLinks": [
                "http://www.visitmarin.org/things-to-do/attractions/"
            ],
            "longitude": "-122.568119"
        },
        "marin center": {
            "latitude": "38.0409144",
            "closest_to": "sausalito",
            "address": "Marin County, California, United States of America",
            "locType": "administrative",
            "blogLinks": [
                "http://www.visitmarin.org/things-to-do/attractions/"
            ],
            "longitude": "-122.6199637"
        },
        "sausalito": {
            "latitude": "37.8590272",
            "closest_to": "sausalito",
            "address": "Sausalito, Marin County, California, United States of America",
            "locType": "administrative",
            "blogLinks": [
                "https://www.tripadvisor.com/ShowTopic-g32999-i297-k3376974-Day_trips_from_Sacramento-Sacramento_California.html",
                "http://www.visitmarin.org/things-to-do/attractions/",
                "http://thisismyhappiness.com/2013/06/02/30-things-to-do-in-northern-california/",
                "http://www.visitsfbayarea.com/marin-county/sausalito",
                "http://blog.sfgate.com/getlost/2013/04/04/reader-picks-20-must-see-small-towns/",
                "http://www.sacbee.com/news/politics-government/capitol-alert/article67113452.html"
            ],
            "longitude": "-122.4854693"
        },
        "colusa": {
            "latitude": "39.1465578",
            "closest_to": "sacramento",
            "address": "Colusa County, California, United States of America",
            "locType": "administrative",
            "blogLinks": [
                "https://www.tripadvisor.com/ShowTopic-g32999-i297-k3376974-Day_trips_from_Sacramento-Sacramento_California.html"
            ],
            "longitude": "-122.2209562"
        },
        "plymouth": {
            "latitude": "38.4818531",
            "closest_to": "sacramento",
            "address": "Plymouth, Amador County, California, United States of America",
            "locType": "city",
            "blogLinks": [
                "https://www.tripadvisor.com/ShowTopic-g32999-i297-k3376974-Day_trips_from_Sacramento-Sacramento_California.html"
            ],
            "longitude": "-120.8446589"
        },
        "clos pegase": {
            "latitude": "38.57234125",
            "closest_to": "sausalito",
            "address": "Clos Pegase, Dunaweal Lane, Calistoga, Napa County, California, 94515, United States of America",
            "locType": "winery",
            "blogLinks": [
                "http://thisismyhappiness.com/2013/06/02/30-things-to-do-in-northern-california/"
            ],
            "longitude": "-122.555120555435"
        },
        "north bay": {
            "latitude": "36.9740634",
            "closest_to": "sausalito",
            "address": "North Bay, East Morrissey, Seabright, Yacht Harbor Manor, Santa Cruz County, California, 95062, United States of America",
            "locType": "residential",
            "blogLinks": [
                "http://www.visitmarin.org/things-to-do/attractions/"
            ],
            "longitude": "-121.9943726"
        },
        "sutter creek": {
            "latitude": "38.3929675",
            "closest_to": "sacramento",
            "address": "Sutter Creek, Amador County, California, United States of America",
            "locType": "city",
            "blogLinks": [
                "https://www.tripadvisor.com/ShowTopic-g32999-i297-k3376974-Day_trips_from_Sacramento-Sacramento_California.html"
            ],
            "longitude": "-120.8024356"
        },
        "bolinas": {
            "latitude": "37.9093702",
            "closest_to": "sausalito",
            "address": "Bolinas, Marin County, California, United States of America",
            "locType": "hamlet",
            "blogLinks": [
                "http://blog.sfgate.com/getlost/2013/04/04/reader-picks-20-must-see-small-towns/"
            ],
            "longitude": "-122.6863732"
        },
        "pacific": {
            "latitude": "38.7601815",
            "closest_to": "sacramento",
            "address": "Pacific, El Dorado County, California, United States of America",
            "locType": "hamlet",
            "blogLinks": [
                "http://blog.sfgate.com/getlost/2013/04/04/reader-picks-20-must-see-small-towns/"
            ],
            "longitude": "-120.507146"
        },
        "sonoma": {
            "latitude": "38.5110803",
            "closest_to": "sausalito",
            "address": "Sonoma County, California, United States of America",
            "locType": "administrative",
            "blogLinks": [
                "http://thisismyhappiness.com/2013/06/02/30-things-to-do-in-northern-california/"
            ],
            "longitude": "-122.8473387"
        },
        "american riviera": {
            "latitude": "38.576666",
            "closest_to": "sacramento",
            "address": "American River Drive, La Riviera, Sacramento County, California, 95608, United States of America",
            "locType": "tertiary",
            "blogLinks": [
                "http://www.hopper.com/articles/291/five-great-stops-between-los-angeles-and-san-francisco-on-the-pacific-coast-highway"
            ],
            "longitude": "-121.3602199"
        },
        "san rafael": {
            "latitude": "37.9735346",
            "closest_to": "sausalito",
            "address": "San Rafael, Marin County, California, United States of America",
            "locType": "city",
            "blogLinks": [
                "http://www.visitmarin.org/things-to-do/attractions/"
            ],
            "longitude": "-122.5310873"
        },
        "rio del mar state beach": {
            "latitude": "36.96889445",
            "closest_to": "sausalito",
            "address": "Rio Del Mar State Beach, Beach Drive, Rio Del Mar, Santa Cruz County, California, 95003, United States of America",
            "locType": "toilets",
            "blogLinks": [
                "http://blog.sfgate.com/getlost/2013/04/04/reader-picks-20-must-see-small-towns/"
            ],
            "longitude": "-121.905299470639"
        },
        "tomales bay foods": {
            "latitude": "38.0681498",
            "closest_to": "sausalito",
            "address": "Tomales Bay Foods, 80, 4th Street, Point Reyes Station, Marin County, California, 94948, United States of America",
            "locType": "yes",
            "blogLinks": [
                "http://www.visitmarin.org/things-to-do/attractions/"
            ],
            "longitude": "-122.807123746674"
        },
        "california state capitol": {
            "latitude": "38.57652685",
            "closest_to": "sausalito",
            "address": "California State Capitol, 1315, 10th Street, Sacramento, Sacramento County, California, 95818, United States of America",
            "locType": "townhall",
            "blogLinks": [
                "http://www.10best.com/destinations/california/sacramento/"
            ],
            "longitude": "-121.493234843606"
        },
        "harbin": {
            "latitude": "38.779391",
            "closest_to": "sausalito",
            "address": "Harbin Creek, Lake County, California, United States of America",
            "locType": "stream",
            "blogLinks": [
                "http://thisismyhappiness.com/2013/06/02/30-things-to-do-in-northern-california/"
            ],
            "longitude": "-122.6114132"
        },
        "bodega bay": {
            "latitude": "38.273529",
            "closest_to": "sausalito",
            "address": "Bodega Bay, Estero Lane, Bodega Bay, Sonoma County, California, United States of America",
            "locType": "bay",
            "blogLinks": [
                "http://thisismyhappiness.com/2013/06/02/30-things-to-do-in-northern-california/",
                "http://blog.sfgate.com/getlost/2013/04/04/reader-picks-20-must-see-small-towns/"
            ],
            "longitude": "-123.0061117"
        },
        "sonoma valley": {
            "latitude": "38.29331315",
            "closest_to": "sausalito",
            "address": "Sonoma Valley Chevron, 540, West Napa Street, Sonoma, Sonoma County, California, 95476, United States of America",
            "locType": "fuel",
            "blogLinks": [
                "http://blog.sfgate.com/getlost/2013/04/04/reader-picks-20-must-see-small-towns/"
            ],
            "longitude": "-122.469385770353"
        },
        "marin museum of contemporary art": {
            "latitude": "38.0577473",
            "closest_to": "sausalito",
            "address": "Marin Museum of Contemporary Art, 500, Palm Drive, Novato, Marin County, California, 94949, United States of America",
            "locType": "museum",
            "blogLinks": [
                "http://www.visitmarin.org/things-to-do/attractions/"
            ],
            "longitude": "-122.51851019623"
        },
        "big basin redwoods state park": {
            "latitude": "37.1550317",
            "closest_to": "sausalito",
            "address": "Big Basin Redwoods State Park, Last Chance Trail, Big Basin, Santa Cruz County, California, United States of America",
            "locType": "park",
            "blogLinks": [
                "http://blog.sfgate.com/getlost/2013/04/04/reader-picks-20-must-see-small-towns/"
            ],
            "longitude": "-122.239816619658"
        },
        "midtown": {
            "latitude": "36.9748714",
            "closest_to": "sausalito",
            "address": "Midtown, Santa Cruz, Santa Cruz County, California, United States of America",
            "locType": "locality",
            "blogLinks": [
                "http://www.10best.com/destinations/california/sacramento/",
                "http://thisismyhappiness.com/2013/06/02/30-things-to-do-in-northern-california/"
            ],
            "longitude": "-122.0146413"
        },
        "nevada city": {
            "latitude": "39.2615606",
            "closest_to": "sacramento",
            "address": "Nevada City, Nevada County, California, United States of America",
            "locType": "city",
            "blogLinks": [
                "https://www.tripadvisor.com/ShowTopic-g32999-i297-k3376974-Day_trips_from_Sacramento-Sacramento_California.html"
            ],
            "longitude": "-121.0160593"
        },
        "capitol park": {
            "latitude": "38.5760675",
            "closest_to": "sausalito",
            "address": "Capitol Park, L Street, Sacramento, Sacramento County, California, 95816, United States of America",
            "locType": "park",
            "blogLinks": [
                "http://thisismyhappiness.com/2013/06/02/30-things-to-do-in-northern-california/"
            ],
            "longitude": "-121.491446943016"
        },
        "red woods": {
            "latitude": "37.135082",
            "closest_to": "sausalito",
            "address": "Red Hawk Canyon Road, Huckleberry Woods, Santa Cruz County, California, 95006, United States of America",
            "locType": "residential",
            "blogLinks": [
                "http://thisismyhappiness.com/2013/06/02/30-things-to-do-in-northern-california/"
            ],
            "longitude": "-122.1135969"
        },
        "san francisco bay": {
            "latitude": "37.708264",
            "closest_to": "sausalito",
            "address": "San Francisco Bay, Ferry Landing, Alameda, Alameda County, California, 94502, United States of America",
            "locType": "bay",
            "blogLinks": [
                "http://www.visitmarin.org/things-to-do/attractions/",
                "http://www.visitsfbayarea.com/marin-county/sausalito"
            ],
            "longitude": "-122.2802469"
        },
        "silverado trail": {
            "latitude": "38.3077505",
            "closest_to": "sausalito",
            "address": "Silverado Trail, Napa, Napa County, California, 94558, United States of America",
            "locType": "primary",
            "blogLinks": [
                "http://thisismyhappiness.com/2013/06/02/30-things-to-do-in-northern-california/"
            ],
            "longitude": "-122.2775328"
        },
        "tomales": {
            "latitude": "38.2468075",
            "closest_to": "sausalito",
            "address": "Tomales, Valley Street, Tomales, Marin County, California, 94971, United States of America",
            "locType": "administrative",
            "blogLinks": [
                "http://www.visitmarin.org/things-to-do/attractions/",
                "http://blog.sfgate.com/getlost/2013/04/04/reader-picks-20-must-see-small-towns/"
            ],
            "longitude": "-122.906304510241"
        },
        "anderson valley": {
            "latitude": "39.1117345",
            "closest_to": "sacramento",
            "address": "L L Anderson 1030 Dam, Placer County, California, United States of America",
            "locType": "dam",
            "blogLinks": [
                "http://blog.sfgate.com/getlost/2013/04/04/reader-picks-20-must-see-small-towns/"
            ],
            "longitude": "-120.4700107"
        },
        "madrone canyon": {
            "latitude": "37.8114139",
            "closest_to": "sausalito",
            "address": "Madrone, Skyline Boulevard, Oakland, Alameda County, California, 94602, United States of America",
            "locType": "picnic_site",
            "blogLinks": [
                "http://www.visitmarin.org/things-to-do/attractions/"
            ],
            "longitude": "-122.1739367"
        },
        "amador cty": {
            "latitude": "38.4193553",
            "closest_to": "sacramento",
            "address": "Amador City, Amador County, California, United States of America",
            "locType": "city",
            "blogLinks": [
                "http://thisismyhappiness.com/2013/06/02/30-things-to-do-in-northern-california/"
            ],
            "longitude": "-120.8241029"
        },
        "napa": {
            "latitude": "38.2971367",
            "closest_to": "sausalito",
            "address": "Napa, Napa County, California, United States of America",
            "locType": "city",
            "blogLinks": [
                "http://www.visitmarin.org/things-to-do/attractions/",
                "http://thisismyhappiness.com/2013/06/02/30-things-to-do-in-northern-california/"
            ],
            "longitude": "-122.2855292"
        },
        "ca": {
            "latitude": "37.8242285466918",
            "closest_to": "sausalito",
            "address": "Piedmont, Alameda County, California, ca, United States of America",
            "locType": "postcode",
            "blogLinks": [
                "http://www.visitmarin.org/things-to-do/attractions/"
            ],
            "longitude": "-122.232613735941"
        },
        "berkeley": {
            "latitude": "37.8708393",
            "closest_to": "sausalito",
            "address": "Berkeley, Alameda County, California, United States of America",
            "locType": "city",
            "blogLinks": [
                "http://thisismyhappiness.com/2013/06/02/30-things-to-do-in-northern-california/",
                "https://www.tripadvisor.com/ShowTopic-g32999-i297-k3376974-Day_trips_from_Sacramento-Sacramento_California.html"
            ],
            "longitude": "-122.2728638"
        },
        "calaveras big trees state park": {
            "latitude": "38.2638071",
            "closest_to": "sacramento",
            "address": "Calaveras Big Trees State Park, Big Trees Parkway, Snowshoe Springs, Calaveras County, California, 95223, United States of America",
            "locType": "protected_area",
            "blogLinks": [
                "http://thisismyhappiness.com/2013/06/02/30-things-to-do-in-northern-california/"
            ],
            "longitude": "-120.278540141632"
        },
        "healdsburg": {
            "latitude": "38.6106812",
            "closest_to": "sausalito",
            "address": "Healdsburg, Sonoma County, California, United States of America",
            "locType": "city",
            "blogLinks": [
                "http://thisismyhappiness.com/2013/06/02/30-things-to-do-in-northern-california/",
                "http://blog.sfgate.com/getlost/2013/04/04/reader-picks-20-must-see-small-towns/"
            ],
            "longitude": "-122.8701379"
        },
        "corte madera avenue mill valley": {
            "latitude": "37.9073514",
            "closest_to": "sausalito",
            "address": "Corte Madera Avenue, Mill Valley, Marin County, California, 94941, United States of America",
            "locType": "residential",
            "blogLinks": [
                "http://www.visitmarin.org/things-to-do/attractions/"
            ],
            "longitude": "-122.5481305"
        },
        "saigon": {
            "latitude": "37.8060694",
            "closest_to": "sausalito",
            "address": "Saigon, San Pablo Avenue, Downtown, Oakland, Alameda County, California, 94612, United States of America",
            "locType": "restaurant",
            "blogLinks": [
                "http://thisismyhappiness.com/2013/06/02/30-things-to-do-in-northern-california/"
            ],
            "longitude": "-122.2716622"
        },
        "kanbar center": {
            "latitude": "37.77437225",
            "closest_to": "sausalito",
            "address": "Kanbar Center, Page Street, Western Addition, SF, California, 94102, United States of America",
            "locType": "yes",
            "blogLinks": [
                "http://www.visitmarin.org/things-to-do/attractions/"
            ],
            "longitude": "-122.421585754205"
        },
        "nicasio valley road nicasio": {
            "latitude": "38.080005",
            "closest_to": "sausalito",
            "address": "Nicasio Valley Road, Nicasio, Marin County, California, 94956, United States of America",
            "locType": "tertiary",
            "blogLinks": [
                "http://www.visitmarin.org/things-to-do/attractions/"
            ],
            "longitude": "-122.7137279"
        },
        "west marin": {
            "latitude": "38.0409144",
            "closest_to": "sausalito",
            "address": "Marin County, California, United States of America",
            "locType": "administrative",
            "blogLinks": [
                "http://www.visitmarin.org/things-to-do/attractions/"
            ],
            "longitude": "-122.6199637"
        },
        "garden center": {
            "latitude": "37.705761",
            "closest_to": "sausalito",
            "address": "Armstrong Garden Center, Amador Valley Boulevard, Dublin, Alameda County, California, 94568, United States of America",
            "locType": "garden_centre",
            "blogLinks": [
                "http://www.visitmarin.org/things-to-do/attractions/"
            ],
            "longitude": "-121.93762"
        },
        "walnut creek": {
            "latitude": "37.9063131",
            "closest_to": "sausalito",
            "address": "Walnut Creek, Contra Costa County, California, United States of America",
            "locType": "administrative",
            "blogLinks": [
                "https://www.tripadvisor.com/ShowTopic-g32999-i297-k3376974-Day_trips_from_Sacramento-Sacramento_California.html"
            ],
            "longitude": "-122.0649629"
        },
        "clarksburg": {
            "latitude": "38.4204651",
            "closest_to": "sausalito",
            "address": "Clarksburg, Yolo County, California, United States of America",
            "locType": "hamlet",
            "blogLinks": [
                "http://thisismyhappiness.com/2013/06/02/30-things-to-do-in-northern-california/"
            ],
            "longitude": "-121.5271771"
        },
        "mission san rafael": {
            "latitude": "37.9739069",
            "closest_to": "sausalito",
            "address": "Mission Avenue, San Rafael, Marin County, California, 94901, United States of America",
            "locType": "residential",
            "blogLinks": [
                "http://www.visitmarin.org/things-to-do/attractions/"
            ],
            "longitude": "-122.5208246"
        },
        "bay model visitor center": {
            "latitude": "37.86354775",
            "closest_to": "sausalito",
            "address": "Bay Model Visitor Center, 2100, Bridgeway, Sausalito, Marin County, California, 94965, United States of America",
            "locType": "museum",
            "blogLinks": [
                "http://www.visitmarin.org/things-to-do/attractions/"
            ],
            "longitude": "-122.494859900107"
        },
        "yuba": {
            "latitude": "39.2839755",
            "closest_to": "sacramento",
            "address": "Yuba County, California, United States of America",
            "locType": "administrative",
            "blogLinks": [
                "http://thisismyhappiness.com/2013/06/02/30-things-to-do-in-northern-california/"
            ],
            "longitude": "-121.3556817"
        },
        "stinson beach": {
            "latitude": "37.9008084",
            "closest_to": "sausalito",
            "address": "Stinson Beach, Marin County, California, United States of America",
            "locType": "hamlet",
            "blogLinks": [
                "http://www.visitmarin.org/things-to-do/attractions/"
            ],
            "longitude": "-122.64508"
        },
        "aptos": {
            "latitude": "36.9787725",
            "closest_to": "sausalito",
            "address": "Aptos, Santa Cruz County, California, United States of America",
            "locType": "town",
            "blogLinks": [
                "http://blog.sfgate.com/getlost/2013/04/04/reader-picks-20-must-see-small-towns/"
            ],
            "longitude": "-121.8976334"
        },
        "albert park": {
            "latitude": "37.9693011",
            "closest_to": "sausalito",
            "address": "Albert Park, Andersen Drive, San Rafael, Marin County, California, 94901, United States of America",
            "locType": "park",
            "blogLinks": [
                "http://www.visitmarin.org/things-to-do/attractions/"
            ],
            "longitude": "-122.528735080825"
        },
        "nevada": {
            "latitude": "39.3540335",
            "closest_to": "sacramento",
            "address": "Nevada County, California, United States of America",
            "locType": "administrative",
            "blogLinks": [
                "https://www.tripadvisor.com/ShowTopic-g32999-i297-k3376974-Day_trips_from_Sacramento-Sacramento_California.html"
            ],
            "longitude": "-120.8089842"
        },
        "mount tamalpais": {
            "latitude": "37.879988",
            "closest_to": "sausalito",
            "address": "Tamalpais-Homestead Valley, Wendy Way, Almonte, Tamalpais Valley, Marin County, California, 94941, United States of America",
            "locType": "census",
            "blogLinks": [
                "http://www.visitmarin.org/things-to-do/attractions/"
            ],
            "longitude": "-122.535021480702"
        },
        "mt tamalpais": {
            "latitude": "37.879988",
            "closest_to": "sausalito",
            "address": "Tamalpais-Homestead Valley, Wendy Way, Almonte, Tamalpais Valley, Marin County, California, 94941, United States of America",
            "locType": "census",
            "blogLinks": [
                "http://www.visitmarin.org/things-to-do/attractions/"
            ],
            "longitude": "-122.535021480702"
        },
        "feather river": {
            "latitude": "39.2133502",
            "closest_to": "sacramento",
            "address": "Feather River, Yuba County, California, United States of America",
            "locType": "river",
            "blogLinks": [
                "http://thisismyhappiness.com/2013/06/02/30-things-to-do-in-northern-california/"
            ],
            "longitude": "-121.6138135"
        },
        "folsom": {
            "latitude": "38.6779591",
            "closest_to": "sacramento",
            "address": "Folsom, Sacramento County, California, United States of America",
            "locType": "city",
            "blogLinks": [
                "https://www.tripadvisor.com/ShowTopic-g32999-i297-k3376974-Day_trips_from_Sacramento-Sacramento_California.html"
            ],
            "longitude": "-121.1760582"
        },
        "amador county": {
            "latitude": "38.449089",
            "closest_to": "sacramento",
            "address": "Amador County, California, United States of America",
            "locType": "administrative",
            "blogLinks": [
                "https://www.tripadvisor.com/ShowTopic-g32999-i297-k3376974-Day_trips_from_Sacramento-Sacramento_California.html"
            ],
            "longitude": "-120.5911017"
        },
        "tomales bay": {
            "latitude": "38.0812158",
            "closest_to": "sausalito",
            "address": "Tomales Bay, Bivalve, Marin County, California, 94948, United States of America",
            "locType": "path",
            "blogLinks": [
                "http://www.visitmarin.org/things-to-do/attractions/",
                "http://thisismyhappiness.com/2013/06/02/30-things-to-do-in-northern-california/",
                "http://blog.sfgate.com/getlost/2013/04/04/reader-picks-20-must-see-small-towns/"
            ],
            "longitude": "-122.8225806"
        },
        "placerville": {
            "latitude": "38.7296252",
            "closest_to": "sacramento",
            "address": "Placerville, El Dorado County, California, United States of America",
            "locType": "city",
            "blogLinks": [
                "http://thisismyhappiness.com/2013/06/02/30-things-to-do-in-northern-california/",
                "https://www.tripadvisor.com/ShowTopic-g32999-i297-k3376974-Day_trips_from_Sacramento-Sacramento_California.html",
                "http://blog.sfgate.com/getlost/2013/04/04/reader-picks-20-must-see-small-towns/"
            ],
            "longitude": "-120.7985459"
        },
        "cornerstone gardens": {
            "latitude": "37.3572362",
            "closest_to": "sausalito",
            "address": "Cornerstone at Japantown, Japantown, San Jos\u00e9, Santa Clara County, California, 95112, United States of America",
            "locType": "residential",
            "blogLinks": [
                "http://thisismyhappiness.com/2013/06/02/30-things-to-do-in-northern-california/"
            ],
            "longitude": "-121.893825219461"
        },
        "east bay": {
            "latitude": "38.156964",
            "closest_to": "sacramento",
            "address": "East Bay, San Joaquin County, California, United States of America",
            "locType": "track",
            "blogLinks": [
                "http://thisismyhappiness.com/2013/06/02/30-things-to-do-in-northern-california/"
            ],
            "longitude": "-121.0270079"
        },
        "lodi": {
            "latitude": "38.097198",
            "closest_to": "sausalito",
            "address": "Lodi, San Joaquin County, California, United States of America",
            "locType": "city",
            "blogLinks": [
                "http://thisismyhappiness.com/2013/06/02/30-things-to-do-in-northern-california/"
            ],
            "longitude": "-121.387849546574"
        },
        "calaveras county": {
            "latitude": "38.2558181",
            "closest_to": "sacramento",
            "address": "Calaveras County, California, United States of America",
            "locType": "administrative",
            "blogLinks": [
                "http://blog.sfgate.com/getlost/2013/04/04/reader-picks-20-must-see-small-towns/"
            ],
            "longitude": "-120.4981491"
        },
        "sonoma county": {
            "latitude": "38.5110803",
            "closest_to": "sausalito",
            "address": "Sonoma County, California, United States of America",
            "locType": "administrative",
            "blogLinks": [
                "http://thisismyhappiness.com/2013/06/02/30-things-to-do-in-northern-california/",
                "http://blog.sfgate.com/getlost/2013/04/04/reader-picks-20-must-see-small-towns/"
            ],
            "longitude": "-122.8473387"
        },
        "downtown sacramento": {
            "latitude": "38.57433815",
            "closest_to": "sausalito",
            "address": "downtown, Quill Alley, Sacramento, Sacramento County, California, 95814, United States of America",
            "locType": "public_building",
            "blogLinks": [
                "http://thisismyhappiness.com/2013/06/02/30-things-to-do-in-northern-california/"
            ],
            "longitude": "-121.506844644067"
        },
        "sacramento": {
            "latitude": "38.5815719",
            "closest_to": "sacramento",
            "address": "Sacramento, Sacramento County, California, United States of America",
            "locType": "city",
            "blogLinks": [
                "http://www.10best.com/destinations/california/sacramento/",
                "http://thisismyhappiness.com/2013/06/02/30-things-to-do-in-northern-california/",
                "https://www.tripadvisor.com/ShowTopic-g32999-i297-k3376974-Day_trips_from_Sacramento-Sacramento_California.html",
                "https://www.pinterest.com/firedude007/places-to-visit-in-and-near-sacramento-ca/"
            ],
            "longitude": "-121.4943995"
        },
        "golden gate": {
            "latitude": "37.8190177",
            "closest_to": "sausalito",
            "address": "Golden Gate, Golden Gate Bridge, Waldo, Marin County, California, 94965, United States of America",
            "locType": "strait",
            "blogLinks": [
                "http://www.visitmarin.org/things-to-do/attractions/"
            ],
            "longitude": "-122.4793972"
        },
        "fort barry": {
            "latitude": "37.8309013",
            "closest_to": "sausalito",
            "address": "Fort Barry Chapel (historical), Bunker Road, Marin City, Marin County, California, 94965, United States of America",
            "locType": "place_of_worship",
            "blogLinks": [
                "http://www.visitmarin.org/things-to-do/attractions/"
            ],
            "longitude": "-122.5246656"
        },
        "marin county": {
            "latitude": "38.0409144",
            "closest_to": "sausalito",
            "address": "Marin County, California, United States of America",
            "locType": "administrative",
            "blogLinks": [
                "http://www.visitmarin.org/things-to-do/attractions/",
                "http://www.sacbee.com/news/politics-government/capitol-alert/article67113452.html",
                "https://www.tripadvisor.com/ShowTopic-g32999-i297-k3376974-Day_trips_from_Sacramento-Sacramento_California.html",
                "http://blog.sfgate.com/getlost/2013/04/04/reader-picks-20-must-see-small-towns/"
            ],
            "longitude": "-122.6199637"
        },
        "point reyes station": {
            "latitude": "38.087933",
            "closest_to": "sausalito",
            "address": "Point Reyes Station, Tomales Bay, Bivalve, Marin County, California, 94948, United States of America",
            "locType": "census",
            "blogLinks": [
                "http://www.visitmarin.org/things-to-do/attractions/"
            ],
            "longitude": "-122.814380617941"
        },
        "marin museum": {
            "latitude": "38.0577473",
            "closest_to": "sausalito",
            "address": "Marin Museum of Contemporary Art, 500, Palm Drive, Novato, Marin County, California, 94949, United States of America",
            "locType": "museum",
            "blogLinks": [
                "http://www.visitmarin.org/things-to-do/attractions/"
            ],
            "longitude": "-122.51851019623"
        },
        "midtown sacramento": {
            "latitude": "38.704982",
            "closest_to": "sacramento",
            "address": "Midtown Drive, North Highlands, Sacramento County, California, 95843, United States of America",
            "locType": "residential",
            "blogLinks": [
                "http://thisismyhappiness.com/2013/06/02/30-things-to-do-in-northern-california/"
            ],
            "longitude": "-121.3855549"
        },
        "san lorenzo valley": {
            "latitude": "37.6810422",
            "closest_to": "sausalito",
            "address": "San Lorenzo, Alameda County, California, United States of America",
            "locType": "village",
            "blogLinks": [
                "http://blog.sfgate.com/getlost/2013/04/04/reader-picks-20-must-see-small-towns/"
            ],
            "longitude": "-122.1244087"
        },
        "marin": {
            "latitude": "38.0409144",
            "closest_to": "sausalito",
            "address": "Marin County, California, United States of America",
            "locType": "administrative",
            "blogLinks": [
                "http://www.visitmarin.org/things-to-do/attractions/",
                "http://www.sacbee.com/news/politics-government/capitol-alert/article67113452.html"
            ],
            "longitude": "-122.6199637"
        },
        "tiburon": {
            "latitude": "37.8734371",
            "closest_to": "sausalito",
            "address": "Tiburon, Marin County, California, United States of America",
            "locType": "administrative",
            "blogLinks": [
                "http://www.visitsfbayarea.com/marin-county/sausalito",
                "https://www.tripadvisor.com/Tourism-g33062-Sausalito_Marin_County_California-Vacations.html"
            ],
            "longitude": "-122.4566121"
        },
        "westfield galleria": {
            "latitude": "38.77391795",
            "closest_to": "sacramento",
            "address": "Westfield Galleria, Galleria Circle, Westfield Galleria at Roseville, Roseville, Placer County, California, 95678, United States of America",
            "locType": "mall",
            "blogLinks": [
                "http://www.10best.com/destinations/california/sacramento/"
            ],
            "longitude": "-121.269704351631"
        },
        "farm-to-fork": {
            "latitude": "37.7960688",
            "closest_to": "sausalito",
            "address": "Farm Fresh to You, Gate B, Financial District, SF, California, 94111, United States of America",
            "locType": "organic",
            "blogLinks": [
                "http://thisismyhappiness.com/2013/06/02/30-things-to-do-in-northern-california/"
            ],
            "longitude": "-122.3938816"
        },
        "sierra nevada": {
            "latitude": "39.097593",
            "closest_to": "sacramento",
            "address": "Sierra, Wolf, Nevada County, California, 95949, United States of America",
            "locType": "residential",
            "blogLinks": [
                "http://thisismyhappiness.com/2013/06/02/30-things-to-do-in-northern-california/",
                "http://blog.sfgate.com/getlost/2013/04/04/reader-picks-20-must-see-small-towns/"
            ],
            "longitude": "-121.1396689"
        },
        "east asia": {
            "latitude": "37.7949149",
            "closest_to": "sausalito",
            "address": "Asia, 6th Avenue, San Antonio, Oakland, Alameda County, California, 94606, United States of America",
            "locType": "restaurant",
            "blogLinks": [
                "http://thisismyhappiness.com/2013/06/02/30-things-to-do-in-northern-california/"
            ],
            "longitude": "-122.2533348"
        },
        "machin avenue novato": {
            "latitude": "38.1061089",
            "closest_to": "sausalito",
            "address": "Machin Avenue, Old Town, Novato, Marin County, California, 94945, United States of America",
            "locType": "residential",
            "blogLinks": [
                "http://www.visitmarin.org/things-to-do/attractions/"
            ],
            "longitude": "-122.5692731"
        },
        "georgetown": {
            "latitude": "38.9072855",
            "closest_to": "sacramento",
            "address": "Georgetown, Harkness Street, Georgetown, El Dorado County, California, 95634, United States of America",
            "locType": "administrative",
            "blogLinks": [
                "http://thisismyhappiness.com/2013/06/02/30-things-to-do-in-northern-california/"
            ],
            "longitude": "-120.830230470459"
        },
        "old sacramento": {
            "latitude": "38.5815719",
            "closest_to": "sacramento",
            "address": "Sacramento, Sacramento County, California, United States of America",
            "locType": "city",
            "blogLinks": [
                "http://www.10best.com/destinations/california/sacramento/"
            ],
            "longitude": "-121.4943995"
        },
        "inverness park": {
            "latitude": "38.0638121",
            "closest_to": "sausalito",
            "address": "Inverness Park, Marin County, California, United States of America",
            "locType": "hamlet",
            "blogLinks": [
                "http://www.visitmarin.org/things-to-do/attractions/"
            ],
            "longitude": "-122.8227695"
        },
        "sonora": {
            "latitude": "37.9840911",
            "closest_to": "sacramento",
            "address": "Sonora, Tuolumne County, California, United States of America",
            "locType": "city",
            "blogLinks": [
                "http://blog.sfgate.com/getlost/2013/04/04/reader-picks-20-must-see-small-towns/"
            ],
            "longitude": "-120.382138"
        },
        "columbia": {
            "latitude": "38.03227005",
            "closest_to": "sacramento",
            "address": "Columbia, Maiden Lane, Columbia, Tuolumne County, California, 95310, United States of America",
            "locType": "administrative",
            "blogLinks": [
                "http://thisismyhappiness.com/2013/06/02/30-things-to-do-in-northern-california/"
            ],
            "longitude": "-120.402418618899"
        },
        "bay area": {
            "latitude": "37.7884969",
            "closest_to": "sausalito",
            "address": "San Francisco Bay Area, SF, California, United States of America",
            "locType": "region",
            "blogLinks": [
                "http://www.visitmarin.org/things-to-do/attractions/"
            ],
            "longitude": "-122.3558472"
        },
        "redwood grove": {
            "latitude": "37.157446",
            "closest_to": "sausalito",
            "address": "Redwood Grove, Santa Cruz County, California, United States of America",
            "locType": "hamlet",
            "blogLinks": [
                "http://thisismyhappiness.com/2013/06/02/30-things-to-do-in-northern-california/"
            ],
            "longitude": "-122.1341313"
        },
        "calistoga": {
            "latitude": "38.582615",
            "closest_to": "sausalito",
            "address": "Calistoga, Napa County, California, United States of America",
            "locType": "city",
            "blogLinks": [
                "http://thisismyhappiness.com/2013/06/02/30-things-to-do-in-northern-california/"
            ],
            "longitude": "-122.583325948608"
        },
        "roseville": {
            "latitude": "38.72338",
            "closest_to": "sacramento",
            "address": "Roseville, Placer County, California, United States of America",
            "locType": "city",
            "blogLinks": [
                "http://www.visitmarin.org/things-to-do/attractions/",
                "https://www.tripadvisor.com/ShowTopic-g32999-i297-k3376974-Day_trips_from_Sacramento-Sacramento_California.html"
            ],
            "longitude": "-121.185878161131"
        },
        "marin civic center": {
            "latitude": "37.99684635",
            "closest_to": "sausalito",
            "address": "Marin County Civic Center, Peter Behr Drive, Terra Linda, San Rafael, Marin County, California, 94903, United States of America",
            "locType": "public_building",
            "blogLinks": [
                "http://www.visitmarin.org/things-to-do/attractions/"
            ],
            "longitude": "-122.530387532168"
        },
        "marin headlands": {
            "latitude": "37.856162",
            "closest_to": "sausalito",
            "address": "Marin Headlands (GGNRA), Old Springs Trail, Marin City, Marin County, California, 94941, United States of America",
            "locType": "park",
            "blogLinks": [
                "http://www.visitmarin.org/things-to-do/attractions/",
                "http://thisismyhappiness.com/2013/06/02/30-things-to-do-in-northern-california/"
            ],
            "longitude": "-122.534327312107"
        },
        "russian river": {
            "latitude": "38.4825985",
            "closest_to": "sausalito",
            "address": "Russian River, Sonoma County, California, United States of America",
            "locType": "river",
            "blogLinks": [
                "http://blog.sfgate.com/getlost/2013/04/04/reader-picks-20-must-see-small-towns/"
            ],
            "longitude": "-123.0082118"
        },
        "apple hill": {
            "latitude": "37.3326452",
            "closest_to": "sausalito",
            "address": "Apple, Inc., Cupertino, Santa Clara County, California, 95014, United States of America",
            "locType": "commercial",
            "blogLinks": [
                "http://thisismyhappiness.com/2013/06/02/30-things-to-do-in-northern-california/"
            ],
            "longitude": "-122.029912865894"
        },
        "fort baker": {
            "latitude": "37.3119851",
            "closest_to": "sausalito",
            "address": "Fort Baker Drive, Cupertino, Santa Clara County, California, 95014, United States of America",
            "locType": "residential",
            "blogLinks": [
                "http://blog.sfgate.com/getlost/2013/04/04/reader-picks-20-must-see-small-towns/"
            ],
            "longitude": "-122.0549598"
        },
        "chateau montelana": {
            "latitude": "38.7664261",
            "closest_to": "sacramento",
            "address": "Chateau Montelana Drive, Zee Estates, El Dorado County, California, 95762, United States of America",
            "locType": "residential",
            "blogLinks": [
                "http://thisismyhappiness.com/2013/06/02/30-things-to-do-in-northern-california/"
            ],
            "longitude": "-121.0455243"
        },
        "sausalito city": {
            "latitude": "37.8553325",
            "closest_to": "sausalito",
            "address": "Sausalito, Miwok Trail, Marin City, Marin County, California, 94965, United States of America",
            "locType": "navigationaid",
            "blogLinks": [
                "http://www.sacbee.com/news/politics-government/capitol-alert/article67113452.html"
            ],
            "longitude": "-122.522765"
        },
        "cornwall": {
            "latitude": "38.0204765",
            "closest_to": "sausalito",
            "address": "Cornwall, Contra Costa County, California, United States of America",
            "locType": "hamlet",
            "blogLinks": [
                "http://www.visitmarin.org/things-to-do/attractions/"
            ],
            "longitude": "-121.8788469"
        },
        "petaluma blvd": {
            "latitude": "38.270022",
            "closest_to": "sausalito",
            "address": "Petaluma, Sonoma County, California, United States of America",
            "locType": "city",
            "blogLinks": [
                "http://www.visitmarin.org/things-to-do/attractions/"
            ],
            "longitude": "-122.606122313043"
        },
        "jamestown ca": {
            "latitude": "37.9588565",
            "closest_to": "sacramento",
            "address": "Jamestown, Golden Oaks Drive, Volponi Acres, Tuolumne County, California, 95327, United States of America",
            "locType": "administrative",
            "blogLinks": [
                "https://www.tripadvisor.com/ShowTopic-g32999-i297-k3376974-Day_trips_from_Sacramento-Sacramento_California.html"
            ],
            "longitude": "-120.404431068133"
        },
        "geyserville": {
            "latitude": "38.707687",
            "closest_to": "sausalito",
            "address": "Geyserville, Sonoma County, California, United States of America",
            "locType": "hamlet",
            "blogLinks": [
                "http://thisismyhappiness.com/2013/06/02/30-things-to-do-in-northern-california/"
            ],
            "longitude": "-122.9024963"
        },
        "sebastopol": {
            "latitude": "38.4021359",
            "closest_to": "sausalito",
            "address": "Sebastopol, Sonoma County, California, United States of America",
            "locType": "city",
            "blogLinks": [
                "http://blog.sfgate.com/getlost/2013/04/04/reader-picks-20-must-see-small-towns/"
            ],
            "longitude": "-122.8238805"
        },
        "san mateo county": {
            "latitude": "37.496904",
            "closest_to": "sausalito",
            "address": "San Mateo County, California, United States of America",
            "locType": "administrative",
            "blogLinks": [
                "http://blog.sfgate.com/getlost/2013/04/04/reader-picks-20-must-see-small-towns/"
            ],
            "longitude": "-122.3330572"
        },
        "burney falls": {
            "latitude": "37.92915",
            "closest_to": "sausalito",
            "address": "Burney Falls, Stockton, San Joaquin County, California, 95206, United States of America",
            "locType": "residential",
            "blogLinks": [
                "http://thisismyhappiness.com/2013/06/02/30-things-to-do-in-northern-california/"
            ],
            "longitude": "-121.3140939"
        },
        "san anselmo": {
            "latitude": "37.9744323",
            "closest_to": "sausalito",
            "address": "San Anselmo, Marin County, California, United States of America",
            "locType": "administrative",
            "blogLinks": [
                "http://www.visitmarin.org/things-to-do/attractions/"
            ],
            "longitude": "-122.5615031"
        },
        "bolinas lagoon": {
            "latitude": "37.9182589",
            "closest_to": "sausalito",
            "address": "Bolinas Lagoon, Shoreline Highway, Bolinas, Marin County, California, 94970, United States of America",
            "locType": "bay",
            "blogLinks": [
                "http://www.visitmarin.org/things-to-do/attractions/"
            ],
            "longitude": "-122.6810952"
        },
        "san francisco": {
            "latitude": "37.7792808",
            "closest_to": "sausalito",
            "address": "SF, California, United States of America",
            "locType": "city",
            "blogLinks": [
                "https://www.tripadvisor.com/ShowTopic-g32999-i297-k3376974-Day_trips_from_Sacramento-Sacramento_California.html",
                "http://www.visitmarin.org/things-to-do/attractions/",
                "http://thisismyhappiness.com/2013/06/02/30-things-to-do-in-northern-california/",
                "http://www.visitsfbayarea.com/marin-county/sausalito",
                "https://www.pinterest.com/firedude007/places-to-visit-in-and-near-sacramento-ca/",
                "http://www.hopper.com/articles/291/five-great-stops-between-los-angeles-and-san-francisco-on-the-pacific-coast-highway",
                "http://blog.sfgate.com/getlost/2013/04/04/reader-picks-20-must-see-small-towns/",
                "http://www.10best.com/destinations/california/sacramento/",
                "http://www.sacbee.com/news/politics-government/capitol-alert/article67113452.html"
            ],
            "longitude": "-122.4192362"
        },
        "tilden park": {
            "latitude": "37.8946474",
            "closest_to": "sausalito",
            "address": "Charles Lee Tilden Regional Park, Quarry Trail, Contra Costa County, California, 94708, United States of America",
            "locType": "park",
            "blogLinks": [
                "http://thisismyhappiness.com/2013/06/02/30-things-to-do-in-northern-california/"
            ],
            "longitude": "-122.2416351"
        },
        "downtown lodi": {
            "latitude": "38.1347341",
            "closest_to": "sausalito",
            "address": "Downtown Parking Garage, North Sacramento Street, Lodi, San Joaquin County, California, 95240, United States of America",
            "locType": "parking",
            "blogLinks": [
                "http://thisismyhappiness.com/2013/06/02/30-things-to-do-in-northern-california/"
            ],
            "longitude": "-121.2718025"
        },
        "carmel": {
            "latitude": "38.75511285",
            "closest_to": "sacramento",
            "address": "Carmel, Roseville, Placer County, California, 95747, United States of America",
            "locType": "residential",
            "blogLinks": [
                "http://thisismyhappiness.com/2013/06/02/30-things-to-do-in-northern-california/",
                "http://www.hopper.com/articles/291/five-great-stops-between-los-angeles-and-san-francisco-on-the-pacific-coast-highway",
                "http://blog.sfgate.com/getlost/2013/04/04/reader-picks-20-must-see-small-towns/"
            ],
            "longitude": "-121.353308848273"
        },
        "fairfield": {
            "latitude": "38.2493581",
            "closest_to": "sausalito",
            "address": "Fairfield, Solano County, California, United States of America",
            "locType": "city",
            "blogLinks": [
                "https://www.tripadvisor.com/ShowTopic-g32999-i297-k3376974-Day_trips_from_Sacramento-Sacramento_California.html"
            ],
            "longitude": "-122.0399662"
        },
        "livermore valley": {
            "latitude": "37.687781",
            "closest_to": "sausalito",
            "address": "LLNL, Mesquite Way, Livermore, Alameda County, California, 94550, United States of America",
            "locType": "science_park",
            "blogLinks": [
                "http://thisismyhappiness.com/2013/06/02/30-things-to-do-in-northern-california/"
            ],
            "longitude": "-121.708309238646"
        },
        "muir woods": {
            "latitude": "38.049581",
            "closest_to": "sausalito",
            "address": "Muir Woods Avenue, Stockton, San Joaquin County, California, 95209, United States of America",
            "locType": "residential",
            "blogLinks": [
                "http://www.visitmarin.org/things-to-do/attractions/",
                "http://thisismyhappiness.com/2013/06/02/30-things-to-do-in-northern-california/"
            ],
            "longitude": "-121.3457819"
        }
    },
    "sacramento": {
        "type": "city",
        "osm_id": "6232940",
        "class": "place",
        "importance": 0.80674211027009,
        "lat": "38.5815719",
        "lon": "-121.4943995",
        "boundingbox": [
            "38.437574",
            "38.685507",
            "-121.5601199",
            "-121.3627399"
        ],
        "display_name": "Sacramento, Sacramento County, California, United States of America",
        "licence": "Data \u00a9 OpenStreetMap contributors, ODbL 1.0. http://www.openstreetmap.org/copyright",
        "icon": "https://nominatim.openstreetmap.org/images/mapicons/poi_place_city.p.20.png",
        "place_id": "159758891",
        "osm_type": "relation"
    },
    "sausalito": {
        "type": "administrative",
        "osm_id": "2829689",
        "class": "boundary",
        "importance": 0.64561533453658,
        "lat": "37.8590272",
        "lon": "-122.4854693",
        "boundingbox": [
            "37.8436795",
            "37.8731429",
            "-122.5102612",
            "-122.4753744"
        ],
        "display_name": "Sausalito, Marin County, California, United States of America",
        "licence": "Data \u00a9 OpenStreetMap contributors, ODbL 1.0. http://www.openstreetmap.org/copyright",
        "icon": "https://nominatim.openstreetmap.org/images/mapicons/poi_boundary_administrative.p.20.png",
        "place_id": "159575624",
        "osm_type": "relation"
    }
}