{
    "mentions": {
        "la jolla": {
            "blogLinks": [
                "http://www.sandiego.org/articles/tours-sightseeing/san-diegos-59-mile-scenic-drive.aspx",
                "http://wikitravel.org/en/San_Diego"
            ],
            "address": "La Jolla, San Diego, San Diego County, California, United States of America",
            "longitude": -117.2742085,
            "locType": "suburb",
            "latitude": 32.8472711,
            "closest_to": "carlsbad"
        },
        "w. harbor drive": {
            "blogLinks": [
                "http://www.sandiego.org/articles/tours-sightseeing/san-diegos-59-mile-scenic-drive.aspx"
            ],
            "address": "West Harbor Drive, Hillcrest, San Diego, San Diego County, California, 92101, United States of America",
            "longitude": -117.1651666,
            "locType": "primary",
            "latitude": 32.709333,
            "closest_to": "carlsbad"
        },
        "mission hills": {
            "blogLinks": [
                "http://www.sandiego.org/articles/tours-sightseeing/san-diegos-59-mile-scenic-drive.aspx"
            ],
            "address": "Mission Hills, San Diego County, California, United States of America",
            "longitude": -117.1869788,
            "locType": "hamlet",
            "latitude": 32.7528279,
            "closest_to": "carlsbad"
        },
        "long beach landing": {
            "blogLinks": [
                "http://catalinaislandexplorer.com/how-to-get-to-catalina-island/"
            ],
            "address": "Catalina Express Long Beach Downtown Landing, Golden Shore Street, Willowville, Long Beach, Los Angeles County, California, 90802, United States of America",
            "longitude": -118.1993613,
            "locType": "ferry_terminal",
            "latitude": 33.7633617,
            "closest_to": "avalon"
        },
        "long beach": {
            "blogLinks": [
                "http://catalinaislandexplorer.com/how-to-get-to-catalina-island/"
            ],
            "address": "Long Beach, Los Angeles County, California, United States of America",
            "longitude": -118.158049215311,
            "locType": "city",
            "latitude": 33.78538945,
            "closest_to": "avalon"
        },
        "la jolla boulevard": {
            "blogLinks": [
                "http://www.sandiego.org/articles/tours-sightseeing/san-diegos-59-mile-scenic-drive.aspx"
            ],
            "address": "La Jolla Boulevard, Pacific Beach, San Diego, San Diego County, California, 92037, United States of America",
            "longitude": -117.2613568,
            "locType": "secondary",
            "latitude": 32.8076713,
            "closest_to": "carlsbad"
        },
        "tucson": {
            "blogLinks": [
                "http://wikitravel.org/en/San_Diego"
            ],
            "address": "Tucson, Coto de Caza, Orange County, California, 92690, United States of America",
            "longitude": -117.5934281,
            "locType": "residential",
            "latitude": 33.5678303,
            "closest_to": "carlsbad"
        },
        "la jolla cove": {
            "blogLinks": [
                "http://wikitravel.org/en/San_Diego"
            ],
            "address": "La Jolla Cove, Coast Boulevard, La Jolla, San Diego, San Diego County, California, 92037, United States of America",
            "longitude": -117.273024234204,
            "locType": "beach",
            "latitude": 32.85051835,
            "closest_to": "carlsbad"
        },
        "linda vista road": {
            "blogLinks": [
                "http://wikitravel.org/en/San_Diego"
            ],
            "address": "Linda Vista Road, Mission Valley, San Diego, San Diego County, California, 92111, United States of America",
            "longitude": -117.1553189,
            "locType": "secondary",
            "latitude": 32.805611,
            "closest_to": "carlsbad"
        },
        "genesee avenue": {
            "blogLinks": [
                "http://wikitravel.org/en/San_Diego"
            ],
            "address": "Genesee Avenue, South Carthay, The Village Green, LA, Los Angeles County, California, 90016, United States of America",
            "longitude": -118.3685811,
            "locType": "residential",
            "latitude": 34.0376458,
            "closest_to": "avalon"
        },
        "el encanto": {
            "blogLinks": [
                "http://www.visitcatalinaisland.com/blog"
            ],
            "address": "Encanto, San Diego, San Diego County, California, United States of America",
            "longitude": -117.0503062,
            "locType": "suburb",
            "latitude": 32.7119967,
            "closest_to": "carlsbad"
        },
        "latin america": {
            "blogLinks": [
                "http://wikitravel.org/en/San_Diego"
            ],
            "address": "Latin America Hall, North Torrey Pines Road, La Jolla, San Diego, San Diego County, California, 92037, United States of America",
            "longitude": -117.243474813578,
            "locType": "yes",
            "latitude": 32.88513545,
            "closest_to": "carlsbad"
        },
        "ocean beach": {
            "blogLinks": [
                "http://wikitravel.org/en/San_Diego"
            ],
            "address": "Ocean Beach, San Diego, San Diego County, California, United States of America",
            "longitude": -117.249321,
            "locType": "region",
            "latitude": 32.7477784,
            "closest_to": "carlsbad"
        },
        "broadway pier": {
            "blogLinks": [
                "http://www.sandiego.org/articles/tours-sightseeing/san-diegos-59-mile-scenic-drive.aspx"
            ],
            "address": "Broadway Pier, Loading Zone, Hillcrest, San Diego, San Diego County, California, 92101, United States of America",
            "longitude": -117.175060770741,
            "locType": "pier",
            "latitude": 32.7157143,
            "closest_to": "carlsbad"
        },
        "cabrillo memorial drive": {
            "blogLinks": [
                "http://www.sandiego.org/articles/tours-sightseeing/san-diegos-59-mile-scenic-drive.aspx"
            ],
            "address": "Cabrillo Memorial Drive, San Diego, San Diego County, California, 92106, United States of America",
            "longitude": -117.2480469,
            "locType": "secondary",
            "latitude": 32.6999532,
            "closest_to": "carlsbad"
        },
        "old town-mission valley": {
            "blogLinks": [
                "http://wikitravel.org/en/San_Diego"
            ],
            "address": "Old Town, San Diego, San Diego County, California, United States of America",
            "longitude": -117.2028231,
            "locType": "suburb",
            "latitude": 32.7566177,
            "closest_to": "carlsbad"
        },
        "chula vista": {
            "blogLinks": [
                "http://wikitravel.org/en/San_Diego"
            ],
            "address": "Chula Vista, San Diego County, California, United States of America",
            "longitude": -117.0841954,
            "locType": "city",
            "latitude": 32.6400541,
            "closest_to": "carlsbad"
        },
        "dana point": {
            "blogLinks": [
                "http://catalinaislandexplorer.com/how-to-get-to-catalina-island/",
                "http://wikitravel.org/en/San_Diego"
            ],
            "address": "Dana Point, Orange County, California, United States of America",
            "longitude": -117.6981074,
            "locType": "city",
            "latitude": 33.4669721,
            "closest_to": "carlsbad"
        },
        "mission valley": {
            "blogLinks": [
                "http://wikitravel.org/en/San_Diego"
            ],
            "address": "Mission Valley, San Diego, San Diego County, California, United States of America",
            "longitude": -117.1520977,
            "locType": "suburb",
            "latitude": 32.7768074,
            "closest_to": "carlsbad"
        },
        "qualcomm stadium": {
            "blogLinks": [
                "http://wikitravel.org/en/San_Diego"
            ],
            "address": "Qualcomm Stadium, Qualcomm Way, Mission Valley, San Diego, San Diego County, California, 92123, United States of America",
            "longitude": -117.1196206,
            "locType": "station",
            "latitude": 32.7810139,
            "closest_to": "carlsbad"
        },
        "southern california": {
            "blogLinks": [
                "http://www.visitcatalinaisland.com/blog",
                "http://wikitravel.org/en/San_Diego"
            ],
            "address": "University of Southern California, Watt Way, Saint James Park, LA, Los Angeles County, California, 90089, United States of America",
            "longitude": -118.286343973446,
            "locType": "university",
            "latitude": 34.0224149,
            "closest_to": "avalon"
        },
        "kettner blvd.": {
            "blogLinks": [
                "http://wikitravel.org/en/San_Diego"
            ],
            "address": "Kettner Boulevard, Hillcrest, San Diego, San Diego County, California, 92101, United States of America",
            "longitude": -117.1698529,
            "locType": "secondary",
            "latitude": 32.725143,
            "closest_to": "carlsbad"
        },
        "santee": {
            "blogLinks": [
                "http://wikitravel.org/en/San_Diego"
            ],
            "address": "Santee, San Diego County, California, United States of America",
            "longitude": -116.9739166,
            "locType": "city",
            "latitude": 32.8383828,
            "closest_to": "carlsbad"
        },
        "india": {
            "blogLinks": [
                "http://wikitravel.org/en/San_Diego"
            ],
            "address": "Star of India, North Harbor Drive, Hillcrest, San Diego, San Diego County, California, 92106, United States of America",
            "longitude": -117.173543004762,
            "locType": "attraction",
            "latitude": 32.72025735,
            "closest_to": "carlsbad"
        },
        "old town san diego state historic park": {
            "blogLinks": [
                "http://www.sandiego.org/articles/tours-sightseeing/san-diegos-59-mile-scenic-drive.aspx"
            ],
            "address": "Old Town San Diego State Historic Park, Twiggs Street, Old Town, San Diego, San Diego County, California, 92110, United States of America",
            "longitude": -117.194891467408,
            "locType": "park",
            "latitude": 32.7537731,
            "closest_to": "carlsbad"
        },
        "west broadway": {
            "blogLinks": [
                "http://wikitravel.org/en/San_Diego"
            ],
            "address": "West Broadway, Hillcrest, San Diego, San Diego County, California, 92101, United States of America",
            "longitude": -117.167374,
            "locType": "secondary",
            "latitude": 32.7157697,
            "closest_to": "carlsbad"
        },
        "carlsbad boulevard": {
            "blogLinks": [
                "https://www.virtualtourist.com/travel/North_America/United_States_of_America/California/Carlsbad-751547/Nightlife-Carlsbad-TG-C-1.html"
            ],
            "address": "Carlsbad Boulevard, Carlsbad, San Diego County, California, 92008, United States of America",
            "longitude": -117.327437,
            "locType": "secondary",
            "latitude": 33.1220759,
            "closest_to": "carlsbad"
        },
        "little italy": {
            "blogLinks": [
                "http://wikitravel.org/en/San_Diego"
            ],
            "address": "Little Italy, San Diego County, California, United States of America",
            "longitude": -117.1682719,
            "locType": "hamlet",
            "latitude": 32.7234579,
            "closest_to": "carlsbad"
        },
        "coronado": {
            "blogLinks": [
                "http://www.sandiego.org/articles/tours-sightseeing/san-diegos-59-mile-scenic-drive.aspx"
            ],
            "address": "Coronado, San Diego County, California, United States of America",
            "longitude": -117.183089,
            "locType": "city",
            "latitude": 32.6858854,
            "closest_to": "carlsbad"
        },
        "goldfinch street": {
            "blogLinks": [
                "http://www.sandiego.org/articles/tours-sightseeing/san-diegos-59-mile-scenic-drive.aspx"
            ],
            "address": "Goldfinch Street, Hillcrest, San Diego, San Diego County, California, 92103, United States of America",
            "longitude": -117.1713489,
            "locType": "tertiary",
            "latitude": 32.746819,
            "closest_to": "carlsbad"
        },
        "newport avenue": {
            "blogLinks": [
                "http://www.sandiego.org/articles/tours-sightseeing/san-diegos-59-mile-scenic-drive.aspx"
            ],
            "address": "Newport Avenue, Old Town, San Diego, San Diego County, California, 92107, United States of America",
            "longitude": -117.2458648,
            "locType": "secondary",
            "latitude": 32.7436805,
            "closest_to": "carlsbad"
        },
        "park boulevard": {
            "blogLinks": [
                "http://www.sandiego.org/articles/tours-sightseeing/san-diegos-59-mile-scenic-drive.aspx"
            ],
            "address": "Park Boulevard, Hillcrest, San Diego, San Diego County, California, 92101, United States of America",
            "longitude": -117.153819,
            "locType": "secondary",
            "latitude": 32.7169026,
            "closest_to": "carlsbad"
        },
        "mount soledad park": {
            "blogLinks": [
                "http://www.sandiego.org/articles/tours-sightseeing/san-diegos-59-mile-scenic-drive.aspx"
            ],
            "address": "Soledad Park, Soledad Park Road, La Jolla, San Diego, San Diego County, California, 92037, United States of America",
            "longitude": -117.2439254,
            "locType": "park",
            "latitude": 32.8411587,
            "closest_to": "carlsbad"
        },
        "phoenix": {
            "blogLinks": [
                "http://wikitravel.org/en/San_Diego"
            ],
            "address": "Phoenix, Heritage Park Apartments, El Camino Real, Irvine, Orange County, California, 92604, United States of America",
            "longitude": -117.7764481,
            "locType": "residential",
            "latitude": 33.6988015,
            "closest_to": "carlsbad"
        },
        "santa fe depot": {
            "blogLinks": [
                "http://wikitravel.org/en/San_Diego"
            ],
            "address": "Santa Fe Depot, Martin Luther King Promenade, Hillcrest, San Diego, San Diego County, California, 92101, United States of America",
            "longitude": -117.1698167,
            "locType": "station",
            "latitude": 32.7167353,
            "closest_to": "carlsbad"
        },
        "mission boulevard": {
            "blogLinks": [
                "http://www.sandiego.org/articles/tours-sightseeing/san-diegos-59-mile-scenic-drive.aspx"
            ],
            "address": "Mission Boulevard, Pacific Beach, San Diego, San Diego County, California, 92109, United States of America",
            "longitude": -117.2563629,
            "locType": "secondary",
            "latitude": 32.799358,
            "closest_to": "carlsbad"
        },
        "ballast point": {
            "blogLinks": [
                "http://wikitravel.org/en/San_Diego"
            ],
            "address": "Ballast Point, Two Harbors, Los Angeles County, California, United States of America",
            "longitude": -118.5054834,
            "locType": "locality",
            "latitude": 33.4306128,
            "closest_to": "avalon"
        },
        "tamarack avenue": {
            "blogLinks": [
                "http://www.sandiego.org/what-to-do/beaches/carlsbad.aspx"
            ],
            "address": "Tamarack Avenue, Carlsbad, San Diego County, California, 92008, United States of America",
            "longitude": -117.3439479,
            "locType": "secondary",
            "latitude": 33.148373,
            "closest_to": "carlsbad"
        },
        "cannon road": {
            "blogLinks": [
                "http://www.sandiego.org/what-to-do/beaches/carlsbad.aspx"
            ],
            "address": "Cannon Road, Riverside, Riverside County, California, 92506, United States of America",
            "longitude": -117.3369461,
            "locType": "residential",
            "latitude": 33.9225345,
            "closest_to": "carlsbad"
        },
        "la jolla parkway": {
            "blogLinks": [
                "http://www.sandiego.org/articles/tours-sightseeing/san-diegos-59-mile-scenic-drive.aspx"
            ],
            "address": "La Jolla Parkway, La Jolla, San Diego, San Diego County, California, 92037, United States of America",
            "longitude": -117.2361388,
            "locType": "motorway",
            "latitude": 32.8390806,
            "closest_to": "carlsbad"
        },
        "laurel street": {
            "blogLinks": [
                "http://wikitravel.org/en/San_Diego"
            ],
            "address": "Laurel Street, Hillcrest, San Diego, San Diego County, California, 92101, United States of America",
            "longitude": -117.1594735,
            "locType": "secondary",
            "latitude": 32.7313904,
            "closest_to": "carlsbad"
        },
        "san diego central library": {
            "blogLinks": [
                "http://www.sandiego.org/articles/tours-sightseeing/san-diegos-59-mile-scenic-drive.aspx"
            ],
            "address": "San Diego Central Library, 330, Park Boulevard, Hillcrest, San Diego, San Diego County, California, 92101, United States of America",
            "longitude": -117.1542279,
            "locType": "library",
            "latitude": 32.7088,
            "closest_to": "carlsbad"
        },
        "oregon": {
            "blogLinks": [
                "http://wikitravel.org/en/San_Diego"
            ],
            "address": "Oregon, Walnut, Irvine, Orange County, California, 92606, United States of America",
            "longitude": -117.7911567,
            "locType": "residential",
            "latitude": 33.7123207,
            "closest_to": "carlsbad"
        },
        "inland san diego county": {
            "blogLinks": [
                "http://wikitravel.org/en/San_Diego"
            ],
            "address": "Inland Rail Trail, Escondido, San Diego County, California, 92025, United States of America",
            "longitude": -117.0913462,
            "locType": "cycleway",
            "latitude": 33.119939,
            "closest_to": "carlsbad"
        },
        "north park": {
            "blogLinks": [
                "http://wikitravel.org/en/San_Diego"
            ],
            "address": "North Park, San Diego, San Diego County, California, 92104, United States of America",
            "longitude": -117.1305876,
            "locType": "neighbourhood",
            "latitude": 32.7408842,
            "closest_to": "carlsbad"
        },
        "shelter island": {
            "blogLinks": [
                "http://www.sandiego.org/articles/tours-sightseeing/san-diegos-59-mile-scenic-drive.aspx",
                "http://wikitravel.org/en/San_Diego"
            ],
            "address": "Shelter Island, San Diego, San Diego County, California, United States of America",
            "longitude": -117.2300318,
            "locType": "island",
            "latitude": 32.7113133,
            "closest_to": "carlsbad"
        },
        "pacific beach": {
            "blogLinks": [
                "http://www.sandiego.org/articles/tours-sightseeing/san-diegos-59-mile-scenic-drive.aspx",
                "http://wikitravel.org/en/San_Diego"
            ],
            "address": "Pacific Beach, San Diego, San Diego County, California, United States of America",
            "longitude": -117.2403182,
            "locType": "suburb",
            "latitude": 32.7978268,
            "closest_to": "carlsbad"
        },
        "imperial beach": {
            "blogLinks": [
                "http://wikitravel.org/en/San_Diego"
            ],
            "address": "Imperial Beach, San Diego County, California, United States of America",
            "longitude": -117.1130848,
            "locType": "city",
            "latitude": 32.5839444,
            "closest_to": "carlsbad"
        },
        "arista street": {
            "blogLinks": [
                "http://www.sandiego.org/articles/tours-sightseeing/san-diegos-59-mile-scenic-drive.aspx"
            ],
            "address": "Arista Street, Old Town, San Diego, San Diego County, California, 92103, United States of America",
            "longitude": -117.1897859,
            "locType": "residential",
            "latitude": 32.755437,
            "closest_to": "carlsbad"
        },
        "lindbergh": {
            "blogLinks": [
                "http://catalinaislandexplorer.com/how-to-get-to-catalina-island/"
            ],
            "address": "San Diego International Airport, Air Lane, Old Town, San Diego, San Diego County, California, 92101, United States of America",
            "longitude": -117.193463366077,
            "locType": "aerodrome",
            "latitude": 32.73336075,
            "closest_to": "carlsbad"
        },
        "poway": {
            "blogLinks": [
                "http://wikitravel.org/en/San_Diego"
            ],
            "address": "Poway, San Diego County, California, United States of America",
            "longitude": -117.0358645,
            "locType": "city",
            "latitude": 32.9628234,
            "closest_to": "carlsbad"
        },
        "mission san diego": {
            "blogLinks": [
                "http://www.sandiego.org/articles/tours-sightseeing/san-diegos-59-mile-scenic-drive.aspx"
            ],
            "address": "Mission San Diego, Ward Road, City Heights, San Diego, San Diego County, California, 92108, United States of America",
            "longitude": -117.1109827,
            "locType": "station",
            "latitude": 32.7808782,
            "closest_to": "carlsbad"
        },
        "san ysidro blvd": {
            "blogLinks": [
                "http://wikitravel.org/en/San_Diego"
            ],
            "address": "San Ysidro, San Diego, San Diego County, California, United States of America",
            "longitude": -117.0430812,
            "locType": "suburb",
            "latitude": 32.5520013,
            "closest_to": "carlsbad"
        },
        "west mission bay drive": {
            "blogLinks": [
                "http://www.sandiego.org/articles/tours-sightseeing/san-diegos-59-mile-scenic-drive.aspx"
            ],
            "address": "West Mission Bay Drive, Old Town, San Diego, San Diego County, California, 92107, United States of America",
            "longitude": -117.2341419,
            "locType": "trunk",
            "latitude": 32.764275,
            "closest_to": "carlsbad"
        },
        "sassafras street": {
            "blogLinks": [
                "http://wikitravel.org/en/San_Diego"
            ],
            "address": "Sassafras Street, Hillcrest, San Diego, San Diego County, California, 92103, United States of America",
            "longitude": -117.1792479,
            "locType": "secondary",
            "latitude": 32.7353092,
            "closest_to": "carlsbad"
        },
        "mission beach": {
            "blogLinks": [
                "http://www.sandiego.org/articles/tours-sightseeing/san-diegos-59-mile-scenic-drive.aspx",
                "http://wikitravel.org/en/San_Diego"
            ],
            "address": "Mission Beach, San Diego County, California, United States of America",
            "longitude": -117.2525056,
            "locType": "hamlet",
            "latitude": 32.7827144,
            "closest_to": "carlsbad"
        },
        "mcclellan-palomar airport": {
            "blogLinks": [
                "http://wikitravel.org/en/San_Diego"
            ],
            "address": "McClellan-Palomar Airport, Aircraft Road, Carlsbad, San Diego County, California, 92011, United States of America",
            "longitude": -117.281400045984,
            "locType": "aerodrome",
            "latitude": 33.12754605,
            "closest_to": "carlsbad"
        },
        "washington street": {
            "blogLinks": [
                "http://www.sandiego.org/articles/tours-sightseeing/san-diegos-59-mile-scenic-drive.aspx"
            ],
            "address": "Washington Street, Kurtz Street, Hillcrest, San Diego, San Diego County, California, 92103, United States of America",
            "longitude": -117.1842757,
            "locType": "station",
            "latitude": 32.7415883,
            "closest_to": "carlsbad"
        },
        "lindbergh field": {
            "blogLinks": [
                "http://wikitravel.org/en/San_Diego"
            ],
            "address": "San Diego International Airport, Air Lane, Old Town, San Diego, San Diego County, California, 92101, United States of America",
            "longitude": -117.193463366077,
            "locType": "aerodrome",
            "latitude": 32.73336075,
            "closest_to": "carlsbad"
        },
        "el cajon": {
            "blogLinks": [
                "http://wikitravel.org/en/San_Diego"
            ],
            "address": "El Cajon, San Diego County, California, United States of America",
            "longitude": -116.9625268,
            "locType": "city",
            "latitude": 32.7947731,
            "closest_to": "carlsbad"
        },
        "carlsbad blvd": {
            "blogLinks": [
                "http://visitcarlsbad.com/beaches"
            ],
            "address": "Carlsbad Boulevard, Carlsbad, San Diego County, California, 92008, United States of America",
            "longitude": -117.327437,
            "locType": "secondary",
            "latitude": 33.1220759,
            "closest_to": "carlsbad"
        },
        "catalina boulevard": {
            "blogLinks": [
                "http://www.sandiego.org/articles/tours-sightseeing/san-diegos-59-mile-scenic-drive.aspx"
            ],
            "address": "Catalina Boulevard, San Diego, San Diego County, California, 92106, United States of America",
            "longitude": -117.2493992,
            "locType": "secondary",
            "latitude": 32.7079443,
            "closest_to": "carlsbad"
        },
        "solana beach": {
            "blogLinks": [
                "http://wikitravel.org/en/San_Diego"
            ],
            "address": "Solana Beach, San Diego County, California, United States of America",
            "longitude": -117.2691315,
            "locType": "city",
            "latitude": 32.9905597,
            "closest_to": "carlsbad"
        },
        "n. torrey pines rd": {
            "blogLinks": [
                "http://wikitravel.org/en/San_Diego"
            ],
            "address": "North Torrey Pines Road, Del Mar, San Diego, San Diego County, California, 92014, United States of America",
            "longitude": -117.2608353,
            "locType": "primary",
            "latitude": 32.9358252,
            "closest_to": "carlsbad"
        },
        "balboa park-hillcrest": {
            "blogLinks": [
                "http://wikitravel.org/en/San_Diego"
            ],
            "address": "Balboa Park, Plaza de Balboa, North Park, Hillcrest, San Diego, San Diego County, California, 92101, United States of America",
            "longitude": -117.146580648446,
            "locType": "park",
            "latitude": 32.7310521,
            "closest_to": "carlsbad"
        },
        "avalon canyon": {
            "blogLinks": [
                "http://www.visitcatalinaisland.com/blog"
            ],
            "address": "Avalon, Lower Peters Canyon, Irvine, Orange County, California, 92602, United States of America",
            "longitude": -117.7751725,
            "locType": "residential",
            "latitude": 33.7182832,
            "closest_to": "carlsbad"
        },
        "viejas arena": {
            "blogLinks": [
                "http://wikitravel.org/en/San_Diego"
            ],
            "address": "Viejas Arena, Aztec Walk, San Diego, San Diego County, California, 92182, United States of America",
            "longitude": -117.074548235413,
            "locType": "sports_centre",
            "latitude": 32.77380925,
            "closest_to": "carlsbad"
        },
        "lemon grove": {
            "blogLinks": [
                "http://wikitravel.org/en/San_Diego"
            ],
            "address": "Lemon Grove, San Diego County, California, United States of America",
            "longitude": -117.0314171,
            "locType": "city",
            "latitude": 32.7425516,
            "closest_to": "carlsbad"
        },
        "anaheim": {
            "blogLinks": [
                "http://wikitravel.org/en/San_Diego"
            ],
            "address": "Anaheim, Orange County, California, United States of America",
            "longitude": -117.9117319,
            "locType": "city",
            "latitude": 33.8347516,
            "closest_to": "carlsbad"
        },
        "temecula wine country": {
            "blogLinks": [
                "http://wikitravel.org/en/San_Diego"
            ],
            "address": "Temecula Valley Wine Country, Valle de los Caballos, Riverside County, California, United States of America",
            "longitude": -117.0334856,
            "locType": "suburb",
            "latitude": 33.5334975,
            "closest_to": "carlsbad"
        },
        "la jolla shores": {
            "blogLinks": [
                "http://wikitravel.org/en/San_Diego"
            ],
            "address": "La Jolla Shores, San Diego County, California, United States of America",
            "longitude": -117.2536478,
            "locType": "hamlet",
            "latitude": 32.8556028,
            "closest_to": "carlsbad"
        },
        "escondido": {
            "blogLinks": [
                "http://wikitravel.org/en/San_Diego"
            ],
            "address": "Escondido, San Diego County, California, United States of America",
            "longitude": -117.0814848,
            "locType": "city",
            "latitude": 33.1216751,
            "closest_to": "carlsbad"
        },
        "point loma": {
            "blogLinks": [
                "http://wikitravel.org/en/San_Diego"
            ],
            "address": "Point Loma, Laguna Niguel, Orange County, California, 92677, United States of America",
            "longitude": -117.717867,
            "locType": "residential",
            "latitude": 33.5466403,
            "closest_to": "carlsbad"
        },
        "san diego": {
            "blogLinks": [
                "http://catalinaislandexplorer.com/how-to-get-to-catalina-island/",
                "https://www.virtualtourist.com/travel/North_America/United_States_of_America/California/Carlsbad-751547/Nightlife-Carlsbad-TG-C-1.html",
                "http://www.sandiego.org/articles/tours-sightseeing/san-diegos-59-mile-scenic-drive.aspx",
                "http://www.distancesfrom.com/us/travel-from-Carlsbad-to-Avalon/TravelFromHistory/27987097.aspx",
                "http://www.sandiego.org/what-to-do/beaches/carlsbad.aspx",
                "http://wikitravel.org/en/San_Diego",
                "http://karolinapatryk.com/karlovy-vary-travel-guide/",
                "https://www.yelp.com.au/biz/avalon-laser-carlsbad?page_src=related_bizes"
            ],
            "address": "San Diego, San Diego County, California, United States of America",
            "longitude": -117.1627713,
            "locType": "city",
            "latitude": 32.7174209,
            "closest_to": "carlsbad"
        },
        "descanso beach": {
            "blogLinks": [
                "http://www.visitcatalinaisland.com/blog"
            ],
            "address": "Descanso Beach, Saint Catherine Way, Avalon, Los Angeles County, California, 90704, United States of America",
            "longitude": -118.328521193855,
            "locType": "beach",
            "latitude": 33.35087,
            "closest_to": "avalon"
        },
        "orange county": {
            "blogLinks": [
                "http://catalinaislandexplorer.com/how-to-get-to-catalina-island/",
                "http://wikitravel.org/en/San_Diego"
            ],
            "address": "Orange County, California, United States of America",
            "longitude": -117.870493,
            "locType": "administrative",
            "latitude": 33.7500378,
            "closest_to": "carlsbad"
        },
        "san ysidro": {
            "blogLinks": [
                "http://wikitravel.org/en/San_Diego"
            ],
            "address": "San Ysidro, San Diego, San Diego County, California, United States of America",
            "longitude": -117.0430812,
            "locType": "suburb",
            "latitude": 32.5520013,
            "closest_to": "carlsbad"
        },
        "taylor street": {
            "blogLinks": [
                "http://www.sandiego.org/articles/tours-sightseeing/san-diegos-59-mile-scenic-drive.aspx"
            ],
            "address": "Taylor Street, North Long Beach, Long Beach, Los Angeles County, California, 90805, United States of America",
            "longitude": -118.2071834,
            "locType": "residential",
            "latitude": 33.8797864,
            "closest_to": "avalon"
        },
        "wilmington": {
            "blogLinks": [
                "http://www.visitcatalinaisland.com/blog"
            ],
            "address": "Wilmington, LA, Los Angeles County, California, United States of America",
            "longitude": -118.262571,
            "locType": "suburb",
            "latitude": 33.780018,
            "closest_to": "avalon"
        },
        "baja mexico": {
            "blogLinks": [
                "http://wikitravel.org/en/San_Diego"
            ],
            "address": "Instituto Mexico de Baja California, Avenida Las Palmas, Tijuana, Baja California, 22106, M\u00e9xico",
            "longitude": -116.9866449,
            "locType": "school",
            "latitude": 32.499412,
            "closest_to": "carlsbad"
        },
        "scott street": {
            "blogLinks": [
                "http://www.sandiego.org/articles/tours-sightseeing/san-diegos-59-mile-scenic-drive.aspx"
            ],
            "address": "Scott Street, Old Town, San Diego, San Diego County, California, 92106, United States of America",
            "longitude": -117.2289215,
            "locType": "residential",
            "latitude": 32.7231672,
            "closest_to": "carlsbad"
        },
        "catalina island museum": {
            "blogLinks": [
                "http://www.visitcatalinaisland.com/blog"
            ],
            "address": "Catalina Island Museum, 1, Casino Way, Avalon, Los Angeles County, California, 90704, United States of America",
            "longitude": -118.3257254,
            "locType": "museum",
            "latitude": 33.3487561,
            "closest_to": "avalon"
        },
        "palomar airport road": {
            "blogLinks": [
                "http://wikitravel.org/en/San_Diego"
            ],
            "address": "Palomar Airport Road, Carlsbad, San Diego County, California, 92009, United States of America",
            "longitude": -117.2418974,
            "locType": "primary",
            "latitude": 33.1291437,
            "closest_to": "carlsbad"
        },
        "hill street": {
            "blogLinks": [
                "http://www.sandiego.org/articles/tours-sightseeing/san-diegos-59-mile-scenic-drive.aspx"
            ],
            "address": "Hill Street, San Diego, San Diego County, California, 92107, United States of America",
            "longitude": -117.2519229,
            "locType": "residential",
            "latitude": 32.724964,
            "closest_to": "carlsbad"
        },
        "catalina": {
            "blogLinks": [
                "http://www.visitcatalinaisland.com/blog",
                "http://www.sandiego.org/articles/tours-sightseeing/san-diegos-59-mile-scenic-drive.aspx",
                "http://catalinaislandexplorer.com/how-to-get-to-catalina-island/"
            ],
            "address": "Catalina, Anaheim Resort District, Anaheim, Orange County, California, 217, United States of America",
            "longitude": -117.920102663284,
            "locType": "forest",
            "latitude": 33.810513,
            "closest_to": "carlsbad"
        },
        "wrigley memorial": {
            "blogLinks": [
                "http://www.visitcatalinaisland.com/blog"
            ],
            "address": "Wrigley Memorial, Avalon Canyon Road, Avalon, Los Angeles County, California, 90704, United States of America",
            "longitude": -118.342036773792,
            "locType": "yes",
            "latitude": 33.3234965,
            "closest_to": "avalon"
        },
        "santa catalina island": {
            "blogLinks": [
                "http://www.visitcatalinaisland.com/blog"
            ],
            "address": "Santa Catalina Island, Los Angeles County, California, United States of America",
            "longitude": -118.424154004558,
            "locType": "island",
            "latitude": 33.3890232,
            "closest_to": "avalon"
        },
        "legoland california": {
            "blogLinks": [
                "http://wikitravel.org/en/San_Diego"
            ],
            "address": "Legoland California, 1, LEGOLAND drive, Carlsbad, San Diego County, California, 92008, United States of America",
            "longitude": -117.311664211922,
            "locType": "theme_park",
            "latitude": 33.1278683,
            "closest_to": "carlsbad"
        },
        "kettner blvd": {
            "blogLinks": [
                "http://wikitravel.org/en/San_Diego"
            ],
            "address": "Kettner Boulevard, Hillcrest, San Diego, San Diego County, California, 92101, United States of America",
            "longitude": -117.1698529,
            "locType": "secondary",
            "latitude": 32.725143,
            "closest_to": "carlsbad"
        },
        "boston": {
            "blogLinks": [
                "http://www.visitcatalinaisland.com/blog"
            ],
            "address": "Boston, Heritage Park Apartments, El Camino Real, Irvine, Orange County, California, 92604, United States of America",
            "longitude": -117.7757132,
            "locType": "residential",
            "latitude": 33.696779,
            "closest_to": "carlsbad"
        },
        "los angeles": {
            "blogLinks": [
                "http://www.visitcatalinaisland.com/blog",
                "http://catalinaislandexplorer.com/how-to-get-to-catalina-island/",
                "http://wikitravel.org/en/San_Diego"
            ],
            "address": "LA, Los Angeles County, California, United States of America",
            "longitude": -118.2439408,
            "locType": "city",
            "latitude": 34.0543942,
            "closest_to": "avalon"
        },
        "mission beach-pacific beach": {
            "blogLinks": [
                "http://wikitravel.org/en/San_Diego"
            ],
            "address": "The Mission, 3795, Mission Boulevard, Pacific Beach, San Diego, San Diego County, California, 92109, United States of America",
            "longitude": -117.2527558,
            "locType": "cafe",
            "latitude": 32.7846357,
            "closest_to": "carlsbad"
        },
        "morena blvd": {
            "blogLinks": [
                "http://wikitravel.org/en/San_Diego"
            ],
            "address": "Morena Boulevard, Pacific Beach, San Diego, San Diego County, California, 92110, United States of America",
            "longitude": -117.2209089,
            "locType": "secondary",
            "latitude": 32.816795,
            "closest_to": "carlsbad"
        },
        "pebbly beach": {
            "blogLinks": [
                "http://catalinaislandexplorer.com/how-to-get-to-catalina-island/"
            ],
            "address": "Pebbly Beach, Los Angeles County, California, United States of America",
            "longitude": -118.3117079,
            "locType": "village",
            "latitude": 33.3349066,
            "closest_to": "carlsbad"
        },
        "san diego zoo safari park": {
            "blogLinks": [
                "http://www.sandiego.org/articles/tours-sightseeing/san-diegos-59-mile-scenic-drive.aspx",
                "http://wikitravel.org/en/San_Diego"
            ],
            "address": "San Diego Zoo Safari Park, 15500, San Pasqual Valley Road, San Diego, San Diego County, California, 92025, United States of America",
            "longitude": -116.995039439834,
            "locType": "zoo",
            "latitude": 33.096694,
            "closest_to": "carlsbad"
        },
        "mekong": {
            "blogLinks": [
                "http://blog.avalonwaterways.com/2014/12/18/best-places-travel-2015/"
            ],
            "address": "Mekong Street, Valle Vista, Riverside County, California, 92554, United States of America",
            "longitude": -116.8971092,
            "locType": "residential",
            "latitude": 33.7586693,
            "closest_to": "carlsbad"
        },
        "north harbor drive": {
            "blogLinks": [
                "http://www.sandiego.org/articles/tours-sightseeing/san-diegos-59-mile-scenic-drive.aspx"
            ],
            "address": "North Harbor Drive, Hillcrest, San Diego, San Diego County, California, 92106, United States of America",
            "longitude": -117.1726983,
            "locType": "primary",
            "latitude": 32.7118038,
            "closest_to": "carlsbad"
        },
        "prospect street": {
            "blogLinks": [
                "http://www.sandiego.org/articles/tours-sightseeing/san-diegos-59-mile-scenic-drive.aspx"
            ],
            "address": "Prospect Street, La Jolla, San Diego, San Diego County, California, 92037, United States of America",
            "longitude": -117.2741032,
            "locType": "secondary",
            "latitude": 32.8478832,
            "closest_to": "carlsbad"
        },
        "alberta": {
            "blogLinks": [
                "http://wikitravel.org/en/San_Diego"
            ],
            "address": "Alberta, Aliso Viejo, Orange County, California, 92656, United States of America",
            "longitude": -117.7344716,
            "locType": "residential",
            "latitude": 33.5736346,
            "closest_to": "carlsbad"
        },
        "town-mission valley": {
            "blogLinks": [
                "http://wikitravel.org/en/San_Diego"
            ],
            "address": "Old Town San Diego State Historic Park, Twiggs Street, Old Town, San Diego, San Diego County, California, 92110, United States of America",
            "longitude": -117.194891467408,
            "locType": "park",
            "latitude": 32.7537731,
            "closest_to": "carlsbad"
        },
        "palomar mountain": {
            "blogLinks": [
                "http://wikitravel.org/en/San_Diego"
            ],
            "address": "Palomar Mountain, San Diego County, California, United States of America",
            "longitude": -116.8786358,
            "locType": "hamlet",
            "latitude": 33.3228128,
            "closest_to": "carlsbad"
        },
        "oceanside": {
            "blogLinks": [
                "https://www.virtualtourist.com/travel/North_America/United_States_of_America/California/Carlsbad-751547/Nightlife-Carlsbad-TG-C-1.html",
                "http://wikitravel.org/en/San_Diego"
            ],
            "address": "Oceanside, San Diego County, California, United States of America",
            "longitude": -117.3794833,
            "locType": "city",
            "latitude": 33.1958696,
            "closest_to": "carlsbad"
        },
        "san pedro": {
            "blogLinks": [
                "http://www.visitcatalinaisland.com/blog",
                "http://catalinaislandexplorer.com/how-to-get-to-catalina-island/"
            ],
            "address": "San Pedro, LA, Los Angeles County, California, United States of America",
            "longitude": -118.2922933,
            "locType": "suburb",
            "latitude": 33.7358518,
            "closest_to": "avalon"
        },
        "coast highway 101": {
            "blogLinks": [
                "http://www.sandiego.org/what-to-do/beaches/carlsbad.aspx"
            ],
            "address": "Pacific Coast Highway, Huntington Beach, Orange County, California, 92648, United States of America",
            "longitude": -118.0333633,
            "locType": "primary",
            "latitude": 33.6810673,
            "closest_to": "carlsbad"
        },
        "canada": {
            "blogLinks": [
                "http://wikitravel.org/en/San_Diego"
            ],
            "address": "La Canada, Lower Peters Canyon, Irvine, Orange County, California, 92602, United States of America",
            "longitude": -117.7641381,
            "locType": "residential",
            "latitude": 33.7298842,
            "closest_to": "carlsbad"
        },
        "pasadena": {
            "blogLinks": [
                "http://www.visitcatalinaisland.com/blog"
            ],
            "address": "Pasadena, Los Angeles County, California, United States of America",
            "longitude": -118.1444778,
            "locType": "city",
            "latitude": 34.1476452,
            "closest_to": "avalon"
        },
        "canyon crest drive": {
            "blogLinks": [
                "http://wikitravel.org/en/San_Diego"
            ],
            "address": "Canyon Crest Drive, Riverside, Riverside County, California, 92521, United States of America",
            "longitude": -117.3300787,
            "locType": "primary",
            "latitude": 33.9575498,
            "closest_to": "carlsbad"
        },
        "tijuana": {
            "blogLinks": [
                "http://wikitravel.org/en/San_Diego"
            ],
            "address": "Tijuana, Baja California, M\u00e9xico",
            "longitude": -116.9641656,
            "locType": "city",
            "latitude": 32.5008626,
            "closest_to": "carlsbad"
        },
        "mountain road": {
            "blogLinks": [
                "http://www.sandiego.org/articles/tours-sightseeing/san-diegos-59-mile-scenic-drive.aspx"
            ],
            "address": "Mountain Road, Anaheim Resort District, Anaheim, Orange County, California, 92802, United States of America",
            "longitude": -117.9208871,
            "locType": "pedestrian",
            "latitude": 33.8076363,
            "closest_to": "carlsbad"
        },
        "newport beach": {
            "blogLinks": [
                "http://catalinaislandexplorer.com/how-to-get-to-catalina-island/"
            ],
            "address": "Newport Beach, Orange County, California, United States of America",
            "longitude": -117.92944,
            "locType": "city",
            "latitude": 33.6170092,
            "closest_to": "carlsbad"
        },
        "taos": {
            "blogLinks": [
                "http://www.tripleblaze.com/best/?c=86"
            ],
            "address": "Taos, Dove Canyon, Rancho Santa Margarita, Orange County, California, 92688, United States of America",
            "longitude": -117.5939108,
            "locType": "residential",
            "latitude": 33.6334329,
            "closest_to": "carlsbad"
        },
        "pacific coast highway": {
            "blogLinks": [
                "http://www.sandiego.org/what-to-do/beaches/carlsbad.aspx",
                "https://www.virtualtourist.com/travel/North_America/United_States_of_America/California/Carlsbad-751547/Nightlife-Carlsbad-TG-C-1.html",
                "http://wikitravel.org/en/San_Diego"
            ],
            "address": "Pacific Coast Highway, Huntington Beach, Orange County, California, 92648, United States of America",
            "longitude": -118.0051687,
            "locType": "primary",
            "latitude": 33.6595127,
            "closest_to": "carlsbad"
        },
        "scottsdale": {
            "blogLinks": [
                "http://wikitravel.org/en/San_Diego"
            ],
            "address": "Scottsdale Townhouse Association Maintenance Storage Area, Keystone, Carson, Los Angeles County, California, 90745, United States of America",
            "longitude": -118.262579480198,
            "locType": "residential",
            "latitude": 33.81271835,
            "closest_to": "avalon"
        },
        "sports arena boulevard": {
            "blogLinks": [
                "http://www.sandiego.org/articles/tours-sightseeing/san-diegos-59-mile-scenic-drive.aspx"
            ],
            "address": "Sports Arena Boulevard, Old Town, San Diego, San Diego County, California, 92110, United States of America",
            "longitude": -117.2200137,
            "locType": "primary",
            "latitude": 32.7550644,
            "closest_to": "carlsbad"
        },
        "catalina casino": {
            "blogLinks": [
                "http://www.visitcatalinaisland.com/blog"
            ],
            "address": "Catalina Casino, 1, Casino Way, Avalon, Los Angeles County, California, 90704, United States of America",
            "longitude": -118.325755127421,
            "locType": "attraction",
            "latitude": 33.34888805,
            "closest_to": "avalon"
        },
        "encinitas": {
            "blogLinks": [
                "http://wikitravel.org/en/San_Diego"
            ],
            "address": "Encinitas, San Diego County, California, United States of America",
            "longitude": -117.2919817,
            "locType": "city",
            "latitude": 33.0369867,
            "closest_to": "carlsbad"
        },
        "torrey pines": {
            "blogLinks": [
                "http://wikitravel.org/en/San_Diego"
            ],
            "address": "Torrey Pines, Coto de Caza, Orange County, California, 92679, United States of America",
            "longitude": -117.5806448,
            "locType": "residential",
            "latitude": 33.6004207,
            "closest_to": "carlsbad"
        },
        "seaport village": {
            "blogLinks": [
                "http://www.sandiego.org/articles/tours-sightseeing/san-diegos-59-mile-scenic-drive.aspx"
            ],
            "address": "Seaport Village, Hillcrest, San Diego, San Diego County, California, 92101, United States of America",
            "longitude": -117.170488716601,
            "locType": "retail",
            "latitude": 32.7089976,
            "closest_to": "carlsbad"
        },
        "old town transit center": {
            "blogLinks": [
                "http://wikitravel.org/en/San_Diego"
            ],
            "address": "Old Town Transit Center, Congress Street, Old Town, San Diego, San Diego County, California, 92110, United States of America",
            "longitude": -117.1994928,
            "locType": "station",
            "latitude": 32.7548849,
            "closest_to": "carlsbad"
        },
        "tamarack beach": {
            "blogLinks": [
                "http://visitcarlsbad.com/beaches"
            ],
            "address": "Tamarack Beach, Carlsbad Boulevard, Carlsbad, San Diego County, California, 92008, United States of America",
            "longitude": -117.348550722652,
            "locType": "beach",
            "latitude": 33.15106155,
            "closest_to": "carlsbad"
        },
        "camp pendleton": {
            "blogLinks": [
                "http://wikitravel.org/en/San_Diego"
            ],
            "address": "Camp Pendleton Boat Basin, San Diego County, California, United States of America",
            "longitude": -117.4000394,
            "locType": "dock",
            "latitude": 33.2167022,
            "closest_to": "carlsbad"
        },
        "san clemente": {
            "blogLinks": [
                "http://wikitravel.org/en/San_Diego",
                "https://www.yelp.com.au/biz/avalon-laser-carlsbad?page_src=related_bizes"
            ],
            "address": "San Clemente, Orange County, California, United States of America",
            "longitude": -117.6124178,
            "locType": "city",
            "latitude": 33.4270275,
            "closest_to": "carlsbad"
        },
        "carlsbad": {
            "blogLinks": [
                "http://www.distancesfrom.com/us/how-far-is-Avalon-from-Carlsbad/HowFarHistory/27987097.aspx",
                "http://visitcarlsbad.com/beaches",
                "https://www.virtualtourist.com/travel/North_America/United_States_of_America/California/Carlsbad-751547/Nightlife-Carlsbad-TG-C-1.html",
                "http://www.distancesfrom.com/us/Carlsbad-to-Avalon-Route/RouteplannerHistory/27987097.aspx",
                "http://www.distancesfrom.com/us/travel-from-Carlsbad-to-Avalon/TravelFromHistory/27987097.aspx",
                "http://www.tripleblaze.com/best/?c=86",
                "http://www.sandiego.org/what-to-do/beaches/carlsbad.aspx",
                "http://wikitravel.org/en/San_Diego",
                "http://karolinapatryk.com/karlovy-vary-travel-guide/",
                "https://www.tripadvisor.com/Attractions-g32171-Activities-Carlsbad_California.html",
                "http://visitcarlsbad.com/",
                "http://blog.avalonwaterways.com/2014/12/18/best-places-travel-2015/",
                "https://www.yelp.com.au/biz/avalon-laser-carlsbad?page_src=related_bizes"
            ],
            "address": "Carlsbad, San Diego County, California, United States of America",
            "longitude": -117.3505938,
            "locType": "city",
            "latitude": 33.1580933,
            "closest_to": "carlsbad"
        },
        "naval air station": {
            "blogLinks": [
                "http://wikitravel.org/en/San_Diego"
            ],
            "address": "Naval Air Station North Island, F West Road, Coronado, San Diego County, California, 92135, United States of America",
            "longitude": -117.2043364,
            "locType": "military",
            "latitude": 32.701613,
            "closest_to": "carlsbad"
        },
        "soledad road": {
            "blogLinks": [
                "http://www.sandiego.org/articles/tours-sightseeing/san-diegos-59-mile-scenic-drive.aspx"
            ],
            "address": "Soledad Road, Pacific Beach, San Diego, San Diego County, California, 92037, United States of America",
            "longitude": -117.2413859,
            "locType": "tertiary",
            "latitude": 32.818256,
            "closest_to": "carlsbad"
        },
        "san diego international airport": {
            "blogLinks": [
                "http://wikitravel.org/en/San_Diego"
            ],
            "address": "San Diego International Airport, Air Lane, Old Town, San Diego, San Diego County, California, 92101, United States of America",
            "longitude": -117.193463366077,
            "locType": "aerodrome",
            "latitude": 32.73336075,
            "closest_to": "carlsbad"
        },
        "hidden valley road": {
            "blogLinks": [
                "http://www.sandiego.org/articles/tours-sightseeing/san-diegos-59-mile-scenic-drive.aspx"
            ],
            "address": "Hidden Valley Road, Hidden Valley Estates, Valley Village, LA, Los Angeles County, California, 90210, United States of America",
            "longitude": -118.4026282,
            "locType": "residential",
            "latitude": 34.1217136,
            "closest_to": "avalon"
        },
        "lethbridge": {
            "blogLinks": [
                "http://wikitravel.org/en/San_Diego"
            ],
            "address": "Lethbridge Way, San Diego, San Diego County, California, 92129, United States of America",
            "longitude": -117.1296619,
            "locType": "residential",
            "latitude": 32.971272,
            "closest_to": "carlsbad"
        },
        "la mesa": {
            "blogLinks": [
                "http://wikitravel.org/en/San_Diego"
            ],
            "address": "La Mesa, San Diego County, California, United States of America",
            "longitude": -117.0230838,
            "locType": "city",
            "latitude": 32.7678288,
            "closest_to": "carlsbad"
        },
        "carlsbad village drive": {
            "blogLinks": [
                "http://www.sandiego.org/what-to-do/beaches/carlsbad.aspx",
                "https://www.virtualtourist.com/travel/North_America/United_States_of_America/California/Carlsbad-751547/Nightlife-Carlsbad-TG-C-1.html"
            ],
            "address": "Carlsbad Village Drive, Carlsbad, San Diego County, California, 92008, United States of America",
            "longitude": -117.3353809,
            "locType": "secondary",
            "latitude": 33.167503,
            "closest_to": "carlsbad"
        },
        "gaslamp quarter": {
            "blogLinks": [
                "http://www.sandiego.org/articles/tours-sightseeing/san-diegos-59-mile-scenic-drive.aspx",
                "http://wikitravel.org/en/San_Diego"
            ],
            "address": "Gaslamp Quarter, San Diego County, California, United States of America",
            "longitude": -117.1597028,
            "locType": "hamlet",
            "latitude": 32.7109444,
            "closest_to": "carlsbad"
        },
        "' ocean": {
            "blogLinks": [
                "http://www.sandiego.org/articles/tours-sightseeing/san-diegos-59-mile-scenic-drive.aspx"
            ],
            "address": "Ocean, Hawthorne, Los Angeles County, California, 90261, United States of America",
            "longitude": -118.3763704,
            "locType": "residential",
            "latitude": 33.9157306,
            "closest_to": "avalon"
        },
        "torrey": {
            "blogLinks": [
                "http://www.sandiego.org/articles/tours-sightseeing/san-diegos-59-mile-scenic-drive.aspx"
            ],
            "address": "Torrey Pines High School, Del Mar Heights Road, Del Mar, San Diego, San Diego County, California, 92130, United States of America",
            "longitude": -117.224896678294,
            "locType": "school",
            "latitude": 32.9573985,
            "closest_to": "carlsbad"
        },
        "mission trails regional park": {
            "blogLinks": [
                "http://wikitravel.org/en/San_Diego"
            ],
            "address": "Mission Trails Regional Park, Lake Shore Drive, San Diego, San Diego County, California, 91942:92119, United States of America",
            "longitude": -117.0366957,
            "locType": "park",
            "latitude": 32.7958834,
            "closest_to": "carlsbad"
        },
        "presidio drive": {
            "blogLinks": [
                "http://www.sandiego.org/articles/tours-sightseeing/san-diegos-59-mile-scenic-drive.aspx"
            ],
            "address": "Presidio Drive, Old Town, San Diego, San Diego County, California, 92103, United States of America",
            "longitude": -117.1960775,
            "locType": "residential",
            "latitude": 32.7587998,
            "closest_to": "carlsbad"
        },
        "avalon harbor": {
            "blogLinks": [
                "http://www.visitcatalinaisland.com/blog"
            ],
            "address": "Drum Barracks, Cary Avenue, Wilmington, LA, Los Angeles County, California, 90744, United States of America",
            "longitude": -118.2573756,
            "locType": "memorial",
            "latitude": 33.7845434,
            "closest_to": "avalon"
        },
        "catalina island": {
            "blogLinks": [
                "http://www.visitcatalinaisland.com/blog",
                "http://catalinaislandexplorer.com/how-to-get-to-catalina-island/"
            ],
            "address": "Santa Catalina Island, Los Angeles County, California, United States of America",
            "longitude": -118.424154004558,
            "locType": "island",
            "latitude": 33.3890232,
            "closest_to": "avalon"
        },
        "avalon bay": {
            "blogLinks": [
                "http://www.visitcatalinaisland.com/blog"
            ],
            "address": "Avalon Bay, Crescent Avenue, Avalon, Los Angeles County, California, 90704, United States of America",
            "longitude": -118.3242393,
            "locType": "bay",
            "latitude": 33.3455843,
            "closest_to": "carlsbad"
        },
        "' ocean beach": {
            "blogLinks": [
                "http://www.sandiego.org/articles/tours-sightseeing/san-diegos-59-mile-scenic-drive.aspx",
                "http://wikitravel.org/en/San_Diego"
            ],
            "address": "Ocean Beach, San Diego, San Diego County, California, United States of America",
            "longitude": -117.249321,
            "locType": "region",
            "latitude": 32.7477784,
            "closest_to": "carlsbad"
        },
        "rock spring": {
            "blogLinks": [
                "http://karolinapatryk.com/karlovy-vary-travel-guide/"
            ],
            "address": "Rock Spring, El Camino Real, Irvine, Orange County, California, 92604, United States of America",
            "longitude": -117.7884599,
            "locType": "residential",
            "latitude": 33.6940465,
            "closest_to": "carlsbad"
        },
        "san diego bay": {
            "blogLinks": [
                "http://www.sandiego.org/articles/tours-sightseeing/san-diegos-59-mile-scenic-drive.aspx",
                "http://wikitravel.org/en/San_Diego"
            ],
            "address": "San Diego Bay, Leyte Road, Crown Island, Coronado, San Diego County, California, 92118, United States of America",
            "longitude": -117.1341977,
            "locType": "bay",
            "latitude": 32.6500534,
            "closest_to": "carlsbad"
        },
        "south carlsbad state beach": {
            "blogLinks": [
                "http://www.sandiego.org/what-to-do/beaches/carlsbad.aspx"
            ],
            "address": "South Carlsbad State Beach, Carlsbad Boulevard, Carlsbad, San Diego County, California, 92008, United States of America",
            "longitude": -117.311268255243,
            "locType": "national_park",
            "latitude": 33.08375185,
            "closest_to": "carlsbad"
        },
        "new orleans": {
            "blogLinks": [
                "http://www.visitcatalinaisland.com/blog"
            ],
            "address": "New Orleans Square, Anaheim, Orange County, California, United States of America",
            "longitude": -117.9206364,
            "locType": "locality",
            "latitude": 33.8116219,
            "closest_to": "carlsbad"
        },
        "torrey pines state beach": {
            "blogLinks": [
                "http://wikitravel.org/en/San_Diego"
            ],
            "address": "Torrey Pines State Beach, Yucca Point Trail, Del Mar, San Diego, San Diego County, California, 92121, United States of America",
            "longitude": -117.259044437013,
            "locType": "beach",
            "latitude": 32.91754945,
            "closest_to": "carlsbad"
        },
        "ingraham street": {
            "blogLinks": [
                "http://www.sandiego.org/articles/tours-sightseeing/san-diegos-59-mile-scenic-drive.aspx"
            ],
            "address": "Ingraham Street, Pacific Beach, San Diego, San Diego County, California, 92109, United States of America",
            "longitude": -117.2334356,
            "locType": "primary",
            "latitude": 32.7672782,
            "closest_to": "carlsbad"
        },
        "esmeralda": {
            "blogLinks": [
                "http://wikitravel.org/en/San_Diego"
            ],
            "address": "Esmeralda Street, Rose Hill, Highland Park, LA, Los Angeles County, California, 90032, United States of America",
            "longitude": -118.1939061,
            "locType": "residential",
            "latitude": 34.0829329,
            "closest_to": "avalon"
        },
        "hillcrest": {
            "blogLinks": [
                "http://wikitravel.org/en/San_Diego"
            ],
            "address": "Hillcrest, San Diego, San Diego County, California, United States of America",
            "longitude": -117.1609795,
            "locType": "suburb",
            "latitude": 32.7483621,
            "closest_to": "carlsbad"
        },
        "balboa park | balboa park-hillcrest": {
            "blogLinks": [
                "http://wikitravel.org/en/San_Diego"
            ],
            "address": "Balboa Park, Plaza de Balboa, North Park, Hillcrest, San Diego, San Diego County, California, 92101, United States of America",
            "longitude": -117.146580648446,
            "locType": "park",
            "latitude": 32.7310521,
            "closest_to": "carlsbad"
        },
        "west inn carlsbad": {
            "blogLinks": [
                "https://www.virtualtourist.com/travel/North_America/United_States_of_America/California/Carlsbad-751547/Nightlife-Carlsbad-TG-C-1.html"
            ],
            "address": "Carlsbad Inn Beach Resort, Ocean Street, Carlsbad, San Diego County, California, 92008, United States of America",
            "longitude": -117.3515953,
            "locType": "hotel",
            "latitude": 33.1570851,
            "closest_to": "carlsbad"
        },
        "tokyo": {
            "blogLinks": [
                "http://wikitravel.org/en/San_Diego"
            ],
            "address": "Southern California Institute of Architecture, 960, East 3rd Street, Arts District, Little Tokyo Historic District, LA, Los Angeles County, California, 90013, United States of America",
            "longitude": -118.2328066,
            "locType": "school",
            "latitude": 34.0431787,
            "closest_to": "avalon"
        },
        "santa ana": {
            "blogLinks": [
                "http://wikitravel.org/en/San_Diego"
            ],
            "address": "Santa Ana, Orange County, California, United States of America",
            "longitude": -117.8732212,
            "locType": "city",
            "latitude": 33.7494951,
            "closest_to": "carlsbad"
        },
        "long beach airport": {
            "blogLinks": [
                "http://catalinaislandexplorer.com/how-to-get-to-catalina-island/"
            ],
            "address": "Long Beach Airport (LGB), Globemaster Avenue, California Heights, Long Beach, Los Angeles County, California, 90712:90807, United States of America",
            "longitude": -118.153407224598,
            "locType": "aerodrome",
            "latitude": 33.81682825,
            "closest_to": "avalon"
        },
        "serra museum": {
            "blogLinks": [
                "http://www.sandiego.org/articles/tours-sightseeing/san-diegos-59-mile-scenic-drive.aspx"
            ],
            "address": "Juniper Serra Museum, Presidio Drive, Old Town, San Diego, San Diego County, California, 92103, United States of America",
            "longitude": -117.1939236,
            "locType": "museum",
            "latitude": 32.7592166,
            "closest_to": "carlsbad"
        },
        "cuyamaca rancho state park": {
            "blogLinks": [
                "http://wikitravel.org/en/San_Diego"
            ],
            "address": "Cuyamaca Rancho State Park, Highway 79, Guatay, San Diego County, California, 92036, United States of America",
            "longitude": -116.591579345466,
            "locType": "park",
            "latitude": 32.86396725,
            "closest_to": "carlsbad"
        },
        "north torrey pines road": {
            "blogLinks": [
                "http://www.sandiego.org/articles/tours-sightseeing/san-diegos-59-mile-scenic-drive.aspx"
            ],
            "address": "North Torrey Pines Road, Del Mar, San Diego, San Diego County, California, 92014, United States of America",
            "longitude": -117.2608353,
            "locType": "primary",
            "latitude": 32.9358252,
            "closest_to": "carlsbad"
        },
        "san diego airport": {
            "blogLinks": [
                "http://wikitravel.org/en/San_Diego"
            ],
            "address": "California Bank & Trust, 2501, Palomar Airport Road, Carlsbad, San Diego County, California, 92011, United States of America",
            "longitude": -117.270809764613,
            "locType": "bank",
            "latitude": 33.1278146,
            "closest_to": "carlsbad"
        },
        "mekong river": {
            "blogLinks": [
                "http://blog.avalonwaterways.com/2014/12/18/best-places-travel-2015/"
            ],
            "address": "Mekong Street, Valle Vista, Riverside County, California, 92554, United States of America",
            "longitude": -116.8971092,
            "locType": "residential",
            "latitude": 33.7586693,
            "closest_to": "carlsbad"
        },
        "clairemont mesa": {
            "blogLinks": [
                "http://wikitravel.org/en/San_Diego"
            ],
            "address": "Clairemont Mesa Boulevard, Pacific Beach, San Diego, San Diego County, California, 92117, United States of America",
            "longitude": -117.215436,
            "locType": "secondary",
            "latitude": 32.8302448,
            "closest_to": "carlsbad"
        },
        "marina del rey": {
            "blogLinks": [
                "http://catalinaislandexplorer.com/how-to-get-to-catalina-island/"
            ],
            "address": "Marina del Rey, Ocean Park, Los Angeles County, California, United States of America",
            "longitude": -118.4508017,
            "locType": "suburb",
            "latitude": 33.9774017,
            "closest_to": "avalon"
        },
        "national city": {
            "blogLinks": [
                "http://wikitravel.org/en/San_Diego"
            ],
            "address": "National City, San Diego County, California, United States of America",
            "longitude": -117.0991966,
            "locType": "city",
            "latitude": 32.6781085,
            "closest_to": "carlsbad"
        },
        "college avenue": {
            "blogLinks": [
                "http://wikitravel.org/en/San_Diego"
            ],
            "address": "College Avenue, Palms, LA, Los Angeles County, California, 90232, United States of America",
            "longitude": -118.411823,
            "locType": "residential",
            "latitude": 34.0158908,
            "closest_to": "avalon"
        },
        "seaworld san diego": {
            "blogLinks": [
                "http://www.sandiego.org/articles/tours-sightseeing/san-diegos-59-mile-scenic-drive.aspx"
            ],
            "address": "SeaWorld San Diego, 500, Sea World Drive, Old Town, San Diego, San Diego County, California, 92109, United States of America",
            "longitude": -117.226626367006,
            "locType": "theme_park",
            "latitude": 32.7659778,
            "closest_to": "carlsbad"
        },
        "montgomery field": {
            "blogLinks": [
                "http://catalinaislandexplorer.com/how-to-get-to-catalina-island/",
                "http://wikitravel.org/en/San_Diego"
            ],
            "address": "Montgomery Field, John J Montgomery Drive, Mission Valley, San Diego, San Diego County, California, 92123, United States of America",
            "longitude": -117.140320448768,
            "locType": "aerodrome",
            "latitude": 32.8149052,
            "closest_to": "carlsbad"
        },
        "canon street": {
            "blogLinks": [
                "http://www.sandiego.org/articles/tours-sightseeing/san-diegos-59-mile-scenic-drive.aspx"
            ],
            "address": "Canon Street, Old Town, San Diego, San Diego County, California, 92106, United States of America",
            "longitude": -117.2373119,
            "locType": "secondary",
            "latitude": 32.725689,
            "closest_to": "carlsbad"
        },
        "san diego county": {
            "blogLinks": [
                "https://www.virtualtourist.com/travel/North_America/United_States_of_America/California/Carlsbad-751547/Nightlife-Carlsbad-TG-C-1.html",
                "http://wikitravel.org/en/San_Diego"
            ],
            "address": "San Diego County, California, United States of America",
            "longitude": -116.7706276,
            "locType": "administrative",
            "latitude": 32.9637838,
            "closest_to": "carlsbad"
        },
        "torrey pines road": {
            "blogLinks": [
                "http://www.sandiego.org/articles/tours-sightseeing/san-diegos-59-mile-scenic-drive.aspx"
            ],
            "address": "Torrey Pines Road, La Jolla, San Diego, San Diego County, California, 92037, United States of America",
            "longitude": -117.2620194,
            "locType": "secondary",
            "latitude": 32.8491824,
            "closest_to": "carlsbad"
        },
        "northern san diego county": {
            "blogLinks": [
                "http://wikitravel.org/en/San_Diego"
            ],
            "address": "Northern Frontier, San Diego, San Diego County, California, United States of America",
            "longitude": -117.1545973,
            "locType": "locality",
            "latitude": 32.7349196,
            "closest_to": "carlsbad"
        },
        "idyllwild": {
            "blogLinks": [
                "https://www.virtualtourist.com/travel/North_America/United_States_of_America/California/Carlsbad-751547/Nightlife-Carlsbad-TG-C-1.html"
            ],
            "address": "Idyllwild, Riverside County, California, United States of America",
            "longitude": -116.7189074,
            "locType": "village",
            "latitude": 33.7400209,
            "closest_to": "carlsbad"
        },
        "petco park": {
            "blogLinks": [
                "http://www.sandiego.org/articles/tours-sightseeing/san-diegos-59-mile-scenic-drive.aspx",
                "http://wikitravel.org/en/San_Diego"
            ],
            "address": "Petco Park, 100, Park Boulevard, Hillcrest, San Diego, San Diego County, California, 92101, United States of America",
            "longitude": -117.156886653262,
            "locType": "stadium",
            "latitude": 32.70717575,
            "closest_to": "carlsbad"
        },
        "crown point drive": {
            "blogLinks": [
                "http://www.sandiego.org/articles/tours-sightseeing/san-diegos-59-mile-scenic-drive.aspx"
            ],
            "address": "Crown Point Drive, Pacific Beach, San Diego, San Diego County, California, 92109, United States of America",
            "longitude": -117.2311629,
            "locType": "residential",
            "latitude": 32.793282,
            "closest_to": "carlsbad"
        },
        "beryl street": {
            "blogLinks": [
                "http://www.sandiego.org/articles/tours-sightseeing/san-diegos-59-mile-scenic-drive.aspx"
            ],
            "address": "Beryl Street, Pacific Beach, San Diego, San Diego County, California, 92109, United States of America",
            "longitude": -117.2316669,
            "locType": "secondary",
            "latitude": 32.808758,
            "closest_to": "carlsbad"
        },
        "gaslamp": {
            "blogLinks": [
                "http://wikitravel.org/en/San_Diego"
            ],
            "address": "Gaslamp, Loynes Drive, Marina Pacifica, Naples, Long Beach, Los Angeles County, California, 90803, United States of America",
            "longitude": -118.116345466191,
            "locType": "hotel",
            "latitude": 33.76711105,
            "closest_to": "avalon"
        }
    },
    "avalon": {
        "osm_type": "relation",
        "lon": "-118.3272611",
        "type": "city",
        "boundingbox": [
            "33.317583",
            "33.356566",
            "-118.3466549",
            "-118.3073689"
        ],
        "class": "place",
        "place_id": "159849240",
        "osm_id": "6169443",
        "lat": "33.34221",
        "licence": "Data \u00a9 OpenStreetMap contributors, ODbL 1.0. http://www.openstreetmap.org/copyright",
        "icon": "https://nominatim.openstreetmap.org/images/mapicons/poi_place_city.p.20.png",
        "importance": 0.59676353508209,
        "display_name": "Avalon, Los Angeles County, California, United States of America"
    },
    "carlsbad": {
        "osm_type": "relation",
        "lon": "-117.3505938",
        "type": "city",
        "boundingbox": [
            "33.0601812",
            "33.1824213",
            "-117.3588312",
            "-117.2162645"
        ],
        "class": "place",
        "place_id": "159570669",
        "osm_id": "2305279",
        "lat": "33.1580933",
        "licence": "Data \u00a9 OpenStreetMap contributors, ODbL 1.0. http://www.openstreetmap.org/copyright",
        "icon": "https://nominatim.openstreetmap.org/images/mapicons/poi_place_city.p.20.png",
        "importance": 0.66828891079931,
        "display_name": "Carlsbad, San Diego County, California, United States of America"
    }
}