{
    "mammoth lakes": {
        "type": "administrative",
        "osm_id": "33114461",
        "class": "boundary",
        "importance": 0.67062928815144,
        "lat": "37.6432525",
        "lon": "-118.9668508",
        "boundingbox": [
            "37.580115",
            "37.659467",
            "-119.0613999",
            "-118.9370119"
        ],
        "display_name": "Mammoth Lakes, Mono County, California, United States of America",
        "licence": "Data \u00a9 OpenStreetMap contributors, ODbL 1.0. http://www.openstreetmap.org/copyright",
        "icon": "https://nominatim.openstreetmap.org/images/mapicons/poi_boundary_administrative.p.20.png",
        "place_id": "73282228",
        "osm_type": "way"
    },
    "pasadena": {
        "type": "city",
        "osm_id": "3529725",
        "class": "place",
        "importance": 0.7778961552687,
        "lat": "34.1476452",
        "lon": "-118.1444778",
        "boundingbox": [
            "34.1172023",
            "34.251905",
            "-118.1981389",
            "-118.0654789"
        ],
        "display_name": "Pasadena, Los Angeles County, California, United States of America",
        "licence": "Data \u00a9 OpenStreetMap contributors, ODbL 1.0. http://www.openstreetmap.org/copyright",
        "icon": "https://nominatim.openstreetmap.org/images/mapicons/poi_place_city.p.20.png",
        "place_id": "159486921",
        "osm_type": "relation"
    },
    "mentions": {
        "pacific coast highway": {
            "latitude": "33.6595127",
            "closest_to": "pasadena",
            "address": "Pacific Coast Highway, Huntington Beach, Orange County, California, 92648, United States of America",
            "locType": "primary",
            "blogLinks": [
                "https://www.tripadvisor.com.au/ShowTopic-g32655-i61-k484955-Places_to_visit_near_LA-Los_Angeles_California.html"
            ],
            "longitude": "-118.0051687"
        },
        "sierra lodge": {
            "latitude": "37.6492472",
            "closest_to": "mammoth lakes",
            "address": "Sierra Lodge, 3540, Main Street, Mammoth Lakes, Mono County, California, 93546, United States of America",
            "locType": "hotel",
            "blogLinks": [
                "http://www.tripleblaze.com/best/?c=8"
            ],
            "longitude": "-118.9747351"
        },
        "fallbrook": {
            "latitude": "33.3764196",
            "closest_to": "pasadena",
            "address": "Fallbrook, San Diego County, California, United States of America",
            "locType": "town",
            "blogLinks": [
                "https://en.wikipedia.org/wiki/U.S._Route_395_in_California"
            ],
            "longitude": "-117.2511465"
        },
        "irvine": {
            "latitude": "33.6856969",
            "closest_to": "pasadena",
            "address": "Irvine, Orange County, California, United States of America",
            "locType": "city",
            "blogLinks": [
                "http://www.tripleblaze.com/best/?c=59"
            ],
            "longitude": "-117.8259818"
        },
        "lakeview": {
            "latitude": "35.094689",
            "closest_to": "pasadena",
            "address": "Lakeview, Kern County, California, United States of America",
            "locType": "hamlet",
            "blogLinks": [
                "https://en.wikipedia.org/wiki/U.S._Route_395_in_California"
            ],
            "longitude": "-119.109551"
        },
        "crawley lake": {
            "latitude": "38.472602",
            "closest_to": "mammoth lakes",
            "address": "Crawley Lane, Barton, Amador County, California, 95666, United States of America",
            "locType": "residential",
            "blogLinks": [
                "http://www.travbuddy.com/travel-blogs/3049/"
            ],
            "longitude": "-120.5334619"
        },
        "mono lake": {
            "latitude": "38.0077189",
            "closest_to": "mammoth lakes",
            "address": "Mono Lake, Mono County, California, United States of America",
            "locType": "water",
            "blogLinks": [
                "https://www.tripadvisor.co.uk/Travel-g28926-c182361/California:United-States:Las.Vegas.To.Yosemite.National.Park.html",
                "http://www.mammothmountain.com/winter/plan-a-vacation/plan-a-vacation/getting-here",
                "http://www.katherinebelarmino.com/2016/10/things-to-do-in-mammoth-in-summer.html",
                "http://wikitravel.org/en/Mammoth_Lakes",
                "https://www.tripadvisor.in/ShowTopic-g60791-i711-k4239053-Sites_stops_best_route_between_Las_Vegas_and_San_Francisco-Mammoth_Lakes_California.html",
                "https://en.wikipedia.org/wiki/U.S._Route_395_in_California"
            ],
            "longitude": "-118.967033937845"
        },
        "hot creek": {
            "latitude": "37.6732307",
            "closest_to": "mammoth lakes",
            "address": "Hot Creek, Mono County, California, United States of America",
            "locType": "stream",
            "blogLinks": [
                "http://www.katherinebelarmino.com/2016/10/things-to-do-in-mammoth-in-summer.html",
                "http://wikitravel.org/en/Mammoth_Lakes"
            ],
            "longitude": "-118.813105"
        },
        "mount san gorgonio ca": {
            "latitude": "33.9121294",
            "closest_to": "pasadena",
            "address": "San Gorgonio Avenue, Banning, Riverside County, California, 92220, United States of America",
            "locType": "secondary",
            "blogLinks": [
                "http://www.california-blog.com/"
            ],
            "longitude": "-116.8766731"
        },
        "long valley caldera": {
            "latitude": "37.6947003",
            "closest_to": "mammoth lakes",
            "address": "Long Valley Caldera, Mono County, California, United States of America",
            "locType": "volcano",
            "blogLinks": [
                "https://en.wikipedia.org/wiki/U.S._Route_395_in_California"
            ],
            "longitude": "-118.8969685"
        },
        "palmdale": {
            "latitude": "34.5793131",
            "closest_to": "pasadena",
            "address": "Palmdale, Los Angeles County, California, United States of America",
            "locType": "city",
            "blogLinks": [
                "http://www.travbuddy.com/travel-blogs/3049/"
            ],
            "longitude": "-118.1171107"
        },
        "aspen": {
            "latitude": "33.46699845",
            "closest_to": "pasadena",
            "address": "Aspen, Wolf Creek, Temecula, Riverside County, California, 92592, United States of America",
            "locType": "residential",
            "blogLinks": [
                "http://blog.uvm.edu/kahayes-cdae102f16/2016/10/26/political-capital-in-mammoth-lakes-ca/"
            ],
            "longitude": "-117.109218500677"
        },
        "vail": {
            "latitude": "33.4955976",
            "closest_to": "pasadena",
            "address": "Vail 2028 Dam, Riverside County, California, United States of America",
            "locType": "dam",
            "blogLinks": [
                "http://blog.uvm.edu/kahayes-cdae102f16/2016/10/26/political-capital-in-mammoth-lakes-ca/"
            ],
            "longitude": "-116.9770033"
        },
        "san francisco bay area": {
            "latitude": "37.7884969",
            "closest_to": "mammoth lakes",
            "address": "San Francisco Bay Area, SF, California, United States of America",
            "locType": "region",
            "blogLinks": [
                "http://wikitravel.org/en/Mammoth_Lakes"
            ],
            "longitude": "-122.3558472"
        },
        "moreno valley ca": {
            "latitude": "33.937517",
            "closest_to": "pasadena",
            "address": "Moreno Valley, Riverside County, California, United States of America",
            "locType": "city",
            "blogLinks": [
                "http://www.california-blog.com/"
            ],
            "longitude": "-117.2305943"
        },
        "inyo": {
            "latitude": "36.5595325",
            "closest_to": "pasadena",
            "address": "Inyo County, California, United States of America",
            "locType": "administrative",
            "blogLinks": [
                "http://wikitravel.org/en/Mammoth_Lakes"
            ],
            "longitude": "-117.4074711"
        },
        "golden canyon": {
            "latitude": "34.2743666",
            "closest_to": "pasadena",
            "address": "Golden Canyon Circle, Chatsworth, LA, Los Angeles County, California, 91311, United States of America",
            "locType": "living_street",
            "blogLinks": [
                "https://www.tripadvisor.co.uk/Travel-g28926-c182361/California:United-States:Las.Vegas.To.Yosemite.National.Park.html"
            ],
            "longitude": "-118.613919"
        },
        "santa clarita": {
            "latitude": "34.3916641",
            "closest_to": "pasadena",
            "address": "Santa Clarita, Los Angeles County, California, United States of America",
            "locType": "city",
            "blogLinks": [
                "http://www.travbuddy.com/travel-blogs/3049/"
            ],
            "longitude": "-118.5425859"
        },
        "kern county": {
            "latitude": "35.3145701",
            "closest_to": "pasadena",
            "address": "Kern County, California, United States of America",
            "locType": "administrative",
            "blogLinks": [
                "https://en.wikipedia.org/wiki/U.S._Route_395_in_California"
            ],
            "longitude": "-118.7538221"
        },
        "colorado river": {
            "latitude": "33.58648635",
            "closest_to": "pasadena",
            "address": "Colorado River, Riviera Drive, East Blythe, Riverside County, California, 92225, United States of America",
            "locType": "water",
            "blogLinks": [
                "https://en.wikipedia.org/wiki/U.S._Route_395_in_California"
            ],
            "longitude": "-114.542164096234"
        },
        "furnace creek": {
            "latitude": "36.461604",
            "closest_to": "pasadena",
            "address": "Furnace Creek, Inyo County, California, United States of America",
            "locType": "village",
            "blogLinks": [
                "https://www.tripadvisor.co.uk/Travel-g28926-c182361/California:United-States:Las.Vegas.To.Yosemite.National.Park.html"
            ],
            "longitude": "-116.8662032"
        },
        "white mountain": {
            "latitude": "34.3511111",
            "closest_to": "pasadena",
            "address": "White Mountain, San Bernardino County, California, United States of America",
            "locType": "peak",
            "blogLinks": [
                "http://www.travbuddy.com/travel-blogs/3049/"
            ],
            "longitude": "-117.0144443"
        },
        "california freeway": {
            "latitude": "34.0029948",
            "closest_to": "pasadena",
            "address": "California, San Gabriel River Freeway, Pico Rivera, Los Angeles County, California, 90601, United States of America",
            "locType": "abandoned",
            "blogLinks": [
                "https://en.wikipedia.org/wiki/U.S._Route_395_in_California"
            ],
            "longitude": "-118.067515"
        },
        "east walker river": {
            "latitude": "37.8765942",
            "closest_to": "mammoth lakes",
            "address": "Walker Lake 6-035 Dam, Mono County, California, United States of America",
            "locType": "dam",
            "blogLinks": [
                "https://en.wikipedia.org/wiki/U.S._Route_395_in_California"
            ],
            "longitude": "-119.159315"
        },
        "long valley creek": {
            "latitude": "40.0695365",
            "closest_to": "mammoth lakes",
            "address": "Long Valley Creek, Lassen County, California, United States of America",
            "locType": "stream",
            "blogLinks": [
                "https://en.wikipedia.org/wiki/U.S._Route_395_in_California"
            ],
            "longitude": "-120.1445488"
        },
        "chilnualna falls": {
            "latitude": "37.5486657",
            "closest_to": "mammoth lakes",
            "address": "North Chilnualna Falls Road, North Wawona, Mariposa County, California, 95389, United States of America",
            "locType": "residential",
            "blogLinks": [
                "http://www.tripleblaze.com/best/?c=8"
            ],
            "longitude": "-119.633114"
        },
        "owens lake": {
            "latitude": "36.42402715",
            "closest_to": "pasadena",
            "address": "Owens Lake, Inyo County, California, United States of America",
            "locType": "mud",
            "blogLinks": [
                "https://en.wikipedia.org/wiki/U.S._Route_395_in_California",
                "http://www.travbuddy.com/travel-blogs/3049/"
            ],
            "longitude": "-117.92691625138"
        },
        "siberia": {
            "latitude": "34.6267106",
            "closest_to": "pasadena",
            "address": "Siberia, San Bernardino County, California, United States of America",
            "locType": "locality",
            "blogLinks": [
                "http://www.travbuddy.com/travel-blogs/3049/"
            ],
            "longitude": "-115.985768"
        },
        "owens valley": {
            "latitude": "36.61562975",
            "closest_to": "pasadena",
            "address": "Owens Valley, Lone Pine, Inyo County, California, 93545, United States of America",
            "locType": "desert",
            "blogLinks": [
                "https://en.wikipedia.org/wiki/U.S._Route_395_in_California",
                "http://www.travbuddy.com/travel-blogs/3049/"
            ],
            "longitude": "-118.109577818995"
        },
        "bodie state historic park": {
            "latitude": "38.2154734",
            "closest_to": "mammoth lakes",
            "address": "Bodie State Historic Park, Street, Bodie, Mono County, California, United States of America",
            "locType": "park",
            "blogLinks": [
                "http://www.katherinebelarmino.com/2016/10/things-to-do-in-mammoth-in-summer.html"
            ],
            "longitude": "-119.0109761"
        },
        "lee vining": {
            "latitude": "37.9574254",
            "closest_to": "mammoth lakes",
            "address": "Lee Vining, Mono County, California, United States of America",
            "locType": "hamlet",
            "blogLinks": [
                "https://www.tripadvisor.co.uk/Travel-g28926-c182361/California:United-States:Las.Vegas.To.Yosemite.National.Park.html"
            ],
            "longitude": "-119.1218155"
        },
        "inyo county": {
            "latitude": "36.5595325",
            "closest_to": "pasadena",
            "address": "Inyo County, California, United States of America",
            "locType": "administrative",
            "blogLinks": [
                "https://en.wikipedia.org/wiki/U.S._Route_395_in_California"
            ],
            "longitude": "-117.4074711"
        },
        "hollywood": {
            "latitude": "34.1028268",
            "closest_to": "pasadena",
            "address": "Hollywood, LA, Los Angeles County, California, United States of America",
            "locType": "suburb",
            "blogLinks": [
                "https://www.tripadvisor.co.uk/Travel-g28926-c182361/California:United-States:Las.Vegas.To.Yosemite.National.Park.html"
            ],
            "longitude": "-118.3299898"
        },
        "big oak flat road": {
            "latitude": "37.812339",
            "closest_to": "mammoth lakes",
            "address": "Big Oak Flat Road, Sequoia, Tuolumne County, California, United States of America",
            "locType": "primary",
            "blogLinks": [
                "https://www.tripadvisor.co.uk/Travel-g28926-c182361/California:United-States:Las.Vegas.To.Yosemite.National.Park.html"
            ],
            "longitude": "-119.8747389"
        },
        "old santa barbara mission": {
            "latitude": "34.4662154",
            "closest_to": "pasadena",
            "address": "KDB-FM (Santa Barbara), Gibraltar Road, Santa Barbara County, California, 93103, United States of America",
            "locType": "tower",
            "blogLinks": [
                "http://losangeles.cbslocal.com/top-lists/best-camping-spots-near-los-angeles/"
            ],
            "longitude": "-119.6779962"
        },
        "mount palomar ca": {
            "latitude": "33.1278146",
            "closest_to": "pasadena",
            "address": "California Bank & Trust, 2501, Palomar Airport Road, Carlsbad, San Diego County, California, 92011, United States of America",
            "locType": "bank",
            "blogLinks": [
                "http://www.california-blog.com/"
            ],
            "longitude": "-117.270809764613"
        },
        "patagonia": {
            "latitude": "34.1466589",
            "closest_to": "pasadena",
            "address": "Patagonia, 47, Fair Oaks Avenue, Pasadena, Los Angeles County, California, 91105, United States of America",
            "locType": "clothes",
            "blogLinks": [
                "http://www.travbuddy.com/travel-blogs/3049/"
            ],
            "longitude": "-118.15075575"
        },
        "inyokern": {
            "latitude": "35.6468991",
            "closest_to": "pasadena",
            "address": "Inyokern, Kern County, California, United States of America",
            "locType": "hamlet",
            "blogLinks": [
                "https://en.wikipedia.org/wiki/U.S._Route_395_in_California"
            ],
            "longitude": "-117.8125673"
        },
        "rock creek": {
            "latitude": "37.7523771",
            "closest_to": "mammoth lakes",
            "address": "Rock Creek, Mono County, California, United States of America",
            "locType": "stream",
            "blogLinks": [
                "https://en.wikipedia.org/wiki/U.S._Route_395_in_California"
            ],
            "longitude": "-118.3845004"
        },
        "tehachapi": {
            "latitude": "35.1321878",
            "closest_to": "pasadena",
            "address": "Tehachapi, Kern County, California, United States of America",
            "locType": "administrative",
            "blogLinks": [
                "http://www.travbuddy.com/travel-blogs/3049/"
            ],
            "longitude": "-118.4489738"
        },
        "ca": {
            "latitude": "37.8242285466918",
            "closest_to": "mammoth lakes",
            "address": "Piedmont, Alameda County, California, ca, United States of America",
            "locType": "postcode",
            "blogLinks": [
                "http://blog.uvm.edu/kahayes-cdae102f16/2016/10/26/political-capital-in-mammoth-lakes-ca/"
            ],
            "longitude": "-122.232613735941"
        },
        "morro rock ca": {
            "latitude": "35.369669",
            "closest_to": "pasadena",
            "address": "Morro Rock, Morro Bay, San Luis Obispo County, California, United States of America",
            "locType": "peak",
            "blogLinks": [
                "http://www.california-blog.com/"
            ],
            "longitude": "-120.8676993"
        },
        "san luis obispo": {
            "latitude": "35.2827525",
            "closest_to": "pasadena",
            "address": "San Luis Obispo, San Luis Obispo County, California, United States of America",
            "locType": "city",
            "blogLinks": [
                "https://www.tripadvisor.com.au/ShowTopic-g32655-i61-k484955-Places_to_visit_near_LA-Los_Angeles_California.html"
            ],
            "longitude": "-120.6596155"
        },
        "fresno": {
            "latitude": "36.748793",
            "closest_to": "pasadena",
            "address": "Fresno, Fresno County, California, United States of America",
            "locType": "city",
            "blogLinks": [
                "https://www.tripadvisor.in/ShowTopic-g60791-i711-k4239053-Sites_stops_best_route_between_Las_Vegas_and_San_Francisco-Mammoth_Lakes_California.html"
            ],
            "longitude": "-119.714839601149"
        },
        "victorville": {
            "latitude": "34.5361067",
            "closest_to": "pasadena",
            "address": "Victorville, San Bernardino County, California, United States of America",
            "locType": "city",
            "blogLinks": [
                "https://en.wikipedia.org/wiki/U.S._Route_395_in_California"
            ],
            "longitude": "-117.2911564"
        },
        "south china lake boulevard": {
            "latitude": "35.551143",
            "closest_to": "pasadena",
            "address": "South China Lake Boulevard, Kern County, California, 93555, United States of America",
            "locType": "trunk",
            "blogLinks": [
                "https://en.wikipedia.org/wiki/U.S._Route_395_in_California"
            ],
            "longitude": "-117.7135499"
        },
        "monterey peninsula ca": {
            "latitude": "36.5878734",
            "closest_to": "mammoth lakes",
            "address": "Monterey Regional Airport, Airport Road, Seaside, Del Monte Heights, Monterey County, California, 93940, United States of America",
            "locType": "aerodrome",
            "blogLinks": [
                "http://www.california-blog.com/"
            ],
            "longitude": "-121.843618374407"
        },
        "indian wells valley": {
            "latitude": "33.7217965",
            "closest_to": "pasadena",
            "address": "Indian Wells, Riverside County, California, United States of America",
            "locType": "town",
            "blogLinks": [
                "https://en.wikipedia.org/wiki/U.S._Route_395_in_California"
            ],
            "longitude": "-116.3383033"
        },
        "pacific crest trail": {
            "latitude": "38.69418",
            "closest_to": "mammoth lakes",
            "address": "Pacific Crest Trail, Pleasant Valley, El Dorado County, California, 95667, United States of America",
            "locType": "residential",
            "blogLinks": [
                "http://www.tripleblaze.com/best/?c=8"
            ],
            "longitude": "-120.6375709"
        },
        "santa cruz": {
            "latitude": "36.9735903",
            "closest_to": "mammoth lakes",
            "address": "Santa Cruz, Santa Cruz County, California, United States of America",
            "locType": "city",
            "blogLinks": [
                "https://www.tripadvisor.com.au/ShowTopic-g32655-i61-k484955-Places_to_visit_near_LA-Los_Angeles_California.html",
                "http://losangeles.cbslocal.com/top-lists/best-camping-spots-near-los-angeles/"
            ],
            "longitude": "-122.0260569"
        },
        "lakeview blvd": {
            "latitude": "37.4791482",
            "closest_to": "mammoth lakes",
            "address": "Lakeview Boulevard, Curtner, Warm Springs District, Fremont, Alameda County, California, 94538, United States of America",
            "locType": "tertiary",
            "blogLinks": [
                "http://wikitravel.org/en/Mammoth_Lakes"
            ],
            "longitude": "-121.9371952"
        },
        "edwards air force base": {
            "latitude": "34.900814",
            "closest_to": "pasadena",
            "address": "Edwards Air Force Base, Forbes Avenue, Wherry Housing, Kern County, California, 93523, United States of America",
            "locType": "administrative",
            "blogLinks": [
                "http://www.travbuddy.com/travel-blogs/3049/"
            ],
            "longitude": "-117.943953225678"
        },
        "whittier hills whittier": {
            "latitude": "33.9397495",
            "closest_to": "pasadena",
            "address": "Whittwood Branch Whittier Public Library, Starbuck Street, Friendly Hills, Whittier, Los Angeles County, California, 90603, United States of America",
            "locType": "library",
            "blogLinks": [
                "http://www.tripleblaze.com/best/?c=8"
            ],
            "longitude": "-117.993545449378"
        },
        "little lake": {
            "latitude": "35.9366136",
            "closest_to": "pasadena",
            "address": "Little Lake, Inyo County, California, United States of America",
            "locType": "hamlet",
            "blogLinks": [
                "https://en.wikipedia.org/wiki/U.S._Route_395_in_California"
            ],
            "longitude": "-117.9067407"
        },
        "nevada highway": {
            "latitude": "39.3540335",
            "closest_to": "mammoth lakes",
            "address": "Nevada County, California, United States of America",
            "locType": "administrative",
            "blogLinks": [
                "https://en.wikipedia.org/wiki/U.S._Route_395_in_California"
            ],
            "longitude": "-120.8089842"
        },
        "santa ynez": {
            "latitude": "34.608637",
            "closest_to": "pasadena",
            "address": "Santa Ynez, Stadium Place, Santa Ynez, Santa Barbara County, California, 93463, United States of America",
            "locType": "administrative",
            "blogLinks": [
                "https://www.tripadvisor.com.au/ShowTopic-g32655-i61-k484955-Places_to_visit_near_LA-Los_Angeles_California.html"
            ],
            "longitude": "-120.104677321497"
        },
        "california highway patrol": {
            "latitude": "33.7517195",
            "closest_to": "pasadena",
            "address": "California Highway Patrol, 79650, Varner Road, Indio, Riverside County, California, 92203, United States of America",
            "locType": "police",
            "blogLinks": [
                "http://www.travbuddy.com/travel-blogs/3049/"
            ],
            "longitude": "-116.2731591"
        },
        "mount san jacinto ca": {
            "latitude": "33.7839084",
            "closest_to": "pasadena",
            "address": "San Jacinto, Riverside County, California, United States of America",
            "locType": "city",
            "blogLinks": [
                "http://www.california-blog.com/"
            ],
            "longitude": "-116.9586349"
        },
        "june lake loop": {
            "latitude": "37.7977914",
            "closest_to": "mammoth lakes",
            "address": "June Lake Loop, Rabbit Loop, June Lake Junction, Mono County, California, 93529, United States of America",
            "locType": "secondary",
            "blogLinks": [
                "https://www.tripadvisor.co.uk/Travel-g28926-c182361/California:United-States:Las.Vegas.To.Yosemite.National.Park.html"
            ],
            "longitude": "-119.0637386"
        },
        "pebble beach ca": {
            "latitude": "36.5664874",
            "closest_to": "mammoth lakes",
            "address": "Pebble Beach, Monterey County, California, United States of America",
            "locType": "hamlet",
            "blogLinks": [
                "http://www.california-blog.com/"
            ],
            "longitude": "-121.9466112"
        },
        "santa barbara": {
            "latitude": "34.4221319",
            "closest_to": "pasadena",
            "address": "Santa Barbara, Santa Barbara County, California, United States of America",
            "locType": "city",
            "blogLinks": [
                "https://www.tripadvisor.com.au/ShowTopic-g32655-i61-k484955-Places_to_visit_near_LA-Los_Angeles_California.html"
            ],
            "longitude": "-119.7026672"
        },
        "searles station": {
            "latitude": "35.4838485",
            "closest_to": "pasadena",
            "address": "Searles, Kern County, California, United States of America",
            "locType": "hamlet",
            "blogLinks": [
                "https://en.wikipedia.org/wiki/U.S._Route_395_in_California"
            ],
            "longitude": "-117.6353382"
        },
        "mission bay ca": {
            "latitude": "37.7707742",
            "closest_to": "mammoth lakes",
            "address": "Mission Bay, SF, California, 94158, United States of America",
            "locType": "neighbourhood",
            "blogLinks": [
                "http://www.california-blog.com/"
            ],
            "longitude": "-122.3911711"
        },
        "ravendale": {
            "latitude": "40.7985091",
            "closest_to": "mammoth lakes",
            "address": "Ravendale, Lassen County, California, United States of America",
            "locType": "hamlet",
            "blogLinks": [
                "https://en.wikipedia.org/wiki/U.S._Route_395_in_California"
            ],
            "longitude": "-120.3652224"
        },
        "canada": {
            "latitude": "33.7298842",
            "closest_to": "pasadena",
            "address": "La Canada, Lower Peters Canyon, Irvine, Orange County, California, 92602, United States of America",
            "locType": "residential",
            "blogLinks": [
                "https://en.wikipedia.org/wiki/U.S._Route_395_in_California"
            ],
            "longitude": "-117.7641381"
        },
        "whitebark": {
            "latitude": "33.6553065",
            "closest_to": "pasadena",
            "address": "Whitebark, Ventana, Mission Viejo, Orange County, California, 92692, United States of America",
            "locType": "residential",
            "blogLinks": [
                "http://wikitravel.org/en/Mammoth_Lakes"
            ],
            "longitude": "-117.6409081"
        },
        "donner pass": {
            "latitude": "39.32283405",
            "closest_to": "mammoth lakes",
            "address": "Donner Lake, Donner Pass Road, Truckee, Nevada County, California, 96161, United States of America",
            "locType": "water",
            "blogLinks": [
                "https://en.wikipedia.org/wiki/U.S._Route_395_in_California"
            ],
            "longitude": "-120.269194802709"
        },
        "nevada state route 8a": {
            "latitude": "40.659622",
            "closest_to": "mammoth lakes",
            "address": "California, Imlay, Pershing County, Nevada, 89418, United States of America",
            "locType": "residential",
            "blogLinks": [
                "https://en.wikipedia.org/wiki/U.S._Route_395_in_California"
            ],
            "longitude": "-118.1493199"
        },
        "california state parks": {
            "latitude": "38.4366423",
            "closest_to": "mammoth lakes",
            "address": "California State Parks, Adobe Canyon Road, Kenwood, Sonoma County, California, 95452, United States of America",
            "locType": "theatre",
            "blogLinks": [
                "https://en.wikipedia.org/wiki/U.S._Route_395_in_California"
            ],
            "longitude": "-122.5126798"
        },
        "new hampshire": {
            "latitude": "33.7157856",
            "closest_to": "pasadena",
            "address": "New Hampshire, Walnut, Irvine, Orange County, California, 92606, United States of America",
            "locType": "residential",
            "blogLinks": [
                "http://www.california-blog.com/"
            ],
            "longitude": "-117.7905719"
        },
        "half dome": {
            "latitude": "37.745962",
            "closest_to": "mammoth lakes",
            "address": "Half Dome, Mariposa County, California, United States of America",
            "locType": "peak",
            "blogLinks": [
                "https://www.tripadvisor.co.uk/Travel-g28926-c182361/California:United-States:Las.Vegas.To.Yosemite.National.Park.html"
            ],
            "longitude": "-119.5330756"
        },
        "los angeles": {
            "latitude": "34.0543942",
            "closest_to": "pasadena",
            "address": "LA, Los Angeles County, California, United States of America",
            "locType": "city",
            "blogLinks": [
                "http://losangeles.cbslocal.com/top-lists/best-camping-spots-near-los-angeles/",
                "http://blog.uvm.edu/kahayes-cdae102f16/2016/10/26/political-capital-in-mammoth-lakes-ca/",
                "http://www.katherinebelarmino.com/2016/10/things-to-do-in-mammoth-in-summer.html",
                "http://wikitravel.org/en/Mammoth_Lakes",
                "https://en.wikipedia.org/wiki/U.S._Route_395_in_California",
                "http://www.travbuddy.com/travel-blogs/3049/"
            ],
            "longitude": "-118.2439408"
        },
        "monterey": {
            "latitude": "36.5844165",
            "closest_to": "mammoth lakes",
            "address": "Monterey, Monterey County, California, United States of America",
            "locType": "city",
            "blogLinks": [
                "https://www.tripadvisor.com.au/ShowTopic-g32655-i61-k484955-Places_to_visit_near_LA-Los_Angeles_California.html"
            ],
            "longitude": "-121.866792846206"
        },
        "kingsbury grade": {
            "latitude": "40.021386",
            "closest_to": "mammoth lakes",
            "address": "Kingsbury Grade, Twain, Plumas County, California, 95984, United States of America",
            "locType": "residential",
            "blogLinks": [
                "http://www.mammothmountain.com/winter/plan-a-vacation/plan-a-vacation/getting-here"
            ],
            "longitude": "-121.0740149"
        },
        "hesperia": {
            "latitude": "34.4263886",
            "closest_to": "pasadena",
            "address": "Hesperia, San Bernardino County, California, United States of America",
            "locType": "city",
            "blogLinks": [
                "https://en.wikipedia.org/wiki/U.S._Route_395_in_California"
            ],
            "longitude": "-117.3008783"
        },
        "eastern sierra of california": {
            "latitude": "37.37088005",
            "closest_to": "pasadena",
            "address": "Eastern Sierra Regional Airport, Airport Road, Bishop Trail Park, Inyo County, California, 93515, United States of America",
            "locType": "aerodrome",
            "blogLinks": [
                "https://www.tripadvisor.com/Tourism-g60791-Mammoth_Lakes_California-Vacations.html"
            ],
            "longitude": "-118.365786577889"
        },
        "brussels": {
            "latitude": "34.3209021",
            "closest_to": "pasadena",
            "address": "Brussels Avenue, Sylmar, LA, Los Angeles County, California, 91342, United States of America",
            "locType": "residential",
            "blogLinks": [
                "http://www.katherinebelarmino.com/2016/10/things-to-do-in-mammoth-in-summer.html"
            ],
            "longitude": "-118.4269567"
        },
        "sierra nevada lodge": {
            "latitude": "39.3181543",
            "closest_to": "mammoth lakes",
            "address": "Hutchinson Lodge, Donner Pass Road, Soda Springs, Nevada County, California, 96162, United States of America",
            "locType": "hostel",
            "blogLinks": [
                "http://wikitravel.org/en/Mammoth_Lakes"
            ],
            "longitude": "-120.353569459579"
        },
        "bridgeport reservoir": {
            "latitude": "38.2954848",
            "closest_to": "mammoth lakes",
            "address": "Bridgeport Reservoir, Lakeside Drive, Bridgeport, Mono County, California, 93517, United States of America",
            "locType": "water",
            "blogLinks": [
                "https://en.wikipedia.org/wiki/U.S._Route_395_in_California"
            ],
            "longitude": "-119.226550374411"
        },
        "jamestown": {
            "latitude": "37.9588565",
            "closest_to": "mammoth lakes",
            "address": "Jamestown, Golden Oaks Drive, Volponi Acres, Tuolumne County, California, 95327, United States of America",
            "locType": "administrative",
            "blogLinks": [
                "https://www.tripadvisor.in/ShowTopic-g60791-i711-k4239053-Sites_stops_best_route_between_Las_Vegas_and_San_Francisco-Mammoth_Lakes_California.html"
            ],
            "longitude": "-120.404431068133"
        },
        "mono lake ca": {
            "latitude": "38.0077189",
            "closest_to": "mammoth lakes",
            "address": "Mono Lake, Mono County, California, United States of America",
            "locType": "water",
            "blogLinks": [
                "http://www.california-blog.com/"
            ],
            "longitude": "-118.967033937845"
        },
        "las vegas": {
            "latitude": "36.17310935",
            "closest_to": "pasadena",
            "address": "California Hotel, Sky Walk(Connection from Main Street to California, Cultural Corridor, Vegas Heights, Las Vegas, Clark County, Nevada, 89101, United States of America",
            "locType": "hotel",
            "blogLinks": [
                "https://www.tripadvisor.co.uk/Travel-g28926-c182361/California:United-States:Las.Vegas.To.Yosemite.National.Park.html"
            ],
            "longitude": "-115.144667930325"
        },
        "united states": {
            "latitude": "36.7014631",
            "closest_to": "pasadena",
            "address": "California, United States of America",
            "locType": "administrative",
            "blogLinks": [
                "https://www.tripadvisor.co.uk/Travel-g28926-c182361/California:United-States:Las.Vegas.To.Yosemite.National.Park.html",
                "https://www.tripadvisor.com/Attractions-g60791-Activities-Mammoth_Lakes_California.html",
                "https://en.wikipedia.org/wiki/U.S._Route_395_in_California",
                "https://www.tripadvisor.com/Tourism-g60791-Mammoth_Lakes_California-Vacations.html",
                "http://www.travbuddy.com/travel-blogs/3049/"
            ],
            "longitude": "-118.7559973"
        },
        "napa valley ca": {
            "latitude": "38.2972603",
            "closest_to": "mammoth lakes",
            "address": "California Boulevard, Napa, Napa County, California, 94558, United States of America",
            "locType": "secondary",
            "blogLinks": [
                "http://www.california-blog.com/"
            ],
            "longitude": "-122.3002947"
        },
        "lake mary": {
            "latitude": "37.5990811",
            "closest_to": "pasadena",
            "address": "Lake Mary, Mono County, California, United States of America",
            "locType": "hamlet",
            "blogLinks": [
                "http://wikitravel.org/en/Mammoth_Lakes"
            ],
            "longitude": "-118.9985361"
        },
        "big pine": {
            "latitude": "37.165942",
            "closest_to": "pasadena",
            "address": "Big Pine, Glacier Lodge Road, Inyo County, California, United States of America",
            "locType": "administrative",
            "blogLinks": [
                "http://www.travbuddy.com/travel-blogs/3049/"
            ],
            "longitude": "-118.300583173317"
        },
        "poway road": {
            "latitude": "32.9466041",
            "closest_to": "pasadena",
            "address": "Poway Road, San Diego, San Diego County, California, 92064, United States of America",
            "locType": "primary",
            "blogLinks": [
                "https://en.wikipedia.org/wiki/U.S._Route_395_in_California"
            ],
            "longitude": "-117.0918559"
        },
        "limekiln": {
            "latitude": "36.0227366",
            "closest_to": "pasadena",
            "address": "Limekiln State Park, Twitchell Elevator, Lucia, Monterey County, California, United States of America",
            "locType": "park",
            "blogLinks": [
                "http://www.tripleblaze.com/best/?c=59"
            ],
            "longitude": "-121.527771252348"
        },
        "crowley lake": {
            "latitude": "37.564155",
            "closest_to": "pasadena",
            "address": "Crowley Lake, Mono County, California, United States of America",
            "locType": "village",
            "blogLinks": [
                "https://en.wikipedia.org/wiki/U.S._Route_395_in_California"
            ],
            "longitude": "-118.7454081"
        },
        "westport beach": {
            "latitude": "33.637635",
            "closest_to": "pasadena",
            "address": "Westport, Newport Center, Newport Beach, Orange County, California, 92660, United States of America",
            "locType": "residential",
            "blogLinks": [
                "http://www.tripleblaze.com/best/?c=59"
            ],
            "longitude": "-117.8688239"
        },
        "nevada hot springs": {
            "latitude": "37.1092831",
            "closest_to": "mammoth lakes",
            "address": "Nevada Cabin, Gilroy Hot Springs Road, Santa Clara County, California, 95020, United States of America",
            "locType": "yes",
            "blogLinks": [
                "https://en.wikipedia.org/wiki/U.S._Route_395_in_California"
            ],
            "longitude": "-121.478983217626"
        },
        "sacramento": {
            "latitude": "38.5815719",
            "closest_to": "mammoth lakes",
            "address": "Sacramento, Sacramento County, California, United States of America",
            "locType": "city",
            "blogLinks": [
                "https://en.wikipedia.org/wiki/U.S._Route_395_in_California"
            ],
            "longitude": "-121.4943995"
        },
        "mammoth mountain": {
            "latitude": "37.6307692",
            "closest_to": "pasadena",
            "address": "Mammoth Mountain, Mammoth Lakes, Mono County, California, United States of America",
            "locType": "peak",
            "blogLinks": [
                "http://www.katherinebelarmino.com/2016/10/things-to-do-in-mammoth-in-summer.html"
            ],
            "longitude": "-119.0326341"
        },
        "pasadena": {
            "latitude": "34.1476452",
            "closest_to": "pasadena",
            "address": "Pasadena, Los Angeles County, California, United States of America",
            "locType": "city",
            "blogLinks": [
                "http://www.tripleblaze.com/best/?c=8"
            ],
            "longitude": "-118.1444778"
        },
        "san simeon": {
            "latitude": "35.6438587",
            "closest_to": "pasadena",
            "address": "San Simeon, San Luis Obispo County, California, United States of America",
            "locType": "hamlet",
            "blogLinks": [
                "https://www.tripadvisor.com.au/ShowTopic-g32655-i61-k484955-Places_to_visit_near_LA-Los_Angeles_California.html"
            ],
            "longitude": "-121.1907532"
        },
        "sonora": {
            "latitude": "37.9840911",
            "closest_to": "mammoth lakes",
            "address": "Sonora, Tuolumne County, California, United States of America",
            "locType": "city",
            "blogLinks": [
                "https://www.tripadvisor.in/ShowTopic-g60791-i711-k4239053-Sites_stops_best_route_between_Las_Vegas_and_San_Francisco-Mammoth_Lakes_California.html"
            ],
            "longitude": "-120.382138"
        },
        "sierra county": {
            "latitude": "39.5849065",
            "closest_to": "mammoth lakes",
            "address": "Sierra County, California, United States of America",
            "locType": "administrative",
            "blogLinks": [
                "https://en.wikipedia.org/wiki/U.S._Route_395_in_California"
            ],
            "longitude": "-120.530573"
        },
        "mono county": {
            "latitude": "37.9533927",
            "closest_to": "mammoth lakes",
            "address": "Mono County, California, United States of America",
            "locType": "administrative",
            "blogLinks": [
                "https://en.wikipedia.org/wiki/U.S._Route_395_in_California",
                "http://blog.uvm.edu/kahayes-cdae102f16/2016/10/26/political-capital-in-mammoth-lakes-ca/"
            ],
            "longitude": "-118.9398757"
        },
        "eastern california": {
            "latitude": "37.37088005",
            "closest_to": "pasadena",
            "address": "Eastern Sierra Regional Airport, Airport Road, Bishop Trail Park, Inyo County, California, 93515, United States of America",
            "locType": "aerodrome",
            "blogLinks": [
                "https://en.wikipedia.org/wiki/U.S._Route_395_in_California"
            ],
            "longitude": "-118.365786577889"
        },
        "malibu": {
            "latitude": "33.7932142",
            "closest_to": "pasadena",
            "address": "Malibu, Palm Springs, Riverside County, California, 92264, United States of America",
            "locType": "residential",
            "blogLinks": [
                "http://www.tripleblaze.com/best/?c=8"
            ],
            "longitude": "-116.5023561"
        },
        "lake hodges": {
            "latitude": "33.0602755",
            "closest_to": "pasadena",
            "address": "Lake Hodges, Avocado Highway, San Diego, San Diego County, California, 92029, United States of America",
            "locType": "water",
            "blogLinks": [
                "https://en.wikipedia.org/wiki/U.S._Route_395_in_California"
            ],
            "longitude": "-117.065107919797"
        },
        "yosemite valley": {
            "latitude": "37.734435",
            "closest_to": "mammoth lakes",
            "address": "Yosemite Valley, Mariposa County, California, United States of America",
            "locType": "town",
            "blogLinks": [
                "https://www.tripadvisor.co.uk/Travel-g28926-c182361/California:United-States:Las.Vegas.To.Yosemite.National.Park.html"
            ],
            "longitude": "-119.6064673"
        },
        "south carlsbad": {
            "latitude": "33.1580933",
            "closest_to": "pasadena",
            "address": "Carlsbad, San Diego County, California, United States of America",
            "locType": "city",
            "blogLinks": [
                "http://www.tripleblaze.com/best/?c=59"
            ],
            "longitude": "-117.3505938"
        },
        "quincy": {
            "latitude": "39.9309945",
            "closest_to": "mammoth lakes",
            "address": "Quincy, Buchanan Street, Quincy, Plumas County, California, 95971, United States of America",
            "locType": "administrative",
            "blogLinks": [
                "https://en.wikipedia.org/wiki/U.S._Route_395_in_California"
            ],
            "longitude": "-120.953573847289"
        },
        "escondido": {
            "latitude": "33.1216751",
            "closest_to": "pasadena",
            "address": "Escondido, San Diego County, California, United States of America",
            "locType": "city",
            "blogLinks": [
                "https://en.wikipedia.org/wiki/U.S._Route_395_in_California"
            ],
            "longitude": "-117.0814848"
        },
        "newport beach ca": {
            "latitude": "33.6170092",
            "closest_to": "pasadena",
            "address": "Newport Beach, Orange County, California, United States of America",
            "locType": "city",
            "blogLinks": [
                "http://www.california-blog.com/"
            ],
            "longitude": "-117.92944"
        },
        "mojave desert ca": {
            "latitude": "35.1456319",
            "closest_to": "pasadena",
            "address": "Mojave Desert, Utility Road, San Bernardino County, California, United States of America",
            "locType": "desert",
            "blogLinks": [
                "http://www.california-blog.com/"
            ],
            "longitude": "-115.548963686646"
        },
        "bridgeport": {
            "latitude": "38.255757",
            "closest_to": "mammoth lakes",
            "address": "Bridgeport, Mono County, California, United States of America",
            "locType": "village",
            "blogLinks": [
                "https://en.wikipedia.org/wiki/U.S._Route_395_in_California"
            ],
            "longitude": "-119.2312664"
        },
        "denver": {
            "latitude": "33.6996403",
            "closest_to": "pasadena",
            "address": "Denver, Heritage Park Apartments, El Camino Real, Irvine, Orange County, California, 92604, United States of America",
            "locType": "residential",
            "blogLinks": [
                "https://en.wikipedia.org/wiki/U.S._Route_395_in_California"
            ],
            "longitude": "-117.7762651"
        },
        "china lake naws": {
            "latitude": "35.686008",
            "closest_to": "pasadena",
            "address": "China Lake Naws (Armitage Field) Airport, Water Road, China Lake, Kern County, California, United States of America",
            "locType": "aerodrome",
            "blogLinks": [
                "https://en.wikipedia.org/wiki/U.S._Route_395_in_California"
            ],
            "longitude": "-117.6908749"
        },
        "tonopah": {
            "latitude": "34.2346349",
            "closest_to": "pasadena",
            "address": "Tonopah Street, Pacoima, LA, Los Angeles County, California, 91331, United States of America",
            "locType": "residential",
            "blogLinks": [
                "https://en.wikipedia.org/wiki/U.S._Route_395_in_California"
            ],
            "longitude": "-118.409136"
        },
        "san bernardino county": {
            "latitude": "34.8253019",
            "closest_to": "pasadena",
            "address": "San Bernardino County, California, United States of America",
            "locType": "administrative",
            "blogLinks": [
                "https://en.wikipedia.org/wiki/U.S._Route_395_in_California"
            ],
            "longitude": "-116.0833143"
        },
        "kern river": {
            "latitude": "36.6816956",
            "closest_to": "pasadena",
            "address": "Kern River, Tulare County, California, United States of America",
            "locType": "river",
            "blogLinks": [
                "http://www.california-blog.com/"
            ],
            "longitude": "-118.4124188"
        },
        "state route 168": {
            "latitude": "37.484814",
            "closest_to": "pasadena",
            "address": "CA 266, Mono County, California, United States of America",
            "locType": "secondary",
            "blogLinks": [
                "http://www.mammothmountain.com/winter/plan-a-vacation/plan-a-vacation/getting-here"
            ],
            "longitude": "-117.8736649"
        },
        "china lake boulevard": {
            "latitude": "35.6507888",
            "closest_to": "pasadena",
            "address": "China Lake, Kern County, California, United States of America",
            "locType": "hamlet",
            "blogLinks": [
                "https://en.wikipedia.org/wiki/U.S._Route_395_in_California"
            ],
            "longitude": "-117.6617299"
        },
        "golden state freeway": {
            "latitude": "34.080595",
            "closest_to": "pasadena",
            "address": "Golden State Freeway, Dayton Avenue, Angelino Heights, LA, Los Angeles County, California, CA 90031, United States of America",
            "locType": "motorway",
            "blogLinks": [
                "http://www.travbuddy.com/travel-blogs/3049/"
            ],
            "longitude": "-118.2219316"
        },
        "wilshire blvd": {
            "latitude": "34.0617231",
            "closest_to": "pasadena",
            "address": "Wilshire Boulevard, Koreatown, Saint James Park, LA, Los Angeles County, California, 90005, United States of America",
            "locType": "primary",
            "blogLinks": [
                "http://losangeles.cbslocal.com/top-lists/best-camping-spots-near-los-angeles/"
            ],
            "longitude": "-118.3036614"
        },
        "mammoth lakes california": {
            "latitude": "37.6432525",
            "closest_to": "mammoth lakes",
            "address": "Mammoth Lakes, Mono County, California, United States of America",
            "locType": "administrative",
            "blogLinks": [
                "http://www.travbuddy.com/travel-blogs/3049/"
            ],
            "longitude": "-118.9668508"
        },
        "pacific crest": {
            "latitude": "33.4906116",
            "closest_to": "pasadena",
            "address": "Pacific Crest, Laguna Niguel, Orange County, California, 92677, United States of America",
            "locType": "residential",
            "blogLinks": [
                "http://wikitravel.org/en/Mammoth_Lakes"
            ],
            "longitude": "-117.694672"
        },
        "sierra nevada resort": {
            "latitude": "37.6435778",
            "closest_to": "mammoth lakes",
            "address": "The Sierra Nevada Resort, 164, Laurel Mountain Road, Mammoth Lakes, Mono County, California, 93546, United States of America",
            "locType": "hotel",
            "blogLinks": [
                "http://wikitravel.org/en/Mammoth_Lakes"
            ],
            "longitude": "-118.9671366"
        },
        "mount witney": {
            "latitude": "37.662392",
            "closest_to": "mammoth lakes",
            "address": "Witney Court, Modesto, Stanislaus County, California, 95355, United States of America",
            "locType": "residential",
            "blogLinks": [
                "http://www.travbuddy.com/travel-blogs/3049/"
            ],
            "longitude": "-120.9568829"
        },
        "palos verdes peninsula ca": {
            "latitude": "33.77984925",
            "closest_to": "pasadena",
            "address": "Palos Verdes Peninsula High School, Hawthorne Boulevard, Rolling Hills Estates, Los Angeles County, California, 90274, United States of America",
            "locType": "school",
            "blogLinks": [
                "http://www.california-blog.com/"
            ],
            "longitude": "-118.372196730215"
        },
        "tioga pass": {
            "latitude": "37.9109049",
            "closest_to": "mammoth lakes",
            "address": "Tioga Pass, Tuolumne County, California, United States of America",
            "locType": "yes",
            "blogLinks": [
                "https://www.tripadvisor.co.uk/Travel-g28926-c182361/California:United-States:Las.Vegas.To.Yosemite.National.Park.html",
                "https://www.tripadvisor.in/ShowTopic-g60791-i711-k4239053-Sites_stops_best_route_between_Las_Vegas_and_San_Francisco-Mammoth_Lakes_California.html",
                "https://en.wikipedia.org/wiki/U.S._Route_395_in_California"
            ],
            "longitude": "-119.2578542"
        },
        "manzanar": {
            "latitude": "36.7399318",
            "closest_to": "pasadena",
            "address": "Manzanar, Inyo County, California, United States of America",
            "locType": "hamlet",
            "blogLinks": [
                "https://www.tripadvisor.co.uk/Travel-g28926-c182361/California:United-States:Las.Vegas.To.Yosemite.National.Park.html",
                "http://www.travbuddy.com/travel-blogs/3049/"
            ],
            "longitude": "-118.0806456"
        },
        "mojave river": {
            "latitude": "34.810823",
            "closest_to": "pasadena",
            "address": "Mojave River, San Bernardino County, California, United States of America",
            "locType": "river",
            "blogLinks": [
                "https://en.wikipedia.org/wiki/U.S._Route_395_in_California"
            ],
            "longitude": "-117.2140293"
        },
        "lake casitas": {
            "latitude": "34.39272655",
            "closest_to": "pasadena",
            "address": "Lake Casitas, Haley Ranch Road, Live Oak Acres, Ventura County, California, 93022, United States of America",
            "locType": "water",
            "blogLinks": [
                "http://losangeles.cbslocal.com/top-lists/best-camping-spots-near-los-angeles/"
            ],
            "longitude": "-119.333147221653"
        },
        "tenaya lake": {
            "latitude": "37.8310253",
            "closest_to": "mammoth lakes",
            "address": "Tenaya Lake, Tenaya Lake Trail, Mariposa County, California, United States of America",
            "locType": "water",
            "blogLinks": [
                "https://www.tripadvisor.co.uk/Travel-g28926-c182361/California:United-States:Las.Vegas.To.Yosemite.National.Park.html"
            ],
            "longitude": "-119.461466359589"
        },
        "mammoth lakes": {
            "latitude": "37.6432525",
            "closest_to": "mammoth lakes",
            "address": "Mammoth Lakes, Mono County, California, United States of America",
            "locType": "administrative",
            "blogLinks": [
                "https://www.tripadvisor.com/Attractions-g60791-Activities-Mammoth_Lakes_California.html",
                "http://blog.uvm.edu/kahayes-cdae102f16/2016/10/26/political-capital-in-mammoth-lakes-ca/",
                "http://www.visitmammoth.com/",
                "http://www.katherinebelarmino.com/2016/10/things-to-do-in-mammoth-in-summer.html",
                "http://wikitravel.org/en/Mammoth_Lakes",
                "https://en.wikipedia.org/wiki/U.S._Route_395_in_California",
                "https://www.tripadvisor.com/Tourism-g60791-Mammoth_Lakes_California-Vacations.html"
            ],
            "longitude": "-118.9668508"
        },
        "tamarack lodge": {
            "latitude": "38.439079",
            "closest_to": "mammoth lakes",
            "address": "Tamarack Lodge, CA 4, Cottage Springs, Calaveras County, California, United States of America",
            "locType": "hotel",
            "blogLinks": [
                "http://wikitravel.org/en/Mammoth_Lakes"
            ],
            "longitude": "-120.076021"
        },
        "us": {
            "latitude": "36.7014631",
            "closest_to": "pasadena",
            "address": "California, United States of America",
            "locType": "administrative",
            "blogLinks": [
                "http://www.tripleblaze.com/best/?c=59",
                "https://www.tripadvisor.com.au/ShowTopic-g32655-i61-k484955-Places_to_visit_near_LA-Los_Angeles_California.html",
                "https://en.wikipedia.org/wiki/U.S._Route_395_in_California",
                "http://www.mammothmountain.com/winter/plan-a-vacation/plan-a-vacation/getting-here",
                "http://wikitravel.org/en/Mammoth_Lakes"
            ],
            "longitude": "-118.7559973"
        },
        "lax": {
            "latitude": "33.94211345",
            "closest_to": "pasadena",
            "address": "Los Angeles International Airport, Gate 41, Westchester, Playa del Rey, LA, Los Angeles County, California, 90245, United States of America",
            "locType": "aerodrome",
            "blogLinks": [
                "http://www.mammothmountain.com/winter/plan-a-vacation/plan-a-vacation/getting-here"
            ],
            "longitude": "-118.407057290249"
        },
        "lone pine": {
            "latitude": "36.583176",
            "closest_to": "pasadena",
            "address": "Lone Pine, Tuttle Creek Road, Alabama Hills, Inyo County, California, 93545, United States of America",
            "locType": "administrative",
            "blogLinks": [
                "https://www.tripadvisor.co.uk/Travel-g28926-c182361/California:United-States:Las.Vegas.To.Yosemite.National.Park.html",
                "https://en.wikipedia.org/wiki/U.S._Route_395_in_California",
                "http://www.travbuddy.com/travel-blogs/3049/",
                "http://wikitravel.org/en/Mammoth_Lakes"
            ],
            "longitude": "-118.078359194897"
        },
        "morro bay ca": {
            "latitude": "35.3658075",
            "closest_to": "pasadena",
            "address": "Morro Bay, San Luis Obispo County, California, United States of America",
            "locType": "city",
            "blogLinks": [
                "http://www.california-blog.com/"
            ],
            "longitude": "-120.8499012"
        },
        "cartago": {
            "latitude": "36.3160425",
            "closest_to": "pasadena",
            "address": "Cartago, US 395, Cartago, Inyo County, California, United States of America",
            "locType": "administrative",
            "blogLinks": [
                "https://en.wikipedia.org/wiki/U.S._Route_395_in_California"
            ],
            "longitude": "-118.025758368858"
        },
        "tuolumne meadows": {
            "latitude": "37.8741952",
            "closest_to": "mammoth lakes",
            "address": "Tuolumne Meadows, Tuolumne County, California, United States of America",
            "locType": "suburb",
            "blogLinks": [
                "https://www.tripadvisor.co.uk/Travel-g28926-c182361/California:United-States:Las.Vegas.To.Yosemite.National.Park.html",
                "https://www.tripadvisor.in/ShowTopic-g60791-i711-k4239053-Sites_stops_best_route_between_Las_Vegas_and_San_Francisco-Mammoth_Lakes_California.html"
            ],
            "longitude": "-119.3575555"
        },
        "trestles beach": {
            "latitude": "33.38639155",
            "closest_to": "pasadena",
            "address": "Trestles Beach, San Diego Freeway, Marine Corps Base Camp Pendleton, San Diego County, California, 92672, United States of America",
            "locType": "beach",
            "blogLinks": [
                "http://losangeles.cbslocal.com/top-lists/best-camping-spots-near-los-angeles/"
            ],
            "longitude": "-117.590836068885"
        },
        "park city": {
            "latitude": "32.9801019",
            "closest_to": "pasadena",
            "address": "Park City, San Diego County, California, United States of America",
            "locType": "hamlet",
            "blogLinks": [
                "http://blog.uvm.edu/kahayes-cdae102f16/2016/10/26/political-capital-in-mammoth-lakes-ca/"
            ],
            "longitude": "-117.0411732"
        },
        "sonoma": {
            "latitude": "38.5110803",
            "closest_to": "mammoth lakes",
            "address": "Sonoma County, California, United States of America",
            "locType": "administrative",
            "blogLinks": [
                "http://www.tripleblaze.com/best/?c=59"
            ],
            "longitude": "-122.8473387"
        },
        "coleville": {
            "latitude": "38.5662988",
            "closest_to": "mammoth lakes",
            "address": "Coleville, Mono County, California, United States of America",
            "locType": "hamlet",
            "blogLinks": [
                "https://en.wikipedia.org/wiki/U.S._Route_395_in_California"
            ],
            "longitude": "-119.5071118"
        },
        "baja": {
            "latitude": "33.632613",
            "closest_to": "pasadena",
            "address": "Baja, Newport Center, Newport Beach, Orange County, California, 92660, United States of America",
            "locType": "residential",
            "blogLinks": [
                "http://www.katherinebelarmino.com/2016/10/things-to-do-in-mammoth-in-summer.html"
            ],
            "longitude": "-117.8813349"
        },
        "sierra mountain": {
            "latitude": "39.5849065",
            "closest_to": "mammoth lakes",
            "address": "Sierra County, California, United States of America",
            "locType": "administrative",
            "blogLinks": [
                "http://blog.uvm.edu/kahayes-cdae102f16/2016/10/26/political-capital-in-mammoth-lakes-ca/"
            ],
            "longitude": "-120.530573"
        },
        "antelope valley freeway": {
            "latitude": "34.5816462",
            "closest_to": "pasadena",
            "address": "Antelope Valley Freeway, Palmdale, Los Angeles County, California, 93550, United States of America",
            "locType": "motorway",
            "blogLinks": [
                "http://www.travbuddy.com/travel-blogs/3049/"
            ],
            "longitude": "-118.1338867"
        },
        "susanville municipal airport": {
            "latitude": "40.3758",
            "closest_to": "mammoth lakes",
            "address": "Susanville Municipal Airport, Waldron Lane, Johnstonville, Lassen County, California, 96130, United States of America",
            "locType": "aerodrome",
            "blogLinks": [
                "https://en.wikipedia.org/wiki/U.S._Route_395_in_California"
            ],
            "longitude": "-120.5729999"
        },
        "lake loop": {
            "latitude": "33.330509",
            "closest_to": "pasadena",
            "address": "The Loop, Pauma Valley, San Diego County, California, 92061, United States of America",
            "locType": "residential",
            "blogLinks": [
                "https://www.tripadvisor.co.uk/Travel-g28926-c182361/California:United-States:Las.Vegas.To.Yosemite.National.Park.html",
                "http://www.katherinebelarmino.com/2016/10/things-to-do-in-mammoth-in-summer.html"
            ],
            "longitude": "-116.9821009"
        },
        "olancha": {
            "latitude": "36.270251",
            "closest_to": "pasadena",
            "address": "Olancha, US 395, Grant, Inyo County, California, 93549, United States of America",
            "locType": "administrative",
            "blogLinks": [
                "https://en.wikipedia.org/wiki/U.S._Route_395_in_California",
                "http://www.travbuddy.com/travel-blogs/3049/"
            ],
            "longitude": "-117.999811836627"
        },
        "colorado": {
            "latitude": "33.71351445",
            "closest_to": "pasadena",
            "address": "Colorado, Walnut, Irvine, Orange County, California, 92606, United States of America",
            "locType": "residential",
            "blogLinks": [
                "https://en.wikipedia.org/wiki/U.S._Route_395_in_California"
            ],
            "longitude": "-117.791165718199"
        },
        "nevada": {
            "latitude": "39.3540335",
            "closest_to": "mammoth lakes",
            "address": "Nevada County, California, United States of America",
            "locType": "administrative",
            "blogLinks": [
                "https://en.wikipedia.org/wiki/U.S._Route_395_in_California"
            ],
            "longitude": "-120.8089842"
        },
        "eaton canyon park": {
            "latitude": "34.18216575",
            "closest_to": "pasadena",
            "address": "Eaton Canyon Park, Canyon View Lane, Pasadena, Los Angeles County, California, 91107, United States of America",
            "locType": "park",
            "blogLinks": [
                "http://www.tripleblaze.com/best/?c=8"
            ],
            "longitude": "-118.095556461784"
        },
        "capitola": {
            "latitude": "36.9762927",
            "closest_to": "mammoth lakes",
            "address": "Capitola, Santa Cruz County, California, United States of America",
            "locType": "city",
            "blogLinks": [
                "https://www.tripadvisor.com.au/ShowTopic-g32655-i61-k484955-Places_to_visit_near_LA-Los_Angeles_California.html"
            ],
            "longitude": "-121.9540576"
        },
        "westin monache resort": {
            "latitude": "37.6492545",
            "closest_to": "mammoth lakes",
            "address": "The Westin Monache Resort, Monache Connector, Mammoth Lakes, Mono County, California, 93546, United States of America",
            "locType": "hotel",
            "blogLinks": [
                "http://www.katherinebelarmino.com/2016/10/things-to-do-in-mammoth-in-summer.html",
                "https://en.wikipedia.org/wiki/U.S._Route_395_in_California",
                "http://wikitravel.org/en/Mammoth_Lakes"
            ],
            "longitude": "-118.9862589"
        },
        "old town san diego": {
            "latitude": "32.7542167",
            "closest_to": "pasadena",
            "address": "Old Town San Diego, San Diego County, California, United States of America",
            "locType": "hamlet",
            "blogLinks": [
                "http://www.california-blog.com/"
            ],
            "longitude": "-117.1969792"
        },
        "chicago": {
            "latitude": "37.7850531",
            "closest_to": "mammoth lakes",
            "address": "Chicago, Woodstock, Alameda, Alameda County, California, 94501, United States of America",
            "locType": "residential",
            "blogLinks": [
                "https://en.wikipedia.org/wiki/U.S._Route_395_in_California"
            ],
            "longitude": "-122.2872948"
        },
        "aliso creek": {
            "latitude": "33.602558",
            "closest_to": "pasadena",
            "address": "Aliso Creek, Laguna Woods, Orange County, California, United States of America",
            "locType": "stream",
            "blogLinks": [
                "http://www.tripleblaze.com/best/?c=8"
            ],
            "longitude": "-117.7034805"
        },
        "mount baldy ca": {
            "latitude": "34.2361168",
            "closest_to": "pasadena",
            "address": "Mount Baldy, Los Angeles County, California, United States of America",
            "locType": "hamlet",
            "blogLinks": [
                "http://www.california-blog.com/"
            ],
            "longitude": "-117.6600552"
        },
        "california-nevada": {
            "latitude": "36.17310935",
            "closest_to": "pasadena",
            "address": "California Hotel, Sky Walk(Connection from Main Street to California, Cultural Corridor, Vegas Heights, Las Vegas, Clark County, Nevada, 89101, United States of America",
            "locType": "hotel",
            "blogLinks": [
                "https://en.wikipedia.org/wiki/U.S._Route_395_in_California"
            ],
            "longitude": "-115.144667930325"
        },
        "hallelujah junction": {
            "latitude": "39.7753813",
            "closest_to": "mammoth lakes",
            "address": "Hallelujah Junction, Lassen County, California, United States of America",
            "locType": "hamlet",
            "blogLinks": [
                "https://en.wikipedia.org/wiki/U.S._Route_395_in_California"
            ],
            "longitude": "-120.0396755"
        },
        "el paso mountains": {
            "latitude": "35.50768425",
            "closest_to": "pasadena",
            "address": "El Paso Mountains Wilderness, Mesquite Canyon Road, Kern County, California, United States of America",
            "locType": "protected_area",
            "blogLinks": [
                "https://en.wikipedia.org/wiki/U.S._Route_395_in_California"
            ],
            "longitude": "-117.856838021309"
        },
        "mojave": {
            "latitude": "35.0524699",
            "closest_to": "pasadena",
            "address": "Mojave, Kern County, California, United States of America",
            "locType": "village",
            "blogLinks": [
                "http://www.travbuddy.com/travel-blogs/3049/"
            ],
            "longitude": "-118.1739644"
        },
        "june lake loop road": {
            "latitude": "37.830602",
            "closest_to": "mammoth lakes",
            "address": "June Lake Loop Road, Mono County, California, United States of America",
            "locType": "secondary",
            "blogLinks": [
                "https://en.wikipedia.org/wiki/U.S._Route_395_in_California"
            ],
            "longitude": "-119.1224879"
        },
        "antelope valley": {
            "latitude": "34.67743",
            "closest_to": "pasadena",
            "address": "Antelope Valley College, West Avenue K, Lancaster, Los Angeles County, California, 93536, United States of America",
            "locType": "college",
            "blogLinks": [
                "https://en.wikipedia.org/wiki/U.S._Route_395_in_California"
            ],
            "longitude": "-118.1865629"
        },
        "morongo valley": {
            "latitude": "34.0537585",
            "closest_to": "pasadena",
            "address": "Morongo Valley, Vista Drive, Morongo Valley, San Bernardino County, California, 92256, United States of America",
            "locType": "administrative",
            "blogLinks": [
                "http://www.california-blog.com/"
            ],
            "longitude": "-116.596723958419"
        },
        "main street": {
            "latitude": "34.10780565",
            "closest_to": "pasadena",
            "address": "Main Street, Alta Loma, Rancho Cucamonga, San Bernardino County, California, 91730, United States of America",
            "locType": "residential",
            "blogLinks": [
                "http://wikitravel.org/en/Mammoth_Lakes"
            ],
            "longitude": "-117.59857297034"
        },
        "alabama hills": {
            "latitude": "36.5677117",
            "closest_to": "pasadena",
            "address": "Alabama Hills, Inyo County, California, United States of America",
            "locType": "hamlet",
            "blogLinks": [
                "https://www.tripadvisor.co.uk/Travel-g28926-c182361/California:United-States:Las.Vegas.To.Yosemite.National.Park.html",
                "http://www.travbuddy.com/travel-blogs/3049/"
            ],
            "longitude": "-118.0898096"
        },
        "loon lake": {
            "latitude": "38.9998212",
            "closest_to": "mammoth lakes",
            "address": "Loon Lake, Ice House Road, El Dorado County, California, United States of America",
            "locType": "water",
            "blogLinks": [
                "http://www.tripleblaze.com/best/?c=59"
            ],
            "longitude": "-120.306228938508"
        },
        "montana": {
            "latitude": "37.413991",
            "closest_to": "pasadena",
            "address": "Montana, Rovana, Inyo County, California, United States of America",
            "locType": "residential",
            "blogLinks": [
                "http://www.tripleblaze.com/best/?c=59"
            ],
            "longitude": "-118.6129969"
        },
        "los angeles aqueduct": {
            "latitude": "36.6516297",
            "closest_to": "pasadena",
            "address": "Los Angeles Aqueduct, Inyo County, California, United States of America",
            "locType": "canal",
            "blogLinks": [
                "https://en.wikipedia.org/wiki/U.S._Route_395_in_California",
                "http://www.travbuddy.com/travel-blogs/3049/"
            ],
            "longitude": "-118.0956309"
        },
        "mojave desert": {
            "latitude": "35.1456319",
            "closest_to": "pasadena",
            "address": "Mojave Desert, Utility Road, San Bernardino County, California, United States of America",
            "locType": "desert",
            "blogLinks": [
                "https://en.wikipedia.org/wiki/U.S._Route_395_in_California"
            ],
            "longitude": "-115.548963686646"
        },
        "san elijo": {
            "latitude": "33.0228",
            "closest_to": "pasadena",
            "address": "San Elijo, Olivenhain, San Diego County, California, 92091, United States of America",
            "locType": "residential",
            "blogLinks": [
                "http://www.tripleblaze.com/best/?c=59"
            ],
            "longitude": "-117.2283709"
        },
        "ontario": {
            "latitude": "34.065846",
            "closest_to": "pasadena",
            "address": "Ontario, San Bernardino County, California, United States of America",
            "locType": "city",
            "blogLinks": [
                "http://www.california-blog.com/"
            ],
            "longitude": "-117.6484303"
        },
        "aurora": {
            "latitude": "37.65993",
            "closest_to": "mammoth lakes",
            "address": "Aurora, Stanislaus County, California, United States of America",
            "locType": "hamlet",
            "blogLinks": [
                "https://en.wikipedia.org/wiki/U.S._Route_395_in_California"
            ],
            "longitude": "-121.002712"
        },
        "panamint springs": {
            "latitude": "36.3396838",
            "closest_to": "pasadena",
            "address": "Panamint Springs, Inyo County, California, United States of America",
            "locType": "hamlet",
            "blogLinks": [
                "https://www.tripadvisor.co.uk/Travel-g28926-c182361/California:United-States:Las.Vegas.To.Yosemite.National.Park.html"
            ],
            "longitude": "-117.4680347"
        },
        "sierra nevada range": {
            "latitude": "33.9545792",
            "closest_to": "pasadena",
            "address": "Via Sierra Nevada, Riverside, Riverside County, California, 92507, United States of America",
            "locType": "residential",
            "blogLinks": [
                "http://www.mammothmountain.com/winter/plan-a-vacation/plan-a-vacation/getting-here"
            ],
            "longitude": "-117.3273329"
        },
        "laurel mountain": {
            "latitude": "35.4799594",
            "closest_to": "pasadena",
            "address": "Laurel Mountain, Kern County, California, United States of America",
            "locType": "peak",
            "blogLinks": [
                "http://wikitravel.org/en/Mammoth_Lakes"
            ],
            "longitude": "-117.6828395"
        },
        "monrovia": {
            "latitude": "34.1483499",
            "closest_to": "pasadena",
            "address": "Monrovia, Los Angeles County, California, United States of America",
            "locType": "city",
            "blogLinks": [
                "http://www.california-blog.com/"
            ],
            "longitude": "-118.0014516"
        },
        "pomerado road": {
            "latitude": "33.0204731",
            "closest_to": "pasadena",
            "address": "Pomerado Road, San Diego, San Diego County, California, 92064, United States of America",
            "locType": "primary",
            "blogLinks": [
                "https://en.wikipedia.org/wiki/U.S._Route_395_in_California"
            ],
            "longitude": "-117.0610217"
        },
        "camp pendleton": {
            "latitude": "33.2167022",
            "closest_to": "pasadena",
            "address": "Camp Pendleton Boat Basin, San Diego County, California, United States of America",
            "locType": "dock",
            "blogLinks": [
                "http://losangeles.cbslocal.com/top-lists/best-camping-spots-near-los-angeles/"
            ],
            "longitude": "-117.4000394"
        },
        "la": {
            "latitude": "36.7014631",
            "closest_to": "pasadena",
            "address": "California, United States of America",
            "locType": "administrative",
            "blogLinks": [
                "http://www.visitmammoth.com/adventures",
                "https://www.tripadvisor.com.au/ShowTopic-g32655-i61-k484955-Places_to_visit_near_LA-Los_Angeles_California.html"
            ],
            "longitude": "-118.7559973"
        },
        "palm springs air museum ca": {
            "latitude": "33.83250375",
            "closest_to": "pasadena",
            "address": "Palm Springs Air Museum, 745, North Gene Autry Trail, Palm Springs, Riverside County, California, 92262, United States of America",
            "locType": "museum",
            "blogLinks": [
                "http://www.california-blog.com/"
            ],
            "longitude": "-116.504677958796"
        },
        "death valley": {
            "latitude": "36.42404725",
            "closest_to": "pasadena",
            "address": "Death Valley, Timbisha, Inyo County, California, 92328, United States of America",
            "locType": "desert",
            "blogLinks": [
                "https://www.tripadvisor.co.uk/Travel-g28926-c182361/California:United-States:Las.Vegas.To.Yosemite.National.Park.html",
                "https://www.tripadvisor.in/ShowTopic-g60791-i711-k4239053-Sites_stops_best_route_between_Las_Vegas_and_San_Francisco-Mammoth_Lakes_California.html",
                "https://en.wikipedia.org/wiki/U.S._Route_395_in_California",
                "http://www.mammothmountain.com/winter/plan-a-vacation/plan-a-vacation/getting-here"
            ],
            "longitude": "-116.914043572057"
        },
        "san bernardino": {
            "latitude": "34.1083449",
            "closest_to": "pasadena",
            "address": "San Bernardino, San Bernardino County, California, United States of America",
            "locType": "city",
            "blogLinks": [
                "https://en.wikipedia.org/wiki/U.S._Route_395_in_California"
            ],
            "longitude": "-117.2897651"
        },
        "massachusetts": {
            "latitude": "32.728622",
            "closest_to": "pasadena",
            "address": "Massachusetts Avenue, Lemon Grove, San Diego County, California, 91941:91945, United States of America",
            "locType": "secondary",
            "blogLinks": [
                "https://en.wikipedia.org/wiki/U.S._Route_395_in_California"
            ],
            "longitude": "-117.0430219"
        },
        "mammoth yosemite airport": {
            "latitude": "37.6248165",
            "closest_to": "pasadena",
            "address": "Mammoth Yosemite Airport, US 395, South Landing, Mono County, California, United States of America",
            "locType": "aerodrome",
            "blogLinks": [
                "https://en.wikipedia.org/wiki/U.S._Route_395_in_California"
            ],
            "longitude": "-118.8408336"
        },
        "reds meadow valley": {
            "latitude": "37.61979385",
            "closest_to": "pasadena",
            "address": "Reds Meadow Campground, Minaret Summit Road, Madera County, California, United States of America",
            "locType": "camp_site",
            "blogLinks": [
                "http://www.katherinebelarmino.com/2016/10/things-to-do-in-mammoth-in-summer.html"
            ],
            "longitude": "-119.074871416416"
        },
        "solvang": {
            "latitude": "34.5958572",
            "closest_to": "pasadena",
            "address": "Solvang, Santa Barbara County, California, United States of America",
            "locType": "city",
            "blogLinks": [
                "https://www.tripadvisor.com.au/ShowTopic-g32655-i61-k484955-Places_to_visit_near_LA-Los_Angeles_California.html"
            ],
            "longitude": "-120.1390893"
        },
        "oregon": {
            "latitude": "33.7123207",
            "closest_to": "pasadena",
            "address": "Oregon, Walnut, Irvine, Orange County, California, 92606, United States of America",
            "locType": "residential",
            "blogLinks": [
                "https://en.wikipedia.org/wiki/U.S._Route_395_in_California"
            ],
            "longitude": "-117.7911567"
        },
        "red 's meadow": {
            "latitude": "39.0015214",
            "closest_to": "mammoth lakes",
            "address": "Red Bud Lane, Meadow Vista, Placer County, California, 95722, United States of America",
            "locType": "residential",
            "blogLinks": [
                "https://www.tripadvisor.co.uk/ShowTopic-g60791-i711-k5944305-Driving_to_Mammoth_from_Pasadena_at_Christmas-Mammoth_Lakes_California.html"
            ],
            "longitude": "-121.0121434"
        },
        "chinatown": {
            "latitude": "37.7999301",
            "closest_to": "mammoth lakes",
            "address": "Chinatown, Oakland, Alameda County, California, ca, United States of America",
            "locType": "neighbourhood",
            "blogLinks": [
                "http://www.travbuddy.com/travel-blogs/3049/"
            ],
            "longitude": "-122.2702385"
        },
        "honey lake": {
            "latitude": "40.23087665",
            "closest_to": "mammoth lakes",
            "address": "Honey Lake, Highway 395, Lassen County, California, United States of America",
            "locType": "water",
            "blogLinks": [
                "https://en.wikipedia.org/wiki/U.S._Route_395_in_California"
            ],
            "longitude": "-120.371659022941"
        },
        "base camp cafe": {
            "latitude": "37.6476194",
            "closest_to": "mammoth lakes",
            "address": "Base Camp Cafe, Frontage Road, Mammoth Lakes, Mono County, California, 93546, United States of America",
            "locType": "restaurant",
            "blogLinks": [
                "http://wikitravel.org/en/Mammoth_Lakes"
            ],
            "longitude": "-118.9713452"
        },
        "dc": {
            "latitude": "34.0838451",
            "closest_to": "pasadena",
            "address": "Dc Martens, Melrose Avenue, Park La Brea, Hollywood, LA, Los Angeles County, California, 90069, United States of America",
            "locType": "shoes",
            "blogLinks": [
                "https://en.wikipedia.org/wiki/U.S._Route_395_in_California"
            ],
            "longitude": "-118.3558096"
        },
        "mt whitney": {
            "latitude": "36.5784428",
            "closest_to": "pasadena",
            "address": "Mount Whitney, Inyo County, California, United States of America",
            "locType": "peak",
            "blogLinks": [
                "https://www.tripadvisor.co.uk/Travel-g28926-c182361/California:United-States:Las.Vegas.To.Yosemite.National.Park.html"
            ],
            "longitude": "-118.2922848"
        },
        "southern california": {
            "latitude": "34.0224149",
            "closest_to": "pasadena",
            "address": "University of Southern California, Watt Way, Saint James Park, LA, Los Angeles County, California, 90089, United States of America",
            "locType": "university",
            "blogLinks": [
                "https://en.wikipedia.org/wiki/U.S._Route_395_in_California",
                "http://losangeles.cbslocal.com/top-lists/best-camping-spots-near-los-angeles/"
            ],
            "longitude": "-118.286343973446"
        },
        "beckwourth pass": {
            "latitude": "39.7907307",
            "closest_to": "mammoth lakes",
            "address": "Beckwourth Pass, CA 70, Reno Junction, Lassen County, California, United States of America",
            "locType": "saddle",
            "blogLinks": [
                "https://en.wikipedia.org/wiki/U.S._Route_395_in_California"
            ],
            "longitude": "-120.1083993"
        },
        "north lake ca": {
            "latitude": "37.76958295",
            "closest_to": "mammoth lakes",
            "address": "North Lake, Chain of Lakes Drive East, Sunset District, SF, California, 94122, United States of America",
            "locType": "water",
            "blogLinks": [
                "http://www.california-blog.com/"
            ],
            "longitude": "-122.501983281136"
        },
        "pahrump": {
            "latitude": "36.247308",
            "closest_to": "pasadena",
            "address": "California Street, Pahrump, Nye County, Nevada, 89048, United States of America",
            "locType": "track",
            "blogLinks": [
                "https://www.tripadvisor.co.uk/Travel-g28926-c182361/California:United-States:Las.Vegas.To.Yosemite.National.Park.html"
            ],
            "longitude": "-116.0732579"
        },
        "magic mountain": {
            "latitude": "34.4724515",
            "closest_to": "pasadena",
            "address": "Magic Mountain, Ventura County, California, United States of America",
            "locType": "peak",
            "blogLinks": [
                "http://www.travbuddy.com/travel-blogs/3049/"
            ],
            "longitude": "-119.2563693"
        },
        "lassen county": {
            "latitude": "40.7685579",
            "closest_to": "mammoth lakes",
            "address": "Lassen County, California, United States of America",
            "locType": "administrative",
            "blogLinks": [
                "https://en.wikipedia.org/wiki/U.S._Route_395_in_California"
            ],
            "longitude": "-120.7309979"
        },
        "topaz lake": {
            "latitude": "38.67535995",
            "closest_to": "mammoth lakes",
            "address": "Topaz Lake, US 395, Mono County, California, 96133, United States of America",
            "locType": "water",
            "blogLinks": [
                "https://en.wikipedia.org/wiki/U.S._Route_395_in_California"
            ],
            "longitude": "-119.539277195995"
        },
        "mount whitney": {
            "latitude": "36.5784428",
            "closest_to": "pasadena",
            "address": "Mount Whitney, Inyo County, California, United States of America",
            "locType": "peak",
            "blogLinks": [
                "https://www.tripadvisor.co.uk/Travel-g28926-c182361/California:United-States:Las.Vegas.To.Yosemite.National.Park.html",
                "https://en.wikipedia.org/wiki/U.S._Route_395_in_California",
                "http://www.mammothmountain.com/winter/plan-a-vacation/plan-a-vacation/getting-here"
            ],
            "longitude": "-118.2922848"
        },
        "old mammoth rd.": {
            "latitude": "37.629039",
            "closest_to": "pasadena",
            "address": "Old Mammoth Road, Mammoth Lakes, Mono County, California, 93546, United States of America",
            "locType": "secondary",
            "blogLinks": [
                "http://wikitravel.org/en/Mammoth_Lakes"
            ],
            "longitude": "-118.9799199"
        },
        "san diego": {
            "latitude": "32.7174209",
            "closest_to": "pasadena",
            "address": "San Diego, San Diego County, California, United States of America",
            "locType": "city",
            "blogLinks": [
                "http://www.tripleblaze.com/best/?c=8",
                "http://www.katherinebelarmino.com/2016/10/things-to-do-in-mammoth-in-summer.html",
                "https://en.wikipedia.org/wiki/U.S._Route_395_in_California"
            ],
            "longitude": "-117.1627713"
        },
        "badwater road": {
            "latitude": "36.06739",
            "closest_to": "pasadena",
            "address": "Badwater Road, Inyo County, California, United States of America",
            "locType": "secondary",
            "blogLinks": [
                "https://www.tripadvisor.co.uk/Travel-g28926-c182361/California:United-States:Las.Vegas.To.Yosemite.National.Park.html"
            ],
            "longitude": "-116.7481439"
        },
        "carson city": {
            "latitude": "39.125696",
            "closest_to": "mammoth lakes",
            "address": "California Street, Carson City, Nevada, 89701, United States of America",
            "locType": "residential",
            "blogLinks": [
                "https://en.wikipedia.org/wiki/U.S._Route_395_in_California"
            ],
            "longitude": "-119.7658449"
        },
        "pacific highway": {
            "latitude": "32.721338",
            "closest_to": "pasadena",
            "address": "Pacific Highway, Hillcrest, San Diego, San Diego County, California, 92110, United States of America",
            "locType": "primary",
            "blogLinks": [
                "https://en.wikipedia.org/wiki/U.S._Route_395_in_California"
            ],
            "longitude": "-117.1711169"
        },
        "johannesburg": {
            "latitude": "35.3732015",
            "closest_to": "pasadena",
            "address": "Johannesburg, Johannesburg Avenue, Kern County, California, 93528, United States of America",
            "locType": "administrative",
            "blogLinks": [
                "https://en.wikipedia.org/wiki/U.S._Route_395_in_California"
            ],
            "longitude": "-117.643287330498"
        },
        "hawthorne": {
            "latitude": "33.9113109",
            "closest_to": "pasadena",
            "address": "Hawthorne, Los Angeles County, California, United States of America",
            "locType": "city",
            "blogLinks": [
                "https://en.wikipedia.org/wiki/U.S._Route_395_in_California"
            ],
            "longitude": "-118.3477941"
        },
        "june lake": {
            "latitude": "37.7807507",
            "closest_to": "mammoth lakes",
            "address": "June Lake, Mono County, California, United States of America",
            "locType": "town",
            "blogLinks": [
                "https://en.wikipedia.org/wiki/U.S._Route_395_in_California",
                "http://losangeles.cbslocal.com/top-lists/best-camping-spots-near-los-angeles/"
            ],
            "longitude": "-119.080801214763"
        },
        "ridgecrest": {
            "latitude": "35.6225064",
            "closest_to": "pasadena",
            "address": "Ridgecrest, Kern County, California, United States of America",
            "locType": "city",
            "blogLinks": [
                "https://en.wikipedia.org/wiki/U.S._Route_395_in_California"
            ],
            "longitude": "-117.6699413"
        },
        "sierra nevada": {
            "latitude": "39.097593",
            "closest_to": "mammoth lakes",
            "address": "Sierra, Wolf, Nevada County, California, 95949, United States of America",
            "locType": "residential",
            "blogLinks": [
                "http://www.katherinebelarmino.com/2016/10/things-to-do-in-mammoth-in-summer.html",
                "https://en.wikipedia.org/wiki/U.S._Route_395_in_California",
                "http://losangeles.cbslocal.com/top-lists/best-camping-spots-near-los-angeles/",
                "http://www.travbuddy.com/travel-blogs/3049/",
                "http://wikitravel.org/en/Mammoth_Lakes"
            ],
            "longitude": "-121.1396689"
        },
        "june lake junction": {
            "latitude": "37.8124299",
            "closest_to": "mammoth lakes",
            "address": "June Lake Junction, Mono County, California, United States of America",
            "locType": "hamlet",
            "blogLinks": [
                "https://en.wikipedia.org/wiki/U.S._Route_395_in_California"
            ],
            "longitude": "-119.0543116"
        },
        "kramer junction": {
            "latitude": "34.9923463",
            "closest_to": "pasadena",
            "address": "Kramer Junction, San Bernardino County, California, United States of America",
            "locType": "hamlet",
            "blogLinks": [
                "https://en.wikipedia.org/wiki/U.S._Route_395_in_California"
            ],
            "longitude": "-117.5416044"
        },
        "san francisco": {
            "latitude": "37.7792808",
            "closest_to": "mammoth lakes",
            "address": "SF, California, United States of America",
            "locType": "city",
            "blogLinks": [
                "https://www.tripadvisor.co.uk/Travel-g28926-c182361/California:United-States:Las.Vegas.To.Yosemite.National.Park.html",
                "https://www.tripadvisor.in/ShowTopic-g60791-i711-k4239053-Sites_stops_best_route_between_Las_Vegas_and_San_Francisco-Mammoth_Lakes_California.html",
                "http://www.katherinebelarmino.com/2016/10/things-to-do-in-mammoth-in-summer.html",
                "https://www.tripadvisor.com.au/ShowTopic-g32655-i61-k484955-Places_to_visit_near_LA-Los_Angeles_California.html",
                "https://en.wikipedia.org/wiki/U.S._Route_395_in_California"
            ],
            "longitude": "-122.4192362"
        },
        "owens river": {
            "latitude": "37.4100005",
            "closest_to": "pasadena",
            "address": "Owens River, Inyo County, California, United States of America",
            "locType": "river",
            "blogLinks": [
                "https://en.wikipedia.org/wiki/U.S._Route_395_in_California",
                "http://www.travbuddy.com/travel-blogs/3049/"
            ],
            "longitude": "-118.3819013"
        },