{
    "san bernardino": {
        "type": "city",
        "osm_id": "253639",
        "class": "place",
        "importance": 0.81183700771795,
        "lat": "34.1083449",
        "lon": "-117.2897651",
        "boundingbox": [
            "34.050346",
            "34.230706",
            "-117.4024519",
            "-117.1649719"
        ],
        "display_name": "San Bernardino, San Bernardino County, California, United States of America",
        "licence": "Data \u00a9 OpenStreetMap contributors, ODbL 1.0. http://www.openstreetmap.org/copyright",
        "icon": "https://nominatim.openstreetmap.org/images/mapicons/poi_place_city.p.20.png",
        "place_id": "159293643",
        "osm_type": "relation"
    },
    "mentions": {
        "prado regional park": {
            "latitude": "33.9419585",
            "closest_to": "santa ana",
            "address": "El Prado Regional Park, Euclid Avenue, Chino, San Bernardino County, California, 92878, United States of America",
            "locType": "park",
            "blogLinks": [
                "http://cms.sbcounty.gov/parks/Activities/Camping.aspx"
            ],
            "longitude": "-117.6594976"
        },
        "barcelona": {
            "latitude": "33.620459",
            "closest_to": "santa ana",
            "address": "Barcelona, El Toro Mobile Home Estates, Lake Forest, Orange County, California, 92694, United States of America",
            "locType": "residential",
            "blogLinks": [
                "http://wikitravel.org/en/Madrid"
            ],
            "longitude": "-117.6947324"
        },
        "rancho san bernardino": {
            "latitude": "34.1033192",
            "closest_to": "santa ana",
            "address": "Rancho Cucamonga, San Bernardino County, California, United States of America",
            "locType": "city",
            "blogLinks": [
                "http://www.californiaoutdoorplayground.com/Things-to-Do/Arts-Culture.aspx"
            ],
            "longitude": "-117.5751734"
        },
        "glendale": {
            "latitude": "34.1423455",
            "closest_to": "santa ana",
            "address": "Glendale, Los Angeles County, California, United States of America",
            "locType": "city",
            "blogLinks": [
                "http://www.bestplaces.net/city/california/santa_ana",
                "http://www.bestplaces.net/city/california/santa_fe_springs"
            ],
            "longitude": "-118.248367"
        },
        "norco": {
            "latitude": "33.9323307",
            "closest_to": "santa ana",
            "address": "Norco, Riverside County, California, 92860, United States of America",
            "locType": "city",
            "blogLinks": [
                "http://www.traillink.com/trail/santa-ana-river-trail.aspx"
            ],
            "longitude": "-117.55089"
        },
        "phoenix": {
            "latitude": "33.6988015",
            "closest_to": "santa ana",
            "address": "Phoenix, Heritage Park Apartments, El Camino Real, Irvine, Orange County, California, 92604, United States of America",
            "locType": "residential",
            "blogLinks": [
                "http://www.bestplaces.net/city/california/santa_ana"
            ],
            "longitude": "-117.7764481"
        },
        "asistencia": {
            "latitude": "34.0489029",
            "closest_to": "san bernardino",
            "address": "San Bernardino Asistencia, 26930, Barton Road, Redlands, San Bernardino County, California, 92373, United States of America",
            "locType": "heritage",
            "blogLinks": [
                "http://www.californiaoutdoorplayground.com/Things-to-Do/Arts-Culture.aspx"
            ],
            "longitude": "-117.2167061"
        },
        "huntington beach": {
            "latitude": "33.6783336",
            "closest_to": "santa ana",
            "address": "Huntington Beach, Orange County, California, United States of America",
            "locType": "city",
            "blogLinks": [
                "http://cms.sbcounty.gov/parks/Parks/SantaAnaRiverTrailandParkway.aspx",
                "http://www.traillink.com/trail/santa-ana-river-trail.aspx"
            ],
            "longitude": "-118.0000165"
        },
        "calle san bernardino": {
            "latitude": "34.0568856",
            "closest_to": "santa ana",
            "address": "C, Mission Boulevard, Ontario, San Bernardino County, California, 91761, United States of America",
            "locType": "taxiway",
            "blogLinks": [
                "http://wikitravel.org/en/Madrid"
            ],
            "longitude": "-117.6185428"
        },
        "redlands": {
            "latitude": "34.069909",
            "closest_to": "san bernardino",
            "address": "Redlands, San Bernardino County, California, United States of America",
            "locType": "city",
            "blogLinks": [
                "https://www.pinterest.com/pin/492510909221178685/"
            ],
            "longitude": "-117.248983896912"
        },
        "ibiza": {
            "latitude": "33.6353632",
            "closest_to": "santa ana",
            "address": "Ibiza, Tesoro Trails, Dove Canyon, Rancho Santa Margarita, Orange County, California, 92688, United States of America",
            "locType": "residential",
            "blogLinks": [
                "http://wikitravel.org/en/Madrid"
            ],
            "longitude": "-117.5989699"
        },
        "wrightwood": {
            "latitude": "34.3583535",
            "closest_to": "san bernardino",
            "address": "Wrightwood, Ross Street, Wrightwood, San Bernardino County, California, 92397, United States of America",
            "locType": "administrative",
            "blogLinks": [
                "http://cms.sbcounty.gov/parks/Activities/Camping.aspx"
            ],
            "longitude": "-117.627599739034"
        },
        "wilshire boulevard": {
            "latitude": "34.0617231",
            "closest_to": "santa ana",
            "address": "Wilshire Boulevard, Koreatown, Saint James Park, LA, Los Angeles County, California, 90005, United States of America",
            "locType": "primary",
            "blogLinks": [
                "http://distancecalculator.globefeed.com/US_Distance_Calculator.asp?state=CA"
            ],
            "longitude": "-118.3036614"
        },
        "santa fe springs": {
            "latitude": "33.9482434",
            "closest_to": "santa ana",
            "address": "Santa Fe Springs, Los Angeles County, California, United States of America",
            "locType": "city",
            "blogLinks": [
                "http://www.californiaoutdoorplayground.com/Things-to-Do/Arts-Culture.aspx",
                "http://www.bestplaces.net/city/california/santa_fe_springs"
            ],
            "longitude": "-118.0676102"
        },
        "santa ana river": {
            "latitude": "33.847255",
            "closest_to": "santa ana",
            "address": "Santa Ana River, Anaheim, Orange County, California, United States of America",
            "locType": "river",
            "blogLinks": [
                "http://www.californiaoutdoorplayground.com/Things-to-Do/Arts-Culture.aspx",
                "http://www.latimes.com/travel/la-trw-haunted31.pg-photogallery.html",
                "http://www.traillink.com/trail/santa-ana-river-trail.aspx"
            ],
            "longitude": "-117.8400508"
        },
        "santa monica": {
            "latitude": "34.0195598",
            "closest_to": "santa ana",
            "address": "Santa Monica, Los Angeles County, California, United States of America",
            "locType": "city",
            "blogLinks": [
                "http://www.bestplaces.net/city/california/santa_ana",
                "http://www.bestplaces.net/city/california/santa_fe_springs"
            ],
            "longitude": "-118.4869738"
        },
        "southern california": {
            "latitude": "34.0224149",
            "closest_to": "santa ana",
            "address": "University of Southern California, Watt Way, Saint James Park, LA, Los Angeles County, California, 90089, United States of America",
            "locType": "university",
            "blogLinks": [
                "http://californiathroughmylens.com/route-66-attractions-barstow-victorville",
                "http://www.bestplaces.net/city/california/santa_ana",
                "http://www.bestplaces.net/city/california/santa_fe_springs"
            ],
            "longitude": "-118.286343973446"
        },
        "san bernardino california": {
            "latitude": "34.1083449",
            "closest_to": "san bernardino",
            "address": "San Bernardino, San Bernardino County, California, United States of America",
            "locType": "city",
            "blogLinks": [
                "http://www.californiaoutdoorplayground.com/Things-to-Do/Arts-Culture.aspx"
            ],
            "longitude": "-117.2897651"
        },
        "mentone": {
            "latitude": "34.05884",
            "closest_to": "san bernardino",
            "address": "Mentone, Reservoir Canal Road, Crafton, San Bernardino County, California, 92374, United States of America",
            "locType": "administrative",
            "blogLinks": [
                "http://www.latimes.com/travel/la-trw-haunted31.pg-photogallery.html"
            ],
            "longitude": "-117.109606374724"
        },
        "san bernardino route": {
            "latitude": "34.1083449",
            "closest_to": "san bernardino",
            "address": "San Bernardino, San Bernardino County, California, United States of America",
            "locType": "city",
            "blogLinks": [
                "http://www.distancesfrom.com/us/directions-from-Santa-Ana-to-San-Bernardino/DirectionHistory/11043640.aspx"
            ],
            "longitude": "-117.2897651"
        },
        "s. waterman ave.": {
            "latitude": "34.0943979",
            "closest_to": "santa ana",
            "address": "South Waterman Avenue, San Bernardino, San Bernardino County, California, 92408, United States of America",
            "locType": "primary",
            "blogLinks": [
                "http://www.traillink.com/trail/santa-ana-river-trail.aspx"
            ],
            "longitude": "-117.278754"
        },
        "costa mesa": {
            "latitude": "33.6633386",
            "closest_to": "santa ana",
            "address": "Costa Mesa, Orange County, California, United States of America",
            "locType": "city",
            "blogLinks": [
                "http://www.traillink.com/trail/santa-ana-river-trail.aspx"
            ],
            "longitude": "-117.9033169"
        },
        "chino": {
            "latitude": "34.0133561",
            "closest_to": "santa ana",
            "address": "Chino, San Bernardino County, California, United States of America",
            "locType": "city",
            "blogLinks": [
                "http://www.californiaoutdoorplayground.com/Things-to-Do/Arts-Culture.aspx"
            ],
            "longitude": "-117.6900749"
        },
        "waterman avenue": {
            "latitude": "34.1496687",
            "closest_to": "san bernardino",
            "address": "Waterman Avenue, San Bernardino, San Bernardino County, California, 92404, United States of America",
            "locType": "primary",
            "blogLinks": [
                "http://cms.sbcounty.gov/parks/Parks/SantaAnaRiverTrailandParkway.aspx"
            ],
            "longitude": "-117.2786646"
        },
        "mission san gabriel": {
            "latitude": "34.09877645",
            "closest_to": "santa ana",
            "address": "San Gabriel Mission High School, Broadway, San Gabriel, Los Angeles County, California, 91778, United States of America",
            "locType": "school",
            "blogLinks": [
                "http://www.californiaoutdoorplayground.com/Things-to-Do/Arts-Culture.aspx"
            ],
            "longitude": "-118.106543476502"
        },
        "los angeles international": {
            "latitude": "33.94211345",
            "closest_to": "santa ana",
            "address": "Los Angeles International Airport, Gate 41, Westchester, Playa del Rey, LA, Los Angeles County, California, 90245, United States of America",
            "locType": "aerodrome",
            "blogLinks": [
                "http://www.bestplaces.net/city/california/santa_ana",
                "http://www.bestplaces.net/city/california/santa_fe_springs"
            ],
            "longitude": "-118.407057290249"
        },
        "rancho": {
            "latitude": "33.77933665",
            "closest_to": "san bernardino",
            "address": "El Rancho, San Jacinto, Riverside County, California, 92583, United States of America",
            "locType": "residential",
            "blogLinks": [
                "http://californiathroughmylens.com/route-66-attractions-barstow-victorville"
            ],
            "longitude": "-116.961064091183"
        },
        "west coast": {
            "latitude": "34.0222263",
            "closest_to": "santa ana",
            "address": "West Coast, Motor Avenue, Palms, LA, Los Angeles County, California, 90034-5702, United States of America",
            "locType": "plumber",
            "blogLinks": [
                "https://www.pinterest.com/pin/430586414344023285/"
            ],
            "longitude": "-118.4051087"
        },
        "san bernardino": {
            "latitude": "34.1083449",
            "closest_to": "san bernardino",
            "address": "San Bernardino, San Bernardino County, California, United States of America",
            "locType": "city",
            "blogLinks": [
                "http://californiathroughmylens.com/route-66-attractions-barstow-victorville",
                "http://www.bestplaces.net/city/california/santa_ana",
                "http://cms.sbcounty.gov/parks/Parks/SantaAnaRiverTrailandParkway.aspx",
                "https://www.pinterest.com/pin/492510909221178685/",
                "http://cms.sbcounty.gov/parks/Activities/Camping.aspx",
                "http://www.distancesfrom.com/us/directions-from-Santa-Ana-to-San-Bernardino/DirectionHistory/11043640.aspx",
                "http://www.bestplaces.net/city/california/santa_fe_springs",
                "http://wikitravel.org/en/Madrid",
                "http://www.californiaoutdoorplayground.com/Things-to-Do/Arts-Culture.aspx",
                "https://www.ridebooker.com/transfers/santa-ana-ca/san-bernardino-ca/taxi",
                "http://www.traillink.com/trail/santa-ana-river-trail.aspx"
            ],
            "longitude": "-117.2897651"
        },
        "prospect park - redlands": {
            "latitude": "34.040292",
            "closest_to": "san bernardino",
            "address": "Prospect Park, Cajon Street, Redlands, San Bernardino County, California, 92373, United States of America",
            "locType": "park",
            "blogLinks": [
                "https://www.pinterest.com/pin/492510909221178685/"
            ],
            "longitude": "-117.1717039"
        },
        "victorville": {
            "latitude": "34.5361067",
            "closest_to": "san bernardino",
            "address": "Victorville, San Bernardino County, California, United States of America",
            "locType": "city",
            "blogLinks": [
                "http://californiathroughmylens.com/route-66-attractions-barstow-victorville"
            ],
            "longitude": "-117.2911564"
        },
        "paseo del prado": {
            "latitude": "33.8795139",
            "closest_to": "santa ana",
            "address": "Paseo del Prado, Yorba Linda, Orange County, California, 92807, United States of America",
            "locType": "tertiary",
            "blogLinks": [
                "http://wikitravel.org/en/Madrid"
            ],
            "longitude": "-117.7725804"
        },
        "mojave river forks": {
            "latitude": "34.3304324",
            "closest_to": "san bernardino",
            "address": "Mojave River Forks Regional Park, CA 173, Hesperia, San Bernardino County, California, 92345, United States of America",
            "locType": "camp_site",
            "blogLinks": [
                "http://cms.sbcounty.gov/parks/Activities/Camping.aspx"
            ],
            "longitude": "-117.2659348"
        },
        "mother road": {
            "latitude": "33.8058766",
            "closest_to": "santa ana",
            "address": "Route 66, Anaheim Resort District, Anaheim, Orange County, California, 92802, United States of America",
            "locType": "living_street",
            "blogLinks": [
                "http://www.bestplaces.net/city/california/santa_fe_springs"
            ],
            "longitude": "-117.9189801"
        },
        "santa ana california": {
            "latitude": "33.7494951",
            "closest_to": "santa ana",
            "address": "Santa Ana, Orange County, California, United States of America",
            "locType": "city",
            "blogLinks": [
                "https://www.pinterest.com/pin/430586414344023285/"
            ],
            "longitude": "-117.8732212"
        },
        "devore": {
            "latitude": "34.2163964",
            "closest_to": "san bernardino",
            "address": "Devore, San Bernardino County, California, United States of America",
            "locType": "hamlet",
            "blogLinks": [
                "http://www.californiaoutdoorplayground.com/Things-to-Do/Arts-Culture.aspx"
            ],
            "longitude": "-117.4014364"
        },
        "salamanca": {
            "latitude": "34.1477896",
            "closest_to": "santa ana",
            "address": "Salamanca, Los Angeles County, California, 91750, United States of America",
            "locType": "residential",
            "blogLinks": [
                "http://wikitravel.org/en/Madrid"
            ],
            "longitude": "-117.7574456"
        },
        "valencia": {
            "latitude": "34.1466768",
            "closest_to": "san bernardino",
            "address": "Valencia, San Bernardino County, California, United States of America",
            "locType": "hamlet",
            "blogLinks": [
                "http://wikitravel.org/en/Madrid"
            ],
            "longitude": "-117.2725426"
        },
        "fountain valley": {
            "latitude": "33.7038145",
            "closest_to": "santa ana",
            "address": "Fountain Valley, Orange County, California, United States of America",
            "locType": "city",
            "blogLinks": [
                "http://www.traillink.com/trail/santa-ana-river-trail.aspx"
            ],
            "longitude": "-117.9627348"
        },
        "s. waterman avenue": {
            "latitude": "34.0943979",
            "closest_to": "santa ana",
            "address": "South Waterman Avenue, San Bernardino, San Bernardino County, California, 92408, United States of America",
            "locType": "primary",
            "blogLinks": [
                "http://www.traillink.com/trail/santa-ana-river-trail.aspx"
            ],
            "longitude": "-117.278754"
        },
        "santa ana river trail": {
            "latitude": "33.8861041",
            "closest_to": "santa ana",
            "address": "Santa Ana River Trail, Eastvale, Riverside County, California, United States of America",
            "locType": "track",
            "blogLinks": [
                "http://cms.sbcounty.gov/parks/Parks/SantaAnaRiverTrailandParkway.aspx",
                "http://www.traillink.com/trail/santa-ana-river-trail.aspx"
            ],
            "longitude": "-117.6444344"
        },
        "puerta": {
            "latitude": "33.644037",
            "closest_to": "santa ana",
            "address": "La Puerta, Avalon Santa Margarita, Robinson Ranch, Rancho Santa Margarita, Orange County, California, 92679, United States of America",
            "locType": "residential",
            "blogLinks": [
                "http://wikitravel.org/en/Madrid"
            ],
            "longitude": "-117.5958196"
        },
        "alcala": {
            "latitude": "33.5496786",
            "closest_to": "santa ana",
            "address": "La Alcala, Laguna Niguel, Orange County, California, 92677, United States of America",
            "locType": "residential",
            "blogLinks": [
                "http://wikitravel.org/en/Madrid"
            ],
            "longitude": "-117.6979306"
        },
        "angelus oaks": {
            "latitude": "34.1458435",
            "closest_to": "san bernardino",
            "address": "Angelus Oaks, San Bernardino County, California, United States of America",
            "locType": "hamlet",
            "blogLinks": [
                "https://www.pinterest.com/pin/430586414344023285/"
            ],
            "longitude": "-116.982532"
        },
        "chueca": {
            "latitude": "33.4527044",
            "closest_to": "santa ana",
            "address": "Via Chueca, San Clemente, Orange County, California, 92673, United States of America",
            "locType": "residential",
            "blogLinks": [
                "http://wikitravel.org/en/Madrid"
            ],
            "longitude": "-117.6335719"
        },
        "andorra": {
            "latitude": "33.6500463",
            "closest_to": "santa ana",
            "address": "Andorra, Palmia, Mission Viejo, Orange County, California, 92679, United States of America",
            "locType": "residential",
            "blogLinks": [
                "http://wikitravel.org/en/Madrid"
            ],
            "longitude": "-117.6287596"
        },
        "canada": {
            "latitude": "33.7298842",
            "closest_to": "santa ana",
            "address": "La Canada, Lower Peters Canyon, Irvine, Orange County, California, 92602, United States of America",
            "locType": "residential",
            "blogLinks": [
                "http://wikitravel.org/en/Madrid"
            ],
            "longitude": "-117.7641381"
        },
        "antigua": {
            "latitude": "33.4837319",
            "closest_to": "santa ana",
            "address": "Antigua, Monarch Beach, Dana Point, Orange County, California, 92629, United States of America",
            "locType": "residential",
            "blogLinks": [
                "http://wikitravel.org/en/Madrid"
            ],
            "longitude": "-117.7074856"
        },
        "agua mansa pioneer cemetery": {
            "latitude": "34.0415618",
            "closest_to": "santa ana",
            "address": "Agua Mansa Pioneer Cemetery, 2001, Agua Mansa Road, Colton, San Bernardino County, California, 92324, United States of America",
            "locType": "memorial",
            "blogLinks": [
                "http://www.californiaoutdoorplayground.com/Things-to-Do/Arts-Culture.aspx"
            ],
            "longitude": "-117.364453265289"
        },
        "puerta del sol": {
            "latitude": "33.64781915",
            "closest_to": "santa ana",
            "address": "Puerta Del Sol, Turtle Rock, Irvine, Orange County, California, 92617, United States of America",
            "locType": "residential",
            "blogLinks": [
                "http://wikitravel.org/en/Madrid"
            ],
            "longitude": "-117.832991058726"
        },
        "oporto": {
            "latitude": "34.1050656",
            "closest_to": "santa ana",
            "address": "Oporto, 8220, Haven Avenue, Alta Loma, Rancho Cucamonga, San Bernardino County, California, 91730, United States of America",
            "locType": "fast_food",
            "blogLinks": [
                "http://wikitravel.org/en/Madrid"
            ],
            "longitude": "-117.5763219"
        },
        "japan": {
            "latitude": "34.0833889",
            "closest_to": "santa ana",
            "address": "Japan LA, Melrose Avenue, Park La Brea, Hollywood, LA, Los Angeles County, California, 90069, United States of America",
            "locType": "clothes",
            "blogLinks": [
                "http://wikitravel.org/en/Madrid"
            ],
            "longitude": "-118.3494693"
        },
        "orange county": {
            "latitude": "33.7500378",
            "closest_to": "santa ana",
            "address": "Orange County, California, United States of America",
            "locType": "administrative",
            "blogLinks": [
                "https://www.pinterest.com/pin/430586414344023285/",
                "http://cms.sbcounty.gov/parks/Parks/SantaAnaRiverTrailandParkway.aspx",
                "http://www.traillink.com/trail/santa-ana-river-trail.aspx"
            ],
            "longitude": "-117.870493"
        },
        "los angeles": {
            "latitude": "34.0543942",
            "closest_to": "santa ana",
            "address": "LA, Los Angeles County, California, United States of America",
            "locType": "city",
            "blogLinks": [
                "http://www.californiaoutdoorplayground.com/Things-to-Do/Arts-Culture.aspx",
                "http://www.bestplaces.net/city/california/santa_ana",
                "http://cms.sbcounty.gov/parks/Activities/Camping.aspx",
                "http://www.bestplaces.net/city/california/santa_fe_springs"
            ],
            "longitude": "-118.2439408"
        },
        "cucamonga rancho": {
            "latitude": "34.1033192",
            "closest_to": "santa ana",
            "address": "Rancho Cucamonga, San Bernardino County, California, United States of America",
            "locType": "city",
            "blogLinks": [
                "http://www.californiaoutdoorplayground.com/Things-to-Do/Arts-Culture.aspx"
            ],
            "longitude": "-117.5751734"
        },
        "calle calatrava": {
            "latitude": "33.6449299",
            "closest_to": "santa ana",
            "address": "Calatrava, Mission Viejo, Orange County, California, 92692, United States of America",
            "locType": "residential",
            "blogLinks": [
                "http://wikitravel.org/en/Madrid"
            ],
            "longitude": "-117.6338994"
        },
        "anaheim": {
            "latitude": "33.8347516",
            "closest_to": "santa ana",
            "address": "Anaheim, Orange County, California, United States of America",
            "locType": "city",
            "blogLinks": [
                "http://www.traillink.com/trail/santa-ana-river-trail.aspx"
            ],
            "longitude": "-117.9117319"
        },
        "hesperia": {
            "latitude": "34.4263886",
            "closest_to": "san bernardino",
            "address": "Hesperia, San Bernardino County, California, United States of America",
            "locType": "city",
            "blogLinks": [
                "http://wikitravel.org/en/Madrid"
            ],
            "longitude": "-117.3008783"
        },
        "laguna beach": {
            "latitude": "33.5420888",
            "closest_to": "santa ana",
            "address": "Laguna Beach, Orange County, California, United States of America",
            "locType": "city",
            "blogLinks": [
                "https://www.pinterest.com/pin/430586414344023285/"
            ],
            "longitude": "-117.7834146"
        },
        "la latina": {
            "latitude": "33.6817339",
            "closest_to": "santa ana",
            "address": "Latina, Westpark, Irvine, Orange County, California, 92614, United States of America",
            "locType": "residential",
            "blogLinks": [
                "http://wikitravel.org/en/Madrid"
            ],
            "longitude": "-117.8194108"
        },
        "milan": {
            "latitude": "33.7342137",
            "closest_to": "santa ana",
            "address": "Milan, Lower Peters Canyon, Irvine, Orange County, California, 92602, United States of America",
            "locType": "residential",
            "blogLinks": [
                "http://wikitravel.org/en/Madrid"
            ],
            "longitude": "-117.7779652"
        },
        "retiro park": {
            "latitude": "33.81523615",
            "closest_to": "santa ana",
            "address": "El Retiro Park, Pacific Coast Highway, Torrance, Los Angeles County, California, 90277-5906, United States of America",
            "locType": "park",
            "blogLinks": [
                "http://wikitravel.org/en/Madrid"
            ],
            "longitude": "-118.378023955275"
        },
        "riverside": {
            "latitude": "33.9533546",
            "closest_to": "santa ana",
            "address": "Riverside, Riverside County, California, United States of America",
            "locType": "city",
            "blogLinks": [
                "http://cms.sbcounty.gov/parks/Activities/Camping.aspx",
                "http://www.traillink.com/trail/santa-ana-river-trail.aspx"
            ],
            "longitude": "-117.3961622"
        },
        "royal palace": {
            "latitude": "34.0608096",
            "closest_to": "santa ana",
            "address": "Royal Palace Hotel, Tiverton Avenue, Westwood Village, Westwood, LA, Los Angeles County, California, 90024, United States of America",
            "locType": "hotel",
            "blogLinks": [
                "http://wikitravel.org/en/Madrid"
            ],
            "longitude": "-118.4427633"
        },
        "colton": {
            "latitude": "34.0739016",
            "closest_to": "santa ana",
            "address": "Colton, San Bernardino County, California, United States of America",
            "locType": "city",
            "blogLinks": [
                "http://www.californiaoutdoorplayground.com/Things-to-Do/Arts-Culture.aspx",
                "http://www.latimes.com/travel/la-trw-haunted31.pg-photogallery.html",
                "http://www.traillink.com/trail/santa-ana-river-trail.aspx"
            ],
            "longitude": "-117.3136546"
        },
        "rastro": {
            "latitude": "33.5274543",
            "closest_to": "santa ana",
            "address": "Rastro Street, Orange County, California, 92675, United States of America",
            "locType": "residential",
            "blogLinks": [
                "http://wikitravel.org/en/Madrid"
            ],
            "longitude": "-117.6214946"
        },
        "san marino": {
            "latitude": "34.1215947",
            "closest_to": "santa ana",
            "address": "San Marino, Los Angeles County, California, United States of America",
            "locType": "town",
            "blogLinks": [
                "http://www.bestplaces.net/city/california/santa_ana",
                "http://www.bestplaces.net/city/california/santa_fe_springs"
            ],
            "longitude": "-118.1057393"
        },
        "galicia": {
            "latitude": "34.1506925",
            "closest_to": "santa ana",
            "address": "Galicia, Los Angeles County, California, 91750, United States of America",
            "locType": "residential",
            "blogLinks": [
                "http://wikitravel.org/en/Madrid"
            ],
            "longitude": "-117.7557395"
        },
        "madrid": {
            "latitude": "33.6218516",
            "closest_to": "santa ana",
            "address": "Madrid, El Toro Mobile Home Estates, Lake Forest, Orange County, California, CA 92630, United States of America",
            "locType": "residential",
            "blogLinks": [
                "http://wikitravel.org/en/Madrid"
            ],
            "longitude": "-117.6938265"
        },
        "pasadena": {
            "latitude": "34.1476452",
            "closest_to": "santa ana",
            "address": "Pasadena, Los Angeles County, California, United States of America",
            "locType": "city",
            "blogLinks": [
                "http://www.bestplaces.net/city/california/santa_ana",
                "http://www.bestplaces.net/city/california/santa_fe_springs"
            ],
            "longitude": "-118.1444778"
        },
        "indonesia": {
            "latitude": "34.06215715",
            "closest_to": "santa ana",
            "address": "Consulat General of the Republic of Indonesia, South Mariposa Avenue, Koreatown, Little Armenia, LA, Los Angeles County, California, 90020, United States of America",
            "locType": "embassy",
            "blogLinks": [
                "http://wikitravel.org/en/Madrid"
            ],
            "longitude": "-118.299570356312"
        },
        "hidden valley wildlife": {
            "latitude": "33.9668647",
            "closest_to": "santa ana",
            "address": "Hidden Valley Wildlife Area, Tomahawk Trail, Mira Loma, Eastvale, Riverside County, California, 92860, United States of America",
            "locType": "park",
            "blogLinks": [
                "http://cms.sbcounty.gov/parks/Parks/SantaAnaRiverTrailandParkway.aspx"
            ],
            "longitude": "-117.5069028"
        },
        "san sebastian": {
            "latitude": "33.613717",
            "closest_to": "santa ana",
            "address": "San Sebastian, Newport Center, Newport Beach, Orange County, California, 92657, United States of America",
            "locType": "residential",
            "blogLinks": [
                "http://wikitravel.org/en/Madrid"
            ],
            "longitude": "-117.8459649"
        },
        "chino hills": {
            "latitude": "33.9926803",
            "closest_to": "santa ana",
            "address": "Chino Hills, San Bernardino County, California, United States of America",
            "locType": "city",
            "blogLinks": [
                "http://www.traillink.com/trail/santa-ana-river-trail.aspx"
            ],
            "longitude": "-117.7600559"
        },
        "beverly hills": {
            "latitude": "34.0736204",
            "closest_to": "santa ana",
            "address": "Beverly Hills, Los Angeles County, California, United States of America",
            "locType": "city",
            "blogLinks": [
                "http://www.bestplaces.net/city/california/santa_ana",
                "http://www.bestplaces.net/city/california/santa_fe_springs"
            ],
            "longitude": "-118.4003562"
        },
        "el retiro park": {
            "latitude": "33.81523615",
            "closest_to": "santa ana",
            "address": "El Retiro Park, Pacific Coast Highway, Torrance, Los Angeles County, California, 90277-5906, United States of America",
            "locType": "park",
            "blogLinks": [
                "http://wikitravel.org/en/Madrid"
            ],
            "longitude": "-118.378023955275"
        },
        "hidden valley wildlife area": {
            "latitude": "33.9668647",
            "closest_to": "santa ana",
            "address": "Hidden Valley Wildlife Area, Tomahawk Trail, Mira Loma, Eastvale, Riverside County, California, 92860, United States of America",
            "locType": "park",
            "blogLinks": [
                "http://www.traillink.com/trail/santa-ana-river-trail.aspx"
            ],
            "longitude": "-117.5069028"
        },
        "burbank": {
            "latitude": "34.1816482",
            "closest_to": "santa ana",
            "address": "Burbank, Los Angeles County, California, United States of America",
            "locType": "city",
            "blogLinks": [
                "http://www.bestplaces.net/city/california/santa_ana",
                "http://www.bestplaces.net/city/california/santa_fe_springs"
            ],
            "longitude": "-118.3258553"
        },
        "rancho cucamonga": {
            "latitude": "34.1033192",
            "closest_to": "santa ana",
            "address": "Rancho Cucamonga, San Bernardino County, California, United States of America",
            "locType": "city",
            "blogLinks": [
                "http://www.californiaoutdoorplayground.com/Things-to-Do/Arts-Culture.aspx"
            ],
            "longitude": "-117.5751734"
        },
        "santa ana": {
            "latitude": "33.7494951",
            "closest_to": "santa ana",
            "address": "Santa Ana, Orange County, California, United States of America",
            "locType": "city",
            "blogLinks": [
                "http://californiathroughmylens.com/route-66-attractions-barstow-victorville",
                "http://www.bestplaces.net/city/california/santa_ana",
                "http://www.distancesfrom.com/us/directions-from-Santa-Ana-to-San-Bernardino/DirectionHistory/11043640.aspx",
                "http://wikitravel.org/en/Madrid",
                "https://www.pinterest.com/pin/430586414344023285/",
                "https://www.ridebooker.com/transfers/santa-ana-ca/san-bernardino-ca/taxi",
                "http://www.traillink.com/trail/santa-ana-river-trail.aspx"
            ],
            "longitude": "-117.8732212"
        },
        "asturias": {
            "latitude": "33.8810188",
            "closest_to": "santa ana",
            "address": "Via Asturias, Yorba Linda, Orange County, California, 92887, United States of America",
            "locType": "residential",
            "blogLinks": [
                "http://wikitravel.org/en/Madrid"
            ],
            "longitude": "-117.7759311"
        },
        "long beach": {
            "latitude": "33.78538945",
            "closest_to": "santa ana",
            "address": "Long Beach, Los Angeles County, California, United States of America",
            "locType": "city",
            "blogLinks": [
                "http://www.bestplaces.net/city/california/santa_ana",
                "http://www.bestplaces.net/city/california/santa_fe_springs"
            ],
            "longitude": "-118.158049215311"
        },
        "lisbon": {
            "latitude": "34.0989223",
            "closest_to": "santa ana",
            "address": "Lisbon Lane, Beverly Glen, Westwood, LA, Los Angeles County, California, 90077, United States of America",
            "locType": "track",
            "blogLinks": [
                "http://wikitravel.org/en/Madrid"
            ],
            "longitude": "-118.4437228"
        },
        "alhambra": {
            "latitude": "34.0927361",
            "closest_to": "santa ana",
            "address": "Alhambra, Los Angeles County, California, United States of America",
            "locType": "city",
            "blogLinks": [
                "http://wikitravel.org/en/Madrid"
            ],
            "longitude": "-118.1268241"
        },
        "metro": {
            "latitude": "33.9880063",
            "closest_to": "santa ana",
            "address": "Metro, Windward Circle, Venice, LA, Los Angeles County, California, 90291, United States of America",
            "locType": "bus_station",
            "blogLinks": [
                "http://wikitravel.org/en/Madrid"
            ],
            "longitude": "-118.4710141"
        },
        "retiro": {
            "latitude": "33.5750536",
            "closest_to": "santa ana",
            "address": "El Retiro, Mission Viejo, Orange County, California, 92692, United States of America",
            "locType": "residential",
            "blogLinks": [
                "http://wikitravel.org/en/Madrid"
            ],
            "longitude": "-117.654236"
        },
        "castellana": {
            "latitude": "33.6749473",
            "closest_to": "santa ana",
            "address": "Castellana, Foothill Ranch, Lake Forest, Orange County, California, 92610, United States of America",
            "locType": "construction",
            "blogLinks": [
                "http://wikitravel.org/en/Madrid"
            ],
            "longitude": "-117.6820286"
        },
        "malta": {
            "latitude": "33.6782218",
            "closest_to": "santa ana",
            "address": "Malta, Westpark, Irvine, Orange County, California, 92614, United States of America",
            "locType": "residential",
            "blogLinks": [
                "http://wikitravel.org/en/Madrid"
            ],
            "longitude": "-117.8263555"
        }
    },
    "santa ana": {
        "type": "city",
        "osm_id": "2311446",
        "class": "place",
        "importance": 0.80067109924196,
        "lat": "33.7494951",
        "lon": "-117.8732212",
        "boundingbox": [
            "33.6916541",
            "33.7840133",
            "-117.9439458",
            "-117.8303494"
        ],
        "display_name": "Santa Ana, Orange County, California, United States of America",
        "licence": "Data \u00a9 OpenStreetMap contributors, ODbL 1.0. http://www.openstreetmap.org/copyright",
        "icon": "https://nominatim.openstreetmap.org/images/mapicons/poi_place_city.p.20.png",
        "place_id": "159122957",
        "osm_type": "relation"
    }
}