{
    "mangalore": {
        "place_id": "637002",
        "osm_id": "245612641",
        "icon": "https://nominatim.openstreetmap.org/images/mapicons/poi_place_city.p.20.png",
        "osm_type": "node",
        "licence": "Data \u00a9 OpenStreetMap contributors, ODbL 1.0. http://www.openstreetmap.org/copyright",
        "display_name": "Mangaluru, Mangaluru taluk, Dakshina Kannada, Karnataka, 575001, India",
        "type": "city",
        "lon": "74.8430082",
        "boundingbox": [
            "12.7098101",
            "13.0298101",
            "74.6830082",
            "75.0030082"
        ],
        "importance": 0.45,
        "lat": "12.8698101",
        "class": "place"
    },
    "mentions": {
        "maradi": {
            "closest_to": "",
            "address": "Maradi, Arakalagudu taluk, Hassan district, Karnataka, India",
            "longitude": "76.0757799",
            "latitude": "12.8130205",
            "blogLinks": [
                "http://wikitravel.org/en/Chikmagalur"
            ],
            "locType": "village"
        },
        "west": {
            "closest_to": "",
            "address": "w, Balmuri Main Road, Hulimavu,, Bannerghatta Road, Mico Arekere Layout 1st Stage, Hulimavu, Bengaluru, Bangalore Urban, Karnataka, 560076, India",
            "longitude": "77.5960999",
            "latitude": "12.8759384",
            "blogLinks": [
                "https://en.wikipedia.org/wiki/Agumbe"
            ],
            "locType": "clothes"
        },
        "kadur": {
            "closest_to": "",
            "address": "Mudigere-Kadur Road, Basavannahalli, Chikkamagaluru, Chikkamagaluru taluku, Chikkamagaluru district, Karnataka, 577101, India",
            "longitude": "75.7820095",
            "latitude": "13.3283654",
            "blogLinks": [
                "http://wikitravel.org/en/Chikmagalur"
            ],
            "locType": "trunk"
        },
        "u.k.": {
            "closest_to": "",
            "address": "Karnataka, India",
            "longitude": "75.7223521",
            "latitude": "14.5203896",
            "blogLinks": [
                "https://en.wikipedia.org/wiki/Agumbe"
            ],
            "locType": "administrative"
        },
        "bangalore": {
            "closest_to": "",
            "address": "Bengaluru, Bangalore Urban, Karnataka, 560001, India",
            "longitude": "77.5912997",
            "latitude": "12.9791198",
            "blogLinks": [
                "http://travel.india.com/agumbe/",
                "http://wikitravel.org/en/Chikmagalur",
                "http://www.onefivenine.com/india/Travel/Place/Agumbe",
                "https://en.wikipedia.org/wiki/Kodachadri",
                "https://en.wikipedia.org/wiki/Agumbe",
                "http://wikitravel.org/en/Agumbe"
            ],
            "locType": "city"
        },
        "london": {
            "closest_to": "",
            "address": "Karnataka, India",
            "longitude": "75.7223521",
            "latitude": "14.5203896",
            "blogLinks": [
                "https://en.wikipedia.org/wiki/Kodachadri"
            ],
            "locType": "administrative"
        },
        "yagachi": {
            "closest_to": "",
            "address": "Yagachi, Beluru taluk, Hassan district, Karnataka, India",
            "longitude": "75.950911",
            "latitude": "13.0658494",
            "blogLinks": [
                "http://wikitravel.org/en/Chikmagalur"
            ],
            "locType": "river"
        },
        "canara": {
            "closest_to": "",
            "address": "Canara, 4th Cross, Ashwath Nagar, Marathahalli, Sitaramapalya, Bangalore Urban, Karnataka, 560037, India",
            "longitude": "77.7027141",
            "latitude": "12.9582803",
            "blogLinks": [
                "https://en.wikipedia.org/wiki/Kodachadri"
            ],
            "locType": "atm"
        },
        "bombay": {
            "closest_to": "",
            "address": "Bombay tea hotel, Hosahalli Main Road, Rajajinagar 6th Block, Goripalya, Bengaluru, Bangalore Urban, Karnataka, 560001, India",
            "longitude": "77.5500256",
            "latitude": "12.9632318",
            "blogLinks": [
                "https://en.wikipedia.org/wiki/Kodachadri"
            ],
            "locType": "cafe"
        },
        "annapurneswari layout": {
            "closest_to": "",
            "address": "Sri Annapurneswari Restaurant, 7th Main Road, BTM Layout 2nd Stage, BTM Layout, Bengaluru, Bangalore Urban, Karnataka, 560001, India",
            "longitude": "77.6064714612971",
            "latitude": "12.9121966",
            "blogLinks": [
                "http://www.distancesfrom.com/travel-from-Mangalore-Central-to-Mangaluru-via-Sringeri-Annapurneswari-Layout-Agumbe/TravelFromHistory/34008431.aspx"
            ],
            "locType": "hotel"
        },
        "shringeri": {
            "closest_to": "",
            "address": "Shringeri, Hanagal taluk, Haveri district, Karnataka, India",
            "longitude": "75.0621168",
            "latitude": "14.7221214",
            "blogLinks": [
                "https://en.wikipedia.org/wiki/Agumbe"
            ],
            "locType": "village"
        },
        "amrutapura": {
            "closest_to": "",
            "address": "Amrutapura, Tarikere taluku, Chikkamagaluru district, Karnataka, India",
            "longitude": "75.8535015",
            "latitude": "13.7425193",
            "blogLinks": [
                "http://wikitravel.org/en/Chikmagalur"
            ],
            "locType": "village"
        },
        "seeta river": {
            "closest_to": "",
            "address": "Seeta Circle, Aralu Mallige Parthsarathy Road, Banashankari 1st Stage, Bengaluru, Bangalore Urban, Karnataka, 560001, India",
            "longitude": "77.5497906",
            "latitude": "12.938019",
            "blogLinks": [
                "http://wikitravel.org/en/Agumbe"
            ],
            "locType": "traffic_signals"
        },
        "lakkavalli": {
            "closest_to": "",
            "address": "Lakkavalli, Soraba taluk, Shimoga district, Karnataka, India",
            "longitude": "75.1078097",
            "latitude": "14.5841018",
            "blogLinks": [
                "http://wikitravel.org/en/Chikmagalur"
            ],
            "locType": "village"
        },
        "chikkamagaluru": {
            "closest_to": "",
            "address": "Chikkamagaluru, Chikkamagaluru taluku, Chikkamagaluru district, Karnataka, 577101, India",
            "longitude": "75.7738743",
            "latitude": "13.318014",
            "blogLinks": [
                "http://wikitravel.org/en/Chikmagalur"
            ],
            "locType": "city"
        },
        "hubli airport": {
            "closest_to": "",
            "address": "Hubli Airport, \u0c97\u0ccb\u0c95\u0cc1\u0cb2 \u0cb0\u0ccb\u0ca1\u0ccd, Padmaraj Nagar, Gokul, Hubballi taluku, Dharwad district, Karnataka, 580030, India",
            "longitude": "75.0860974",
            "latitude": "15.3598315",
            "blogLinks": [
                "http://travel.india.com/agumbe/"
            ],
            "locType": "aerodrome"
        },
        "mount abu": {
            "closest_to": "",
            "address": "Masjid Abu Bakr (RAA), 3rd Cross Road, Pukraj Layout, Someshwaranagar, Bengaluru, Bangalore Urban, Karnataka, 560001, India",
            "longitude": "77.5927317",
            "latitude": "12.9429538",
            "blogLinks": [
                "https://en.wikipedia.org/wiki/Kodachadri"
            ],
            "locType": "place_of_worship"
        },
        "vijayapura main road": {
            "closest_to": "",
            "address": "Karnataka State Women's University, Athani Road, Ratnapura, Vijayapura taluk, Bijapur district, Karnataka, India",
            "longitude": "75.6425088",
            "latitude": "16.8319715",
            "blogLinks": [
                "http://wikitravel.org/en/Chikmagalur"
            ],
            "locType": "college"
        },
        "new delhi": {
            "closest_to": "",
            "address": "Regional Institute of Education, Chaduranga Road, Jayalakshmipuram, Mysuru, Mysuru taluk, Mysuru district, Karnataka, 570001, India",
            "longitude": "76.6142178649055",
            "latitude": "12.30911465",
            "blogLinks": [
                "http://www.distancesfrom.com/in/distance-from-MANGALORE-to-Shimoga-via-Agumbe/DistanceHistory/31896949.aspx",
                "https://en.wikipedia.org/wiki/Kodachadri"
            ],
            "locType": "college"
        },
        "malgudi": {
            "closest_to": "",
            "address": "Malgudi Southern Cuisine, 3, Outer Ring Road, Ananda Nagara, Doddanekundi, Garudacharpalya, Bangalore Urban, Karnataka, 560037, India",
            "longitude": "77.7017267",
            "latitude": "12.9651193",
            "blogLinks": [
                "http://travel.india.com/agumbe/",
                "https://en.wikipedia.org/wiki/Kodachadri",
                "https://www.tripoto.com/trip/agumbe-rainforest-karnataka-the-hidden-malgudi-house-in-india-itinerary-57e2744100417"
            ],
            "locType": "restaurant"
        },
        "belur": {
            "closest_to": "",
            "address": "Belur, Beluru taluk, Hassan district, Karnataka, 573115, India",
            "longitude": "75.8634851",
            "latitude": "13.1645671",
            "blogLinks": [
                "http://wikitravel.org/en/Chikmagalur"
            ],
            "locType": "town"
        },
        "karnataka": {
            "closest_to": "",
            "address": "Karnataka, Shalivahana Road, Nazarbad, Mysuru, Mysuru taluk, Mysuru district, Karnataka, 570001, India",
            "longitude": "76.6639936",
            "latitude": "12.3084901",
            "blogLinks": [
                "http://travel.india.com/agumbe/",
                "http://wikitravel.org/en/Chikmagalur",
                "http://www.distancesfrom.com/distance-from-Mangalore-to-Agumbe/DistanceHistory/97398.aspx",
                "https://www.ixigo.com/by-car-taxi/mangalore-to-agumbe-by-car-fast",
                "http://www.distancesfrom.com/in/distance-from-MANGALORE-to-Shimoga-via-Agumbe/DistanceHistory/31896949.aspx",
                "http://www.distancesfrom.com/travel-from-Mangalore-Central-to-Mangaluru-via-Sringeri-Annapurneswari-Layout-Agumbe/TravelFromHistory/34008431.aspx",
                "https://www.ixigo.com/by-car-taxi/mangalore-to-agumbe-by-car",
                "https://en.wikipedia.org/wiki/Kodachadri",
                "http://www.karnatakatourism.org/",
                "https://en.wikipedia.org/wiki/Agumbe",
                "http://wikitravel.org/en/Agumbe"
            ],
            "locType": "atm"
        },
        "vedavati": {
            "closest_to": "",
            "address": "Vedavati, Kaduru taluk, Chikkamagaluru district, Karnataka, India",
            "longitude": "76.1347937",
            "latitude": "13.6048777",
            "blogLinks": [
                "http://wikitravel.org/en/Chikmagalur"
            ],
            "locType": "river"
        },
        "nittur": {
            "closest_to": "",
            "address": "Malebennur Nittur Road, Nitturu, Harihara taluku, Davanagere district, Karnataka, 577530, India",
            "longitude": "75.7595937",
            "latitude": "14.3579814",
            "blogLinks": [
                "https://en.wikipedia.org/wiki/Kodachadri"
            ],
            "locType": "tertiary"
        },
        "tumkur": {
            "closest_to": "",
            "address": "Tumakuru, Tumkur district, Karnataka, India",
            "longitude": "77.0002445",
            "latitude": "13.4999406",
            "blogLinks": [
                "http://wikitravel.org/en/Chikmagalur"
            ],
            "locType": "county"
        },
        "hemavati": {
            "closest_to": "",
            "address": "Hemavati, Hasana taluk, Hassan district, Karnataka, India",
            "longitude": "76.0723187",
            "latitude": "12.8179996",
            "blogLinks": [
                "http://wikitravel.org/en/Chikmagalur"
            ],
            "locType": "river"
        },
        "hassan": {
            "closest_to": "",
            "address": "Hassan, Hasana taluk, Hassan district, Karnataka, 573201, India",
            "longitude": "76.0992703",
            "latitude": "13.0070817",
            "blogLinks": [
                "http://wikitravel.org/en/Chikmagalur"
            ],
            "locType": "town"
        },
        "southern india": {
            "closest_to": "",
            "address": "Survey Of India - Southern Zone, Madivala, Bengaluru, Bangalore Urban, Karnataka, 560001, India",
            "longitude": "77.6227757667762",
            "latitude": "12.92588785",
            "blogLinks": [
                "http://wikitravel.org/en/Agumbe"
            ],
            "locType": "commercial"
        },
        "south karnataka": {
            "closest_to": "",
            "address": "s, Vijayapura, Devanahalli taluk, Bangalore Rural, Karnataka, 562135, India",
            "longitude": "77.8040874",
            "latitude": "13.2942848",
            "blogLinks": [
                "http://wikitravel.org/en/Chikmagalur"
            ],
            "locType": "residential"
        },
        "india": {
            "closest_to": "",
            "address": "Karnataka, India",
            "longitude": "75.7223521",
            "latitude": "14.5203896",
            "blogLinks": [
                "http://travel.india.com/agumbe/",
                "https://www.tripoto.com/trip/agumbe-rainforest-karnataka-the-hidden-malgudi-house-in-india-itinerary-57e2744100417",
                "http://wikitravel.org/en/Chikmagalur",
                "http://www.distancesfrom.com/distance-from-Mangalore-to-Agumbe/DistanceHistory/97398.aspx",
                "http://www.onefivenine.com/india/Travel/Place/Agumbe",
                "https://www.ixigo.com/by-car-taxi/mangalore-to-agumbe-by-car-fast",
                "http://www.distancesfrom.com/travel-from-Mangalore-Central-to-Mangaluru-via-Sringeri-Annapurneswari-Layout-Agumbe/TravelFromHistory/34008431.aspx",
                "https://en.wikipedia.org/wiki/Kodachadri",
                "https://en.wikipedia.org/wiki/Agumbe",
                "http://wikitravel.org/en/Agumbe"
            ],
            "locType": "administrative"
        },
        "swami": {
            "closest_to": "",
            "address": "Swami Vivekananda Road, Swamy Vivekananda Road (Old Madras Road), Sudgunte Palya, Baiyyappanahalli, Benniganahalli, Bangalore Urban, Karnataka, 560016, India",
            "longitude": "77.6449595",
            "latitude": "12.9859442",
            "blogLinks": [
                "https://www.tripoto.com/trip/agumbe-rainforest-karnataka-the-hidden-malgudi-house-in-india-itinerary-57e2744100417"
            ],
            "locType": "station"
        }
    },
    "agumbe": {
        "place_id": "8561493",
        "osm_id": "910403408",
        "icon": "https://nominatim.openstreetmap.org/images/mapicons/poi_place_village.p.20.png",
        "osm_type": "node",
        "licence": "Data \u00a9 OpenStreetMap contributors, ODbL 1.0. http://www.openstreetmap.org/copyright",
        "display_name": "Agumbe, Tirthahalli taluk, Shimoga district, Karnataka, 577411, India",
        "type": "village",
        "lon": "75.0965525",
        "boundingbox": [
            "13.4894998",
            "13.5294998",
            "75.0765525",
            "75.1165525"
        ],
        "importance": 0.475,
        "lat": "13.5094998",
        "class": "place"
    }
}