{
    "mentions": {
        "badami": {
            "closest_to": "",
            "address": "Badami, Badami taluku, Bagalkote district, Karnataka, 587200, India",
            "longitude": "75.6807865",
            "latitude": "15.9203874",
            "blogLinks": [
                "https://www.quora.com/What-are-the-best-places-to-visit-on-a-3-day-trip-in-and-around-Karnataka"
            ],
            "locType": "town"
        },
        "subramanya": {
            "closest_to": "",
            "address": "Subramanya Arcade, Marenahalli, Bengaluru, Bangalore Urban, Karnataka, 560001, India",
            "longitude": "77.6015800913134",
            "latitude": "12.9251206",
            "blogLinks": [
                "http://wikitravel.org/en/Madikeri"
            ],
            "locType": "commercial"
        },
        "pushpagiri range": {
            "closest_to": "",
            "address": "Pushpagiri Nagar, Bengaluru, Bangalore Urban, Karnataka, 560001, India",
            "longitude": "77.5333268",
            "latitude": "12.9297622",
            "blogLinks": [
                "http://wikitravel.org/en/Madikeri"
            ],
            "locType": "locality"
        },
        "belgaum": {
            "closest_to": "",
            "address": "Belgaum, Belgaum district, Karnataka, India",
            "longitude": "74.75",
            "latitude": "16.333333",
            "blogLinks": [
                "https://www.quora.com/What-are-the-best-places-to-visit-on-a-3-day-trip-in-and-around-Karnataka"
            ],
            "locType": "county"
        },
        "maddur": {
            "closest_to": "",
            "address": "Maddur, Madduru taluk, Mandya district, Karnataka, 571428, India",
            "longitude": "77.0456404",
            "latitude": "12.5851916",
            "blogLinks": [
                "https://www.quora.com/What-are-the-best-places-to-visit-on-a-3-day-trip-in-and-around-Karnataka"
            ],
            "locType": "town"
        },
        "uttara kannada": {
            "closest_to": "",
            "address": "Uttara Kannada, Karnataka, India",
            "longitude": "74.4729163045979",
            "latitude": "14.6726379",
            "blogLinks": [
                "https://www.quora.com/What-are-the-best-places-to-visit-on-a-3-day-trip-in-and-around-Karnataka"
            ],
            "locType": "administrative"
        },
        "kushal nagar": {
            "closest_to": "",
            "address": "Kushal Medical Devices, Sulthanpalya Main Road, Shampura, Sulthanpalya, Bengaluru, Bangalore Urban, Karnataka, 560001, India",
            "longitude": "77.6041118",
            "latitude": "13.0268576",
            "blogLinks": [
                "http://wikitravel.org/en/Madikeri"
            ],
            "locType": "pharmacy"
        },
        "south": {
            "closest_to": "",
            "address": "s, Vijayapura, Devanahalli taluk, Bangalore Rural, Karnataka, 562135, India",
            "longitude": "77.8040874",
            "latitude": "13.2942848",
            "blogLinks": [
                "https://www.quora.com/What-are-the-best-places-to-visit-on-a-3-day-trip-in-and-around-Karnataka",
                "http://travel.india.com/articles/10-best-places-to-visit-in-india-in-august/"
            ],
            "locType": "residential"
        },
        "amboli": {
            "closest_to": "",
            "address": "Amboli, Khanapura taluku, Belgaum district, Karnataka, India",
            "longitude": "74.4340839",
            "latitude": "15.6456171",
            "blogLinks": [
                "https://www.quora.com/What-are-the-best-places-to-visit-on-a-3-day-trip-in-and-around-Karnataka"
            ],
            "locType": "village"
        },
        "mahabaleshwara": {
            "closest_to": "",
            "address": "Mahabaleshwara Temple, Mission Road (Kalinga Rao Road ), Sampangirama Nagar, Shanti Nagar, Bengaluru, Bangalore Urban, Karnataka, 560001, India",
            "longitude": "77.5899749843004",
            "latitude": "12.96264945",
            "blogLinks": [
                "https://www.quora.com/What-are-the-best-places-to-visit-on-a-3-day-trip-in-and-around-Karnataka"
            ],
            "locType": "place_of_worship"
        },
        "hyderabad": {
            "closest_to": "",
            "address": "Hyderabad Road, Old City, Bidar, Bidar taluku, Bidar district, Karnataka, 585400, India",
            "longitude": "77.5344002",
            "latitude": "17.9003114",
            "blogLinks": [
                "https://www.quora.com/What-are-the-best-weekend-road-trips-from-Bangalore"
            ],
            "locType": "primary"
        },
        "tagore beach": {
            "closest_to": "",
            "address": "Rabindranath Tagore Beach, NH66, Kodibag, Karwar, Karavara taluk, Uttara Kannada, Karnataka, 581300, India",
            "longitude": "74.126114099183",
            "latitude": "14.81741155",
            "blogLinks": [
                "https://www.quora.com/What-are-the-best-places-to-visit-on-a-3-day-trip-in-and-around-Karnataka"
            ],
            "locType": "beach"
        },
        "north karnataka": {
            "closest_to": "",
            "address": "N, Chaithanya Samarpan, Kadugodi, Kannamangala, Bangalore Urban, Karnataka, 560066, India",
            "longitude": "77.7660547",
            "latitude": "13.0217151",
            "blogLinks": [
                "https://www.quora.com/What-are-the-best-places-to-visit-on-a-3-day-trip-in-and-around-Karnataka"
            ],
            "locType": "service"
        },
        "durga temple": {
            "closest_to": "",
            "address": "Durga Temple, 29th Main, Mahadeshwara Nagara, BTM Layout, Bengaluru, Bangalore Urban, Karnataka, 560001, India",
            "longitude": "77.6125928",
            "latitude": "12.9057731",
            "blogLinks": [
                "https://www.quora.com/What-are-the-best-places-to-visit-on-a-3-day-trip-in-and-around-Karnataka"
            ],
            "locType": "place_of_worship"
        },
        "markandeya river": {
            "closest_to": "",
            "address": "Markandeya, Belagavi taluku, Belgaum district, Karnataka, India",
            "longitude": "74.5774895",
            "latitude": "15.9707453",
            "blogLinks": [
                "https://www.quora.com/What-are-the-best-places-to-visit-on-a-3-day-trip-in-and-around-Karnataka"
            ],
            "locType": "river"
        },
        "hoysala": {
            "closest_to": "",
            "address": "Hoysala Nagar, Bengaluru, Bangalore Urban, Karnataka, 560001, India",
            "longitude": "77.6375990817051",
            "latitude": "12.97813815",
            "blogLinks": [
                "https://www.quora.com/What-are-the-best-places-to-visit-on-a-3-day-trip-in-and-around-Karnataka"
            ],
            "locType": "administrative"
        },
        "cauvery": {
            "closest_to": "",
            "address": "Cauvery, 1st Main Road, Lower Palace Orchard, Guttahalli, Bengaluru, Bangalore Urban, Karnataka, 560001, India",
            "longitude": "77.5832796015599",
            "latitude": "13.00262215",
            "blogLinks": [
                "https://www.thrillophilia.com/places-to-visit-in-coorg",
                "http://www.nivalink.com/destination/coorg-(madikeri)"
            ],
            "locType": "cinema"
        },
        "karanji lake": {
            "closest_to": "",
            "address": "Karanji, Aurad taluku, Bidar district, Karnataka, India",
            "longitude": "77.5474867",
            "latitude": "18.2681849",
            "blogLinks": [
                "https://www.quora.com/What-are-the-best-places-to-visit-on-a-3-day-trip-in-and-around-Karnataka"
            ],
            "locType": "village"
        },
        "lord shiva": {
            "closest_to": "",
            "address": "Lord Shiva Temple, Marenahalli Road (South End), MICO Layout, BTM Layout, Bengaluru, Bangalore Urban, Karnataka, 560001, India",
            "longitude": "77.6024995",
            "latitude": "12.916875",
            "blogLinks": [
                "https://www.quora.com/What-are-the-best-places-to-visit-on-a-3-day-trip-in-and-around-Karnataka"
            ],
            "locType": "place_of_worship"
        },
        "doddamakali": {
            "closest_to": "",
            "address": "Doddamakali, Dalanakatte, Malavalli taluk, Mandya district, Karnataka, India",
            "longitude": "77.2173416",
            "latitude": "12.3096676",
            "blogLinks": [
                "http://www.nivalink.com/destination/coorg-(madikeri)"
            ],
            "locType": "locality"
        },
        "north goa": {
            "closest_to": "",
            "address": "Carnival De Goa, Bhaskaran Road, Gupta Layout, Halasuru, Bengaluru, Bangalore Urban, Karnataka, 560001, India",
            "longitude": "77.6200027",
            "latitude": "12.9750047",
            "blogLinks": [
                "http://travel.india.com/articles/10-best-places-to-visit-in-india-in-august/"
            ],
            "locType": "restaurant"
        },
        "cauvery river": {
            "closest_to": "",
            "address": "Temple Trees Rd, Cauvery Colony, ST Bed Layout, Koramangala, Bengaluru, Bangalore Urban, Karnataka, 560001, India",
            "longitude": "77.635647",
            "latitude": "12.9327668",
            "blogLinks": [
                "https://www.thrillophilia.com/places-to-visit-in-coorg"
            ],
            "locType": "unclassified"
        },
        "kerala": {
            "closest_to": "",
            "address": "New Life Kerala Mess, Sai Baba Mandira Road, Mottappanapalaya, Indiranagar, Bengaluru, Bangalore Urban, Karnataka, 560001, India",
            "longitude": "77.6382683",
            "latitude": "12.9726449",
            "blogLinks": [
                "http://travel.india.com/articles/10-best-places-to-visit-in-india-in-august/",
                "http://wikitravel.org/en/Madikeri",
                "https://www.thrillophilia.com/places-to-visit-in-coorg",
                "https://www.quora.com/What-are-the-best-places-to-visit-on-a-3-day-trip-in-and-around-Karnataka",
                "https://sarathrap.wordpress.com/2012/09/03/bangalore-to-madikeri-dharmastalakukke-subramanya-and-horanadusringeri-via-mangalore/",
                "https://www.quora.com/What-are-the-best-weekend-road-trips-from-Bangalore"
            ],
            "locType": "restaurant"
        },
        "malayalam": {
            "closest_to": "",
            "address": "Lowry Adventist Malayalam Church, A Narayanapura Main Road, Darga Mohalla, Udaya Nagar, A Narayanapura, Bangalore Urban, Karnataka, 560016, India",
            "longitude": "77.6774283",
            "latitude": "12.9985726",
            "blogLinks": [
                "http://travel.india.com/articles/10-best-places-to-visit-in-india-in-august/"
            ],
            "locType": "place_of_worship"
        },
        "sikkim": {
            "closest_to": "",
            "address": "Sikkim Manipal University, Sarjapur Road, Devarabisanahalli, Bellandur, Doddakannelli, Bangalore Urban, Karnataka, 560035, India",
            "longitude": "77.6704479",
            "latitude": "12.9185721",
            "blogLinks": [
                "https://www.thrillophilia.com/places-to-visit-in-coorg"
            ],
            "locType": "yes"
        },
        "rose garden": {
            "closest_to": "",
            "address": "Rose Garden, Dr B R Ambedkar Veedhi, Shantala Nagar, Gandhinagar, Bengaluru, Bangalore Urban, Karnataka, 560001, India",
            "longitude": "77.590382853852",
            "latitude": "12.97371325",
            "blogLinks": [
                "https://www.quora.com/What-are-the-best-places-to-visit-on-a-3-day-trip-in-and-around-Karnataka"
            ],
            "locType": "garden"
        },
        "southern india": {
            "closest_to": "",
            "address": "Survey Of India - Southern Zone, Madivala, Bengaluru, Bangalore Urban, Karnataka, 560001, India",
            "longitude": "77.6227757667762",
            "latitude": "12.92588785",
            "blogLinks": [
                "http://wikitravel.org/en/Madikeri"
            ],
            "locType": "commercial"
        },
        "kumarakom": {
            "closest_to": "",
            "address": "Kumarakom, 23, 15th Cross Road, Sector 4, HSR Layout, Bengaluru, Bangalore Urban, Karnataka, 560102, India",
            "longitude": "77.6382858",
            "latitude": "12.9143715",
            "blogLinks": [
                "http://travel.india.com/articles/10-best-places-to-visit-in-india-in-august/"
            ],
            "locType": "restaurant"
        },
        "mahadeshwara": {
            "closest_to": "",
            "address": "Mahadeshwara Nagara, BTM Layout, Bengaluru, Bangalore Urban, Karnataka, 560001, India",
            "longitude": "77.6123722",
            "latitude": "12.9076689",
            "blogLinks": [
                "https://www.quora.com/What-are-the-best-places-to-visit-on-a-3-day-trip-in-and-around-Karnataka"
            ],
            "locType": "neighbourhood"
        },
        "hampi": {
            "closest_to": "",
            "address": "Hampe, Hosapete taluk, Bellary district, Karnataka, 583239, India",
            "longitude": "76.4606199",
            "latitude": "15.3359769",
            "blogLinks": [
                "https://www.quora.com/What-are-the-best-places-to-visit-on-a-3-day-trip-in-and-around-Karnataka"
            ],
            "locType": "village"
        },
        "manchanabele": {
            "closest_to": "",
            "address": "Manchanabele, Magadi taluku, Ramanagara district, Karnataka, India",
            "longitude": "77.3344212",
            "latitude": "12.8668921",
            "blogLinks": [
                "https://www.quora.com/What-are-the-best-weekend-road-trips-from-Bangalore"
            ],
            "locType": "village"
        },
        "pushpagiri": {
            "closest_to": "",
            "address": "Pushpagiri Nagar, Bengaluru, Bangalore Urban, Karnataka, 560001, India",
            "longitude": "77.5333268",
            "latitude": "12.9297622",
            "blogLinks": [
                "https://www.thrillophilia.com/places-to-visit-in-coorg"
            ],
            "locType": "locality"
        },
        "kanakapura taluk": {
            "closest_to": "",
            "address": "Kanakapura taluk, Ramanagara district, Karnataka, India",
            "longitude": "77.4224204245398",
            "latitude": "12.5199223",
            "blogLinks": [
                "https://www.quora.com/What-are-the-best-weekend-road-trips-from-Bangalore"
            ],
            "locType": "administrative"
        },
        "kadamba": {
            "closest_to": "",
            "address": "Kadamba Avenue, R. Narayanapura, Brookefields, Dodsworth Enclave, Bangalore Urban, Karnataka, 560066, India",
            "longitude": "77.7436954",
            "latitude": "12.9703178",
            "blogLinks": [
                "https://www.quora.com/What-are-the-best-places-to-visit-on-a-3-day-trip-in-and-around-Karnataka"
            ],
            "locType": "residential"
        },
        "panaji": {
            "closest_to": "",
            "address": "Belgaum - Panaji Highway, Londa, Khanapura taluku, Belgaum district, Karnataka, India",
            "longitude": "74.4876784",
            "latitude": "15.4422981",
            "blogLinks": [
                "http://travel.india.com/articles/10-best-places-to-visit-in-india-in-august/"
            ],
            "locType": "trunk"
        },
        "ganeshgudi": {
            "closest_to": "",
            "address": "Ganeshagudi, Joida taluk, Uttara Kannada, Karnataka, India",
            "longitude": "74.5335693",
            "latitude": "15.2815822",
            "blogLinks": [
                "https://www.quora.com/What-are-the-best-places-to-visit-on-a-3-day-trip-in-and-around-Karnataka"
            ],
            "locType": "village"
        },
        "river cauvery": {
            "closest_to": "",
            "address": "Cauvery, 1st Main Road, Lower Palace Orchard, Guttahalli, Bengaluru, Bangalore Urban, Karnataka, 560001, India",
            "longitude": "77.5832796015599",
            "latitude": "13.00262215",
            "blogLinks": [
                "https://www.quora.com/What-are-the-best-weekend-road-trips-from-Bangalore",
                "http://www.nivalink.com/destination/coorg-(madikeri)",
                "http://traveltriangle.com/blog/places-to-visit-in-coorg/"
            ],
            "locType": "cinema"
        },
        "mount abu": {
            "closest_to": "",
            "address": "Masjid Abu Bakr (RAA), 3rd Cross Road, Pukraj Layout, Someshwaranagar, Bengaluru, Bangalore Urban, Karnataka, 560001, India",
            "longitude": "77.5927317",
            "latitude": "12.9429538",
            "blogLinks": [
                "http://travel.india.com/articles/10-best-places-to-visit-in-india-in-august/"
            ],
            "locType": "place_of_worship"
        },
        "malgudi": {
            "closest_to": "",
            "address": "Malgudi Southern Cuisine, 3, Outer Ring Road, Ananda Nagara, Doddanekundi, Garudacharpalya, Bangalore Urban, Karnataka, 560037, India",
            "longitude": "77.7017267",
            "latitude": "12.9651193",
            "blogLinks": [
                "http://travel.india.com/articles/10-best-places-to-visit-in-india-in-august/"
            ],
            "locType": "restaurant"
        },
        "kaveri": {
            "closest_to": "",
            "address": "Kaveri, Kollegala taluk, Chamarajanagar district, Karnataka, India",
            "longitude": "77.0635531",
            "latitude": "12.1687878",
            "blogLinks": [
                "https://www.quora.com/What-are-the-best-weekend-road-trips-from-Bangalore",
                "https://www.quora.com/What-are-the-best-places-to-visit-on-a-3-day-trip-in-and-around-Karnataka",
                "http://wikitravel.org/en/Madikeri"
            ],
            "locType": "river"
        },
        "nataraja": {
            "closest_to": "",
            "address": "Nataraja, Sirur Park Road, Vyalikaval, Seshadripuram, Bengaluru, Bangalore Urban, Karnataka, 560001, India",
            "longitude": "77.5730381173154",
            "latitude": "12.9900332",
            "blogLinks": [
                "https://www.quora.com/What-are-the-best-places-to-visit-on-a-3-day-trip-in-and-around-Karnataka"
            ],
            "locType": "cinema"
        },
        "f/a": {
            "closest_to": "",
            "address": "John F. Welch Technology Centre, Brookefields, Nallurahalli, Bangalore Urban, Karnataka, 560066, India",
            "longitude": "77.7241309645035",
            "latitude": "12.9727722",
            "blogLinks": [
                "https://www.thrillophilia.com/places-to-visit-in-coorg"
            ],
            "locType": "commercial"
        },
        "kodasalli dam": {
            "closest_to": "",
            "address": "Kodasalli Dam, Yallapura taluk, Uttara Kannada, Karnataka, India",
            "longitude": "74.5353892832085",
            "latitude": "14.91893295",
            "blogLinks": [
                "https://www.quora.com/What-are-the-best-weekend-road-trips-from-Bangalore"
            ],
            "locType": "dam"
        },
        "anantapur district": {
            "closest_to": "",
            "address": "RTO Karnataka, Srinagar - Kanyakumari Highway, Paragodu, Bagepalli taluk, Chikkaballapura district, Karnataka, 561207, India",
            "longitude": "77.7596024",
            "latitude": "13.7972948",
            "blogLinks": [
                "https://www.quora.com/What-are-the-best-weekend-road-trips-from-Bangalore"
            ],
            "locType": "yes"
        },
        "rajasthan": {
            "closest_to": "",
            "address": "Karnataka Bank, Mirza Ismail Road, Hasanpura, Bani Park, Jaipur, Rajasthan, 302006, India",
            "longitude": "75.7985653",
            "latitude": "26.91869",
            "blogLinks": [
                "http://travel.india.com/articles/10-best-places-to-visit-in-india-in-august/"
            ],
            "locType": "atm"
        },
        "kanakapura": {
            "closest_to": "",
            "address": "Kanakapura, Kanakapura taluk, Ramanagara district, Karnataka, 562117, India",
            "longitude": "77.4199095",
            "latitude": "12.5450268",
            "blogLinks": [
                "https://www.quora.com/What-are-the-best-weekend-road-trips-from-Bangalore"
            ],
            "locType": "town"
        },
        "brahmagiri range": {
            "closest_to": "",
            "address": "Brahmagiri Betta, Molakalmuru taluku, Chitradurga district, Karnataka, India",
            "longitude": "76.8122474",
            "latitude": "14.8001586",
            "blogLinks": [
                "https://www.quora.com/What-are-the-best-places-to-visit-on-a-3-day-trip-in-and-around-Karnataka",
                "https://sarathrap.wordpress.com/2012/09/03/bangalore-to-madikeri-dharmastalakukke-subramanya-and-horanadusringeri-via-mangalore/"
            ],
            "locType": "peak"
        },
        "mahadeshwara hills": {
            "closest_to": "",
            "address": "Sri Mahadeshwara Filling Station, Outer Ring Road, Seven Hills Layout, Kathriguppe, Bengaluru, Bangalore Urban, Karnataka, 560001, India",
            "longitude": "77.5414216",
            "latitude": "12.932367",
            "blogLinks": [
                "https://www.quora.com/What-are-the-best-places-to-visit-on-a-3-day-trip-in-and-around-Karnataka"
            ],
            "locType": "fuel"
        },
        "bangalore karnataka": {
            "closest_to": "",
            "address": "Bengaluru, Bangalore Urban, Karnataka, 560001, India",
            "longitude": "77.5912997",
            "latitude": "12.9791198",
            "blogLinks": [
                "https://www.quora.com/What-are-the-best-places-to-visit-on-a-3-day-trip-in-and-around-Karnataka"
            ],
            "locType": "city"
        },
        "kanakpura": {
            "closest_to": "",
            "address": "H 902, Mantri Tranquil, Gubbalala, Off Kanakpura Road, Bengaluru - 61, Subramanyapura Main Road, Singapore Gardens, Uttarahalli, Gubbalala, Bangalore Urban, Karnataka, 560086, India",
            "longitude": "77.5438085908703",
            "latitude": "12.8866679",
            "blogLinks": [
                "https://www.quora.com/What-are-the-best-weekend-road-trips-from-Bangalore"
            ],
            "locType": "yes"
        },
        "kalyan": {
            "closest_to": "",
            "address": "Kalyan Nagar, Chelekere, Bangalore Urban, Karnataka, India",
            "longitude": "77.6403368",
            "latitude": "13.0221416",
            "blogLinks": [
                "https://www.quora.com/What-are-the-best-places-to-visit-on-a-3-day-trip-in-and-around-Karnataka"
            ],
            "locType": "suburb"
        },
        "uttara kannada district": {
            "closest_to": "",
            "address": "Uttara Kannada, Karnataka, India",
            "longitude": "74.583333",
            "latitude": "14.883333",
            "blogLinks": [
                "https://www.quora.com/What-are-the-best-weekend-road-trips-from-Bangalore"
            ],
            "locType": "county"
        },
        "gulmohar": {
            "closest_to": "",
            "address": "MIMS Gulmohar Villas, Kadugodi, Prashanth Extension, Bangalore Urban, Karnataka, 56066, India",
            "longitude": "77.745811757371",
            "latitude": "12.9841671",
            "blogLinks": [
                "https://www.quora.com/What-are-the-best-weekend-road-trips-from-Bangalore"
            ],
            "locType": "residential"
        },
        "nethravathi": {
            "closest_to": "",
            "address": "Nethravathi, Hesarghatta Road, Singapura, Byalakere, Bangalore Urban, Karnataka, 560090, India",
            "longitude": "77.5424946",
            "latitude": "13.0898321",
            "blogLinks": [
                "https://sarathrap.wordpress.com/2012/09/03/bangalore-to-madikeri-dharmastalakukke-subramanya-and-horanadusringeri-via-mangalore/"
            ],
            "locType": "bus_stop"
        },
        "magadi": {
            "closest_to": "",
            "address": "Magadi, Magadi taluku, Ramanagara district, Karnataka, 562120, India",
            "longitude": "77.2242281",
            "latitude": "12.9567353",
            "blogLinks": [
                "https://www.quora.com/What-are-the-best-weekend-road-trips-from-Bangalore"
            ],
            "locType": "town"
        },
        "udipi": {
            "closest_to": "",
            "address": "Udipi Park, 2nd Cross Road, Muniyappa Layout, Murugeshpalaya, Belure Ambedkar Nagar, Bangalore Urban, Karnataka, 560067, India",
            "longitude": "77.652888",
            "latitude": "12.9530588",
            "blogLinks": [
                "http://www.nivalink.com/destination/coorg-(madikeri)"
            ],
            "locType": "restaurant"
        },
        "brahmagiri hill": {
            "closest_to": "",
            "address": "Brahmagiri Betta, Molakalmuru taluku, Chitradurga district, Karnataka, India",
            "longitude": "76.8122474",
            "latitude": "14.8001586",
            "blogLinks": [
                "https://www.thrillophilia.com/places-to-visit-in-coorg",
                "http://wikitravel.org/en/Madikeri"
            ],
            "locType": "peak"
        },
        "yellapur": {
            "closest_to": "",
            "address": "Yellapura, Yallapura taluk, Uttara Kannada, Karnataka, 581359, India",
            "longitude": "74.7061458",
            "latitude": "14.9622518",
            "blogLinks": [
                "https://www.quora.com/What-are-the-best-places-to-visit-on-a-3-day-trip-in-and-around-Karnataka"
            ],
            "locType": "town"
        },
        "sangama": {
            "closest_to": "",
            "address": "Sangam, SH92, Mahalli, Kanakapura taluk, Ramanagara district, Karnataka, India",
            "longitude": "77.4320447",
            "latitude": "12.2880428",
            "blogLinks": [
                "https://www.quora.com/What-are-the-best-weekend-road-trips-from-Bangalore"
            ],
            "locType": "attraction"
        },
        "sangameshwara": {
            "closest_to": "",
            "address": "Sangameshwara, Kalaghatagi taluku, Dharwad district, Karnataka, India",
            "longitude": "74.87651",
            "latitude": "15.184341",
            "blogLinks": [
                "https://www.quora.com/What-are-the-best-places-to-visit-on-a-3-day-trip-in-and-around-Karnataka"
            ],
            "locType": "village"
        },
        "bijapur district": {
            "closest_to": "",
            "address": "Bijapur district, Karnataka, India",
            "longitude": "75.897147327785",
            "latitude": "16.81105965",
            "blogLinks": [
                "https://www.quora.com/What-are-the-best-places-to-visit-on-a-3-day-trip-in-and-around-Karnataka"
            ],
            "locType": "administrative"
        },
        "bangalore": {
            "closest_to": "",
            "address": "Bengaluru, Bangalore Urban, Karnataka, 560001, India",
            "longitude": "77.5912997",
            "latitude": "12.9791198",
            "blogLinks": [
                "http://wikitravel.org/en/Madikeri",
                "http://www.nivalink.com/destination/coorg-(madikeri)",
                "http://traveltriangle.com/blog/places-to-visit-in-coorg/",
                "https://www.thrillophilia.com/places-to-visit-in-coorg",
                "https://www.quora.com/What-are-the-best-places-to-visit-on-a-3-day-trip-in-and-around-Karnataka",
                "https://sarathrap.wordpress.com/2012/09/03/bangalore-to-madikeri-dharmastalakukke-subramanya-and-horanadusringeri-via-mangalore/",
                "https://www.quora.com/What-are-the-best-weekend-road-trips-from-Bangalore"
            ],
            "locType": "city"
        },
        "china": {
            "closest_to": "",
            "address": "Highland China, Magrath Road, Tasker Town, Ashok Nagar, Bengaluru, Bangalore Urban, Karnataka, 560001, India",
            "longitude": "77.6074274",
            "latitude": "12.9708868",
            "blogLinks": [
                "http://travel.india.com/articles/10-best-places-to-visit-in-india-in-august/",
                "http://travel.india.com/coorg/"
            ],
            "locType": "restaurant"
        },
        "kali": {
            "closest_to": "",
            "address": "Kali, Joida taluk, Uttara Kannada, Karnataka, India",
            "longitude": "74.5802901",
            "latitude": "15.0145378",
            "blogLinks": [
                "https://www.quora.com/What-are-the-best-places-to-visit-on-a-3-day-trip-in-and-around-Karnataka"
            ],
            "locType": "river"
        },
        "kanyakumari": {
            "closest_to": "",
            "address": "RTO Karnataka, Srinagar - Kanyakumari Highway, Paragodu, Bagepalli taluk, Chikkaballapura district, Karnataka, 561207, India",
            "longitude": "77.7596024",
            "latitude": "13.7972948",
            "blogLinks": [
                "http://travel.india.com/articles/10-best-places-to-visit-in-india-in-august/"
            ],
            "locType": "yes"
        },
        "madikere": {
            "closest_to": "",
            "address": "Madikere, Chintamani taluk, Chikkaballapura district, Karnataka, India",
            "longitude": "78.0895724",
            "latitude": "13.3755097",
            "blogLinks": [
                "https://www.thrillophilia.com/places-to-visit-in-coorg"
            ],
            "locType": "village"
        },
        "tibet": {
            "closest_to": "",
            "address": "Tibet Bazaar, Brigade Road, Tasker Town, Ashok Nagar, Bengaluru, Bangalore Urban, Karnataka, 560001, India",
            "longitude": "77.6068828",
            "latitude": "12.9722398",
            "blogLinks": [
                "http://travel.india.com/articles/10-best-places-to-visit-in-india-in-august/",
                "http://travel.india.com/coorg/",
                "https://sarathrap.wordpress.com/2012/09/03/bangalore-to-madikeri-dharmastalakukke-subramanya-and-horanadusringeri-via-mangalore/"
            ],
            "locType": "supermarket"
        },
        "north kerala": {
            "closest_to": "",
            "address": "New Life Kerala Mess, Sai Baba Mandira Road, Mottappanapalaya, Indiranagar, Bengaluru, Bangalore Urban, Karnataka, 560001, India",
            "longitude": "77.6382683",
            "latitude": "12.9726449",
            "blogLinks": [
                "http://www.nivalink.com/destination/coorg-(madikeri)"
            ],
            "locType": "restaurant"
        },
        "gulbarga": {
            "closest_to": "",
            "address": "Kalaburgi, Kalaburagi district, Karnataka, India",
            "longitude": "77.083333",
            "latitude": "17.166667",
            "blogLinks": [
                "https://www.quora.com/What-are-the-best-places-to-visit-on-a-3-day-trip-in-and-around-Karnataka"
            ],
            "locType": "county"
        },
        "gokul garden": {
            "closest_to": "",
            "address": "Gokul Garden, Gokul Road / Airport Road, Renuka Nagar, Padmaraj Nagar, Gokul, Hubballi taluku, Dharwad district, Karnataka, 580030, India",
            "longitude": "75.1141861403246",
            "latitude": "15.35009745",
            "blogLinks": [
                "https://www.quora.com/What-are-the-best-places-to-visit-on-a-3-day-trip-in-and-around-Karnataka"
            ],
            "locType": "recreation_ground"
        },
        "gokak": {
            "closest_to": "",
            "address": "Gokak, Gokak taluku, Belgaum district, Karnataka, 591307, India",
            "longitude": "74.8224338",
            "latitude": "16.1693033",
            "blogLinks": [
                "https://www.quora.com/What-are-the-best-places-to-visit-on-a-3-day-trip-in-and-around-Karnataka"
            ],
            "locType": "town"
        },
        "nandi hills": {
            "closest_to": "",
            "address": "Nandi Upahara, Nandhi Hills Road, Kottige Thimmanahalli, Devanahalli taluk, Bangalore Rural, Karnataka, India",
            "longitude": "77.7194741670394",
            "latitude": "13.268142",
            "blogLinks": [
                "https://www.quora.com/What-are-the-best-weekend-road-trips-from-Bangalore",
                "https://www.quora.com/What-are-the-best-places-to-visit-on-a-3-day-trip-in-and-around-Karnataka"
            ],
            "locType": "hotel"
        },
        "rameshwara temple": {
            "closest_to": "",
            "address": "Rameshwara Temple, Kranthikavi Sarvagnya Road, Rajajinagar 4th Block, Sriramapura, Bengaluru, Bangalore Urban, Karnataka, 560001, India",
            "longitude": "77.5678621969321",
            "latitude": "12.99365815",
            "blogLinks": [
                "https://www.thrillophilia.com/places-to-visit-in-coorg"
            ],
            "locType": "place_of_worship"
        },
        "bidar": {
            "closest_to": "",
            "address": "Bidar, Bidar district, Karnataka, India",
            "longitude": "77.333333",
            "latitude": "18.083333",
            "blogLinks": [
                "https://www.quora.com/What-are-the-best-places-to-visit-on-a-3-day-trip-in-and-around-Karnataka"
            ],
            "locType": "county"
        },
        "madurai": {
            "closest_to": "",
            "address": "Madurai Idly Shop, 5th Main Road, Teachers Colony, HSR Layout, Bengaluru, Bangalore Urban, Karnataka, 560001, India",
            "longitude": "77.6320535",
            "latitude": "12.9185419",
            "blogLinks": [
                "http://travel.india.com/articles/10-best-places-to-visit-in-india-in-august/"
            ],
            "locType": "restaurant"
        },
        "kaveri river": {
            "closest_to": "",
            "address": "Kaveri, Malavalli taluk, Mandya district, Karnataka, India",
            "longitude": "77.1600751",
            "latitude": "12.2873835",
            "blogLinks": [
                "http://traveltriangle.com/blog/places-to-visit-in-coorg/"
            ],
            "locType": "river"
        },
        "andhra pradesh": {
            "closest_to": "",
            "address": "Karnataka, West Mada Street, Srivari Temple, Tirumala, Chittoor, Andhra Pradesh, 517504, India",
            "longitude": "79.3452447",
            "latitude": "13.6841958",
            "blogLinks": [
                "https://www.quora.com/What-are-the-best-weekend-road-trips-from-Bangalore"
            ],
            "locType": "hotel"
        },
        "botanical garden": {
            "closest_to": "",
            "address": "Botanical Garden, Cart road, Judicial Layout, Jakkur, Bangalore Urban, Karnataka, 560065, India",
            "longitude": "77.5744817798899",
            "latitude": "13.08099125",
            "blogLinks": [
                "https://www.quora.com/What-are-the-best-places-to-visit-on-a-3-day-trip-in-and-around-Karnataka"
            ],
            "locType": "protected_area"
        },
        "heart lake": {
            "closest_to": "",
            "address": "Sacred Heart Cemetry, Shanti Nagar, Bengaluru, Bangalore Urban, Karnataka, 560001, India",
            "longitude": "77.6033149073313",
            "latitude": "12.9542916",
            "blogLinks": [
                "https://www.quora.com/What-are-the-best-places-to-visit-on-a-3-day-trip-in-and-around-Karnataka"
            ],
            "locType": "cemetery"
        },
        "tagore": {
            "closest_to": "",
            "address": "Rabindranath Tagore Nagar, Bengaluru, Bangalore Urban, Karnataka, 560001, India",
            "longitude": "77.595715",
            "latitude": "13.0227204",
            "blogLinks": [
                "https://www.quora.com/What-are-the-best-places-to-visit-on-a-3-day-trip-in-and-around-Karnataka"
            ],
            "locType": "suburb"
        },
        "ocean": {
            "closest_to": "",
            "address": "Gayatri Ocean Blue Apartments, Thubarahalli, Siddapura, Bangalore Urban, Karnataka, 560066, India",
            "longitude": "77.7178261979437",
            "latitude": "12.95490595",
            "blogLinks": [
                "https://www.quora.com/What-are-the-best-places-to-visit-on-a-3-day-trip-in-and-around-Karnataka"
            ],
            "locType": "residential"
        },
        "andhra": {
            "closest_to": "",
            "address": "Karnataka, West Mada Street, Srivari Temple, Tirumala, Chittoor, Andhra Pradesh, 517504, India",
            "longitude": "79.3452447",
            "latitude": "13.6841958",
            "blogLinks": [
                "https://www.quora.com/What-are-the-best-weekend-road-trips-from-Bangalore",
                "https://sarathrap.wordpress.com/2012/09/03/bangalore-to-madikeri-dharmastalakukke-subramanya-and-horanadusringeri-via-mangalore/"
            ],
            "locType": "hotel"
        },
        "hindupur": {
            "closest_to": "",
            "address": "Hindupur ByPass Road, Bachchahalli, Doddaballapura taluk, Bangalore Rural, Karnataka, India",
            "longitude": "77.5237128",
            "latitude": "13.3580171",
            "blogLinks": [
                "https://www.quora.com/What-are-the-best-weekend-road-trips-from-Bangalore"
            ],
            "locType": "primary"
        },
        "sri krishna temple": {
            "closest_to": "",
            "address": "Sri Krishna Temple Road, Old Binnamangala, Hoysala Nagar, Bengaluru, Bangalore Urban, Karnataka, 560001, India",
            "longitude": "77.6437236",
            "latitude": "12.9791699",
            "blogLinks": [
                "https://www.quora.com/What-are-the-best-places-to-visit-on-a-3-day-trip-in-and-around-Karnataka"
            ],
            "locType": "unclassified"
        },
        "chennai": {
            "closest_to": "",
            "address": "Karnataka Bank, Postal Colony 2nd Street, Postal Colony, Ashok Nagar, Chennai City Corporation Limits, Chennai district, Tamil Nadu, 600033, India",
            "longitude": "80.2197941",
            "latitude": "13.0365141",
            "blogLinks": [
                "https://www.quora.com/What-are-the-best-weekend-road-trips-from-Bangalore"
            ],
            "locType": "bank"
        },
        "railway": {
            "closest_to": "",
            "address": "Railway, Station Road, Ballari, Bellary taluk, Bellary district, Karnataka, 583101, India",
            "longitude": "76.9233837124601",
            "latitude": "15.14464015",
            "blogLinks": [
                "https://sarathrap.wordpress.com/2012/09/03/bangalore-to-madikeri-dharmastalakukke-subramanya-and-horanadusringeri-via-mangalore/"
            ],
            "locType": "wood"
        },
        "kali river": {
            "closest_to": "",
            "address": "Kali, Joida taluk, Uttara Kannada, Karnataka, India",
            "longitude": "74.5802901",
            "latitude": "15.0145378",
            "blogLinks": [
                "https://www.quora.com/What-are-the-best-weekend-road-trips-from-Bangalore",
                "https://www.quora.com/What-are-the-best-places-to-visit-on-a-3-day-trip-in-and-around-Karnataka"
            ],
            "locType": "river"
        },
        "mekedatu": {
            "closest_to": "",
            "address": "Mekedatu, SH92, Mahalli, Kanakapura taluk, Ramanagara district, Karnataka, India",
            "longitude": "77.4475194",
            "latitude": "12.2584997",
            "blogLinks": [
                "https://www.quora.com/What-are-the-best-weekend-road-trips-from-Bangalore"
            ],
            "locType": "attraction"
        },
        "parvati": {
            "closest_to": "",
            "address": "Parvati, Badami taluku, Bagalkote district, Karnataka, India",
            "longitude": "75.7898501",
            "latitude": "16.0395701",
            "blogLinks": [
                "https://www.quora.com/What-are-the-best-places-to-visit-on-a-3-day-trip-in-and-around-Karnataka"
            ],
            "locType": "village"
        },
        "pondicherry": {
            "closest_to": "",
            "address": "Karnataka Bank, Mission Street, Grand Bazaar, Puducherry, Puducherry district, Puducherry, 605001, India",
            "longitude": "79.831569",
            "latitude": "11.9365727",
            "blogLinks": [
                "https://www.quora.com/What-are-the-best-weekend-road-trips-from-Bangalore"
            ],
            "locType": "bank"
        },
        "avalabetta": {
            "closest_to": "",
            "address": "Avalabetta, Chikkaballapura taluk, Chikkaballapura district, Karnataka, India",
            "longitude": "77.6730413",
            "latitude": "13.5775096",
            "blogLinks": [
                "https://www.quora.com/What-are-the-best-weekend-road-trips-from-Bangalore"
            ],
            "locType": "peak"
        },
        "kuvempu": {
            "closest_to": "",
            "address": "Kuvempu, Kengeri Main Road, ITI Layout, Jnana Bharathi, Nagadevanahalli, Bangalore Urban, Karnataka, 560056, India",
            "longitude": "77.5064032",
            "latitude": "12.9560369",
            "blogLinks": [
                "https://www.quora.com/What-are-the-best-places-to-visit-on-a-3-day-trip-in-and-around-Karnataka"
            ],
            "locType": "artwork"
        },
        "tamil nadu": {
            "closest_to": "",
            "address": "KARNATAKA BANK, Diwan Bhadur Road, Five Corner, RS Puram, Coimbatore, Coimbatore district, Tamil Nadu, 641001, India",
            "longitude": "76.9514152",
            "latitude": "11.0025894",
            "blogLinks": [
                "https://www.quora.com/What-are-the-best-weekend-road-trips-from-Bangalore",
                "https://www.quora.com/What-are-the-best-places-to-visit-on-a-3-day-trip-in-and-around-Karnataka"
            ],
            "locType": "bank"
        },
        "bellary road": {
            "closest_to": "",
            "address": "Bellary Road, Kanaka Nagar, Hebbal, Bengaluru, Bangalore Urban, Karnataka, 560001, India",
            "longitude": "77.5915237",
            "latitude": "13.0465345",
            "blogLinks": [
                "https://www.quora.com/What-are-the-best-weekend-road-trips-from-Bangalore"
            ],
            "locType": "trunk"
        },
        "bellary": {
            "closest_to": "",
            "address": "Bellary, Bellary district, Karnataka, India",
            "longitude": "76.8323648",
            "latitude": "15.2485413",
            "blogLinks": [
                "https://www.quora.com/What-are-the-best-weekend-road-trips-from-Bangalore"
            ],
            "locType": "county"
        },
        "bangkok": {
            "closest_to": "",
            "address": "One night in Bangkok, 12th Main Road, HAL 2nd Stage, Indiranagar, Bengaluru, Bangalore Urban, Karnataka, 560001, India",
            "longitude": "77.6382633",
            "latitude": "12.9701967",
            "blogLinks": [
                "https://www.quora.com/What-are-the-best-places-to-visit-on-a-3-day-trip-in-and-around-Karnataka"
            ],
            "locType": "bar"
        },
        "mandovi": {
            "closest_to": "",
            "address": "Mandovi Motors, Wheeler Road Flyover, MSO Colony, Cox Town, Bengaluru, Bangalore Urban, Karnataka, 560001, India",
            "longitude": "77.6190505",
            "latitude": "12.9965335",
            "blogLinks": [
                "https://www.quora.com/What-are-the-best-places-to-visit-on-a-3-day-trip-in-and-around-Karnataka"
            ],
            "locType": "car"
        },
        "goa": {
            "closest_to": "",
            "address": "Carnival De Goa, Bhaskaran Road, Gupta Layout, Halasuru, Bengaluru, Bangalore Urban, Karnataka, 560001, India",
            "longitude": "77.6200027",
            "latitude": "12.9750047",
            "blogLinks": [
                "http://travel.india.com/articles/10-best-places-to-visit-in-india-in-august/"
            ],
            "locType": "restaurant"
        },
        "happy valley": {
            "closest_to": "",
            "address": "D Silva Layout , Happy Valley, Whitefield, Kadugodi, Prashanth Extension, Bangalore Urban, Karnataka, 56066, India",
            "longitude": "77.7501570935652",
            "latitude": "12.97919985",
            "blogLinks": [
                "http://travel.india.com/articles/10-best-places-to-visit-in-india-in-august/"
            ],
            "locType": "residential"
        },
        "rashtrakavi kuvempu": {
            "closest_to": "",
            "address": "Rashtrakavi Kuvempu Road, Mico Arekere Layout 1st Stage, Hulimavu, Beguru, Bangalore Urban, Karnataka, 560076, India",
            "longitude": "77.6068684",
            "latitude": "12.8866766",
            "blogLinks": [
                "https://www.quora.com/What-are-the-best-places-to-visit-on-a-3-day-trip-in-and-around-Karnataka"
            ],
            "locType": "residential"
        },
        "national park": {
            "closest_to": "",
            "address": "Bannerghatta National Park, Anekal Road, Begihalli, Bangalore Urban, Karnataka, 560076, India",
            "longitude": "77.5722783830694",
            "latitude": "12.77900335",
            "blogLinks": [
                "https://www.thrillophilia.com/places-to-visit-in-coorg",
                "https://www.quora.com/What-are-the-best-weekend-road-trips-from-Bangalore"
            ],
            "locType": "national_park"
        },
        "jaipur": {
            "closest_to": "",
            "address": "Karnataka Bank, Mirza Ismail Road, Hasanpura, Bani Park, Jaipur, Rajasthan, 302006, India",
            "longitude": "75.7985653",
            "latitude": "26.91869",
            "blogLinks": [
                "http://travel.india.com/articles/10-best-places-to-visit-in-india-in-august/"
            ],
            "locType": "atm"
        },
        "garden city": {
            "closest_to": "",
            "address": "Karnataka Bank, Postal Colony 2nd Street, Postal Colony, Ashok Nagar, Chennai City Corporation Limits, Chennai district, Tamil Nadu, 600033, India",
            "longitude": "80.2197941",
            "latitude": "13.0365141",
            "blogLinks": [
                "https://www.quora.com/What-are-the-best-weekend-road-trips-from-Bangalore"
            ],
            "locType": "bank"
        },
        "delhi": {
            "closest_to": "",
            "address": "Outer Ring Road, Green Glen Layout, Iblur, Bengaluru, Bangalore Urban, Karnataka, 560001, India",
            "longitude": "77.6666062",
            "latitude": "12.9212473",
            "blogLinks": [
                "https://www.quora.com/What-are-the-best-weekend-road-trips-from-Bangalore"
            ],
            "locType": "trunk"
        }
    },
    "agumbe": {
        "place_id": "8561493",
        "osm_id": "910403408",
        "icon": "https://nominatim.openstreetmap.org/images/mapicons/poi_place_village.p.20.png",
        "osm_type": "node",
        "licence": "Data \u00a9 OpenStreetMap contributors, ODbL 1.0. http://www.openstreetmap.org/copyright",
        "display_name": "Agumbe, Tirthahalli taluk, Shimoga district, Karnataka, 577411, India",
        "type": "village",
        "lon": "75.0965525",
        "boundingbox": [
            "13.4894998",
            "13.5294998",
            "75.0765525",
            "75.1165525"
        ],
        "importance": 0.475,
        "lat": "13.5094998",
        "class": "place"
    },
    "madikeri": {
        "place_id": "3592336",
        "osm_id": "390887113",
        "icon": "https://nominatim.openstreetmap.org/images/mapicons/poi_place_town.p.20.png",
        "osm_type": "node",
        "licence": "Data \u00a9 OpenStreetMap contributors, ODbL 1.0. http://www.openstreetmap.org/copyright",
        "display_name": "Madikeri, Madikeri taluku, Kodagu, Karnataka, India",
        "type": "town",
        "lon": "75.740031",
        "boundingbox": [
            "12.3804003",
            "12.4604003",
            "75.700031",
            "75.780031"
        ],
        "importance": 0.55113932557876,
        "lat": "12.4204003",
        "class": "place"
    }
}