{
    "mentions": {
        "mangalore": {
            "blogLinks": [
                "https://en.wikipedia.org/wiki/Tourism_in_Karnataka",
                "http://karnatakatour.info/category/best-tourist-places-in-karnataka/caves/",
                "https://www.quora.com/What-are-the-best-places-to-visit-on-a-3-day-trip-in-and-around-Karnataka",
                "http://www.nivalink.com/destination/gokarna",
                "https://www.quora.com/What-are-the-best-places-to-visit-in-Karnataka-India"
            ],
            "locType": "city",
            "longitude": "74.8430082",
            "latitude": "12.8698101",
            "address": "Mangaluru, Mangaluru taluk, Dakshina Kannada, Karnataka, 575001, India",
            "closest_to": ""
        },
        "kozhikode": {
            "blogLinks": [
                "https://www.quora.com/What-are-the-best-places-to-visit-in-Karnataka-India"
            ],
            "locType": "primary",
            "longitude": "76.6598864",
            "latitude": "12.2926117",
            "address": "Kozhikode - Kollegal Highway, Ittigegudu, Mysuru, Mysuru taluk, Mysuru district, Karnataka, 570001, India",
            "closest_to": ""
        },
        "nandi hills": {
            "blogLinks": [
                "https://www.quora.com/What-are-the-best-places-to-visit-on-a-3-day-trip-in-and-around-Karnataka",
                "https://www.quora.com/What-are-the-best-places-to-visit-in-Karnataka-India"
            ],
            "locType": "hotel",
            "longitude": "77.7194741670394",
            "latitude": "13.268142",
            "address": "Nandi Upahara, Nandhi Hills Road, Kottige Thimmanahalli, Devanahalli taluk, Bangalore Rural, Karnataka, India",
            "closest_to": ""
        },
        "cubbon park": {
            "blogLinks": [
                "https://www.quora.com/What-are-the-best-places-to-visit-in-Karnataka-India"
            ],
            "locType": "station",
            "longitude": "77.5977565",
            "latitude": "12.9808487",
            "address": "Cubbon Park, Cubbon Road, Tasker Town, Shivajinagar, Bengaluru, Bangalore Urban, Karnataka, 560001, India",
            "closest_to": ""
        },
        "charmadi": {
            "blogLinks": [
                "https://www.quora.com/What-are-the-best-places-to-visit-in-Karnataka-India"
            ],
            "locType": "village",
            "longitude": "75.3967377",
            "latitude": "13.0365436",
            "address": "Charmadi, Beltangadi taluk, Dakshina Kannada, Karnataka, 574290, India",
            "closest_to": ""
        },
        "hindupur": {
            "blogLinks": [
                "https://www.quora.com/What-are-the-best-places-to-visit-in-Karnataka-India"
            ],
            "locType": "primary",
            "longitude": "77.5237128",
            "latitude": "13.3580171",
            "address": "Hindupur ByPass Road, Bachchahalli, Doddaballapura taluk, Bangalore Rural, Karnataka, India",
            "closest_to": ""
        },
        "tumkur": {
            "blogLinks": [
                "https://en.wikipedia.org/wiki/Tourism_in_Karnataka",
                "http://myjourneysinindia.blogspot.com/2016/04/hampi-and-nearby-places.html"
            ],
            "locType": "county",
            "longitude": "77.0002445",
            "latitude": "13.4999406",
            "address": "Tumakuru, Tumkur district, Karnataka, India",
            "closest_to": ""
        },
        "kambadahalli": {
            "blogLinks": [
                "https://en.wikipedia.org/wiki/Tourism_in_Karnataka"
            ],
            "locType": "village",
            "longitude": "77.1671918",
            "latitude": "13.6843692",
            "address": "Kambadahalli, Madhugiri taluk, Tumkur district, Karnataka, India",
            "closest_to": ""
        },
        "west": {
            "blogLinks": [
                "https://en.wikipedia.org/wiki/Badami"
            ],
            "locType": "clothes",
            "longitude": "77.5960999",
            "latitude": "12.8759384",
            "address": "w, Balmuri Main Road, Hulimavu,, Bannerghatta Road, Mico Arekere Layout 1st Stage, Hulimavu, Bengaluru, Bangalore Urban, Karnataka, 560076, India",
            "closest_to": ""
        },
        "bangalore karnataka": {
            "blogLinks": [
                "https://www.quora.com/What-are-the-best-places-to-visit-on-a-3-day-trip-in-and-around-Karnataka"
            ],
            "locType": "city",
            "longitude": "77.5912997",
            "latitude": "12.9791198",
            "address": "Bengaluru, Bangalore Urban, Karnataka, 560001, India",
            "closest_to": ""
        },
        "sakleshpur": {
            "blogLinks": [
                "https://www.quora.com/What-are-the-best-places-to-visit-on-a-3-day-trip-in-and-around-Karnataka"
            ],
            "locType": "town",
            "longitude": "75.7862318",
            "latitude": "12.9434349",
            "address": "Sakaleshpura, Sakaleshapura taluk, Hassan district, Karnataka, 573134, India",
            "closest_to": ""
        },
        "mandalpatti": {
            "blogLinks": [
                "https://www.quora.com/What-are-the-best-places-to-visit-on-a-3-day-trip-in-and-around-Karnataka"
            ],
            "locType": "attraction",
            "longitude": "75.7307012",
            "latitude": "12.4486242",
            "address": "Mandalpatti road junction, Galibidu Road, Kalakeri Nidugane, Madikeri taluku, Kodagu, Karnataka, India",
            "closest_to": ""
        },
        "andhra": {
            "blogLinks": [
                "https://www.quora.com/What-are-the-best-places-to-visit-in-Karnataka-India"
            ],
            "locType": "hotel",
            "longitude": "79.3452447",
            "latitude": "13.6841958",
            "address": "Karnataka, West Mada Street, Srivari Temple, Tirumala, Chittoor, Andhra Pradesh, 517504, India",
            "closest_to": ""
        },
        "chalukya": {
            "blogLinks": [
                "https://en.wikipedia.org/wiki/Tourism_in_Karnataka"
            ],
            "locType": "residential",
            "longitude": "77.5192989605445",
            "latitude": "12.9617207",
            "address": "Chalukya Nagar, Chandra Layout, GKW Layout, Bangalore Urban, Karnataka, 560072, India",
            "closest_to": ""
        },
        "kaveri": {
            "blogLinks": [
                "https://en.wikipedia.org/wiki/Tourism_in_Karnataka",
                "https://www.quora.com/What-are-the-best-places-to-visit-on-a-3-day-trip-in-and-around-Karnataka",
                "https://www.tripoto.com/trip/karnataka-one-state-many-worlds-2-565ed43147a04",
                "https://www.quora.com/What-are-the-best-places-to-visit-in-Karnataka-India"
            ],
            "locType": "river",
            "longitude": "77.0635531",
            "latitude": "12.1687878",
            "address": "Kaveri, Kollegala taluk, Chamarajanagar district, Karnataka, India",
            "closest_to": ""
        },
        "nagarhole national park": {
            "blogLinks": [
                "https://en.wikipedia.org/wiki/Tourism_in_Karnataka",
                "https://www.quora.com/What-are-the-best-places-to-visit-on-a-3-day-trip-in-and-around-Karnataka"
            ],
            "locType": "national_park",
            "longitude": "76.1537073415874",
            "latitude": "12.0600362",
            "address": "Nagarahole National Park, Virajpet taluk, Kodagu, Karnataka, India",
            "closest_to": ""
        },
        "goa": {
            "blogLinks": [
                "https://en.wikipedia.org/wiki/Tourism_in_Karnataka",
                "http://www.nivalink.com/destination/gokarna"
            ],
            "locType": "restaurant",
            "longitude": "77.6200027",
            "latitude": "12.9750047",
            "address": "Carnival De Goa, Bhaskaran Road, Gupta Layout, Halasuru, Bengaluru, Bangalore Urban, Karnataka, 560001, India",
            "closest_to": ""
        },
        "dharmastala": {
            "blogLinks": [
                "https://en.wikipedia.org/wiki/Tourism_in_Karnataka"
            ],
            "locType": "village",
            "longitude": "75.3813122",
            "latitude": "12.9519571",
            "address": "Dharmasthala, Beltangadi taluk, Dakshina Kannada, Karnataka, 574216, India",
            "closest_to": ""
        },
        "heart lake": {
            "blogLinks": [
                "https://www.quora.com/What-are-the-best-places-to-visit-on-a-3-day-trip-in-and-around-Karnataka"
            ],
            "locType": "cemetery",
            "longitude": "77.6033149073313",
            "latitude": "12.9542916",
            "address": "Sacred Heart Cemetry, Shanti Nagar, Bengaluru, Bangalore Urban, Karnataka, 560001, India",
            "closest_to": ""
        },
        "dakshina kannada": {
            "blogLinks": [
                "https://en.wikipedia.org/wiki/Tourism_in_Karnataka",
                "https://www.quora.com/What-are-the-best-places-to-visit-on-a-3-day-trip-in-and-around-Karnataka",
                "https://www.quora.com/What-are-the-best-places-to-visit-in-Karnataka-India"
            ],
            "locType": "administrative",
            "longitude": "75.1008028650794",
            "latitude": "12.8114089",
            "address": "Dakshina Kannada, Karnataka, India",
            "closest_to": ""
        },
        "nataraja": {
            "blogLinks": [
                "https://en.wikipedia.org/wiki/Badami",
                "https://www.quora.com/What-are-the-best-places-to-visit-on-a-3-day-trip-in-and-around-Karnataka",
                "https://www.keralaholidays.com/Destinations/Badami.htm"
            ],
            "locType": "cinema",
            "longitude": "77.5730381173154",
            "latitude": "12.9900332",
            "address": "Nataraja, Sirur Park Road, Vyalikaval, Seshadripuram, Bengaluru, Bangalore Urban, Karnataka, 560001, India",
            "closest_to": ""
        },
        "ooty lake": {
            "blogLinks": [
                "https://www.quora.com/What-are-the-best-places-to-visit-on-a-3-day-trip-in-and-around-Karnataka"
            ],
            "locType": "primary",
            "longitude": "76.6586807",
            "latitude": "12.2774807",
            "address": "Ooty Road, Vidyaranyapuram, Mysuru, Mysuru taluk, Mysuru district, Karnataka, 570001, India",
            "closest_to": ""
        },
        "kumbakonam": {
            "blogLinks": [
                "http://myjourneysinindia.blogspot.com/2016/04/hampi-and-nearby-places.html"
            ],
            "locType": "cafe",
            "longitude": "77.6232945",
            "latitude": "12.9739292",
            "address": "Kumbakonam Traditional Coffee, E 4th Street, Gupta Layout, Halasuru, Bengaluru, Bangalore Urban, Karnataka, 560001, India",
            "closest_to": ""
        },
        "vellore": {
            "blogLinks": [
                "https://www.quora.com/What-are-the-best-places-to-visit-in-Karnataka-India"
            ],
            "locType": "bank",
            "longitude": "79.1518812",
            "latitude": "12.9351366",
            "address": "Karnataka Bank, Sathuvachari, NH48, Sathuvachari, Vellore, Vellore district, Tamil Nadu, 632014, India",
            "closest_to": ""
        },
        "subramanya": {
            "blogLinks": [
                "https://en.wikipedia.org/wiki/Tourism_in_Karnataka"
            ],
            "locType": "commercial",
            "longitude": "77.6015800913134",
            "latitude": "12.9251206",
            "address": "Subramanya Arcade, Marenahalli, Bengaluru, Bangalore Urban, Karnataka, 560001, India",
            "closest_to": ""
        },
        "lord shiva": {
            "blogLinks": [
                "https://www.quora.com/What-are-the-best-places-to-visit-on-a-3-day-trip-in-and-around-Karnataka"
            ],
            "locType": "place_of_worship",
            "longitude": "77.6024995",
            "latitude": "12.916875",
            "address": "Lord Shiva Temple, Marenahalli Road (South End), MICO Layout, BTM Layout, Bengaluru, Bangalore Urban, Karnataka, 560001, India",
            "closest_to": ""
        },
        "irupu falls": {
            "blogLinks": [
                "https://en.wikipedia.org/wiki/Tourism_in_Karnataka"
            ],
            "locType": "attraction",
            "longitude": "75.9839484",
            "latitude": "11.9667954",
            "address": "Iruppu Falls, SH89, Taila, Virajpet taluk, Kodagu, Karnataka, 571217, India",
            "closest_to": ""
        },
        "south": {
            "blogLinks": [
                "https://en.wikipedia.org/wiki/Tourism_in_Karnataka",
                "https://www.quora.com/What-are-the-best-places-to-visit-on-a-3-day-trip-in-and-around-Karnataka"
            ],
            "locType": "residential",
            "longitude": "77.8040874",
            "latitude": "13.2942848",
            "address": "s, Vijayapura, Devanahalli taluk, Bangalore Rural, Karnataka, 562135, India",
            "closest_to": ""
        },
        "nilgiris": {
            "blogLinks": [
                "https://en.wikipedia.org/wiki/Tourism_in_Karnataka"
            ],
            "locType": "supermarket",
            "longitude": "77.6069792",
            "latitude": "12.9725052",
            "address": "Nilgiris, Brigade Road, Tasker Town, Ashok Nagar, Bengaluru, Bangalore Urban, Karnataka, 560001, India",
            "closest_to": ""
        },
        "nagarahole national park": {
            "blogLinks": [
                "https://en.wikipedia.org/wiki/Tourism_in_Karnataka"
            ],
            "locType": "national_park",
            "longitude": "76.1537073415874",
            "latitude": "12.0600362",
            "address": "Nagarahole National Park, Virajpet taluk, Kodagu, Karnataka, India",
            "closest_to": ""
        },
        "gulbarga district": {
            "blogLinks": [
                "https://en.wikipedia.org/wiki/Tourism_in_Karnataka"
            ],
            "locType": "county",
            "longitude": "77.083333",
            "latitude": "17.166667",
            "address": "Kalaburgi, Kalaburagi district, Karnataka, India",
            "closest_to": ""
        },
        "sharadamba": {
            "blogLinks": [
                "https://www.quora.com/What-are-the-best-places-to-visit-on-a-3-day-trip-in-and-around-Karnataka"
            ],
            "locType": "place_of_worship",
            "longitude": "77.5656194",
            "latitude": "12.9321898",
            "address": "Sharadamba Temple, 7th Main Road, Yediyur, Thyagaraja Nagar, Bengaluru, Bangalore Urban, Karnataka, 560001, India",
            "closest_to": ""
        },
        "belthangady": {
            "blogLinks": [
                "https://www.quora.com/What-are-the-best-places-to-visit-in-Karnataka-India"
            ],
            "locType": "school",
            "longitude": "75.2789924801603",
            "latitude": "12.9899316",
            "address": "Government Model Primary School Belthangady, NH73, Guruvayankere, Beltangadi taluk, Dakshina Kannada, Karnataka, India",
            "closest_to": ""
        },
        "kadamba": {
            "blogLinks": [
                "https://en.wikipedia.org/wiki/Badami",
                "https://www.quora.com/What-are-the-best-places-to-visit-on-a-3-day-trip-in-and-around-Karnataka"
            ],
            "locType": "residential",
            "longitude": "77.7436954",
            "latitude": "12.9703178",
            "address": "Kadamba Avenue, R. Narayanapura, Brookefields, Dodsworth Enclave, Bangalore Urban, Karnataka, 560066, India",
            "closest_to": ""
        },
        "mallikarjuna": {
            "blogLinks": [
                "https://en.wikipedia.org/wiki/Tourism_in_Karnataka",
                "https://en.wikipedia.org/wiki/Badami"
            ],
            "locType": "village",
            "longitude": "77.0590502",
            "latitude": "17.8106693",
            "address": "Mallikarjuna Vadi, Basavakalyana taluku, Bidar district, Karnataka, India",
            "closest_to": ""
        },
        "badam": {
            "blogLinks": [
                "http://www.globalvisiontours.com/karnataka/badami/badami-tourist-places.aspx"
            ],
            "locType": "service",
            "longitude": "77.5688877",
            "latitude": "13.0160462",
            "address": "Badam Marg, RMV Stage II - 1st Block, Sadhashivanagar, Deewanarapalya, Bangalore Urban, Karnataka, 560012, India",
            "closest_to": ""
        },
        "grs fantasy park": {
            "blogLinks": [
                "https://www.quora.com/What-are-the-best-places-to-visit-on-a-3-day-trip-in-and-around-Karnataka"
            ],
            "locType": "theme_park",
            "longitude": "76.6338102194966",
            "latitude": "12.3540981",
            "address": "GRS Fantasy Park, Ring Road, Kumbara Koppalu, Metagalli Industrial Area, Mysuru, Mysuru taluk, Mysuru district, Karnataka, 570001, India",
            "closest_to": ""
        },
        "udipi": {
            "blogLinks": [
                "http://www.nivalink.com/destination/gokarna"
            ],
            "locType": "restaurant",
            "longitude": "77.652888",
            "latitude": "12.9530588",
            "address": "Udipi Park, 2nd Cross Road, Muniyappa Layout, Murugeshpalaya, Belure Ambedkar Nagar, Bangalore Urban, Karnataka, 560067, India",
            "closest_to": ""
        },
        "srirangapatna": {
            "blogLinks": [
                "https://en.wikipedia.org/wiki/Tourism_in_Karnataka",
                "https://www.quora.com/What-are-the-best-places-to-visit-in-Karnataka-India"
            ],
            "locType": "town",
            "longitude": "76.6850743",
            "latitude": "12.4225604",
            "address": "Srirangapatna, Srirangapattana taluk, Mandya district, Karnataka, 571438, India",
            "closest_to": ""
        },
        "coorg": {
            "blogLinks": [
                "https://www.quora.com/What-are-the-best-places-to-visit-on-a-3-day-trip-in-and-around-Karnataka"
            ],
            "locType": "town",
            "longitude": "75.740031",
            "latitude": "12.4204003",
            "address": "Madikeri, Madikeri taluku, Kodagu, Karnataka, India",
            "closest_to": ""
        },
        "narayana": {
            "blogLinks": [
                "https://en.wikipedia.org/wiki/Tourism_in_Karnataka"
            ],
            "locType": "village",
            "longitude": "76.201037",
            "latitude": "13.9181889",
            "address": "Narayana Gondanahalli, Holalkere taluk, Chitradurga district, Karnataka, India",
            "closest_to": ""
        },
        "maharashtra": {
            "blogLinks": [
                "https://en.wikipedia.org/wiki/Tourism_in_Karnataka",
                "https://en.wikipedia.org/wiki/Badami"
            ],
            "locType": "bank",
            "longitude": "77.5856013",
            "latitude": "12.9049455",
            "address": "Bank of Maharashtra, 24th Main, K R Layout, Puttenahalli, Bengaluru, Bangalore Urban, Karnataka, 560001, India",
            "closest_to": ""
        },
        "dubare": {
            "blogLinks": [
                "https://www.quora.com/What-are-the-best-places-to-visit-in-Karnataka-India"
            ],
            "locType": "attraction",
            "longitude": "75.9066719",
            "latitude": "12.3716865",
            "address": "Dubare Elephant Camp, SH91, Dodda Bettageri, Somawarpet taluk, Kodagu, Karnataka, India",
            "closest_to": ""
        },
        "bannerghatta national park": {
            "blogLinks": [
                "https://en.wikipedia.org/wiki/Tourism_in_Karnataka",
                "https://www.quora.com/What-are-the-best-places-to-visit-in-Karnataka-India"
            ],
            "locType": "national_park",
            "longitude": "77.5722783830694",
            "latitude": "12.77900335",
            "address": "Bannerghatta National Park, Anekal Road, Begihalli, Bangalore Urban, Karnataka, 560076, India",
            "closest_to": ""
        },
        "kanakapura road": {
            "blogLinks": [
                "https://en.wikipedia.org/wiki/Tourism_in_Karnataka"
            ],
            "locType": "trunk",
            "longitude": "77.5733483",
            "latitude": "12.9064528",
            "address": "Kanakapura Road, Rajotsava Nagar, Kaderenahalli, Bengaluru, Bangalore Urban, Karnataka, 560001, India",
            "closest_to": ""
        },
        "beluru": {
            "blogLinks": [
                "https://en.wikipedia.org/wiki/Tourism_in_Karnataka"
            ],
            "locType": "town",
            "longitude": "75.8634851",
            "latitude": "13.1645671",
            "address": "Belur, Beluru taluk, Hassan district, Karnataka, 573115, India",
            "closest_to": ""
        },
        "botanical garden": {
            "blogLinks": [
                "https://www.quora.com/What-are-the-best-places-to-visit-on-a-3-day-trip-in-and-around-Karnataka"
            ],
            "locType": "protected_area",
            "longitude": "77.5744817798899",
            "latitude": "13.08099125",
            "address": "Botanical Garden, Cart road, Judicial Layout, Jakkur, Bangalore Urban, Karnataka, 560065, India",
            "closest_to": ""
        },
        "silent valley": {
            "blogLinks": [
                "https://www.quora.com/What-are-the-best-places-to-visit-on-a-3-day-trip-in-and-around-Karnataka"
            ],
            "locType": "hotel",
            "longitude": "76.5819054",
            "latitude": "12.3459371",
            "address": "Silent Shores Resort, Krishnaraja Sagara Road, Kurgalli, Bastipura, Srirangapattana taluk, Mandya district, Karnataka, 570027, India",
            "closest_to": ""
        },
        "bannerghatta": {
            "blogLinks": [
                "https://en.wikipedia.org/wiki/Tourism_in_Karnataka"
            ],
            "locType": "village",
            "longitude": "77.5789509",
            "latitude": "12.813337",
            "address": "Bannerghatta, Bangalore Urban, Karnataka, India",
            "closest_to": ""
        },
        "anantapur district": {
            "blogLinks": [
                "https://www.quora.com/What-are-the-best-places-to-visit-in-Karnataka-India"
            ],
            "locType": "yes",
            "longitude": "77.7596024",
            "latitude": "13.7972948",
            "address": "RTO Karnataka, Srinagar - Kanyakumari Highway, Paragodu, Bagepalli taluk, Chikkaballapura district, Karnataka, 561207, India",
            "closest_to": ""
        },
        "narasimha swamy temple": {
            "blogLinks": [
                "https://en.wikipedia.org/wiki/Tourism_in_Karnataka"
            ],
            "locType": "place_of_worship",
            "longitude": "76.2427318",
            "latitude": "13.0943931",
            "address": "Narasimha Swamy Temple, Attavara Mudigere Road, Attavara, Hasana taluk, Hassan district, Karnataka, India",
            "closest_to": ""
        },
        "bombay": {
            "blogLinks": [
                "https://en.wikipedia.org/wiki/Badami"
            ],
            "locType": "cafe",
            "longitude": "77.5500256",
            "latitude": "12.9632318",
            "address": "Bombay tea hotel, Hosahalli Main Road, Rajajinagar 6th Block, Goripalya, Bengaluru, Bangalore Urban, Karnataka, 560001, India",
            "closest_to": ""
        },
        "kerala": {
            "blogLinks": [
                "https://www.quora.com/What-are-the-best-places-to-visit-on-a-3-day-trip-in-and-around-Karnataka",
                "https://www.quora.com/What-are-the-best-places-to-visit-in-Karnataka-India"
            ],
            "locType": "restaurant",
            "longitude": "77.6382683",
            "latitude": "12.9726449",
            "address": "New Life Kerala Mess, Sai Baba Mandira Road, Mottappanapalaya, Indiranagar, Bengaluru, Bangalore Urban, Karnataka, 560001, India",
            "closest_to": ""
        },
        "ocean": {
            "blogLinks": [
                "https://www.quora.com/What-are-the-best-places-to-visit-on-a-3-day-trip-in-and-around-Karnataka"
            ],
            "locType": "residential",
            "longitude": "77.7178261979437",
            "latitude": "12.95490595",
            "address": "Gayatri Ocean Blue Apartments, Thubarahalli, Siddapura, Bangalore Urban, Karnataka, 560066, India",
            "closest_to": ""
        },
        "chamundi hill": {
            "blogLinks": [
                "https://www.quora.com/What-are-the-best-places-to-visit-on-a-3-day-trip-in-and-around-Karnataka"
            ],
            "locType": "peak",
            "longitude": "76.6703937",
            "latitude": "12.2724017",
            "address": "Chamundi Hill, Mysuru, Mysuru taluk, Mysuru district, Karnataka, 570001, India",
            "closest_to": ""
        },
        "bahubali": {
            "blogLinks": [
                "https://en.wikipedia.org/wiki/Tourism_in_Karnataka",
                "https://en.wikipedia.org/wiki/Badami",
                "https://www.quora.com/What-are-the-best-places-to-visit-on-a-3-day-trip-in-and-around-Karnataka"
            ],
            "locType": "place_of_worship",
            "longitude": "76.4846128",
            "latitude": "12.8540505",
            "address": "Bahubali Statue, SH8, Shravanabelagola, Channarayapattana taluk, Hassan district, Karnataka, 573135, India",
            "closest_to": ""
        },
        "halebidu": {
            "blogLinks": [
                "https://en.wikipedia.org/wiki/Tourism_in_Karnataka"
            ],
            "locType": "village",
            "longitude": "76.4607075",
            "latitude": "12.359893",
            "address": "Halebidu, Hunasuru taluk, Mysuru district, Karnataka, India",
            "closest_to": ""
        },
        "bangkok": {
            "blogLinks": [
                "https://www.quora.com/What-are-the-best-places-to-visit-on-a-3-day-trip-in-and-around-Karnataka"
            ],
            "locType": "bar",
            "longitude": "77.6382633",
            "latitude": "12.9701967",
            "address": "One night in Bangkok, 12th Main Road, HAL 2nd Stage, Indiranagar, Bengaluru, Bangalore Urban, Karnataka, 560001, India",
            "closest_to": ""
        },
        "national park": {
            "blogLinks": [
                "https://www.quora.com/What-are-the-best-places-to-visit-in-Karnataka-India"
            ],
            "locType": "national_park",
            "longitude": "77.5722783830694",
            "latitude": "12.77900335",
            "address": "Bannerghatta National Park, Anekal Road, Begihalli, Bangalore Urban, Karnataka, 560076, India",
            "closest_to": ""
        },
        "mandya district": {
            "blogLinks": [
                "https://en.wikipedia.org/wiki/Tourism_in_Karnataka"
            ],
            "locType": "administrative",
            "longitude": "76.7302318329607",
            "latitude": "12.6336348",
            "address": "Mandya district, Karnataka, India",
            "closest_to": ""
        },
        "bandipur": {
            "blogLinks": [
                "https://en.wikipedia.org/wiki/Tourism_in_Karnataka"
            ],
            "locType": "village",
            "longitude": "76.6285739",
            "latitude": "11.6662708",
            "address": "Bandipur, Gundlupet taluk, Chamarajanagar district, Karnataka, India",
            "closest_to": ""
        },
        "mercara": {
            "blogLinks": [
                "https://en.wikipedia.org/wiki/Tourism_in_Karnataka"
            ],
            "locType": "town",
            "longitude": "75.740031",
            "latitude": "12.4204003",
            "address": "Madikeri, Madikeri taluku, Kodagu, Karnataka, India",
            "closest_to": ""
        },
        "north": {
            "blogLinks": [
                "https://www.quora.com/What-are-the-best-places-to-visit-in-Karnataka-India"
            ],
            "locType": "service",
            "longitude": "77.7660547",
            "latitude": "13.0217151",
            "address": "N, Chaithanya Samarpan, Kadugodi, Kannamangala, Bangalore Urban, Karnataka, 560066, India",
            "closest_to": ""
        },
        "bidar": {
            "blogLinks": [
                "https://www.quora.com/What-are-the-best-places-to-visit-on-a-3-day-trip-in-and-around-Karnataka"
            ],
            "locType": "county",
            "longitude": "77.333333",
            "latitude": "18.083333",
            "address": "Bidar, Bidar district, Karnataka, India",
            "closest_to": ""
        },
        "kanakapura taluk": {
            "blogLinks": [
                "https://www.quora.com/What-are-the-best-places-to-visit-in-Karnataka-India"
            ],
            "locType": "administrative",
            "longitude": "77.4224204245398",
            "latitude": "12.5199223",
            "address": "Kanakapura taluk, Ramanagara district, Karnataka, India",
            "closest_to": ""
        },
        "arasikere": {
            "blogLinks": [
                "https://en.wikipedia.org/wiki/Tourism_in_Karnataka"
            ],
            "locType": "town",
            "longitude": "76.2568436",
            "latitude": "13.3159809",
            "address": "Arasikere, Arasikere taluku, Hassan district, Karnataka, 573103, India",
            "closest_to": ""
        },
        "mandya": {
            "blogLinks": [
                "https://en.wikipedia.org/wiki/Tourism_in_Karnataka",
                "https://www.quora.com/What-are-the-best-places-to-visit-in-Karnataka-India"
            ],
            "locType": "town",
            "longitude": "76.8937392",
            "latitude": "12.5217836",
            "address": "Mandya, Mandya taluk, Mandya district, Karnataka, 571401, India",
            "closest_to": ""
        },
        "kanchipuram": {
            "blogLinks": [
                "https://en.wikipedia.org/wiki/Badami"
            ],
            "locType": "hotel",
            "longitude": "79.3452447",
            "latitude": "13.6841958",
            "address": "Karnataka, West Mada Street, Srivari Temple, Tirumala, Chittoor, Andhra Pradesh, 517504, India",
            "closest_to": ""
        },
        "siddheshwara": {
            "blogLinks": [
                "https://en.wikipedia.org/wiki/Tourism_in_Karnataka"
            ],
            "locType": "pharmacy",
            "longitude": "77.5876527",
            "latitude": "13.0797146",
            "address": "Siddheshwara Medicals, Judicial Layout, Allalasandra, Bangalore, 7th Main Road, Judicial Layout, Bengaluru, Bangalore Urban, Karnataka, 560001, India",
            "closest_to": ""
        },
        "kabini": {
            "blogLinks": [
                "https://en.wikipedia.org/wiki/Tourism_in_Karnataka",
                "https://www.quora.com/What-are-the-best-places-to-visit-in-Karnataka-India"
            ],
            "locType": "river",
            "longitude": "76.4152088",
            "latitude": "12.0140065",
            "address": "Kabini, Heggadadevanakote taluk, Mysuru district, Karnataka, India",
            "closest_to": ""
        },
        "chandramoulishwara": {
            "blogLinks": [
                "https://en.wikipedia.org/wiki/Tourism_in_Karnataka"
            ],
            "locType": "place_of_worship",
            "longitude": "76.6290267",
            "latitude": "12.3225663",
            "address": "Chandramoulishwara Temple, Adipampa Road, Gokulam, Mysuru, Mysuru taluk, Mysuru district, Karnataka, 570001, India",
            "closest_to": ""
        },
        "tagore": {
            "blogLinks": [
                "https://www.quora.com/What-are-the-best-places-to-visit-on-a-3-day-trip-in-and-around-Karnataka"
            ],
            "locType": "suburb",
            "longitude": "77.595715",
            "latitude": "13.0227204",
            "address": "Rabindranath Tagore Nagar, Bengaluru, Bangalore Urban, Karnataka, 560001, India",
            "closest_to": ""
        },
        "mahabaleshwara temple": {
            "blogLinks": [
                "http://www.nivalink.com/destination/gokarna"
            ],
            "locType": "place_of_worship",
            "longitude": "77.5899749843004",
            "latitude": "12.96264945",
            "address": "Mahabaleshwara Temple, Mission Road (Kalinga Rao Road ), Sampangirama Nagar, Shanti Nagar, Bengaluru, Bangalore Urban, Karnataka, 560001, India",
            "closest_to": ""
        },
        "bheemeshwari": {
            "blogLinks": [
                "https://en.wikipedia.org/wiki/Tourism_in_Karnataka"
            ],
            "locType": "locality",
            "longitude": "77.2778171",
            "latitude": "12.3124122",
            "address": "Bheemeshwari, Muttatti, Malavalli taluk, Mandya district, Karnataka, India",
            "closest_to": ""
        },
        "daria daulat gardens": {
            "blogLinks": [
                "https://www.quora.com/What-are-the-best-places-to-visit-on-a-3-day-trip-in-and-around-Karnataka"
            ],
            "locType": "museum",
            "longitude": "76.6969039957315",
            "latitude": "12.4200182",
            "address": "Daria Daulat Bagh Museum, Bangalore-Mysore Road, Srirangapatna, Srirangapattana taluk, Mandya district, Karnataka, 571438, India",
            "closest_to": ""
        },
        "temple town": {
            "blogLinks": [
                "http://myjourneysinindia.blogspot.com/2016/04/hampi-and-nearby-places.html"
            ],
            "locType": "place_of_worship",
            "longitude": "77.6295123",
            "latitude": "13.0014876",
            "address": "Temple, Banaswadi Road, MSO Colony, Cooke Town, Bengaluru, Bangalore Urban, Karnataka, 560001, India",
            "closest_to": ""
        },
        "veera narayana temple": {
            "blogLinks": [
                "https://www.quora.com/What-are-the-best-places-to-visit-on-a-3-day-trip-in-and-around-Karnataka"
            ],
            "locType": "place_of_worship",
            "longitude": "75.9953525",
            "latitude": "13.2821212",
            "address": "Veera Narayana Temple, Chikmagalur Javagal Road, Narasipura, Chikkamagaluru taluku, Chikkamagaluru district, Karnataka, India",
            "closest_to": ""
        },
        "chennakeshava": {
            "blogLinks": [
                "https://www.quora.com/What-are-the-best-places-to-visit-on-a-3-day-trip-in-and-around-Karnataka"
            ],
            "locType": "place_of_worship",
            "longitude": "76.1294164",
            "latitude": "13.3748908",
            "address": "Chennakeshava Temple, NH73, Arakere, Arasikere taluku, Hassan district, Karnataka, 573112, India",
            "closest_to": ""
        },
        "durga temple": {
            "blogLinks": [
                "https://www.quora.com/What-are-the-best-places-to-visit-on-a-3-day-trip-in-and-around-Karnataka"
            ],
            "locType": "place_of_worship",
            "longitude": "77.6125928",
            "latitude": "12.9057731",
            "address": "Durga Temple, 29th Main, Mahadeshwara Nagara, BTM Layout, Bengaluru, Bangalore Urban, Karnataka, 560001, India",
            "closest_to": ""
        },
        "ujire": {
            "blogLinks": [
                "https://www.quora.com/What-are-the-best-places-to-visit-in-Karnataka-India"
            ],
            "locType": "village",
            "longitude": "75.3301061",
            "latitude": "12.9954619",
            "address": "Ujire, Beltangadi taluk, Dakshina Kannada, Karnataka, India",
            "closest_to": ""
        },
        "mahabaleshwar temple": {
            "blogLinks": [
                "http://www.nivalink.com/destination/gokarna"
            ],
            "locType": "place_of_worship",
            "longitude": "77.5899443",
            "latitude": "12.962625",
            "address": "Mahabaleshwar Temple, Mission Road (Kalinga Rao Road), Sampangirama Nagar, Shanti Nagar, Bengaluru, Bangalore Urban, Karnataka, 560001, India",
            "closest_to": ""
        },
        "north karnataka": {
            "blogLinks": [
                "https://en.wikipedia.org/wiki/Tourism_in_Karnataka",
                "https://www.quora.com/What-are-the-best-places-to-visit-on-a-3-day-trip-in-and-around-Karnataka",
                "http://blog.mapsofindia.com/heritage-sites/karnatakas-magnificent-and-mystifying-caves/",
                "http://myjourneysinindia.blogspot.com/2016/04/hampi-and-nearby-places.html",
                "https://www.quora.com/What-are-the-best-places-to-visit-in-Karnataka-India"
            ],
            "locType": "service",
            "longitude": "77.7660547",
            "latitude": "13.0217151",
            "address": "N, Chaithanya Samarpan, Kadugodi, Kannamangala, Bangalore Urban, Karnataka, 560066, India",
            "closest_to": ""
        },
        "earth": {
            "blogLinks": [
                "https://en.wikipedia.org/wiki/Badami"
            ],
            "locType": "industrial",
            "longitude": "77.659986649248",
            "latitude": "12.9740596",
            "address": "Bharat Earth Movers Limited - BEML, GM Palya, Bengaluru, Bangalore Urban, Karnataka, 560001, India",
            "closest_to": ""
        },
        "kalyan": {
            "blogLinks": [
                "https://www.quora.com/What-are-the-best-places-to-visit-on-a-3-day-trip-in-and-around-Karnataka"
            ],
            "locType": "suburb",
            "longitude": "77.6403368",
            "latitude": "13.0221416",
            "address": "Kalyan Nagar, Chelekere, Bangalore Urban, Karnataka, India",
            "closest_to": ""
        },
        "hoysala": {
            "blogLinks": [
                "https://en.wikipedia.org/wiki/Tourism_in_Karnataka",
                "https://www.quora.com/What-are-the-best-places-to-visit-on-a-3-day-trip-in-and-around-Karnataka"
            ],
            "locType": "administrative",
            "longitude": "77.6375990817051",
            "latitude": "12.97813815",
            "address": "Hoysala Nagar, Bengaluru, Bangalore Urban, Karnataka, 560001, India",
            "closest_to": ""
        },
        "kodagu": {
            "blogLinks": [
                "https://en.wikipedia.org/wiki/Tourism_in_Karnataka",
                "https://www.quora.com/What-are-the-best-places-to-visit-on-a-3-day-trip-in-and-around-Karnataka",
                "https://www.quora.com/What-are-the-best-places-to-visit-in-Karnataka-India"
            ],
            "locType": "administrative",
            "longitude": "75.6677235950852",
            "latitude": "12.38117345",
            "address": "Kodagu, Karnataka, India",
            "closest_to": ""
        },
        "hassan district": {
            "blogLinks": [
                "https://en.wikipedia.org/wiki/Tourism_in_Karnataka"
            ],
            "locType": "administrative",
            "longitude": "76.1745460751981",
            "latitude": "13.0315068",
            "address": "Hassan district, Karnataka, India",
            "closest_to": ""
        },
        "tamil nadu": {
            "blogLinks": [
                "https://en.wikipedia.org/wiki/Tourism_in_Karnataka",
                "https://en.wikipedia.org/wiki/Badami",
                "https://www.quora.com/What-are-the-best-places-to-visit-on-a-3-day-trip-in-and-around-Karnataka",
                "http://myjourneysinindia.blogspot.com/2016/04/hampi-and-nearby-places.html"
            ],
            "locType": "bank",
            "longitude": "76.9514152",
            "latitude": "11.0025894",
            "address": "KARNATAKA BANK, Diwan Bhadur Road, Five Corner, RS Puram, Coimbatore, Coimbatore district, Tamil Nadu, 641001, India",
            "closest_to": ""
        },
        "south karnataka": {
            "blogLinks": [
                "https://en.wikipedia.org/wiki/Tourism_in_Karnataka"
            ],
            "locType": "residential",
            "longitude": "77.8040874",
            "latitude": "13.2942848",
            "address": "s, Vijayapura, Devanahalli taluk, Bangalore Rural, Karnataka, 562135, India",
            "closest_to": ""
        },
        "shivanasamudra": {
            "blogLinks": [
                "https://en.wikipedia.org/wiki/Tourism_in_Karnataka"
            ],
            "locType": "village",
            "longitude": "77.1703215",
            "latitude": "12.2719056",
            "address": "Shivanasamudra, Kollegala taluk, Chamarajanagar district, Karnataka, India",
            "closest_to": ""
        },
        "hassan": {
            "blogLinks": [
                "https://en.wikipedia.org/wiki/Tourism_in_Karnataka",
                "https://www.quora.com/What-are-the-best-places-to-visit-in-Karnataka-India"
            ],
            "locType": "town",
            "longitude": "76.0992703",
            "latitude": "13.0070817",
            "address": "Hassan, Hasana taluk, Hassan district, Karnataka, 573201, India",
            "closest_to": ""
        },
        "gulmohar": {
            "blogLinks": [
                "https://www.quora.com/What-are-the-best-places-to-visit-in-Karnataka-India"
            ],
            "locType": "residential",
            "longitude": "77.745811757371",
            "latitude": "12.9841671",
            "address": "MIMS Gulmohar Villas, Kadugodi, Prashanth Extension, Bangalore Urban, Karnataka, 56066, India",
            "closest_to": ""
        },
        "kanakapura": {
            "blogLinks": [
                "https://www.quora.com/What-are-the-best-places-to-visit-in-Karnataka-India"
            ],
            "locType": "town",
            "longitude": "77.4199095",
            "latitude": "12.5450268",
            "address": "Kanakapura, Kanakapura taluk, Ramanagara district, Karnataka, 562117, India",
            "closest_to": ""
        },
        "kodava": {
            "blogLinks": [
                "https://www.quora.com/What-are-the-best-places-to-visit-on-a-3-day-trip-in-and-around-Karnataka"
            ],
            "locType": "community_centre",
            "longitude": "77.5947466457941",
            "latitude": "12.9946227",
            "address": "Kodava Samaja, M V Jayaram Road, Jayamahal Extension, Vasantnagar, Bengaluru, Bangalore Urban, Karnataka, 560001, India",
            "closest_to": ""
        },
        "sri krishna temple": {
            "blogLinks": [
                "https://www.quora.com/What-are-the-best-places-to-visit-on-a-3-day-trip-in-and-around-Karnataka"
            ],
            "locType": "unclassified",
            "longitude": "77.6437236",
            "latitude": "12.9791699",
            "address": "Sri Krishna Temple Road, Old Binnamangala, Hoysala Nagar, Bengaluru, Bangalore Urban, Karnataka, 560001, India",
            "closest_to": ""
        },
        "manjunatha temple": {
            "blogLinks": [
                "https://www.quora.com/What-are-the-best-places-to-visit-on-a-3-day-trip-in-and-around-Karnataka"
            ],
            "locType": "place_of_worship",
            "longitude": "77.5640116772773",
            "latitude": "12.9211928",
            "address": "Devagiri Manjunatha Swamy Temple, 30th Cross, Jayanagar 8th Block, Banashankari 2nd Stage, Bengaluru, Bangalore Urban, Karnataka, 560001, India",
            "closest_to": ""
        },
        "kolar": {
            "blogLinks": [
                "https://www.quora.com/What-are-the-best-places-to-visit-in-Karnataka-India"
            ],
            "locType": "town",
            "longitude": "78.1339606",
            "latitude": "13.1369996",
            "address": "Kolar, Kolar taluk, Kolar district, Karnataka, 563101, India",
            "closest_to": ""
        },
        "karnatka": {
            "blogLinks": [
                "http://myjourneysinindia.blogspot.com/2016/04/hampi-and-nearby-places.html"
            ],
            "locType": "bank",
            "longitude": "77.5679508",
            "latitude": "12.9500847",
            "address": "Karnatka Rajya Kaigarika Sahakari Bank, Bull Temple Road, Mavalli, Chamarajapete, Bengaluru, Bangalore Urban, Karnataka, 560001, India",
            "closest_to": ""
        },
        "kanaganahalli": {
            "blogLinks": [
                "https://en.wikipedia.org/wiki/Tourism_in_Karnataka"
            ],
            "locType": "village",
            "longitude": "76.5876958",
            "latitude": "12.5588444",
            "address": "Kanaganahalli, Pandavapura taluk, Mandya district, Karnataka, India",
            "closest_to": ""
        },
        "andhra pradesh": {
            "blogLinks": [
                "https://en.wikipedia.org/wiki/Badami",
                "http://wikitravel.org/en/Badami"
            ],
            "locType": "hotel",
            "longitude": "79.3452447",
            "latitude": "13.6841958",
            "address": "Karnataka, West Mada Street, Srivari Temple, Tirumala, Chittoor, Andhra Pradesh, 517504, India",
            "closest_to": ""
        },
        "mandovi": {
            "blogLinks": [
                "https://www.quora.com/What-are-the-best-places-to-visit-on-a-3-day-trip-in-and-around-Karnataka"
            ],
            "locType": "car",
            "longitude": "77.6190505",
            "latitude": "12.9965335",
            "address": "Mandovi Motors, Wheeler Road Flyover, MSO Colony, Cox Town, Bengaluru, Bangalore Urban, Karnataka, 560001, India",
            "closest_to": ""
        },
        "manjusha museum": {
            "blogLinks": [
                "https://en.wikipedia.org/wiki/Tourism_in_Karnataka"
            ],
            "locType": "museum",
            "longitude": "75.3821342838196",
            "latitude": "12.95116975",
            "address": "Manjusha Museum, SH37, Dharmasthala, Beltangadi taluk, Dakshina Kannada, Karnataka, 574216, India",
            "closest_to": ""
        },
        "varadaraja": {
            "blogLinks": [
                "https://en.wikipedia.org/wiki/Tourism_in_Karnataka"
            ],
            "locType": "fuel",
            "longitude": "77.5542736",
            "latitude": "13.005885",
            "address": "Varadaraja Petrol / Gas Station, Dr. Rajkumar Road, Rajajinagar 1st Block, Subrahmanya Nagar, Bengaluru, Bangalore Urban, Karnataka, 560001, India",
            "closest_to": ""
        },
        "karanji lake": {
            "blogLinks": [
                "https://www.quora.com/What-are-the-best-places-to-visit-on-a-3-day-trip-in-and-around-Karnataka"
            ],
            "locType": "village",
            "longitude": "77.5474867",
            "latitude": "18.2681849",
            "address": "Karanji, Aurad taluku, Bidar district, Karnataka, India",
            "closest_to": ""
        },
        "mahadeshwara": {
            "blogLinks": [
                "https://www.quora.com/What-are-the-best-places-to-visit-on-a-3-day-trip-in-and-around-Karnataka"
            ],
            "locType": "neighbourhood",
            "longitude": "77.6123722",
            "latitude": "12.9076689",
            "address": "Mahadeshwara Nagara, BTM Layout, Bengaluru, Bangalore Urban, Karnataka, 560001, India",
            "closest_to": ""
        },
        "bellary road": {
            "blogLinks": [
                "https://www.quora.com/What-are-the-best-places-to-visit-in-Karnataka-India"
            ],
            "locType": "trunk",
            "longitude": "77.5915237",
            "latitude": "13.0465345",
            "address": "Bellary Road, Kanaka Nagar, Hebbal, Bengaluru, Bangalore Urban, Karnataka, 560001, India",
            "closest_to": ""
        },
        "bangalore bangalore": {
            "blogLinks": [
                "https://www.quora.com/What-are-the-best-places-to-visit-in-Karnataka-India"
            ],
            "locType": "city",
            "longitude": "77.5912997",
            "latitude": "12.9791198",
            "address": "Bengaluru, Bangalore Urban, Karnataka, 560001, India",
            "closest_to": ""
        },
        "tirupati": {
            "blogLinks": [
                "https://www.quora.com/What-are-the-best-places-to-visit-in-Karnataka-India"
            ],
            "locType": "village",
            "longitude": "76.2727455",
            "latitude": "13.3289007",
            "address": "Malekallu Tirupathi, Arasikere taluku, Hassan district, Karnataka, India",
            "closest_to": ""
        },
        "brindavan gardens": {
            "blogLinks": [
                "https://www.quora.com/What-are-the-best-places-to-visit-on-a-3-day-trip-in-and-around-Karnataka"
            ],
            "locType": "garden",
            "longitude": "76.5741029405883",
            "latitude": "12.4208084",
            "address": "Brindavan Gardens, Krishnaraja Sagara Road, Krushnarajasagara, Srirangapattana taluk, Mandya district, Karnataka, India",
            "closest_to": ""
        },
        "jaipur": {
            "blogLinks": [
                "http://myjourneysinindia.blogspot.com/2016/04/hampi-and-nearby-places.html"
            ],
            "locType": "atm",
            "longitude": "75.7985653",
            "latitude": "26.91869",
            "address": "Karnataka Bank, Mirza Ismail Road, Hasanpura, Bani Park, Jaipur, Rajasthan, 302006, India",
            "closest_to": ""
        },
        "mahadeshwara hills": {
            "blogLinks": [
                "https://www.quora.com/What-are-the-best-places-to-visit-on-a-3-day-trip-in-and-around-Karnataka"
            ],
            "locType": "fuel",
            "longitude": "77.5414216",
            "latitude": "12.932367",
            "address": "Sri Mahadeshwara Filling Station, Outer Ring Road, Seven Hills Layout, Kathriguppe, Bengaluru, Bangalore Urban, Karnataka, 560001, India",
            "closest_to": ""
        },
        "chitradurga district": {
            "blogLinks": [
                "http://www.nivalink.com/destination/badami"
            ],
            "locType": "administrative",
            "longitude": "76.5299366059272",
            "latitude": "14.3051049",
            "address": "Chitradurga district, Karnataka, India",
            "closest_to": ""
        },
        "bidar district": {
            "blogLinks": [
                "https://en.wikipedia.org/wiki/Tourism_in_Karnataka"
            ],
            "locType": "administrative",
            "longitude": "77.2496344350342",
            "latitude": "18.0158574",
            "address": "Bidar district, Karnataka, India",
            "closest_to": ""
        },
        "karnataka": {
            "blogLinks": [
                "http://blog.mapsofindia.com/heritage-sites/karnatakas-magnificent-and-mystifying-caves/",
                "https://www.tripoto.com/trip/karnataka-one-state-many-worlds-2-565ed43147a04",
                "http://www.karnatakatourism.org/",
                "http://www.solobackpacker.com/2012/02/04/aihole-an-architectural-wonder-in-stones/",
                "http://karnatakatour.info/category/best-tourist-places-in-karnataka/caves/",
                "http://www.nivalink.com/destination/gokarna",
                "http://wikitravel.org/en/Badami",
                "http://www.globalvisiontours.com/karnataka/badami/badami-tourist-places.aspx",
                "http://www.nivalink.com/destination/badami",
                "http://travel.india.com/badami/places-to-visit/historical-aihole/",
                "https://www.quora.com/What-are-the-best-places-to-visit-on-a-3-day-trip-in-and-around-Karnataka",
                "https://en.wikipedia.org/wiki/Tourism_in_Karnataka",
                "https://www.audleytravel.com/india/places-to-go/badami",
                "https://en.wikipedia.org/wiki/Badami",
                "http://myjourneysinindia.blogspot.com/2016/04/hampi-and-nearby-places.html",
                "https://www.quora.com/What-are-the-best-places-to-visit-in-Karnataka-India"
            ],
            "locType": "atm",
            "longitude": "76.6639936",
            "latitude": "12.3084901",
            "address": "Karnataka, Shalivahana Road, Nazarbad, Mysuru, Mysuru taluk, Mysuru district, Karnataka, 570001, India",
            "closest_to": ""
        },
        "kusha garden": {
            "blogLinks": [
                "https://www.quora.com/What-are-the-best-places-to-visit-on-a-3-day-trip-in-and-around-Karnataka"
            ],
            "locType": "park",
            "longitude": "76.6283545564802",
            "latitude": "12.2905505",
            "address": "Lava Kusha Park, Lalitadri Road, Kuvempunagara, Mysuru, Mysuru taluk, Mysuru district, Karnataka, 570001, India",
            "closest_to": ""
        },
        "shravanabelagola": {
            "blogLinks": [
                "https://en.wikipedia.org/wiki/Tourism_in_Karnataka"
            ],
            "locType": "town",
            "longitude": "76.4869997",
            "latitude": "12.8581305",
            "address": "Shravanabelagola, Channarayapattana taluk, Hassan district, Karnataka, 573135, India",
            "closest_to": ""
        },
        "bagamandala": {
            "blogLinks": [
                "https://en.wikipedia.org/wiki/Tourism_in_Karnataka"
            ],
            "locType": "primary",
            "longitude": "75.748408",
            "latitude": "12.388062",
            "address": "Madikeri - Bagamandala ,Tala Kaveri Road, Mekeri, Madikeri taluku, Kodagu, Karnataka, India",
            "closest_to": ""
        },
        "kalyani": {
            "blogLinks": [
                "https://en.wikipedia.org/wiki/Tourism_in_Karnataka"
            ],
            "locType": "water",
            "longitude": "77.6286090192686",
            "latitude": "12.8406466",
            "address": "Kalyani, Neeladri Road, Electronics City Phase 1, Bettadasana Pura, Bangalore Urban, Karnataka, 560100, India",
            "closest_to": ""
        },
        "manchanabele": {
            "blogLinks": [
                "https://www.quora.com/What-are-the-best-places-to-visit-in-Karnataka-India"
            ],
            "locType": "village",
            "longitude": "77.3344212",
            "latitude": "12.8668921",
            "address": "Manchanabele, Magadi taluku, Ramanagara district, Karnataka, India",
            "closest_to": ""
        },
        "rock garden": {
            "blogLinks": [
                "https://en.wikipedia.org/wiki/Tourism_in_Karnataka"
            ],
            "locType": "waterfall",
            "longitude": "75.6142269",
            "latitude": "12.2248591",
            "address": "Waterfalls by the Rock site, Madikeri taluku, Kodagu, Karnataka, India",
            "closest_to": ""
        },
        "iruppu falls": {
            "blogLinks": [
                "https://www.quora.com/What-are-the-best-places-to-visit-on-a-3-day-trip-in-and-around-Karnataka"
            ],
            "locType": "attraction",
            "longitude": "75.9839484",
            "latitude": "11.9667954",
            "address": "Iruppu Falls, SH89, Taila, Virajpet taluk, Kodagu, Karnataka, 571217, India",
            "closest_to": ""
        },
        "kuvempu": {
            "blogLinks": [
                "https://www.quora.com/What-are-the-best-places-to-visit-on-a-3-day-trip-in-and-around-Karnataka"
            ],
            "locType": "artwork",
            "longitude": "77.5064032",
            "latitude": "12.9560369",
            "address": "Kuvempu, Kengeri Main Road, ITI Layout, Jnana Bharathi, Nagadevanahalli, Bangalore Urban, Karnataka, 560056, India",
            "closest_to": ""
        },
        "east": {
            "blogLinks": [
                "https://en.wikipedia.org/wiki/Tourism_in_Karnataka"
            ],
            "locType": "restaurant",
            "longitude": "77.6601401",
            "latitude": "12.8504319",
            "address": "East, 43, Velankani Drive, Electronics City Phase 1, Doddathoguru, Bangalore Urban, Karnataka, 560100, India",
            "closest_to": ""
        },
        "somanathapura": {
            "blogLinks": [
                "https://www.quora.com/What-are-the-best-places-to-visit-in-Karnataka-India"
            ],
            "locType": "village",
            "longitude": "77.9957587",
            "latitude": "13.75905",
            "address": "Somanathapura, Bagepalli taluk, Chikkaballapura district, Karnataka, India",
            "closest_to": ""
        },
        "india karnataka": {
            "blogLinks": [
                "https://www.quora.com/What-are-the-best-places-to-visit-on-a-3-day-trip-in-and-around-Karnataka",
                "https://www.quora.com/What-are-the-best-places-to-visit-in-Karnataka-India"
            ],
            "locType": "atm",
            "longitude": "76.6639936",
            "latitude": "12.3084901",
            "address": "Karnataka, Shalivahana Road, Nazarbad, Mysuru, Mysuru taluk, Mysuru district, Karnataka, 570001, India",
            "closest_to": ""
        },
        "ranganathittu bird sanctuary": {
            "blogLinks": [
                "https://en.wikipedia.org/wiki/Tourism_in_Karnataka"
            ],
            "locType": "attraction",
            "longitude": "76.6553081",
            "latitude": "12.4238524",
            "address": "Ranganathittu Bird Sanctuary, SH154, Palahalli, Srirangapattana taluk, Mandya district, Karnataka, 571438, India",
            "closest_to": ""
        },
        "mahabaleshwara": {
            "blogLinks": [
                "https://www.quora.com/What-are-the-best-places-to-visit-on-a-3-day-trip-in-and-around-Karnataka"
            ],
            "locType": "place_of_worship",
            "longitude": "77.5899749843004",
            "latitude": "12.96264945",
            "address": "Mahabaleshwara Temple, Mission Road (Kalinga Rao Road ), Sampangirama Nagar, Shanti Nagar, Bengaluru, Bangalore Urban, Karnataka, 560001, India",
            "closest_to": ""
        },
        "dharma river": {
            "blogLinks": [
                "https://en.wikipedia.org/wiki/Tourism_in_Karnataka"
            ],
            "locType": "park",
            "longitude": "77.5575864485219",
            "latitude": "12.98914885",
            "address": "Dharma Naidu Udhyanavana, 44th cross, Rajajinagar 4th Block, Rajaji Nagar, Bengaluru, Bangalore Urban, Karnataka, 560001, India",
            "closest_to": ""
        },
        "chola": {
            "blogLinks": [
                "https://en.wikipedia.org/wiki/Tourism_in_Karnataka"
            ],
            "locType": "yes",
            "longitude": "76.098782",
            "latitude": "13.0023906",
            "address": "Chola Gold Loan, Bengaluru - Mangaluru Road, Ravindra Nagar, Santhe Pete, Hassan, Hasana taluk, Hassan district, Karnataka, 573201, India",
            "closest_to": ""
        },
        "shivalaya": {
            "blogLinks": [
                "https://en.wikipedia.org/wiki/Badami"
            ],
            "locType": "place_of_worship",
            "longitude": "77.645704",
            "latitude": "12.9692508",
            "address": "Sri Kanyaka Parameshwari & Shivalaya, 8th Cross Road, Old Thippasandra, Indiranagar, Bengaluru, Bangalore Urban, Karnataka, 560001, India",
            "closest_to": ""
        },
        "himavad gopalaswamy betta": {
            "blogLinks": [
                "https://www.quora.com/What-are-the-best-places-to-visit-on-a-3-day-trip-in-and-around-Karnataka"
            ],
            "locType": "place_of_worship",
            "longitude": "76.5804063",
            "latitude": "11.7206016",
            "address": "Gopalaswami Temple, Gopal Swami Betta road, Devarahalli, Gundlupet taluk, Chamarajanagar district, Karnataka, India",
            "closest_to": ""
        },
        "puducherry": {
            "blogLinks": [
                "http://wikitravel.org/en/Badami"
            ],
            "locType": "bank",
            "longitude": "79.831569",
            "latitude": "11.9365727",
            "address": "Karnataka Bank, Mission Street, Grand Bazaar, Puducherry, Puducherry district, Puducherry, 605001, India",
            "closest_to": ""
        },
        "banashankari temple": {
            "blogLinks": [
                "https://en.wikipedia.org/wiki/Tourism_in_Karnataka"
            ],
            "locType": "place_of_worship",
            "longitude": "77.5731752886765",
            "latitude": "12.91568785",
            "address": "Banashankari Temple, Kanakapura Road, JP Nagar 1st Phase, Kaderenahalli, Bengaluru, Bangalore Urban, Karnataka, 560001, India",
            "closest_to": ""
        },
        "kamala": {
            "blogLinks": [
                "https://en.wikipedia.org/wiki/Tourism_in_Karnataka"
            ],
            "locType": "school",
            "longitude": "77.5664867",
            "latitude": "12.9339482",
            "address": "Kamala Nehru Patashala (Emmanual English School), 5th A Cross Road, Yediyur, Thyagaraja Nagar, Bengaluru, Bangalore Urban, Karnataka, 560001, India",
            "closest_to": ""
        },
        "surya temple": {
            "blogLinks": [
                "http://www.solobackpacker.com/2012/02/04/aihole-an-architectural-wonder-in-stones/"
            ],
            "locType": "place_of_worship",
            "longitude": "77.6386171367774",
            "latitude": "12.9548321",
            "address": "Surya Narayana Swamy Temple, 7th Cross, Domlur 1st Stage, Domlur, Bengaluru, Bangalore Urban, Karnataka, 560071, India",
            "closest_to": ""
        },
        "chamarajanagar": {
            "blogLinks": [
                "https://en.wikipedia.org/wiki/Tourism_in_Karnataka"
            ],
            "locType": "station",
            "longitude": "76.9331345",
            "latitude": "11.9346624",
            "address": "Chamarajanagar, Nanjangudu-Chamarajanagar Road, Kadahalli, Chamarajanagara taluk, Chamarajanagar district, Karnataka, 571313, India",
            "closest_to": ""
        },
        "nagareshwara": {
            "blogLinks": [
                "https://en.wikipedia.org/wiki/Tourism_in_Karnataka"
            ],
            "locType": "place_of_worship",
            "longitude": "77.3934679",
            "latitude": "16.8662525",
            "address": "Nagareshwara Temple, SH126, Dantapur, Yadagiri taluku, Yadagiri district, Karnataka, India",
            "closest_to": ""
        },
        "magadi": {
            "blogLinks": [
                "https://www.quora.com/What-are-the-best-places-to-visit-in-Karnataka-India"
            ],
            "locType": "town",
            "longitude": "77.2242281",
            "latitude": "12.9567353",
            "address": "Magadi, Magadi taluku, Ramanagara district, Karnataka, 562120, India",
            "closest_to": ""
        },
        "nagarahole": {
            "blogLinks": [
                "https://en.wikipedia.org/wiki/Tourism_in_Karnataka"
            ],
            "locType": "river",
            "longitude": "76.2286805",
            "latitude": "12.0229466",
            "address": "Nagarahole, Heggadadevanakote taluk, Mysuru district, Karnataka, India",
            "closest_to": ""
        },
        "mumbai": {
            "blogLinks": [
                "http://wikitravel.org/en/Badami"
            ],
            "locType": "restaurant",
            "longitude": "77.5718472",
            "latitude": "13.0002869",
            "address": "Mumbai Spice, 18/2, 10th Cross, Malleswaram, Vyalikaval, Malleswaram, Bengaluru, Bangalore Urban, Karnataka, 560003, India",
            "closest_to": ""
        },
        "mysore": {
            "blogLinks": [
                "https://www.quora.com/What-are-the-best-places-to-visit-on-a-3-day-trip-in-and-around-Karnataka",
                "https://www.quora.com/What-are-the-best-places-to-visit-in-Karnataka-India"
            ],
            "locType": "city",
            "longitude": "76.6553609",
            "latitude": "12.3051828",
            "address": "Mysuru, Mysuru taluk, Mysuru district, Karnataka, 570001, India",
            "closest_to": ""
        },
        "chitradurga": {
            "blogLinks": [
                "https://en.wikipedia.org/wiki/Tourism_in_Karnataka"
            ],
            "locType": "town",
            "longitude": "76.4005122",
            "latitude": "14.2266443",
            "address": "Chitradurga, Chitradurga taluku, Chitradurga district, Karnataka, 577500, India",
            "closest_to": ""
        },
        "rose garden": {
            "blogLinks": [
                "https://www.quora.com/What-are-the-best-places-to-visit-on-a-3-day-trip-in-and-around-Karnataka"
            ],
            "locType": "garden",
            "longitude": "77.590382853852",
            "latitude": "12.97371325",
            "address": "Rose Garden, Dr B R Ambedkar Veedhi, Shantala Nagar, Gandhinagar, Bengaluru, Bangalore Urban, Karnataka, 560001, India",
            "closest_to": ""
        },
        "mysore district": {
            "blogLinks": [
                "https://en.wikipedia.org/wiki/Tourism_in_Karnataka"
            ],
            "locType": "city",
            "longitude": "76.6553609",
            "latitude": "12.3051828",
            "address": "Mysuru, Mysuru taluk, Mysuru district, Karnataka, 570001, India",
            "closest_to": ""
        },
        "golden temple": {
            "blogLinks": [
                "https://www.quora.com/What-are-the-best-places-to-visit-on-a-3-day-trip-in-and-around-Karnataka"
            ],
            "locType": "place_of_worship",
            "longitude": "75.9674656",
            "latitude": "12.430821",
            "address": "Padmasambhava Buddhist Vihara (Golden Temple), MDR21, Koppa, Piriyapattana taluk, Mysuru district, Karnataka, India",
            "closest_to": ""
        },
        "maddur": {
            "blogLinks": [
                "https://www.quora.com/What-are-the-best-places-to-visit-on-a-3-day-trip-in-and-around-Karnataka"
            ],
            "locType": "town",
            "longitude": "77.0456404",
            "latitude": "12.5851916",
            "address": "Maddur, Madduru taluk, Mandya district, Karnataka, 571428, India",
            "closest_to": ""
        },
        "belur": {
            "blogLinks": [
                "http://myjourneysinindia.blogspot.com/2016/04/hampi-and-nearby-places.html"
            ],
            "locType": "town",
            "longitude": "75.8634851",
            "latitude": "13.1645671",
            "address": "Belur, Beluru taluk, Hassan district, Karnataka, 573115, India",
            "closest_to": ""
        },
        "kabini river": {
            "blogLinks": [
                "https://en.wikipedia.org/wiki/Tourism_in_Karnataka"
            ],
            "locType": "canal",
            "longitude": "76.6477184",
            "latitude": "12.0780998",
            "address": "Kabini right bank canal, Nanjanagudu taluk, Mysuru district, Karnataka, India",
            "closest_to": ""
        },
        "sangama": {
            "blogLinks": [
                "http://myjourneysinindia.blogspot.com/2016/04/hampi-and-nearby-places.html",
                "https://www.quora.com/What-are-the-best-places-to-visit-in-Karnataka-India"
            ],
            "locType": "attraction",
            "longitude": "77.4320447",
            "latitude": "12.2880428",
            "address": "Sangam, SH92, Mahalli, Kanakapura taluk, Ramanagara district, Karnataka, India",
            "closest_to": ""
        },
        "gulbarga": {
            "blogLinks": [
                "https://en.wikipedia.org/wiki/Tourism_in_Karnataka",
                "https://www.quora.com/What-are-the-best-places-to-visit-on-a-3-day-trip-in-and-around-Karnataka"
            ],
            "locType": "county",
            "longitude": "77.083333",
            "latitude": "17.166667",
            "address": "Kalaburgi, Kalaburagi district, Karnataka, India",
            "closest_to": ""
        },
        "hyderabad": {
            "blogLinks": [
                "http://www.solobackpacker.com/2012/02/04/aihole-an-architectural-wonder-in-stones/"
            ],
            "locType": "primary",
            "longitude": "77.5344002",
            "latitude": "17.9003114",
            "address": "Hyderabad Road, Old City, Bidar, Bidar taluku, Bidar district, Karnataka, 585400, India",
            "closest_to": ""
        },
        "chennai": {
            "blogLinks": [
                "https://en.wikipedia.org/wiki/Tourism_in_Karnataka",
                "https://en.wikipedia.org/wiki/Badami"
            ],
            "locType": "bank",
            "longitude": "80.2197941",
            "latitude": "13.0365141",
            "address": "Karnataka Bank, Postal Colony 2nd Street, Postal Colony, Ashok Nagar, Chennai City Corporation Limits, Chennai district, Tamil Nadu, 600033, India",
            "closest_to": ""
        },
        "varanasi": {
            "blogLinks": [
                "http://www.nivalink.com/destination/gokarna"
            ],
            "locType": "village",
            "longitude": "77.6860657",
            "latitude": "13.0304962",
            "address": "Varanasi, Bangalore Urban, Karnataka, India",
            "closest_to": ""
        },
        "kannada": {
            "blogLinks": [
                "https://en.wikipedia.org/wiki/Badami",
                "https://www.quora.com/What-are-the-best-places-to-visit-on-a-3-day-trip-in-and-around-Karnataka",
                "https://www.quora.com/What-are-the-best-places-to-visit-in-Karnataka-India"
            ],
            "locType": "administrative",
            "longitude": "75.1008028650794",
            "latitude": "12.8114089",
            "address": "Dakshina Kannada, Karnataka, India",
            "closest_to": ""
        },
        "bangalore": {
            "blogLinks": [
                "https://www.tripoto.com/trip/karnataka-one-state-many-worlds-2-565ed43147a04",
                "http://www.nivalink.com/destination/gokarna",
                "http://wikitravel.org/en/Badami",
                "http://www.nivalink.com/destination/badami",
                "https://www.quora.com/What-are-the-best-places-to-visit-on-a-3-day-trip-in-and-around-Karnataka",
                "https://en.wikipedia.org/wiki/Tourism_in_Karnataka",
                "https://en.wikipedia.org/wiki/Badami",
                "http://myjourneysinindia.blogspot.com/2016/04/hampi-and-nearby-places.html",
                "https://www.quora.com/What-are-the-best-places-to-visit-in-Karnataka-India"
            ],
            "locType": "city",
            "longitude": "77.5912997",
            "latitude": "12.9791198",
            "address": "Bengaluru, Bangalore Urban, Karnataka, 560001, India",
            "closest_to": ""
        },
        "ooty": {
            "blogLinks": [
                "https://www.quora.com/What-are-the-best-places-to-visit-on-a-3-day-trip-in-and-around-Karnataka",
                "https://www.quora.com/What-are-the-best-places-to-visit-in-Karnataka-India"
            ],
            "locType": "primary",
            "longitude": "76.6586807",
            "latitude": "12.2774807",
            "address": "Ooty Road, Vidyaranyapuram, Mysuru, Mysuru taluk, Mysuru district, Karnataka, 570001, India",
            "closest_to": ""
        },
        "bandipur national park": {
            "blogLinks": [
                "https://en.wikipedia.org/wiki/Tourism_in_Karnataka",
                "https://www.quora.com/What-are-the-best-places-to-visit-on-a-3-day-trip-in-and-around-Karnataka",
                "https://www.quora.com/What-are-the-best-places-to-visit-in-Karnataka-India"
            ],
            "locType": "national_park",
            "longitude": "76.4314968740264",
            "latitude": "11.76682425",
            "address": "Bandipur National Park, Kozhikode - Kollegal Highway, Gundlupet taluk, Chamarajanagar district, Karnataka, India",
            "closest_to": ""
        }
    },
    "badami": {
        "icon": "https://nominatim.openstreetmap.org/images/mapicons/poi_place_town.p.20.png",
        "osm_type": "node",
        "boundingbox": [
            "15.8803874",
            "15.9603874",
            "75.6407865",
            "75.7207865"
        ],
        "display_name": "Badami, Badami taluku, Bagalkote district, Karnataka, 587200, India",
        "class": "place",
        "osm_id": "655135229",
        "type": "town",
        "licence": "Data \u00a9 OpenStreetMap contributors, ODbL 1.0. http://www.openstreetmap.org/copyright",
        "lon": "75.6807865",
        "lat": "15.9203874",
        "place_id": "6086961",
        "importance": 0.5
    },
    "yana": {
        "icon": "https://nominatim.openstreetmap.org/images/mapicons/poi_place_village.p.20.png",
        "osm_type": "node",
        "boundingbox": [
            "14.5586094",
            "14.5986094",
            "74.5398169",
            "74.5798169"
        ],
        "display_name": "Yana, Kumata taluk, Uttara Kannada, Karnataka, India",
        "class": "place",
        "osm_id": "1890842669",
        "type": "village",
        "licence": "Data \u00a9 OpenStreetMap contributors, ODbL 1.0. http://www.openstreetmap.org/copyright",
        "lon": "74.5598169",
        "lat": "14.5786094",
        "place_id": "196766914",
        "importance": 0.475
    }
}