{
    "mentions": {
        "andhra pradesh": {
            "locType": "hotel",
            "blogLinks": [
                "http://www.distancesfrom.com/in/Trip-Cost-from-Bellary-to-Kasapuram/TripCostHistory/33691824.aspx",
                "http://www.srsbooking.com/buses/16/Bangalore-to-Bellary/",
                "https://en.wikipedia.org/wiki/Bellary",
                "https://www.yatra.com/india-tourism/karnataka",
                "http://www.hoparoundindia.com/karnataka/city-guides/bellary.aspx",
                "http://www.mapsofindia.com/maps/karnataka/"
            ],
            "longitude": "79.3452447",
            "closest_to": "",
            "latitude": "13.6841958",
            "address": "Karnataka, West Mada Street, Srivari Temple, Tirumala, Chittoor, Andhra Pradesh, 517504, India"
        },
        "jaipur": {
            "locType": "atm",
            "blogLinks": [
                "https://en.wikipedia.org/wiki/Bellary"
            ],
            "longitude": "75.7985653",
            "closest_to": "",
            "latitude": "26.91869",
            "address": "Karnataka Bank, Mirza Ismail Road, Hasanpura, Bani Park, Jaipur, Rajasthan, 302006, India"
        },
        "pune": {
            "locType": "trunk",
            "blogLinks": [
                "https://en.wikipedia.org/wiki/Bellary",
                "https://www.ahataxis.com/Ludhiana-to-Bellary-taxi"
            ],
            "longitude": "76.9479122",
            "closest_to": "",
            "latitude": "17.8199745",
            "address": "Pune - Machilipatnam Highway, Kaudiyala, Basavakalyana taluku, Bidar district, Karnataka, India"
        },
        "kadapa": {
            "locType": "construction",
            "blogLinks": [
                "https://en.wikipedia.org/wiki/Bellary"
            ],
            "longitude": "78.3792674",
            "closest_to": "",
            "latitude": "13.1859851",
            "address": "Kadapa - Madanapalle - Bengaluru New Line (u/c), Srinivaspur Mulbagal Road, Kadiripura, Mulubagilu taluk, Kolar district, Karnataka, 563131, India"
        },
        "tamil nadu": {
            "locType": "bank",
            "blogLinks": [
                "https://www.yatra.com/india-tourism/karnataka",
                "http://www.mapsofindia.com/maps/karnataka/"
            ],
            "longitude": "76.9514152",
            "closest_to": "",
            "latitude": "11.0025894",
            "address": "KARNATAKA BANK, Diwan Bhadur Road, Five Corner, RS Puram, Coimbatore, Coimbatore district, Tamil Nadu, 641001, India"
        },
        "fort hill": {
            "locType": "locality",
            "blogLinks": [
                "http://www.hoparoundindia.com/karnataka/attractions/bellary.aspx"
            ],
            "longitude": "74.5255651",
            "closest_to": "",
            "latitude": "15.8581696",
            "address": "Belgaum Fort, Belagavi, Belagavi taluku, Belgaum district, Karnataka, 590001, India"
        },
        "vijayanagara": {
            "locType": "village",
            "blogLinks": [
                "https://en.wikipedia.org/wiki/Bellary"
            ],
            "longitude": "74.7380455",
            "closest_to": "",
            "latitude": "16.3270486",
            "address": "Vijayanagara, Chikodi taluk, Belgaum district, Karnataka, India"
        },
        "hyderabad": {
            "locType": "primary",
            "blogLinks": [
                "https://en.wikipedia.org/wiki/Bellary",
                "https://www.ahataxis.com/Ludhiana-to-Bellary-taxi"
            ],
            "longitude": "77.5344002",
            "closest_to": "",
            "latitude": "17.9003114",
            "address": "Hyderabad Road, Old City, Bidar, Bidar taluku, Bidar district, Karnataka, 585400, India"
        },
        "karwar": {
            "locType": "town",
            "blogLinks": [
                "https://en.wikipedia.org/wiki/Bellary"
            ],
            "longitude": "74.1319229",
            "closest_to": "",
            "latitude": "14.8120931",
            "address": "Karwar, Karavara taluk, Uttara Kannada, Karnataka, 581300, India"
        },
        "chennai": {
            "locType": "bank",
            "blogLinks": [
                "https://en.wikipedia.org/wiki/Bellary"
            ],
            "longitude": "80.2197941",
            "closest_to": "",
            "latitude": "13.0365141",
            "address": "Karnataka Bank, Postal Colony 2nd Street, Postal Colony, Ashok Nagar, Chennai City Corporation Limits, Chennai district, Tamil Nadu, 600033, India"
        }
    },
    "belur": {
        "osm_id": "245618812",
        "display_name": "Belur, Beluru taluk, Hassan district, Karnataka, 573115, India",
        "importance": 0.5,
        "place_id": "633330",
        "class": "place",
        "boundingbox": [
            "13.1245671",
            "13.2045671",
            "75.8234851",
            "75.9034851"
        ],
        "type": "town",
        "lon": "75.8634851",
        "licence": "Data \u00a9 OpenStreetMap contributors, ODbL 1.0. http://www.openstreetmap.org/copyright",
        "osm_type": "node",
        "lat": "13.1645671",
        "icon": "https://nominatim.openstreetmap.org/images/mapicons/poi_place_town.p.20.png"
    },
    "bellary": {
        "osm_id": "316417114",
        "display_name": "Bellary, Bellary district, Karnataka, India",
        "importance": 0.65,
        "place_id": "1393549",
        "class": "place",
        "boundingbox": [
            "14.6085413",
            "15.8885413",
            "76.1923648",
            "77.4723648"
        ],
        "type": "county",
        "lon": "76.8323648",
        "licence": "Data \u00a9 OpenStreetMap contributors, ODbL 1.0. http://www.openstreetmap.org/copyright",
        "osm_type": "node",
        "lat": "15.2485413",
        "icon": "https://nominatim.openstreetmap.org/images/mapicons/poi_boundary_administrative.p.20.png"
    }
}