{
    "mentions": {
        "malgudi": {
            "locType": "restaurant",
            "blogLinks": [
                "http://travel.india.com/chikmagalur/"
            ],
            "longitude": "77.7017267",
            "closest_to": "",
            "latitude": "12.9651193",
            "address": "Malgudi Southern Cuisine, 3, Outer Ring Road, Ananda Nagara, Doddanekundi, Garudacharpalya, Bangalore Urban, Karnataka, 560037, India"
        },
        "kadapa": {
            "locType": "construction",
            "blogLinks": [
                "https://en.wikipedia.org/wiki/Bellary"
            ],
            "longitude": "78.3792674",
            "closest_to": "",
            "latitude": "13.1859851",
            "address": "Kadapa - Madanapalle - Bengaluru New Line (u/c), Srinivaspur Mulbagal Road, Kadiripura, Mulubagilu taluk, Kolar district, Karnataka, 563131, India"
        },
        "pune": {
            "locType": "trunk",
            "blogLinks": [
                "https://en.wikipedia.org/wiki/Bellary"
            ],
            "longitude": "76.9479122",
            "closest_to": "",
            "latitude": "17.8199745",
            "address": "Pune - Machilipatnam Highway, Kaudiyala, Basavakalyana taluku, Bidar district, Karnataka, India"
        },
        "delhi": {
            "locType": "trunk",
            "blogLinks": [
                "https://en.wikipedia.org/wiki/Bellary"
            ],
            "longitude": "77.6666062",
            "closest_to": "",
            "latitude": "12.9212473",
            "address": "Outer Ring Road, Green Glen Layout, Iblur, Bengaluru, Bangalore Urban, Karnataka, 560001, India"
        },
        "vijayanagara": {
            "locType": "village",
            "blogLinks": [
                "https://en.wikipedia.org/wiki/Bellary"
            ],
            "longitude": "74.7380455",
            "closest_to": "",
            "latitude": "16.3270486",
            "address": "Vijayanagara, Chikodi taluk, Belgaum district, Karnataka, India"
        },
        "oxford": {
            "locType": "books",
            "blogLinks": [
                "https://en.wikipedia.org/wiki/Bellary"
            ],
            "longitude": "77.7178402",
            "closest_to": "",
            "latitude": "12.9660236",
            "address": "Oxford, I T P L Main Road, Kundalahalli Colony, AECS Layout, Sitaramapalya, Bangalore Urban, Karnataka, 560048, India"
        },
        "udipi": {
            "locType": "restaurant",
            "blogLinks": [
                "http://www.nivalink.com/destination/chikmagalur"
            ],
            "longitude": "77.652888",
            "closest_to": "",
            "latitude": "12.9530588",
            "address": "Udipi Park, 2nd Cross Road, Muniyappa Layout, Murugeshpalaya, Belure Ambedkar Nagar, Bangalore Urban, Karnataka, 560067, India"
        },
        "shastri nagar": {
            "locType": "suburb",
            "blogLinks": [
                "http://www.holidayiq.com/Bellary-Hills-A-647-19.html"
            ],
            "longitude": "77.6715478",
            "closest_to": "",
            "latitude": "12.9678103",
            "address": "Lal Bahadur Shastri Nagar, Bengaluru, Bangalore Urban, Karnataka, 560001, India"
        },
        "andhra pradesh": {
            "locType": "hotel",
            "blogLinks": [
                "https://en.wikipedia.org/wiki/Bellary",
                "https://www.yatra.com/india-tourism/karnataka",
                "http://www.mapsofindia.com/maps/karnataka/"
            ],
            "longitude": "79.3452447",
            "closest_to": "",
            "latitude": "13.6841958",
            "address": "Karnataka, West Mada Street, Srivari Temple, Tirumala, Chittoor, Andhra Pradesh, 517504, India"
        },
        "hong kong": {
            "locType": "restaurant",
            "blogLinks": [
                "https://www.yatra.com/india-tourism/karnataka",
                "https://www.makemytrip.com/",
                "https://www.yatra.com/india-tourism/bellary-travel-guide"
            ],
            "longitude": "77.6768991",
            "closest_to": "",
            "latitude": "13.020749",
            "address": "Hong Kong Noodles, Kalkere Main road, Ramamurthy Nagar, Varanasi, Bangalore Urban, Karnataka, 600042, India"
        },
        "hyderabad": {
            "locType": "primary",
            "blogLinks": [
                "https://en.wikipedia.org/wiki/Bellary",
                "https://www.makemytrip.com/"
            ],
            "longitude": "77.5344002",
            "closest_to": "",
            "latitude": "17.9003114",
            "address": "Hyderabad Road, Old City, Bidar, Bidar taluku, Bidar district, Karnataka, 585400, India"
        },
        "tamil nadu": {
            "locType": "bank",
            "blogLinks": [
                "https://www.yatra.com/india-tourism/karnataka",
                "http://www.mapsofindia.com/maps/karnataka/"
            ],
            "longitude": "76.9514152",
            "closest_to": "",
            "latitude": "11.0025894",
            "address": "KARNATAKA BANK, Diwan Bhadur Road, Five Corner, RS Puram, Coimbatore, Coimbatore district, Tamil Nadu, 641001, India"
        },
        "fort hill": {
            "locType": "locality",
            "blogLinks": [
                "https://www.yatra.com/india-tourism/bellary-travel-guide"
            ],
            "longitude": "74.5255651",
            "closest_to": "",
            "latitude": "15.8581696",
            "address": "Belgaum Fort, Belagavi, Belagavi taluku, Belgaum district, Karnataka, 590001, India"
        },
        "new city": {
            "locType": "supermarket",
            "blogLinks": [
                "https://en.wikipedia.org/wiki/Bellary"
            ],
            "longitude": "77.6736268",
            "closest_to": "",
            "latitude": "12.9851864",
            "address": "New City Super Market, Kaggadasspura Main Road, Putanna Garden, C V Raman Nagar, A Narayanapura, Bangalore Urban, Karnataka, 560093, India"
        },
        "jaipur": {
            "locType": "atm",
            "blogLinks": [
                "https://en.wikipedia.org/wiki/Bellary",
                "https://www.makemytrip.com/"
            ],
            "longitude": "75.7985653",
            "closest_to": "",
            "latitude": "26.91869",
            "address": "Karnataka Bank, Mirza Ismail Road, Hasanpura, Bani Park, Jaipur, Rajasthan, 302006, India"
        },
        "chennai": {
            "locType": "bank",
            "blogLinks": [
                "https://en.wikipedia.org/wiki/Bellary"
            ],
            "longitude": "80.2197941",
            "closest_to": "",
            "latitude": "13.0365141",
            "address": "Karnataka Bank, Postal Colony 2nd Street, Postal Colony, Ashok Nagar, Chennai City Corporation Limits, Chennai district, Tamil Nadu, 600033, India"
        },
        "varanasi": {
            "locType": "village",
            "blogLinks": [
                "https://en.wikipedia.org/wiki/Bellary"
            ],
            "longitude": "77.6860657",
            "closest_to": "",
            "latitude": "13.0304962",
            "address": "Varanasi, Bangalore Urban, Karnataka, India"
        }
    },
    "chikmagalur": {
        "osm_id": "316417001",
        "display_name": "Chikmagalur, Chikkamagaluru district, Karnataka, India",
        "importance": 0.65,
        "place_id": "1426840",
        "class": "place",
        "boundingbox": [
            "12.86",
            "14.14",
            "74.86",
            "76.14"
        ],
        "type": "county",
        "lon": "75.5",
        "licence": "Data \u00a9 OpenStreetMap contributors, ODbL 1.0. http://www.openstreetmap.org/copyright",
        "osm_type": "node",
        "lat": "13.5",
        "icon": "https://nominatim.openstreetmap.org/images/mapicons/poi_boundary_administrative.p.20.png"
    },
    "bellary": {
        "osm_id": "316417114",
        "display_name": "Bellary, Bellary district, Karnataka, India",
        "importance": 0.65,
        "place_id": "1393549",
        "class": "place",
        "boundingbox": [
            "14.6085413",
            "15.8885413",
            "76.1923648",
            "77.4723648"
        ],
        "type": "county",
        "lon": "76.8323648",
        "licence": "Data \u00a9 OpenStreetMap contributors, ODbL 1.0. http://www.openstreetmap.org/copyright",
        "osm_type": "node",
        "lat": "15.2485413",
        "icon": "https://nominatim.openstreetmap.org/images/mapicons/poi_boundary_administrative.p.20.png"
    }
}