{
    "bellary": {
        "lat": "15.2485413",
        "importance": 0.65,
        "osm_type": "node",
        "class": "place",
        "boundingbox": [
            "14.6085413",
            "15.8885413",
            "76.1923648",
            "77.4723648"
        ],
        "icon": "https://nominatim.openstreetmap.org/images/mapicons/poi_boundary_administrative.p.20.png",
        "osm_id": "316417114",
        "licence": "Data \u00a9 OpenStreetMap contributors, ODbL 1.0. http://www.openstreetmap.org/copyright",
        "lon": "76.8323648",
        "place_id": "1393549",
        "display_name": "Bellary, Bellary district, Karnataka, India",
        "type": "county"
    },
    "hubli": {
        "lat": "15.3518378",
        "importance": 0.45,
        "osm_type": "node",
        "class": "place",
        "boundingbox": [
            "15.1918378",
            "15.5118378",
            "74.9779848",
            "75.2979848"
        ],
        "icon": "https://nominatim.openstreetmap.org/images/mapicons/poi_place_city.p.20.png",
        "osm_id": "670289984",
        "licence": "Data \u00a9 OpenStreetMap contributors, ODbL 1.0. http://www.openstreetmap.org/copyright",
        "lon": "75.1379848",
        "place_id": "6298582",
        "display_name": "Hubballi - \u0cb9\u0cc1\u0cac\u0ccd\u0cac\u0cb3\u0ccd\u0cb3\u0cbf, Hubballi taluku, Dharwad district, Karnataka, 580020, India",
        "type": "city"
    },
    "mentions": {
        "mandya": {
            "closest_to": "",
            "latitude": "12.5217836",
            "blogLinks": [
                "http://www.holidayiq.com/How-To-Reach/From-Hubli-To-Coorg-653-339"
            ],
            "address": "Mandya, Mandya taluk, Mandya district, Karnataka, 571401, India",
            "locType": "town",
            "longitude": "76.8937392"
        },
        "green garden": {
            "closest_to": "",
            "latitude": "13.19253335",
            "blogLinks": [
                "http://wikitravel.org/en/Hubli"
            ],
            "address": "garden, N Hosahalli, Hosakote taluk, Bangalore Rural, Karnataka, India",
            "locType": "orchard",
            "longitude": "77.9285817637065"
        },
        "hiriyur": {
            "closest_to": "",
            "latitude": "13.340224",
            "blogLinks": [
                "http://www.team-bhp.com/forum/route-travel-queries/95295-places-visit-pune-bangalore-route.html"
            ],
            "address": "Hiriyur, Arasikere taluku, Hassan district, Karnataka, India",
            "locType": "village",
            "longitude": "76.1879166"
        },
        "chennakesava temple": {
            "closest_to": "",
            "latitude": "13.1629239",
            "blogLinks": [
                "http://www.mapsofindia.com/karnataka/tourism/"
            ],
            "address": "Chennakesava Temple, NH73, Navilahalli, Beluru taluk, Hassan district, Karnataka, India",
            "locType": "place_of_worship",
            "longitude": "75.8603311"
        },
        "hasan": {
            "closest_to": "",
            "latitude": "13.0070817",
            "blogLinks": [
                "http://www.mapsofindia.com/karnataka/tourism/"
            ],
            "address": "Hassan, Hasana taluk, Hassan district, Karnataka, 573201, India",
            "locType": "town",
            "longitude": "76.0992703"
        },
        "nagarahole national park": {
            "closest_to": "",
            "latitude": "12.0600362",
            "blogLinks": [
                "http://www.indianholiday.com/travel-destinations/karnataka.html"
            ],
            "address": "Nagarahole National Park, Virajpet taluk, Kodagu, Karnataka, India",
            "locType": "national_park",
            "longitude": "76.1537073415874"
        },
        "udupi": {
            "closest_to": "",
            "latitude": "13.3419169",
            "blogLinks": [
                "http://www.mapsofindia.com/karnataka/tourism/"
            ],
            "address": "Udupi, Udupi taluku, Udupi district, Karnataka, 576101, India",
            "locType": "city",
            "longitude": "74.7473232"
        },
        "yelahanka junction": {
            "closest_to": "",
            "latitude": "13.101944",
            "blogLinks": [
                "http://www.holidayiq.com/How-To-Reach/From-Hubli-To-Coorg-653-339"
            ],
            "address": "Yelahanka Junction, Doddaballapur Road, Gandhinagar, Yelahanka New Town, Anantapura, Bangalore Urban, Karnataka, 560065, India",
            "locType": "station",
            "longitude": "77.59279"
        },
        "lakshmi": {
            "closest_to": "",
            "latitude": "12.9251835",
            "blogLinks": [
                "http://www.mapsofindia.com/karnataka/places-to-visit-in-hampi.html"
            ],
            "address": "Lakshmi, Tavarekere Main Road, Sadgunte Palya, Madivala, Bengaluru, Bangalore Urban, Karnataka, 560001, India",
            "locType": "cinema",
            "longitude": "77.6075298044091"
        },
        "karnataka": {
            "closest_to": "",
            "latitude": "12.3084901",
            "blogLinks": [
                "http://www.holidayiq.com/How-To-Reach/From-Hubli-To-Coorg-653-339",
                "http://indiarailinfo.com/train/timetable/hubballi-ballari-janshadran-special-07315/1845/289/505",
                "http://www.karnatakatourism.org/",
                "https://www.makemytrip.com/flights/hubli-bellary-air_india-tickets.html",
                "http://wikitravel.org/en/Hubli",
                "http://www.indianholiday.com/travel-destinations/karnataka.html",
                "http://www.distancesfrom.com/distance-from-Hubli-to-Bellary-via-Gadag/DistanceHistory/1041815.aspx",
                "http://www.mapsofindia.com/karnataka/places-to-visit-in-hampi.html",
                "http://distancecalculator.globefeed.com/India_Distance_Calculator.asp?state=19",
                "http://www.distancesfrom.com/in/flight-time-from-Hubli-to-Bellary-via-Hospet-KSRTC-Bus-Stand-Ballari/FlightTimeHistory/33106791.aspx",
                "http://www.mapsofindia.com/karnataka/tourism/",
                "https://www.makemytrip.com/flights/vidyanagar-bellary-air_india-tickets.html",
                "http://www.team-bhp.com/forum/route-travel-queries/95295-places-visit-pune-bangalore-route.html"
            ],
            "address": "Karnataka, Shalivahana Road, Nazarbad, Mysuru, Mysuru taluk, Mysuru district, Karnataka, 570001, India",
            "locType": "atm",
            "longitude": "76.6639936"
        },
        "bangalore": {
            "closest_to": "",
            "latitude": "12.9791198",
            "blogLinks": [
                "http://www.mapsofindia.com/karnataka/tourism/",
                "https://www.makemytrip.com/flights/vidyanagar-bellary-air_india-tickets.html",
                "http://www.team-bhp.com/forum/route-travel-queries/95295-places-visit-pune-bangalore-route.html",
                "https://www.makemytrip.com/flights/hubli-bellary-air_india-tickets.html",
                "http://www.indianholiday.com/travel-destinations/karnataka.html"
            ],
            "address": "Bengaluru, Bangalore Urban, Karnataka, 560001, India",
            "locType": "city",
            "longitude": "77.5912997"
        },
        "north karnataka": {
            "closest_to": "",
            "latitude": "13.0217151",
            "blogLinks": [
                "http://wikitravel.org/en/Hubli"
            ],
            "address": "N, Chaithanya Samarpan, Kadugodi, Kannamangala, Bangalore Urban, Karnataka, 560066, India",
            "locType": "service",
            "longitude": "77.7660547"
        },
        "cubbon park": {
            "closest_to": "",
            "latitude": "12.9808487",
            "blogLinks": [
                "http://www.mapsofindia.com/karnataka/tourism/"
            ],
            "address": "Cubbon Park, Cubbon Road, Tasker Town, Shivajinagar, Bengaluru, Bangalore Urban, Karnataka, 560001, India",
            "locType": "station",
            "longitude": "77.5977565"
        },
        "anantapur": {
            "closest_to": "",
            "latitude": "13.7972948",
            "blogLinks": [
                "http://www.holidayiq.com/How-To-Reach/From-Hubli-To-Coorg-653-339"
            ],
            "address": "RTO Karnataka, Srinagar - Kanyakumari Highway, Paragodu, Bagepalli taluk, Chikkaballapura district, Karnataka, 561207, India",
            "locType": "yes",
            "longitude": "77.7596024"
        },
        "lalbagh garden": {
            "closest_to": "",
            "latitude": "12.95155265",
            "blogLinks": [
                "https://www.ixigo.com/places-to-visit-see-in-hubli-lp-1158159"
            ],
            "address": "Kengal Hanumanthaiah Circle (Lalbagh Circle), Mavalli, Wilson Garden, Bengaluru, Bangalore Urban, Karnataka, 560001, India",
            "locType": "primary",
            "longitude": "77.590521581052"
        },
        "kodagu": {
            "closest_to": "",
            "latitude": "12.38117345",
            "blogLinks": [
                "http://www.mapsofindia.com/karnataka/tourism/"
            ],
            "address": "Kodagu, Karnataka, India",
            "locType": "administrative",
            "longitude": "75.6677235950852"
        },
        "ulsoor lake": {
            "closest_to": "",
            "latitude": "12.9823891",
            "blogLinks": [
                "http://www.mapsofindia.com/karnataka/tourism/"
            ],
            "address": "Halasuru lake, Annaswamy Mudaliar Road, Kothandram Layout, Halasuru, Bengaluru, Bangalore Urban, Karnataka, 560001, India",
            "locType": "water",
            "longitude": "77.6191669052984"
        },
        "delhi": {
            "closest_to": "",
            "latitude": "12.9212473",
            "blogLinks": [
                "https://www.makemytrip.com/flights/vidyanagar-bellary-air_india-tickets.html",
                "https://www.makemytrip.com/flights/hubli-bellary-air_india-tickets.html"
            ],
            "address": "Outer Ring Road, Green Glen Layout, Iblur, Bengaluru, Bangalore Urban, Karnataka, 560001, India",
            "locType": "trunk",
            "longitude": "77.6666062"
        },
        "indus valley": {
            "closest_to": "",
            "latitude": "12.97332085",
            "blogLinks": [
                "http://www.indianholiday.com/travel-destinations/karnataka.html"
            ],
            "address": "Indus Signature Apartments, Indiranagar, Bengaluru, Bangalore Urban, Karnataka, 560001, India",
            "locType": "residential",
            "longitude": "77.6334755668175"
        },
        "pune": {
            "closest_to": "",
            "latitude": "17.8199745",
            "blogLinks": [
                "http://www.team-bhp.com/forum/route-travel-queries/95295-places-visit-pune-bangalore-route.html"
            ],
            "address": "Pune - Machilipatnam Highway, Kaudiyala, Basavakalyana taluku, Bidar district, Karnataka, India",
            "locType": "trunk",
            "longitude": "76.9479122"
        },
        "nandi hills": {
            "closest_to": "",
            "latitude": "13.268142",
            "blogLinks": [
                "http://www.mapsofindia.com/karnataka/tourism/"
            ],
            "address": "Nandi Upahara, Nandhi Hills Road, Kottige Thimmanahalli, Devanahalli taluk, Bangalore Rural, Karnataka, India",
            "locType": "hotel",
            "longitude": "77.7194741670394"
        },
        "belur": {
            "closest_to": "",
            "latitude": "13.1645671",
            "blogLinks": [
                "http://www.mapsofindia.com/karnataka/tourism/"
            ],
            "address": "Belur, Beluru taluk, Hassan district, Karnataka, 573115, India",
            "locType": "town",
            "longitude": "75.8634851"
        },
        "coorg": {
            "closest_to": "",
            "latitude": "12.4204003",
            "blogLinks": [
                "http://www.holidayiq.com/How-To-Reach/From-Hubli-To-Coorg-653-339"
            ],
            "address": "Madikeri, Madikeri taluku, Kodagu, Karnataka, India",
            "locType": "town",
            "longitude": "75.740031"
        },
        "nrupatunga hill": {
            "closest_to": "",
            "latitude": "13.0213395",
            "blogLinks": [
                "https://www.ixigo.com/places-to-visit-see-in-hubli-lp-1158159"
            ],
            "address": "1st Cross, Nrupatunga layout, RMV Stage II - 1st Block, Rabindranath Tagore Nagar, Bengaluru, Bangalore Urban, Karnataka, 560001, India",
            "locType": "unclassified",
            "longitude": "77.5923385"
        },
        "banashankari temple": {
            "closest_to": "",
            "latitude": "12.91568785",
            "blogLinks": [
                "http://www.indianholiday.com/travel-destinations/karnataka.html"
            ],
            "address": "Banashankari Temple, Kanakapura Road, JP Nagar 1st Phase, Kaderenahalli, Bengaluru, Bangalore Urban, Karnataka, 560001, India",
            "locType": "place_of_worship",
            "longitude": "77.5731752886765"
        },
        "bund garden": {
            "closest_to": "",
            "latitude": "12.974498",
            "blogLinks": [
                "https://www.makemytrip.com/flights/hubli-bellary-air_india-tickets.html"
            ],
            "address": "Tank Bund Road, Balepet, Gandhinagar, Bengaluru, Bangalore Urban, Karnataka, 560001, India",
            "locType": "primary",
            "longitude": "77.5733672"
        },
        "chandramouleshwara temple": {
            "closest_to": "",
            "latitude": "13.0636768",
            "blogLinks": [
                "https://www.ixigo.com/places-to-visit-see-in-hubli-lp-1158159"
            ],
            "address": "Chandramouleshwara Temple, Edapally - Panvel Highway, Kolnad, Karnad, Padu Panambur, Mangaluru taluk, Dakshina Kannada, Karnataka, 575025, India",
            "locType": "place_of_worship",
            "longitude": "74.8024264"
        },
        "chandramouleshwara": {
            "closest_to": "",
            "latitude": "13.0636768",
            "blogLinks": [
                "https://www.ixigo.com/places-to-visit-see-in-hubli-lp-1158159"
            ],
            "address": "Chandramouleshwara Temple, Edapally - Panvel Highway, Kolnad, Karnad, Padu Panambur, Mangaluru taluk, Dakshina Kannada, Karnataka, 575025, India",
            "locType": "place_of_worship",
            "longitude": "74.8024264"
        },
        "glass house garden": {
            "closest_to": "",
            "latitude": "12.9698429",
            "blogLinks": [
                "https://www.makemytrip.com/flights/hubli-bellary-air_india-tickets.html"
            ],
            "address": "Glass House, Lavelle Road, Shantala Nagar, MacIvor Town, Bengaluru, Bangalore Urban, Karnataka, 560001, India",
            "locType": "restaurant",
            "longitude": "77.5973538"
        },
        "hoysaleswara temple": {
            "closest_to": "",
            "latitude": "13.2127193",
            "blogLinks": [
                "http://www.mapsofindia.com/karnataka/tourism/"
            ],
            "address": "Hoysaleswara Temple, SH21, Halebidu, Beluru taluk, Hassan district, Karnataka, 573121, India",
            "locType": "place_of_worship",
            "longitude": "75.9941649"
        },
        "hyderabad": {
            "closest_to": "",
            "latitude": "17.9003114",
            "blogLinks": [
                "https://www.makemytrip.com/flights/vidyanagar-bellary-air_india-tickets.html",
                "https://www.makemytrip.com/flights/hubli-bellary-air_india-tickets.html"
            ],
            "address": "Hyderabad Road, Old City, Bidar, Bidar taluku, Bidar district, Karnataka, 585400, India",
            "locType": "primary",
            "longitude": "77.5344002"
        },
        "bangalore city junction": {
            "closest_to": "",
            "latitude": "12.97578575",
            "blogLinks": [
                "http://www.holidayiq.com/How-To-Reach/From-Hubli-To-Coorg-653-339"
            ],
            "address": "Bangalore City Junction, Okalipura, Bengaluru, Bangalore Urban, Karnataka, 560001, India",
            "locType": "industrial",
            "longitude": "77.5681002127154"
        },
        "chennama circle": {
            "closest_to": "",
            "latitude": "12.963396",
            "blogLinks": [
                "http://wikitravel.org/en/Hubli"
            ],
            "address": "Kittur Rani Chennama Statue, Jayachamaraja Wodeyar Road, Ganigarpet, Kalasipalya, Bengaluru, Bangalore Urban, Karnataka, 560001, India",
            "locType": "artwork",
            "longitude": "77.5855103"
        },
        "mangalore": {
            "closest_to": "",
            "latitude": "12.8698101",
            "blogLinks": [
                "http://www.mapsofindia.com/karnataka/tourism/",
                "http://www.holidayiq.com/How-To-Reach/From-Hubli-To-Coorg-653-339",
                "http://wikitravel.org/en/Hubli",
                "http://www.indianholiday.com/travel-destinations/karnataka.html"
            ],
            "address": "Mangaluru, Mangaluru taluk, Dakshina Kannada, Karnataka, 575001, India",
            "locType": "city",
            "longitude": "74.8430082"
        },
        "kadamba": {
            "closest_to": "",
            "latitude": "12.9703178",
            "blogLinks": [
                "http://wikitravel.org/en/Hubli"
            ],
            "address": "Kadamba Avenue, R. Narayanapura, Brookefields, Dodsworth Enclave, Bangalore Urban, Karnataka, 560066, India",
            "locType": "residential",
            "longitude": "77.7436954"
        },
        "mysore palace": {
            "closest_to": "",
            "latitude": "12.3052915",
            "blogLinks": [
                "http://www.indianholiday.com/travel-destinations/karnataka.html"
            ],
            "address": "Mysore Palace, Sayyaji Rao Road, Vani Vilas, Mysuru, Mysuru taluk, Mysuru district, Karnataka, 570001, India",
            "locType": "yes",
            "longitude": "76.6539249338108"
        },
        "mysore": {
            "closest_to": "",
            "latitude": "12.3051828",
            "blogLinks": [
                "http://www.indianholiday.com/travel-destinations/karnataka.html"
            ],
            "address": "Mysuru, Mysuru taluk, Mysuru district, Karnataka, 570001, India",
            "locType": "city",
            "longitude": "76.6553609"
        },
        "madurai": {
            "closest_to": "",
            "latitude": "12.9185419",
            "blogLinks": [
                "https://www.makemytrip.com/flights/vidyanagar-bellary-air_india-tickets.html",
                "https://www.makemytrip.com/flights/hubli-bellary-air_india-tickets.html"
            ],
            "address": "Madurai Idly Shop, 5th Main Road, Teachers Colony, HSR Layout, Bengaluru, Bangalore Urban, Karnataka, 560001, India",
            "locType": "restaurant",
            "longitude": "77.6320535"
        },
        "mumbai": {
            "closest_to": "",
            "latitude": "13.0002869",
            "blogLinks": [
                "https://www.tripoto.com/trip/road-trip-to-hampi-karnataka-56f7e53370ac4",
                "https://www.makemytrip.com/flights/vidyanagar-bellary-air_india-tickets.html",
                "https://www.makemytrip.com/flights/hubli-bellary-air_india-tickets.html"
            ],
            "address": "Mumbai Spice, 18/2, 10th Cross, Malleswaram, Vyalikaval, Malleswaram, Bengaluru, Bangalore Urban, Karnataka, 560003, India",
            "locType": "restaurant",
            "longitude": "77.5718472"
        },
        "garden": {
            "closest_to": "",
            "latitude": "13.19253335",
            "blogLinks": [
                "http://www.mapsofindia.com/karnataka/tourism/"
            ],
            "address": "garden, N Hosahalli, Hosakote taluk, Bangalore Rural, Karnataka, India",
            "locType": "orchard",
            "longitude": "77.9285817637065"
        },
        "bidadi": {
            "closest_to": "",
            "latitude": "12.7988507",
            "blogLinks": [
                "http://www.holidayiq.com/How-To-Reach/From-Hubli-To-Coorg-653-339"
            ],
            "address": "Bidadi, Ramanagara taluk, Ramanagara district, Karnataka, India",
            "locType": "town",
            "longitude": "77.3869947"
        },
        "sangameshwara temple": {
            "closest_to": "",
            "latitude": "13.0145717",
            "blogLinks": [
                "http://www.indianholiday.com/travel-destinations/karnataka.html"
            ],
            "address": "Sri Sangameshwara temple, Hosaline Road, Ravindra Nagar, Pension Mohalla, Hassan, Hasana taluk, Hassan district, Karnataka, 573201, India",
            "locType": "place_of_worship",
            "longitude": "76.0983066419415"
        },
        "hoysala": {
            "closest_to": "",
            "latitude": "12.97813815",
            "blogLinks": [
                "http://www.mapsofindia.com/karnataka/tourism/"
            ],
            "address": "Hoysala Nagar, Bengaluru, Bangalore Urban, Karnataka, 560001, India",
            "locType": "administrative",
            "longitude": "77.6375990817051"
        },
        "vittala": {
            "closest_to": "",
            "latitude": "12.30129655",
            "blogLinks": [
                "http://travel.india.com/hampi/places-to-visit/"
            ],
            "address": "Vijaya Vittala PU College, Sahukar Chennaiah Road, Sarasvatipuram, Mysuru, Mysuru taluk, Mysuru district, Karnataka, 570001, India",
            "locType": "yes",
            "longitude": "76.6237847175927"
        },
        "new delhi": {
            "closest_to": "",
            "latitude": "12.30911465",
            "blogLinks": [
                "https://www.makemytrip.com/flights/vidyanagar-bellary-air_india-tickets.html",
                "https://www.makemytrip.com/flights/hubli-bellary-air_india-tickets.html"
            ],
            "address": "Regional Institute of Education, Chaduranga Road, Jayalakshmipuram, Mysuru, Mysuru taluk, Mysuru district, Karnataka, 570001, India",
            "locType": "college",
            "longitude": "76.6142178649055"
        },
        "halebid": {
            "closest_to": "",
            "latitude": "13.2167959",
            "blogLinks": [
                "http://www.mapsofindia.com/karnataka/tourism/"
            ],
            "address": "Halebidu, Beluru taluk, Hassan district, Karnataka, 573121, India",
            "locType": "village",
            "longitude": "75.9918793"
        },
        "giriyas": {
            "closest_to": "",
            "latitude": "12.8694149",
            "blogLinks": [
                "http://wikitravel.org/en/Hubli"
            ],
            "address": "Giriyas Electronics, Karnad Sadashiva Rao Road, Dongerkeri, Attavar, Mangaluru, Mangaluru taluk, Dakshina Kannada, Karnataka, 575001, India",
            "locType": "supermarket",
            "longitude": "74.8422606"
        },
        "maharashtra": {
            "closest_to": "",
            "latitude": "12.9049455",
            "blogLinks": [
                "http://www.team-bhp.com/forum/route-travel-queries/95295-places-visit-pune-bangalore-route.html"
            ],
            "address": "Bank of Maharashtra, 24th Main, K R Layout, Puttenahalli, Bengaluru, Bangalore Urban, Karnataka, 560001, India",
            "locType": "bank",
            "longitude": "77.5856013"
        },
        "srirangapatna": {
            "closest_to": "",
            "latitude": "12.4225604",
            "blogLinks": [
                "http://www.indianholiday.com/travel-destinations/karnataka.html"
            ],
            "address": "Srirangapatna, Srirangapattana taluk, Mandya district, Karnataka, 571438, India",
            "locType": "town",
            "longitude": "76.6850743"
        },
        "kudremukh national park": {
            "closest_to": "",
            "latitude": "13.25397485",
            "blogLinks": [
                "http://www.indianholiday.com/travel-destinations/karnataka.html"
            ],
            "address": "Kudremukh National Park, SH66, Sringeri taluku, Chikkamagaluru district, Karnataka, India",
            "locType": "national_park",
            "longitude": "75.1828713712862"
        },
        "bangalore city": {
            "closest_to": "",
            "latitude": "12.9791198",
            "blogLinks": [
                "http://www.indianholiday.com/travel-destinations/karnataka.html"
            ],
            "address": "Bengaluru, Bangalore Urban, Karnataka, 560001, India",
            "locType": "city",
            "longitude": "77.5912997"
        },
        "karnataka chitrakala parishath": {
            "closest_to": "",
            "latitude": "12.98925415",
            "blogLinks": [
                "http://www.indianholiday.com/travel-destinations/karnataka.html"
            ],
            "address": "Karnataka Chitrakala Parishath, Kumara Krupa Road, Chakravarty Layout, High Grounds, Bengaluru, Bangalore Urban, Karnataka, 560001, India",
            "locType": "college",
            "longitude": "77.5808003010098"
        },
        "srinagar": {
            "closest_to": "",
            "latitude": "12.9438817",
            "blogLinks": [
                "https://www.makemytrip.com/flights/vidyanagar-bellary-air_india-tickets.html",
                "https://www.makemytrip.com/flights/hubli-bellary-air_india-tickets.html"
            ],
            "address": "Srinagar, Bengaluru, Bangalore Urban, Karnataka, 560001, India",
            "locType": "suburb",
            "longitude": "77.5541768"
        },
        "chital": {
            "closest_to": "",
            "latitude": "11.6598538",
            "blogLinks": [
                "http://www.indianholiday.com/travel-destinations/karnataka.html"
            ],
            "address": "Chital Lantana Craft Center, Yalachetti, Gundlupet taluk, Chamarajanagar district, Karnataka, India",
            "locType": "artwork",
            "longitude": "76.7036992"
        },
        "somnathpur": {
            "closest_to": "",
            "latitude": "12.2761528",
            "blogLinks": [
                "http://www.indianholiday.com/travel-destinations/karnataka.html"
            ],
            "address": "Somanathapura, Tirumakudalu Narasipura taluk, Mysuru district, Karnataka, India",
            "locType": "village",
            "longitude": "76.8833039"
        },
        "venkatappa art gallery": {
            "closest_to": "",
            "latitude": "12.9742592",
            "blogLinks": [
                "http://www.mapsofindia.com/karnataka/tourism/"
            ],
            "address": "Venkatappa Art Gallery, Kasturba Road, Shantala Nagar, MacIvor Town, Bengaluru, Bangalore Urban, Karnataka, 560001, India",
            "locType": "museum",
            "longitude": "77.5952077"
        },
        "chennai": {
            "closest_to": "",
            "latitude": "13.0365141",
            "blogLinks": [
                "https://www.makemytrip.com/flights/vidyanagar-bellary-air_india-tickets.html",
                "https://www.makemytrip.com/flights/hubli-bellary-air_india-tickets.html"
            ],
            "address": "Karnataka Bank, Postal Colony 2nd Street, Postal Colony, Ashok Nagar, Chennai City Corporation Limits, Chennai district, Tamil Nadu, 600033, India",
            "locType": "bank",
            "longitude": "80.2197941"
        }
    }
}