{
    "mentions": {
        "delhi": {
            "locType": "trunk",
            "blogLinks": [
                "http://www.thrillophilia.com/blog/20-places-you-need-to-visit-in-india-with-your-best-friend/",
                "https://www.makemytrip.com/holidays-india/places-to-visit-bellary.html",
                "https://www.thrillophilia.com/jaisalmer-tour"
            ],
            "longitude": "77.6666062",
            "closest_to": "",
            "latitude": "12.9212473",
            "address": "Outer Ring Road, Green Glen Layout, Iblur, Bengaluru, Bangalore Urban, Karnataka, 560001, India"
        },
        "kanakapura road": {
            "locType": "trunk",
            "blogLinks": [
                "https://en.wikipedia.org/wiki/Tourism_in_Karnataka",
                "https://www.tripoto.com/places-to-visit/india/bangalore"
            ],
            "longitude": "77.5733483",
            "closest_to": "",
            "latitude": "12.9064528",
            "address": "Kanakapura Road, Rajotsava Nagar, Kaderenahalli, Bengaluru, Bangalore Urban, Karnataka, 560001, India"
        },
        "vittala": {
            "locType": "yes",
            "blogLinks": [
                "http://travel.india.com/hampi/places-to-visit/"
            ],
            "longitude": "76.6237847175927",
            "closest_to": "",
            "latitude": "12.30129655",
            "address": "Vijaya Vittala PU College, Sahukar Chennaiah Road, Sarasvatipuram, Mysuru, Mysuru taluk, Mysuru district, Karnataka, 570001, India"
        },
        "hosur road": {
            "locType": "trunk",
            "blogLinks": [
                "https://www.tripoto.com/places-to-visit/india/bangalore"
            ],
            "longitude": "77.6241106",
            "closest_to": "",
            "latitude": "12.9147705",
            "address": "Hosur Road, BTM 2nd Stage, Bommanahalli, Bengaluru, Bangalore Urban, Karnataka, 560001, India"
        },
        "mysore district": {
            "locType": "city",
            "blogLinks": [
                "https://en.wikipedia.org/wiki/Tourism_in_Karnataka",
                "http://www.holidayiq.com/Kabini-Sightseeing-392.html"
            ],
            "longitude": "76.6553609",
            "closest_to": "",
            "latitude": "12.3051828",
            "address": "Mysuru, Mysuru taluk, Mysuru district, Karnataka, 570001, India"
        },
        "cauvery": {
            "locType": "cinema",
            "blogLinks": [
                "https://en.wikipedia.org/wiki/Tourism_in_Karnataka"
            ],
            "longitude": "77.5832796015599",
            "closest_to": "",
            "latitude": "13.00262215",
            "address": "Cauvery, 1st Main Road, Lower Palace Orchard, Guttahalli, Bengaluru, Bangalore Urban, Karnataka, 560001, India"
        },
        "lotus": {
            "locType": "yes",
            "blogLinks": [
                "http://www.holidayiq.com/Hampi-Sightseeing-370.html"
            ],
            "longitude": "77.6274210567915",
            "closest_to": "",
            "latitude": "12.93640855",
            "address": "Lotus, 80 Feet Road;7th Main Road, Maistripalaya, Koramangala, Bengaluru, Bangalore Urban, Karnataka, 560001, India"
        },
        "kabini": {
            "locType": "river",
            "blogLinks": [
                "https://en.wikipedia.org/wiki/Tourism_in_Karnataka",
                "http://www.holidayiq.com/Kabini-Sightseeing-392.html"
            ],
            "longitude": "76.4152088",
            "closest_to": "",
            "latitude": "12.0140065",
            "address": "Kabini, Heggadadevanakote taluk, Mysuru district, Karnataka, India"
        },
        "sikkim": {
            "locType": "yes",
            "blogLinks": [
                "http://www.thrillophilia.com/blog/20-places-you-need-to-visit-in-india-with-your-best-friend/"
            ],
            "longitude": "77.6704479",
            "closest_to": "",
            "latitude": "12.9185721",
            "address": "Sikkim Manipal University, Sarjapur Road, Devarabisanahalli, Bellandur, Doddakannelli, Bangalore Urban, Karnataka, 560035, India"
        },
        "venkataramana": {
            "locType": "tertiary",
            "blogLinks": [
                "https://en.wikipedia.org/wiki/Tourism_in_Karnataka"
            ],
            "longitude": "76.6254678",
            "closest_to": "",
            "latitude": "12.2823847",
            "address": "P. Venkataramana Road, Kuvempunagara, Mysuru, Mysuru taluk, Mysuru district, Karnataka, 570001, India"
        },
        "north karnataka": {
            "locType": "service",
            "blogLinks": [
                "https://en.wikipedia.org/wiki/Tourism_in_Karnataka",
                "https://www.quora.com/What-are-the-best-places-to-visit-on-a-3-day-trip-in-and-around-Karnataka"
            ],
            "longitude": "77.7660547",
            "closest_to": "",
            "latitude": "13.0217151",
            "address": "N, Chaithanya Samarpan, Kadugodi, Kannamangala, Bangalore Urban, Karnataka, 560066, India"
        },
        "coorg": {
            "locType": "town",
            "blogLinks": [
                "http://www.thrillophilia.com/blog/20-places-you-need-to-visit-in-india-with-your-best-friend/",
                "https://www.quora.com/What-are-the-best-places-to-visit-on-a-3-day-trip-in-and-around-Karnataka"
            ],
            "longitude": "75.740031",
            "closest_to": "",
            "latitude": "12.4204003",
            "address": "Madikeri, Madikeri taluku, Kodagu, Karnataka, India"
        },
        "dharma river": {
            "locType": "park",
            "blogLinks": [
                "https://en.wikipedia.org/wiki/Tourism_in_Karnataka"
            ],
            "longitude": "77.5575864485219",
            "closest_to": "",
            "latitude": "12.98914885",
            "address": "Dharma Naidu Udhyanavana, 44th cross, Rajajinagar 4th Block, Rajaji Nagar, Bengaluru, Bangalore Urban, Karnataka, 560001, India"
        },
        "himavad": {
            "locType": "place_of_worship",
            "blogLinks": [
                "https://www.quora.com/What-are-the-best-places-to-visit-on-a-3-day-trip-in-and-around-Karnataka"
            ],
            "longitude": "76.5804063",
            "closest_to": "",
            "latitude": "11.7206016",
            "address": "Gopalaswami Temple, Gopal Swami Betta road, Devarahalli, Gundlupet taluk, Chamarajanagar district, Karnataka, India"
        },
        "bangalore": {
            "locType": "city",
            "blogLinks": [
                "http://www.thrillophilia.com/blog/20-places-you-need-to-visit-in-india-with-your-best-friend/",
                "http://www.travelhaathi.com/hampi-travel-guide/",
                "https://www.tripoto.com/places-to-visit/india/bangalore",
                "https://www.quora.com/What-are-the-best-places-to-visit-on-a-3-day-trip-in-and-around-Karnataka",
                "https://en.wikipedia.org/wiki/Tourism_in_Karnataka",
                "http://www.team-bhp.com/forum/route-travel-queries/94153-bangalore-sirsi-trip.html"
            ],
            "longitude": "77.5912997",
            "closest_to": "",
            "latitude": "12.9791198",
            "address": "Bengaluru, Bangalore Urban, Karnataka, 560001, India"
        },
        "bidar district": {
            "locType": "administrative",
            "blogLinks": [
                "https://en.wikipedia.org/wiki/Tourism_in_Karnataka"
            ],
            "longitude": "77.2496344350342",
            "closest_to": "",
            "latitude": "18.0158574",
            "address": "Bidar district, Karnataka, India"
        },
        "manjunatha temple": {
            "locType": "place_of_worship",
            "blogLinks": [
                "https://www.quora.com/What-are-the-best-places-to-visit-on-a-3-day-trip-in-and-around-Karnataka"
            ],
            "longitude": "77.5640116772773",
            "closest_to": "",
            "latitude": "12.9211928",
            "address": "Devagiri Manjunatha Swamy Temple, 30th Cross, Jayanagar 8th Block, Banashankari 2nd Stage, Bengaluru, Bangalore Urban, Karnataka, 560001, India"
        },
        "sri krishna temple": {
            "locType": "unclassified",
            "blogLinks": [
                "https://www.quora.com/What-are-the-best-places-to-visit-on-a-3-day-trip-in-and-around-Karnataka"
            ],
            "longitude": "77.6437236",
            "closest_to": "",
            "latitude": "12.9791699",
            "address": "Sri Krishna Temple Road, Old Binnamangala, Hoysala Nagar, Bengaluru, Bangalore Urban, Karnataka, 560001, India"
        },
        "sharadamba": {
            "locType": "place_of_worship",
            "blogLinks": [
                "https://www.quora.com/What-are-the-best-places-to-visit-on-a-3-day-trip-in-and-around-Karnataka"
            ],
            "longitude": "77.5656194",
            "closest_to": "",
            "latitude": "12.9321898",
            "address": "Sharadamba Temple, 7th Main Road, Yediyur, Thyagaraja Nagar, Bengaluru, Bangalore Urban, Karnataka, 560001, India"
        },
        "kamala": {
            "locType": "school",
            "blogLinks": [
                "https://en.wikipedia.org/wiki/Tourism_in_Karnataka"
            ],
            "longitude": "77.5664867",
            "closest_to": "",
            "latitude": "12.9339482",
            "address": "Kamala Nehru Patashala (Emmanual English School), 5th A Cross Road, Yediyur, Thyagaraja Nagar, Bengaluru, Bangalore Urban, Karnataka, 560001, India"
        },
        "india karnataka": {
            "locType": "atm",
            "blogLinks": [
                "https://www.quora.com/What-are-the-best-places-to-visit-on-a-3-day-trip-in-and-around-Karnataka"
            ],
            "longitude": "76.6639936",
            "closest_to": "",
            "latitude": "12.3084901",
            "address": "Karnataka, Shalivahana Road, Nazarbad, Mysuru, Mysuru taluk, Mysuru district, Karnataka, 570001, India"
        },
        "daria daulat gardens": {
            "locType": "museum",
            "blogLinks": [
                "https://www.quora.com/What-are-the-best-places-to-visit-on-a-3-day-trip-in-and-around-Karnataka"
            ],
            "longitude": "76.6969039957315",
            "closest_to": "",
            "latitude": "12.4200182",
            "address": "Daria Daulat Bagh Museum, Bangalore-Mysore Road, Srirangapatna, Srirangapattana taluk, Mandya district, Karnataka, 571438, India"
        },
        "mysore road": {
            "locType": "trunk",
            "blogLinks": [
                "https://www.tripoto.com/places-to-visit/india/bangalore"
            ],
            "longitude": "77.5337558",
            "closest_to": "",
            "latitude": "12.9477396",
            "address": "Mysore Road, Avalahalli, Bengaluru, Bangalore Urban, Karnataka, 560001, India"
        },
        "halebidu": {
            "locType": "village",
            "blogLinks": [
                "https://en.wikipedia.org/wiki/Tourism_in_Karnataka"
            ],
            "longitude": "76.4607075",
            "closest_to": "",
            "latitude": "12.359893",
            "address": "Halebidu, Hunasuru taluk, Mysuru district, Karnataka, India"
        },
        "iruppu falls": {
            "locType": "attraction",
            "blogLinks": [
                "https://www.quora.com/What-are-the-best-places-to-visit-on-a-3-day-trip-in-and-around-Karnataka"
            ],
            "longitude": "75.9839484",
            "closest_to": "",
            "latitude": "11.9667954",
            "address": "Iruppu Falls, SH89, Taila, Virajpet taluk, Kodagu, Karnataka, 571217, India"
        },
        "mysore": {
            "locType": "city",
            "blogLinks": [
                "https://www.quora.com/What-are-the-best-places-to-visit-on-a-3-day-trip-in-and-around-Karnataka",
                "https://www.tripoto.com/trip/karnataka-one-state-many-worlds-2-565ed43147a04"
            ],
            "longitude": "76.6553609",
            "closest_to": "",
            "latitude": "12.3051828",
            "address": "Mysuru, Mysuru taluk, Mysuru district, Karnataka, 570001, India"
        },
        "golden temple": {
            "locType": "place_of_worship",
            "blogLinks": [
                "https://www.quora.com/What-are-the-best-places-to-visit-on-a-3-day-trip-in-and-around-Karnataka"
            ],
            "longitude": "75.9674656",
            "closest_to": "",
            "latitude": "12.430821",
            "address": "Padmasambhava Buddhist Vihara (Golden Temple), MDR21, Koppa, Piriyapattana taluk, Mysuru district, Karnataka, India"
        },
        "pondicherry": {
            "locType": "bank",
            "blogLinks": [
                "http://www.thrillophilia.com/blog/20-places-you-need-to-visit-in-india-with-your-best-friend/",
                "https://www.tripoto.com/places-to-visit/india/bangalore"
            ],
            "longitude": "79.831569",
            "closest_to": "",
            "latitude": "11.9365727",
            "address": "Karnataka Bank, Mission Street, Grand Bazaar, Puducherry, Puducherry district, Puducherry, 605001, India"
        },
        "mercara": {
            "locType": "town",
            "blogLinks": [
                "https://en.wikipedia.org/wiki/Tourism_in_Karnataka"
            ],
            "longitude": "75.740031",
            "closest_to": "",
            "latitude": "12.4204003",
            "address": "Madikeri, Madikeri taluku, Kodagu, Karnataka, India"
        },
        "hyderabad": {
            "locType": "primary",
            "blogLinks": [
                "http://www.team-bhp.com/forum/route-travel-queries/94153-bangalore-sirsi-trip.html",
                "http://www.travelhaathi.com/hampi-travel-guide/"
            ],
            "longitude": "77.5344002",
            "closest_to": "",
            "latitude": "17.9003114",
            "address": "Hyderabad Road, Old City, Bidar, Bidar taluku, Bidar district, Karnataka, 585400, India"
        },
        "rock garden": {
            "locType": "waterfall",
            "blogLinks": [
                "https://en.wikipedia.org/wiki/Tourism_in_Karnataka"
            ],
            "longitude": "75.6142269",
            "closest_to": "",
            "latitude": "12.2248591",
            "address": "Waterfalls by the Rock site, Madikeri taluku, Kodagu, Karnataka, India"
        },
        "mumbai": {
            "locType": "restaurant",
            "blogLinks": [
                "http://www.thrillophilia.com/blog/20-places-you-need-to-visit-in-india-with-your-best-friend/"
            ],
            "longitude": "77.5718472",
            "closest_to": "",
            "latitude": "13.0002869",
            "address": "Mumbai Spice, 18/2, 10th Cross, Malleswaram, Vyalikaval, Malleswaram, Bengaluru, Bangalore Urban, Karnataka, 560003, India"
        },
        "nagarhole national park": {
            "locType": "national_park",
            "blogLinks": [
                "https://en.wikipedia.org/wiki/Tourism_in_Karnataka",
                "http://www.holidayiq.com/Kabini-Sightseeing-392.html",
                "https://www.quora.com/What-are-the-best-places-to-visit-on-a-3-day-trip-in-and-around-Karnataka"
            ],
            "longitude": "76.1537073415874",
            "closest_to": "",
            "latitude": "12.0600362",
            "address": "Nagarahole National Park, Virajpet taluk, Kodagu, Karnataka, India"
        },
        "varadaraja": {
            "locType": "fuel",
            "blogLinks": [
                "https://en.wikipedia.org/wiki/Tourism_in_Karnataka"
            ],
            "longitude": "77.5542736",
            "closest_to": "",
            "latitude": "13.005885",
            "address": "Varadaraja Petrol / Gas Station, Dr. Rajkumar Road, Rajajinagar 1st Block, Subrahmanya Nagar, Bengaluru, Bangalore Urban, Karnataka, 560001, India"
        },
        "malayalam": {
            "locType": "place_of_worship",
            "blogLinks": [
                "http://www.thrillophilia.com/blog/20-places-you-need-to-visit-in-india-with-your-best-friend/"
            ],
            "longitude": "77.6774283",
            "closest_to": "",
            "latitude": "12.9985726",
            "address": "Lowry Adventist Malayalam Church, A Narayanapura Main Road, Darga Mohalla, Udaya Nagar, A Narayanapura, Bangalore Urban, Karnataka, 560016, India"
        },
        "bahubali": {
            "locType": "place_of_worship",
            "blogLinks": [
                "https://en.wikipedia.org/wiki/Tourism_in_Karnataka",
                "https://www.quora.com/What-are-the-best-places-to-visit-on-a-3-day-trip-in-and-around-Karnataka"
            ],
            "longitude": "76.4846128",
            "closest_to": "",
            "latitude": "12.8540505",
            "address": "Bahubali Statue, SH8, Shravanabelagola, Channarayapattana taluk, Hassan district, Karnataka, 573135, India"
        },
        "nilgiris": {
            "locType": "supermarket",
            "blogLinks": [
                "https://en.wikipedia.org/wiki/Tourism_in_Karnataka",
                "http://www.thrillophilia.com/blog/20-places-you-need-to-visit-in-india-with-your-best-friend/"
            ],
            "longitude": "77.6069792",
            "closest_to": "",
            "latitude": "12.9725052",
            "address": "Nilgiris, Brigade Road, Tasker Town, Ashok Nagar, Bengaluru, Bangalore Urban, Karnataka, 560001, India"
        },
        "puducherry": {
            "locType": "bank",
            "blogLinks": [
                "http://www.thrillophilia.com/blog/20-places-you-need-to-visit-in-india-with-your-best-friend/"
            ],
            "longitude": "79.831569",
            "closest_to": "",
            "latitude": "11.9365727",
            "address": "Karnataka Bank, Mission Street, Grand Bazaar, Puducherry, Puducherry district, Puducherry, 605001, India"
        },
        "kabini dam": {
            "locType": "dam",
            "blogLinks": [
                "http://www.holidayiq.com/Kabini-Sightseeing-392.html"
            ],
            "longitude": "76.353668",
            "closest_to": "",
            "latitude": "11.9751069",
            "address": "Kabini Dam, Heggadadevanakote taluk, Mysuru district, Karnataka, India"
        },
        "kodava": {
            "locType": "community_centre",
            "blogLinks": [
                "https://www.quora.com/What-are-the-best-places-to-visit-on-a-3-day-trip-in-and-around-Karnataka"
            ],
            "longitude": "77.5947466457941",
            "closest_to": "",
            "latitude": "12.9946227",
            "address": "Kodava Samaja, M V Jayaram Road, Jayamahal Extension, Vasantnagar, Bengaluru, Bangalore Urban, Karnataka, 560001, India"
        },
        "rajasthan": {
            "locType": "atm",
            "blogLinks": [
                "http://www.thrillophilia.com/blog/20-places-you-need-to-visit-in-india-with-your-best-friend/",
                "https://www.makemytrip.com/holidays-india/places-to-visit-bellary.html",
                "https://www.thrillophilia.com/jaisalmer-tour"
            ],
            "longitude": "75.7985653",
            "closest_to": "",
            "latitude": "26.91869",
            "address": "Karnataka Bank, Mirza Ismail Road, Hasanpura, Bani Park, Jaipur, Rajasthan, 302006, India"
        },
        "switzerland": {
            "locType": "embassy",
            "blogLinks": [
                "http://www.thrillophilia.com/blog/20-places-you-need-to-visit-in-india-with-your-best-friend/"
            ],
            "longitude": "77.6055981047125",
            "closest_to": "",
            "latitude": "12.9733671",
            "address": "Consulate General of Switzerland, 26, Rest House Crescent Road, Shantala Nagar, Ashok Nagar, Bengaluru, Bangalore Urban, Karnataka, 560001, India"
        },
        "rose garden": {
            "locType": "garden",
            "blogLinks": [
                "https://www.quora.com/What-are-the-best-places-to-visit-on-a-3-day-trip-in-and-around-Karnataka"
            ],
            "longitude": "77.590382853852",
            "closest_to": "",
            "latitude": "12.97371325",
            "address": "Rose Garden, Dr B R Ambedkar Veedhi, Shantala Nagar, Gandhinagar, Bengaluru, Bangalore Urban, Karnataka, 560001, India"
        },
        "kerala": {
            "locType": "restaurant",
            "blogLinks": [
                "http://www.holidayiq.com/Kabini-Sightseeing-392.html",
                "http://www.thrillophilia.com/blog/20-places-you-need-to-visit-in-india-with-your-best-friend/",
                "https://www.makemytrip.com/holidays-india/places-to-visit-bellary.html",
                "https://www.quora.com/What-are-the-best-places-to-visit-on-a-3-day-trip-in-and-around-Karnataka",
                "https://www.tripoto.com/places-to-visit/india/bangalore"
            ],
            "longitude": "77.6382683",
            "closest_to": "",
            "latitude": "12.9726449",
            "address": "New Life Kerala Mess, Sai Baba Mandira Road, Mottappanapalaya, Indiranagar, Bengaluru, Bangalore Urban, Karnataka, 560001, India"
        },
        "beechanahalli village": {
            "locType": "village",
            "blogLinks": [
                "http://www.holidayiq.com/Kabini-Sightseeing-392.html"
            ],
            "longitude": "76.349661",
            "closest_to": "",
            "latitude": "12.5271227",
            "address": "Beechanahalli, Krishnarajanagara taluk, Mysuru district, Karnataka, India"
        },
        "kalyani": {
            "locType": "water",
            "blogLinks": [
                "https://en.wikipedia.org/wiki/Tourism_in_Karnataka"
            ],
            "longitude": "77.6286090192686",
            "closest_to": "",
            "latitude": "12.8406466",
            "address": "Kalyani, Neeladri Road, Electronics City Phase 1, Bettadasana Pura, Bangalore Urban, Karnataka, 560100, India"
        },
        "old madras road": {
            "locType": "trunk",
            "blogLinks": [
                "https://www.tripoto.com/places-to-visit/india/bangalore"
            ],
            "longitude": "77.689988",
            "closest_to": "",
            "latitude": "13.0076952",
            "address": "Old Madras Road, Devasandra, ITI Colony, Garudacharpalya, Bangalore Urban, Karnataka, 560048, India"
        },
        "south kodagu": {
            "locType": "administrative",
            "blogLinks": [
                "http://www.holidayiq.com/Kabini-Sightseeing-392.html"
            ],
            "longitude": "75.6677235950852",
            "closest_to": "",
            "latitude": "12.38117345",
            "address": "Kodagu, Karnataka, India"
        },
        "bidar": {
            "locType": "county",
            "blogLinks": [
                "https://www.quora.com/What-are-the-best-places-to-visit-on-a-3-day-trip-in-and-around-Karnataka"
            ],
            "longitude": "77.333333",
            "closest_to": "",
            "latitude": "18.083333",
            "address": "Bidar, Bidar district, Karnataka, India"
        },
        "kodagu district": {
            "locType": "county",
            "blogLinks": [
                "http://www.holidayiq.com/Kabini-Sightseeing-392.html"
            ],
            "longitude": "75.7412148",
            "closest_to": "",
            "latitude": "12.2519249",
            "address": "Kodagu, Karnataka, India"
        },
        "jaipur": {
            "locType": "atm",
            "blogLinks": [
                "http://www.thrillophilia.com/blog/20-places-you-need-to-visit-in-india-with-your-best-friend/"
            ],
            "longitude": "75.7985653",
            "closest_to": "",
            "latitude": "26.91869",
            "address": "Karnataka Bank, Mirza Ismail Road, Hasanpura, Bani Park, Jaipur, Rajasthan, 302006, India"
        },
        "mallikarjuna": {
            "locType": "village",
            "blogLinks": [
                "https://en.wikipedia.org/wiki/Tourism_in_Karnataka"
            ],
            "longitude": "77.0590502",
            "closest_to": "",
            "latitude": "17.8106693",
            "address": "Mallikarjuna Vadi, Basavakalyana taluku, Bidar district, Karnataka, India"
        },
        "kaveri river": {
            "locType": "river",
            "blogLinks": [
                "http://www.holidayiq.com/Kabini-Sightseeing-392.html"
            ],
            "longitude": "77.1600751",
            "closest_to": "",
            "latitude": "12.2873835",
            "address": "Kaveri, Malavalli taluk, Mandya district, Karnataka, India"
        },
        "ramanagar district": {
            "locType": "primary",
            "blogLinks": [
                "https://www.tripoto.com/places-to-visit/india/bangalore"
            ],
            "longitude": "77.3418018",
            "closest_to": "",
            "latitude": "12.649356",
            "address": "Ramanagar-Kanakapura Road, Avverahalli, Ramanagara taluk, Ramanagara district, Karnataka, 562159, India"
        },
        "chunchi falls": {
            "locType": "waterfall",
            "blogLinks": [
                "https://www.tripoto.com/places-to-visit/india/bangalore"
            ],
            "longitude": "77.4459464",
            "closest_to": "",
            "latitude": "12.3515083",
            "address": "Chunchi Falls, Kanakapura taluk, Ramanagara district, Karnataka, India"
        },
        "bangkok": {
            "locType": "bar",
            "blogLinks": [
                "https://www.quora.com/What-are-the-best-places-to-visit-on-a-3-day-trip-in-and-around-Karnataka"
            ],
            "longitude": "77.6382633",
            "closest_to": "",
            "latitude": "12.9701967",
            "address": "One night in Bangkok, 12th Main Road, HAL 2nd Stage, Indiranagar, Bengaluru, Bangalore Urban, Karnataka, 560001, India"
        },
        "balakrishna": {
            "locType": "playground",
            "blogLinks": [
                "http://www.holidayiq.com/Hampi-Sightseeing-370.html"
            ],
            "longitude": "77.5200084",
            "closest_to": "",
            "latitude": "12.9176066",
            "address": "Balakrishna Rangamandira, Gokhale Road, Rajarajeshwari Nagar, Patanagere, Bangalore Urban, Karnataka, 560098, India"
        },
        "talakadu": {
            "locType": "village",
            "blogLinks": [
                "https://www.quora.com/What-are-the-best-places-to-visit-on-a-3-day-trip-in-and-around-Karnataka"
            ],
            "longitude": "77.0293979",
            "closest_to": "",
            "latitude": "12.1919942",
            "address": "Talakadu, Tirumakudalu Narasipura taluk, Mysuru district, Karnataka, India"
        },
        "bandipur": {
            "locType": "village",
            "blogLinks": [
                "https://en.wikipedia.org/wiki/Tourism_in_Karnataka"
            ],
            "longitude": "76.6285739",
            "closest_to": "",
            "latitude": "11.6662708",
            "address": "Bandipur, Gundlupet taluk, Chamarajanagar district, Karnataka, India"
        },
        "srirangapatna": {
            "locType": "town",
            "blogLinks": [
                "https://en.wikipedia.org/wiki/Tourism_in_Karnataka",
                "https://www.tripoto.com/places-to-visit/india/bangalore"
            ],
            "longitude": "76.6850743",
            "closest_to": "",
            "latitude": "12.4225604",
            "address": "Srirangapatna, Srirangapattana taluk, Mandya district, Karnataka, 571438, India"
        },
        "mahabaleshwara": {
            "locType": "place_of_worship",
            "blogLinks": [
                "https://www.quora.com/What-are-the-best-places-to-visit-on-a-3-day-trip-in-and-around-Karnataka"
            ],
            "longitude": "77.5899749843004",
            "closest_to": "",
            "latitude": "12.96264945",
            "address": "Mahabaleshwara Temple, Mission Road (Kalinga Rao Road ), Sampangirama Nagar, Shanti Nagar, Bengaluru, Bangalore Urban, Karnataka, 560001, India"
        },
        "bellary road": {
            "locType": "trunk",
            "blogLinks": [
                "https://www.tripoto.com/places-to-visit/india/bangalore"
            ],
            "longitude": "77.5915237",
            "closest_to": "",
            "latitude": "13.0465345",
            "address": "Bellary Road, Kanaka Nagar, Hebbal, Bengaluru, Bangalore Urban, Karnataka, 560001, India"
        },
        "new delhi": {
            "locType": "college",
            "blogLinks": [
                "https://www.makemytrip.com/holidays-india/places-to-visit-bellary.html"
            ],
            "longitude": "76.6142178649055",
            "closest_to": "",
            "latitude": "12.30911465",
            "address": "Regional Institute of Education, Chaduranga Road, Jayalakshmipuram, Mysuru, Mysuru taluk, Mysuru district, Karnataka, 570001, India"
        },
        "ranganathittu bird sanctuary": {
            "locType": "attraction",
            "blogLinks": [
                "https://en.wikipedia.org/wiki/Tourism_in_Karnataka"
            ],
            "longitude": "76.6553081",
            "closest_to": "",
            "latitude": "12.4238524",
            "address": "Ranganathittu Bird Sanctuary, SH154, Palahalli, Srirangapattana taluk, Mandya district, Karnataka, 571438, India"
        },
        "lalbagh botanical garden": {
            "locType": "attraction",
            "blogLinks": [
                "https://www.tripoto.com/places-to-visit/india/bangalore"
            ],
            "longitude": "77.5869868789796",
            "closest_to": "",
            "latitude": "12.9489367",
            "address": "Lalbagh Botanical Gardens, Siddapura Road, Mavalli, Someshwaranagar, Bengaluru, Bangalore Urban, Karnataka, 560001, India"
        },
        "nataraja": {
            "locType": "cinema",
            "blogLinks": [
                "https://www.quora.com/What-are-the-best-places-to-visit-on-a-3-day-trip-in-and-around-Karnataka"
            ],
            "longitude": "77.5730381173154",
            "closest_to": "",
            "latitude": "12.9900332",
            "address": "Nataraja, Sirur Park Road, Vyalikaval, Seshadripuram, Bengaluru, Bangalore Urban, Karnataka, 560001, India"
        },
        "chamarajanagar": {
            "locType": "station",
            "blogLinks": [
                "https://en.wikipedia.org/wiki/Tourism_in_Karnataka"
            ],
            "longitude": "76.9331345",
            "closest_to": "",
            "latitude": "11.9346624",
            "address": "Chamarajanagar, Nanjangudu-Chamarajanagar Road, Kadahalli, Chamarajanagara taluk, Chamarajanagar district, Karnataka, 571313, India"
        },
        "irupu falls": {
            "locType": "attraction",
            "blogLinks": [
                "https://en.wikipedia.org/wiki/Tourism_in_Karnataka"
            ],
            "longitude": "75.9839484",
            "closest_to": "",
            "latitude": "11.9667954",
            "address": "Iruppu Falls, SH89, Taila, Virajpet taluk, Kodagu, Karnataka, 571217, India"
        },
        "kaveri": {
            "locType": "river",
            "blogLinks": [
                "https://en.wikipedia.org/wiki/Tourism_in_Karnataka",
                "https://www.quora.com/What-are-the-best-places-to-visit-on-a-3-day-trip-in-and-around-Karnataka",
                "https://www.tripoto.com/trip/karnataka-one-state-many-worlds-2-565ed43147a04"
            ],
            "longitude": "77.0635531",
            "closest_to": "",
            "latitude": "12.1687878",
            "address": "Kaveri, Kollegala taluk, Chamarajanagar district, Karnataka, India"
        },
        "pink city": {
            "locType": "bench",
            "blogLinks": [
                "http://www.thrillophilia.com/blog/20-places-you-need-to-visit-in-india-with-your-best-friend/"
            ],
            "longitude": "77.6563564",
            "closest_to": "",
            "latitude": "12.8378867",
            "address": "Neeladri Road, Electronics City Phase 1, Doddathoguru, Bangalore Urban, Karnataka, 560100, India"
        },
        "bandipur national park": {
            "locType": "national_park",
            "blogLinks": [
                "https://en.wikipedia.org/wiki/Tourism_in_Karnataka",
                "http://www.holidayiq.com/Kabini-Sightseeing-392.html",
                "https://www.quora.com/What-are-the-best-places-to-visit-on-a-3-day-trip-in-and-around-Karnataka"
            ],
            "longitude": "76.4314968740264",
            "closest_to": "",
            "latitude": "11.76682425",
            "address": "Bandipur National Park, Kozhikode - Kollegal Highway, Gundlupet taluk, Chamarajanagar district, Karnataka, India"
        },
        "chennai": {
            "locType": "bank",
            "blogLinks": [
                "https://en.wikipedia.org/wiki/Tourism_in_Karnataka"
            ],
            "longitude": "80.2197941",
            "closest_to": "",
            "latitude": "13.0365141",
            "address": "Karnataka Bank, Postal Colony 2nd Street, Postal Colony, Ashok Nagar, Chennai City Corporation Limits, Chennai district, Tamil Nadu, 600033, India"
        },
        "chalukya": {
            "locType": "residential",
            "blogLinks": [
                "https://en.wikipedia.org/wiki/Tourism_in_Karnataka"
            ],
            "longitude": "77.5192989605445",
            "closest_to": "",
            "latitude": "12.9617207",
            "address": "Chalukya Nagar, Chandra Layout, GKW Layout, Bangalore Urban, Karnataka, 560072, India"
        },
        "silent valley": {
            "locType": "hotel",
            "blogLinks": [
                "https://www.quora.com/What-are-the-best-places-to-visit-on-a-3-day-trip-in-and-around-Karnataka"
            ],
            "longitude": "76.5819054",
            "closest_to": "",
            "latitude": "12.3459371",
            "address": "Silent Shores Resort, Krishnaraja Sagara Road, Kurgalli, Bastipura, Srirangapattana taluk, Mandya district, Karnataka, 570027, India"
        },
        "mount abu": {
            "locType": "place_of_worship",
            "blogLinks": [
                "http://www.thrillophilia.com/blog/20-places-you-need-to-visit-in-india-with-your-best-friend/"
            ],
            "longitude": "77.5927317",
            "closest_to": "",
            "latitude": "12.9429538",
            "address": "Masjid Abu Bakr (RAA), 3rd Cross Road, Pukraj Layout, Someshwaranagar, Bengaluru, Bangalore Urban, Karnataka, 560001, India"
        },
        "shravanabelagola": {
            "locType": "town",
            "blogLinks": [
                "https://en.wikipedia.org/wiki/Tourism_in_Karnataka"
            ],
            "longitude": "76.4869997",
            "closest_to": "",
            "latitude": "12.8581305",
            "address": "Shravanabelagola, Channarayapattana taluk, Hassan district, Karnataka, 573135, India"
        },
        "taluk": {
            "locType": "atm",
            "blogLinks": [
                "https://www.tripoto.com/places-to-visit/india/bangalore"
            ],
            "longitude": "76.6639936",
            "closest_to": "",
            "latitude": "12.3084901",
            "address": "Karnataka, Shalivahana Road, Nazarbad, Mysuru, Mysuru taluk, Mysuru district, Karnataka, 570001, India"
        },
        "west bengal": {
            "locType": "industrial",
            "blogLinks": [
                "http://www.thrillophilia.com/blog/20-places-you-need-to-visit-in-india-with-your-best-friend/"
            ],
            "longitude": "77.7517038151245",
            "closest_to": "",
            "latitude": "13.0492646",
            "address": "Bengal Lamps, Konadasapura, Bangalore Urban, Karnataka, 560066, India"
        },
        "lakshmana tirtha river": {
            "locType": "attraction",
            "blogLinks": [
                "http://www.holidayiq.com/Kabini-Sightseeing-392.html"
            ],
            "longitude": "75.9839484",
            "closest_to": "",
            "latitude": "11.9667954",
            "address": "Iruppu Falls, SH89, Taila, Virajpet taluk, Kodagu, Karnataka, 571217, India"
        },
        "wonderla": {
            "locType": "bus_stop",
            "blogLinks": [
                "https://www.tripoto.com/places-to-visit/india/bangalore"
            ],
            "longitude": "77.4026822",
            "closest_to": "",
            "latitude": "12.8382986",
            "address": "Wonderla, Wonder La Road, Manchanayakanahalli, Ramanagara taluk, Ramanagara district, Karnataka, India"
        },
        "lake": {
            "locType": "grass",
            "blogLinks": [
                "https://www.makemytrip.com/holidays-india/places-to-visit-bellary.html"
            ],
            "longitude": "76.6637420673679",
            "closest_to": "",
            "latitude": "12.2937568",
            "address": "The lake, Race Course, Mysuru, Mysuru taluk, Mysuru district, Karnataka, 570001, India"
        },
        "kodagu": {
            "locType": "administrative",
            "blogLinks": [
                "https://en.wikipedia.org/wiki/Tourism_in_Karnataka",
                "https://www.quora.com/What-are-the-best-places-to-visit-on-a-3-day-trip-in-and-around-Karnataka"
            ],
            "longitude": "75.6677235950852",
            "closest_to": "",
            "latitude": "12.38117345",
            "address": "Kodagu, Karnataka, India"
        },
        "bengaluru": {
            "locType": "city",
            "blogLinks": [
                "https://www.quora.com/What-are-the-best-places-to-visit-on-a-3-day-trip-in-and-around-Karnataka"
            ],
            "longitude": "77.5912997",
            "closest_to": "",
            "latitude": "12.9791198",
            "address": "Bengaluru, Bangalore Urban, Karnataka, 560001, India"
        },
        "golden city": {
            "locType": "hotel",
            "blogLinks": [
                "https://www.thrillophilia.com/jaisalmer-tour"
            ],
            "longitude": "77.6594581970965",
            "closest_to": "",
            "latitude": "12.84018335",
            "address": "Golden Tulip, 56/A, Wipro Avenue, Electronics City Phase 1, Doddathoguru, Bangalore Urban, Karnataka, 560100, India"
        },
        "varanasi": {
            "locType": "village",
            "blogLinks": [
                "https://www.makemytrip.com/holidays-india/places-to-visit-bellary.html"
            ],
            "longitude": "77.6860657",
            "closest_to": "",
            "latitude": "13.0304962",
            "address": "Varanasi, Bangalore Urban, Karnataka, India"
        },
        "lalbagh rock": {
            "locType": "bare_rock",
            "blogLinks": [
                "https://www.tripoto.com/places-to-visit/india/bangalore"
            ],
            "longitude": "77.5892075522266",
            "closest_to": "",
            "latitude": "12.94871895",
            "address": "Lalbagh Rock, Siddapura Road, Mavalli, Someshwaranagar, Bengaluru, Bangalore Urban, Karnataka, 560001, India"
        },
        "kabini river": {
            "locType": "canal",
            "blogLinks": [
                "https://en.wikipedia.org/wiki/Tourism_in_Karnataka",
                "http://www.holidayiq.com/Kabini-Sightseeing-392.html"
            ],
            "longitude": "76.6477184",
            "closest_to": "",
            "latitude": "12.0780998",
            "address": "Kabini right bank canal, Nanjanagudu taluk, Mysuru district, Karnataka, India"
        },
        "subramanya": {
            "locType": "commercial",
            "blogLinks": [
                "https://en.wikipedia.org/wiki/Tourism_in_Karnataka"
            ],
            "longitude": "77.6015800913134",
            "closest_to": "",
            "latitude": "12.9251206",
            "address": "Subramanya Arcade, Marenahalli, Bengaluru, Bangalore Urban, Karnataka, 560001, India"
        },
        "bhutan": {
            "locType": "furniture",
            "blogLinks": [
                "https://www.makemytrip.com/holidays-india/places-to-visit-bellary.html"
            ],
            "longitude": "77.5391448",
            "closest_to": "",
            "latitude": "12.9931738",
            "address": "Bhutan Board Furniture, Siddhaiah Puranik Road, Rajajinagar 3rd Block, Kamakshi Palya, Bengaluru, Bangalore Urban, Karnataka, 560001, India"
        },
        "banashankari temple": {
            "locType": "place_of_worship",
            "blogLinks": [
                "https://en.wikipedia.org/wiki/Tourism_in_Karnataka"
            ],
            "longitude": "77.5731752886765",
            "closest_to": "",
            "latitude": "12.91568785",
            "address": "Banashankari Temple, Kanakapura Road, JP Nagar 1st Phase, Kaderenahalli, Bengaluru, Bangalore Urban, Karnataka, 560001, India"
        },
        "heart lake": {
            "locType": "cemetery",
            "blogLinks": [
                "https://www.quora.com/What-are-the-best-places-to-visit-on-a-3-day-trip-in-and-around-Karnataka"
            ],
            "longitude": "77.6033149073313",
            "closest_to": "",
            "latitude": "12.9542916",
            "address": "Sacred Heart Cemetry, Shanti Nagar, Bengaluru, Bangalore Urban, Karnataka, 560001, India"
        },
        "karanji lake": {
            "locType": "village",
            "blogLinks": [
                "https://www.quora.com/What-are-the-best-places-to-visit-on-a-3-day-trip-in-and-around-Karnataka"
            ],
            "longitude": "77.5474867",
            "closest_to": "",
            "latitude": "18.2681849",
            "address": "Karanji, Aurad taluku, Bidar district, Karnataka, India"
        },
        "cubbon park": {
            "locType": "station",
            "blogLinks": [
                "https://www.tripoto.com/places-to-visit/india/bangalore"
            ],
            "longitude": "77.5977565",
            "closest_to": "",
            "latitude": "12.9808487",
            "address": "Cubbon Park, Cubbon Road, Tasker Town, Shivajinagar, Bengaluru, Bangalore Urban, Karnataka, 560001, India"
        },
        "bannerghatta road": {
            "locType": "trunk",
            "blogLinks": [
                "https://www.tripoto.com/places-to-visit/india/bangalore"
            ],
            "longitude": "77.6003196",
            "closest_to": "",
            "latitude": "12.9088191",
            "address": "Bannerghatta Road, MICO Layout, BTM Layout, Bengaluru, Bangalore Urban, Karnataka, 560001, India"
        },
        "tagore": {
            "locType": "suburb",
            "blogLinks": [
                "https://www.quora.com/What-are-the-best-places-to-visit-on-a-3-day-trip-in-and-around-Karnataka"
            ],
            "longitude": "77.595715",
            "closest_to": "",
            "latitude": "13.0227204",
            "address": "Rabindranath Tagore Nagar, Bengaluru, Bangalore Urban, Karnataka, 560001, India"
        },
        "kanaganahalli": {
            "locType": "village",
            "blogLinks": [
                "https://en.wikipedia.org/wiki/Tourism_in_Karnataka"
            ],
            "longitude": "76.5876958",
            "closest_to": "",
            "latitude": "12.5588444",
            "address": "Kanaganahalli, Pandavapura taluk, Mandya district, Karnataka, India"
        },
        "goa": {
            "locType": "restaurant",
            "blogLinks": [
                "https://en.wikipedia.org/wiki/Tourism_in_Karnataka",
                "http://www.thrillophilia.com/blog/20-places-you-need-to-visit-in-india-with-your-best-friend/",
                "https://www.quora.com/What-are-the-best-places-to-visit-on-a-3-day-trip-in-and-around-Karnataka",
                "http://www.travelhaathi.com/hampi-travel-guide/"
            ],
            "longitude": "77.6200027",
            "closest_to": "",
            "latitude": "12.9750047",
            "address": "Carnival De Goa, Bhaskaran Road, Gupta Layout, Halasuru, Bengaluru, Bangalore Urban, Karnataka, 560001, India"
        },
        "brindavan gardens": {
            "locType": "garden",
            "blogLinks": [
                "https://www.quora.com/What-are-the-best-places-to-visit-on-a-3-day-trip-in-and-around-Karnataka"
            ],
            "longitude": "76.5741029405883",
            "closest_to": "",
            "latitude": "12.4208084",
            "address": "Brindavan Gardens, Krishnaraja Sagara Road, Krushnarajasagara, Srirangapattana taluk, Mandya district, Karnataka, India"
        },
        "tea gardens": {
            "locType": "restaurant",
            "blogLinks": [
                "https://www.makemytrip.com/holidays-india/places-to-visit-bellary.html"
            ],
            "longitude": "77.6386803",
            "closest_to": "",
            "latitude": "12.9644774",
            "address": "Tea brew, 172, 2nd Cross Road, Domlur 2nd Stage, Domlur, Bengaluru, Bangalore Urban, Karnataka, 560001, India"
        },
        "coimbatore": {
            "locType": "trunk",
            "blogLinks": [
                "https://www.makemytrip.com/holidays-india/places-to-visit-bellary.html"
            ],
            "longitude": "76.6318246",
            "closest_to": "",
            "latitude": "11.6793976",
            "address": "Gundlupet - Coimbatore Highway, Bandipur, Gundlupet taluk, Chamarajanagar district, Karnataka, India"
        },
        "north goa": {
            "locType": "restaurant",
            "blogLinks": [
                "https://www.makemytrip.com/holidays-india/places-to-visit-bellary.html"
            ],
            "longitude": "77.6200027",
            "closest_to": "",
            "latitude": "12.9750047",
            "address": "Carnival De Goa, Bhaskaran Road, Gupta Layout, Halasuru, Bengaluru, Bangalore Urban, Karnataka, 560001, India"
        },
        "grs fantasy park": {
            "locType": "theme_park",
            "blogLinks": [
                "https://www.quora.com/What-are-the-best-places-to-visit-on-a-3-day-trip-in-and-around-Karnataka"
            ],
            "longitude": "76.6338102194966",
            "closest_to": "",
            "latitude": "12.3540981",
            "address": "GRS Fantasy Park, Ring Road, Kumbara Koppalu, Metagalli Industrial Area, Mysuru, Mysuru taluk, Mysuru district, Karnataka, 570001, India"
        },
        "kadamba": {
            "locType": "residential",
            "blogLinks": [
                "https://www.quora.com/What-are-the-best-places-to-visit-on-a-3-day-trip-in-and-around-Karnataka"
            ],
            "longitude": "77.7436954",
            "closest_to": "",
            "latitude": "12.9703178",
            "address": "Kadamba Avenue, R. Narayanapura, Brookefields, Dodsworth Enclave, Bangalore Urban, Karnataka, 560066, India"
        },
        "chandramoulishwara": {
            "locType": "place_of_worship",
            "blogLinks": [
                "https://en.wikipedia.org/wiki/Tourism_in_Karnataka"
            ],
            "longitude": "76.6290267",
            "closest_to": "",
            "latitude": "12.3225663",
            "address": "Chandramoulishwara Temple, Adipampa Road, Gokulam, Mysuru, Mysuru taluk, Mysuru district, Karnataka, 570001, India"
        },
        "mandovi": {
            "locType": "car",
            "blogLinks": [
                "https://www.quora.com/What-are-the-best-places-to-visit-on-a-3-day-trip-in-and-around-Karnataka"
            ],
            "longitude": "77.6190505",
            "closest_to": "",
            "latitude": "12.9965335",
            "address": "Mandovi Motors, Wheeler Road Flyover, MSO Colony, Cox Town, Bengaluru, Bangalore Urban, Karnataka, 560001, India"
        },
        "nagarahole national park": {
            "locType": "national_park",
            "blogLinks": [
                "https://en.wikipedia.org/wiki/Tourism_in_Karnataka"
            ],
            "longitude": "76.1537073415874",
            "closest_to": "",
            "latitude": "12.0600362",
            "address": "Nagarahole National Park, Virajpet taluk, Kodagu, Karnataka, India"
        },
        "mandalpatti": {
            "locType": "attraction",
            "blogLinks": [
                "https://www.quora.com/What-are-the-best-places-to-visit-on-a-3-day-trip-in-and-around-Karnataka"
            ],
            "longitude": "75.7307012",
            "closest_to": "",
            "latitude": "12.4486242",
            "address": "Mandalpatti road junction, Galibidu Road, Kalakeri Nidugane, Madikeri taluku, Kodagu, Karnataka, India"
        },
        "hoysala": {
            "locType": "administrative",
            "blogLinks": [
                "https://en.wikipedia.org/wiki/Tourism_in_Karnataka",
                "https://www.quora.com/What-are-the-best-places-to-visit-on-a-3-day-trip-in-and-around-Karnataka",
                "https://www.tripoto.com/trip/karnataka-one-state-many-worlds-2-565ed43147a04"
            ],
            "longitude": "77.6375990817051",
            "closest_to": "",
            "latitude": "12.97813815",
            "address": "Hoysala Nagar, Bengaluru, Bangalore Urban, Karnataka, 560001, India"
        },
        "mandya": {
            "locType": "town",
            "blogLinks": [
                "https://en.wikipedia.org/wiki/Tourism_in_Karnataka"
            ],
            "longitude": "76.8937392",
            "closest_to": "",
            "latitude": "12.5217836",
            "address": "Mandya, Mandya taluk, Mandya district, Karnataka, 571401, India"
        },
        "bangalore karnataka": {
            "locType": "city",
            "blogLinks": [
                "https://www.quora.com/What-are-the-best-places-to-visit-on-a-3-day-trip-in-and-around-Karnataka"
            ],
            "longitude": "77.5912997",
            "closest_to": "",
            "latitude": "12.9791198",
            "address": "Bengaluru, Bangalore Urban, Karnataka, 560001, India"
        },
        "mahadeshwara hills": {
            "locType": "fuel",
            "blogLinks": [
                "https://www.quora.com/What-are-the-best-places-to-visit-on-a-3-day-trip-in-and-around-Karnataka"
            ],
            "longitude": "77.5414216",
            "closest_to": "",
            "latitude": "12.932367",
            "address": "Sri Mahadeshwara Filling Station, Outer Ring Road, Seven Hills Layout, Kathriguppe, Bengaluru, Bangalore Urban, Karnataka, 560001, India"
        },
        "kusha garden": {
            "locType": "park",
            "blogLinks": [
                "https://www.quora.com/What-are-the-best-places-to-visit-on-a-3-day-trip-in-and-around-Karnataka"
            ],
            "longitude": "76.6283545564802",
            "closest_to": "",
            "latitude": "12.2905505",
            "address": "Lava Kusha Park, Lalitadri Road, Kuvempunagara, Mysuru, Mysuru taluk, Mysuru district, Karnataka, 570001, India"
        },
        "north sikkim": {
            "locType": "yes",
            "blogLinks": [
                "https://www.makemytrip.com/holidays-india/places-to-visit-bellary.html"
            ],
            "longitude": "77.6704479",
            "closest_to": "",
            "latitude": "12.9185721",
            "address": "Sikkim Manipal University, Sarjapur Road, Devarabisanahalli, Bellandur, Doddakannelli, Bangalore Urban, Karnataka, 560035, India"
        },
        "vishnu": {
            "locType": "residential",
            "blogLinks": [
                "https://en.wikipedia.org/wiki/Tourism_in_Karnataka"
            ],
            "longitude": "77.7198022157059",
            "closest_to": "",
            "latitude": "12.95388635",
            "address": "Vishnu Residency Apartments, Thubarahalli, Siddapura, Bangalore Urban, Karnataka, 560066, India"
        },
        "maharashtra": {
            "locType": "bank",
            "blogLinks": [
                "https://en.wikipedia.org/wiki/Tourism_in_Karnataka",
                "http://www.thrillophilia.com/blog/20-places-you-need-to-visit-in-india-with-your-best-friend/",
                "http://www.team-bhp.com/forum/route-travel-queries/94153-bangalore-sirsi-trip.html"
            ],
            "longitude": "77.5856013",
            "closest_to": "",
            "latitude": "12.9049455",
            "address": "Bank of Maharashtra, 24th Main, K R Layout, Puttenahalli, Bengaluru, Bangalore Urban, Karnataka, 560001, India"
        },
        "bheemeshwari": {
            "locType": "locality",
            "blogLinks": [
                "https://en.wikipedia.org/wiki/Tourism_in_Karnataka"
            ],
            "longitude": "77.2778171",
            "closest_to": "",
            "latitude": "12.3124122",
            "address": "Bheemeshwari, Muttatti, Malavalli taluk, Mandya district, Karnataka, India"
        },
        "lucknow": {
            "locType": "restaurant",
            "blogLinks": [
                "http://www.thrillophilia.com/blog/20-places-you-need-to-visit-in-india-with-your-best-friend/"
            ],
            "longitude": "77.5660503",
            "closest_to": "",
            "latitude": "13.0367811",
            "address": "Via Lucknow, New BEL Road, Dollar Colony, Raj Mahal Vilas, Jaladarshini Layout, Bangalore Urban, Karnataka, 560094, India"
        },
        "shivanasamudra": {
            "locType": "village",
            "blogLinks": [
                "https://en.wikipedia.org/wiki/Tourism_in_Karnataka"
            ],
            "longitude": "77.1703215",
            "closest_to": "",
            "latitude": "12.2719056",
            "address": "Shivanasamudra, Kollegala taluk, Chamarajanagar district, Karnataka, India"
        },
        "ooty lake": {
            "locType": "primary",
            "blogLinks": [
                "https://www.quora.com/What-are-the-best-places-to-visit-on-a-3-day-trip-in-and-around-Karnataka"
            ],
            "longitude": "76.6586807",
            "closest_to": "",
            "latitude": "12.2774807",
            "address": "Ooty Road, Vidyaranyapuram, Mysuru, Mysuru taluk, Mysuru district, Karnataka, 570001, India"
        },
        "maddur": {
            "locType": "town",
            "blogLinks": [
                "https://www.quora.com/What-are-the-best-places-to-visit-on-a-3-day-trip-in-and-around-Karnataka"
            ],
            "longitude": "77.0456404",
            "closest_to": "",
            "latitude": "12.5851916",
            "address": "Maddur, Madduru taluk, Mandya district, Karnataka, 571428, India"
        },
        "chamundi hill": {
            "locType": "peak",
            "blogLinks": [
                "https://www.quora.com/What-are-the-best-places-to-visit-on-a-3-day-trip-in-and-around-Karnataka"
            ],
            "longitude": "76.6703937",
            "closest_to": "",
            "latitude": "12.2724017",
            "address": "Chamundi Hill, Mysuru, Mysuru taluk, Mysuru district, Karnataka, 570001, India"
        },
        "nagarahole": {
            "locType": "river",
            "blogLinks": [
                "https://en.wikipedia.org/wiki/Tourism_in_Karnataka"
            ],
            "longitude": "76.2286805",
            "closest_to": "",
            "latitude": "12.0229466",
            "address": "Nagarahole, Heggadadevanakote taluk, Mysuru district, Karnataka, India"
        },
        "bannerghatta national park": {
            "locType": "national_park",
            "blogLinks": [
                "https://en.wikipedia.org/wiki/Tourism_in_Karnataka",
                "https://www.tripoto.com/places-to-visit/india/bangalore"
            ],
            "longitude": "77.5722783830694",
            "closest_to": "",
            "latitude": "12.77900335",
            "address": "Bannerghatta National Park, Anekal Road, Begihalli, Bangalore Urban, Karnataka, 560076, India"
        },
        "east": {
            "locType": "restaurant",
            "blogLinks": [
                "https://en.wikipedia.org/wiki/Tourism_in_Karnataka"
            ],
            "longitude": "77.6601401",
            "closest_to": "",
            "latitude": "12.8504319",
            "address": "East, 43, Velankani Drive, Electronics City Phase 1, Doddathoguru, Bangalore Urban, Karnataka, 560100, India"
        },
        "garden city": {
            "locType": "bank",
            "blogLinks": [
                "https://www.tripoto.com/places-to-visit/india/bangalore"
            ],
            "longitude": "80.2197941",
            "closest_to": "",
            "latitude": "13.0365141",
            "address": "Karnataka Bank, Postal Colony 2nd Street, Postal Colony, Ashok Nagar, Chennai City Corporation Limits, Chennai district, Tamil Nadu, 600033, India"
        },
        "central bangalore": {
            "locType": "clothes",
            "blogLinks": [
                "https://www.tripoto.com/places-to-visit/india/bangalore"
            ],
            "longitude": "77.5548006",
            "closest_to": "",
            "latitude": "13.0101286",
            "address": "Central, UG07, UG08, Dr. Rajkumar Road, Rajajinagar 1st Block, Subrahmanya Nagar, Bengaluru, Bangalore Urban, Karnataka, 560001, India"
        },
        "tamil nadu": {
            "locType": "bank",
            "blogLinks": [
                "https://en.wikipedia.org/wiki/Tourism_in_Karnataka",
                "http://www.thrillophilia.com/blog/20-places-you-need-to-visit-in-india-with-your-best-friend/",
                "https://www.quora.com/What-are-the-best-places-to-visit-on-a-3-day-trip-in-and-around-Karnataka"
            ],
            "longitude": "76.9514152",
            "closest_to": "",
            "latitude": "11.0025894",
            "address": "KARNATAKA BANK, Diwan Bhadur Road, Five Corner, RS Puram, Coimbatore, Coimbatore district, Tamil Nadu, 641001, India"
        },
        "yeshwantpur": {
            "locType": "suburb",
            "blogLinks": [
                "http://www.team-bhp.com/forum/route-travel-queries/94153-bangalore-sirsi-trip.html"
            ],
            "longitude": "77.5566302",
            "closest_to": "",
            "latitude": "13.0236062",
            "address": "Yeshwantpur, Deewanarapalya, Bangalore Urban, Karnataka, India"
        },
        "kolkata": {
            "locType": "restaurant",
            "blogLinks": [
                "http://www.thrillophilia.com/blog/20-places-you-need-to-visit-in-india-with-your-best-friend/"
            ],
            "longitude": "77.5478044",
            "closest_to": "",
            "latitude": "12.9845159",
            "address": "Kolkata Biryani And Rolls, 1st Main Basaveshwaranagar, Rajajinagar 3rd Block, Dasarahalli, Bengaluru, Bangalore Urban, Karnataka, 560010, India"
        },
        "rameshwara temple": {
            "locType": "place_of_worship",
            "blogLinks": [
                "http://www.holidayiq.com/Kabini-Sightseeing-392.html"
            ],
            "longitude": "77.5678621969321",
            "closest_to": "",
            "latitude": "12.99365815",
            "address": "Rameshwara Temple, Kranthikavi Sarvagnya Road, Rajajinagar 4th Block, Sriramapura, Bengaluru, Bangalore Urban, Karnataka, 560001, India"
        },
        "venkateshwara temple": {
            "locType": "place_of_worship",
            "blogLinks": [
                "https://www.tripoto.com/places-to-visit/india/bangalore"
            ],
            "longitude": "77.5588384",
            "closest_to": "",
            "latitude": "12.9167091",
            "address": "Venkateshwara Temple, C J Venkatesa Das Road, Seven Hills Layout, Padmanabha Nagar, Bengaluru, Bangalore Urban, Karnataka, 560001, India"
        },
        "kutta": {
            "locType": "village",
            "blogLinks": [
                "http://www.holidayiq.com/Kabini-Sightseeing-392.html"
            ],
            "longitude": "76.0491296",
            "closest_to": "",
            "latitude": "11.9696155",
            "address": "Kutta, Virajpet taluk, Kodagu, Karnataka, India"
        },
        "karnataka": {
            "locType": "atm",
            "blogLinks": [
                "http://www.thrillophilia.com/blog/20-places-you-need-to-visit-in-india-with-your-best-friend/",
                "https://www.tripoto.com/trip/karnataka-one-state-many-worlds-2-565ed43147a04",
                "http://www.karnatakatourism.org/",
                "http://www.travelhaathi.com/hampi-travel-guide/",
                "http://distancecalculator.globefeed.com/India_Distance_Calculator.asp?state=19",
                "https://www.tripoto.com/places-to-visit/india/bangalore",
                "https://www.quora.com/What-are-the-best-places-to-visit-on-a-3-day-trip-in-and-around-Karnataka",
                "https://en.wikipedia.org/wiki/Tourism_in_Karnataka",
                "http://www.holidayiq.com/Kabini-Sightseeing-392.html"
            ],
            "longitude": "76.6639936",
            "closest_to": "",
            "latitude": "12.3084901",
            "address": "Karnataka, Shalivahana Road, Nazarbad, Mysuru, Mysuru taluk, Mysuru district, Karnataka, 570001, India"
        },
        "richmond place": {
            "locType": "primary",
            "blogLinks": [
                "https://www.tripoto.com/places-to-visit/india/bangalore"
            ],
            "longitude": "77.617066",
            "closest_to": "",
            "latitude": "12.970097",
            "address": "Richmond Road, Gowthampuram, Ashok Nagar, Bengaluru, Bangalore Urban, Karnataka, 560001, India"
        },
        "outer ring road": {
            "locType": "trunk",
            "blogLinks": [
                "https://www.tripoto.com/places-to-visit/india/bangalore"
            ],
            "longitude": "77.6632088",
            "closest_to": "",
            "latitude": "12.9210769",
            "address": "Outer Ring Road, Green Glen Layout, Iblur, Bengaluru, Bangalore Urban, Karnataka, 560001, India"
        },
        "bagamandala": {
            "locType": "primary",
            "blogLinks": [
                "https://en.wikipedia.org/wiki/Tourism_in_Karnataka"
            ],
            "longitude": "75.748408",
            "closest_to": "",
            "latitude": "12.388062",
            "address": "Madikeri - Bagamandala ,Tala Kaveri Road, Mekeri, Madikeri taluku, Kodagu, Karnataka, India"
        },
        "pune": {
            "locType": "trunk",
            "blogLinks": [
                "http://www.holidayiq.com/Kabini-Sightseeing-392.html",
                "http://www.thrillophilia.com/blog/20-places-you-need-to-visit-in-india-with-your-best-friend/"
            ],
            "longitude": "76.9479122",
            "closest_to": "",
            "latitude": "17.8199745",
            "address": "Pune - Machilipatnam Highway, Kaudiyala, Basavakalyana taluku, Bidar district, Karnataka, India"
        },
        "kokkare": {
            "locType": "village",
            "blogLinks": [
                "https://www.quora.com/What-are-the-best-places-to-visit-on-a-3-day-trip-in-and-around-Karnataka"
            ],
            "longitude": "77.4558142",
            "closest_to": "",
            "latitude": "12.4269861",
            "address": "Kokkare Hosahalli, Kanakapura taluk, Ramanagara district, Karnataka, India"
        },
        "sangama": {
            "locType": "attraction",
            "blogLinks": [
                "https://www.tripoto.com/places-to-visit/india/bangalore"
            ],
            "longitude": "77.4320447",
            "closest_to": "",
            "latitude": "12.2880428",
            "address": "Sangam, SH92, Mahalli, Kanakapura taluk, Ramanagara district, Karnataka, India"
        },
        "shivaratri": {
            "locType": "hostel",
            "blogLinks": [
                "https://www.thrillophilia.com/jaisalmer-tour"
            ],
            "longitude": "76.6205054046657",
            "closest_to": "",
            "latitude": "12.30672945",
            "address": "Sri Shivaratri Rajendra Hostel, Maruti Temple Road, Sarasvatipuram, Mysuru, Mysuru taluk, Mysuru district, Karnataka, 570009, India"
        },
        "mahabaleshwar": {
            "locType": "place_of_worship",
            "blogLinks": [
                "http://www.thrillophilia.com/blog/20-places-you-need-to-visit-in-india-with-your-best-friend/"
            ],
            "longitude": "77.5899443",
            "closest_to": "",
            "latitude": "12.962625",
            "address": "Mahabaleshwar Temple, Mission Road (Kalinga Rao Road), Sampangirama Nagar, Shanti Nagar, Bengaluru, Bangalore Urban, Karnataka, 560001, India"
        },
        "mandya district": {
            "locType": "administrative",
            "blogLinks": [
                "https://en.wikipedia.org/wiki/Tourism_in_Karnataka"
            ],
            "longitude": "76.7302318329607",
            "closest_to": "",
            "latitude": "12.6336348",
            "address": "Mandya district, Karnataka, India"
        },
        "mahadeshwara": {
            "locType": "neighbourhood",
            "blogLinks": [
                "https://www.quora.com/What-are-the-best-places-to-visit-on-a-3-day-trip-in-and-around-Karnataka"
            ],
            "longitude": "77.6123722",
            "closest_to": "",
            "latitude": "12.9076689",
            "address": "Mahadeshwara Nagara, BTM Layout, Bengaluru, Bangalore Urban, Karnataka, 560001, India"
        },
        "tibet": {
            "locType": "supermarket",
            "blogLinks": [
                "http://www.thrillophilia.com/blog/20-places-you-need-to-visit-in-india-with-your-best-friend/"
            ],
            "longitude": "77.6068828",
            "closest_to": "",
            "latitude": "12.9722398",
            "address": "Tibet Bazaar, Brigade Road, Tasker Town, Ashok Nagar, Bengaluru, Bangalore Urban, Karnataka, 560001, India"
        },
        "tumkur road": {
            "locType": "trunk",
            "blogLinks": [
                "https://www.tripoto.com/places-to-visit/india/bangalore"
            ],
            "longitude": "77.5360458",
            "closest_to": "",
            "latitude": "13.0311896",
            "address": "Tumkur Road, Goragunte Palya, Peenya, Bengaluru, Bangalore Urban, Karnataka, 560001, India"
        },
        "mekedatu": {
            "locType": "attraction",
            "blogLinks": [
                "https://en.wikipedia.org/wiki/Tourism_in_Karnataka"
            ],
            "longitude": "77.4475194",
            "closest_to": "",
            "latitude": "12.2584997",
            "address": "Mekedatu, SH92, Mahalli, Kanakapura taluk, Ramanagara district, Karnataka, India"
        },
        "ooty": {
            "locType": "primary",
            "blogLinks": [
                "http://www.thrillophilia.com/blog/20-places-you-need-to-visit-in-india-with-your-best-friend/",
                "https://www.quora.com/What-are-the-best-places-to-visit-on-a-3-day-trip-in-and-around-Karnataka"
            ],
            "longitude": "76.6586807",
            "closest_to": "",
            "latitude": "12.2774807",
            "address": "Ooty Road, Vidyaranyapuram, Mysuru, Mysuru taluk, Mysuru district, Karnataka, 570001, India"
        },
        "national park": {
            "locType": "national_park",
            "blogLinks": [
                "http://www.thrillophilia.com/blog/20-places-you-need-to-visit-in-india-with-your-best-friend/"
            ],
            "longitude": "77.5722783830694",
            "closest_to": "",
            "latitude": "12.77900335",
            "address": "Bannerghatta National Park, Anekal Road, Begihalli, Bangalore Urban, Karnataka, 560076, India"
        },
        "ocean": {
            "locType": "residential",
            "blogLinks": [
                "https://www.quora.com/What-are-the-best-places-to-visit-on-a-3-day-trip-in-and-around-Karnataka"
            ],
            "longitude": "77.7178261979437",
            "closest_to": "",
            "latitude": "12.95490595",
            "address": "Gayatri Ocean Blue Apartments, Thubarahalli, Siddapura, Bangalore Urban, Karnataka, 560066, India"
        },
        "bannerghatta": {
            "locType": "village",
            "blogLinks": [
                "https://en.wikipedia.org/wiki/Tourism_in_Karnataka"
            ],
            "longitude": "77.5789509",
            "closest_to": "",
            "latitude": "12.813337",
            "address": "Bannerghatta, Bangalore Urban, Karnataka, India"
        },
        "pond": {
            "locType": "grass",
            "blogLinks": [
                "https://en.wikipedia.org/wiki/Tourism_in_Karnataka"
            ],
            "longitude": "76.6616965134958",
            "closest_to": "",
            "latitude": "12.2957066",
            "address": "The pond, Ittigegudu, Mysuru, Mysuru taluk, Mysuru district, Karnataka, 570001, India"
        },
        "kuvempu": {
            "locType": "artwork",
            "blogLinks": [
                "https://www.quora.com/What-are-the-best-places-to-visit-on-a-3-day-trip-in-and-around-Karnataka"
            ],
            "longitude": "77.5064032",
            "closest_to": "",
            "latitude": "12.9560369",
            "address": "Kuvempu, Kengeri Main Road, ITI Layout, Jnana Bharathi, Nagadevanahalli, Bangalore Urban, Karnataka, 560056, India"
        },
        "kalyan": {
            "locType": "suburb",
            "blogLinks": [
                "https://www.quora.com/What-are-the-best-places-to-visit-on-a-3-day-trip-in-and-around-Karnataka"
            ],
            "longitude": "77.6403368",
            "closest_to": "",
            "latitude": "13.0221416",
            "address": "Kalyan Nagar, Chelekere, Bangalore Urban, Karnataka, India"
        },
        "durga temple": {
            "locType": "place_of_worship",
            "blogLinks": [
                "https://www.quora.com/What-are-the-best-places-to-visit-on-a-3-day-trip-in-and-around-Karnataka"
            ],
            "longitude": "77.6125928",
            "closest_to": "",
            "latitude": "12.9057731",
            "address": "Durga Temple, 29th Main, Mahadeshwara Nagara, BTM Layout, Bengaluru, Bangalore Urban, Karnataka, 560001, India"
        },
        "west": {
            "locType": "clothes",
            "blogLinks": [
                "http://www.thrillophilia.com/blog/20-places-you-need-to-visit-in-india-with-your-best-friend/"
            ],
            "longitude": "77.5960999",
            "closest_to": "",
            "latitude": "12.8759384",
            "address": "w, Balmuri Main Road, Hulimavu,, Bannerghatta Road, Mico Arekere Layout 1st Stage, Hulimavu, Bengaluru, Bangalore Urban, Karnataka, 560076, India"
        }
    },
    "yana": {
        "osm_id": "1890842669",
        "display_name": "Yana, Kumata taluk, Uttara Kannada, Karnataka, India",
        "importance": 0.475,
        "place_id": "196766914",
        "class": "place",
        "boundingbox": [
            "14.5586094",
            "14.5986094",
            "74.5398169",
            "74.5798169"
        ],
        "type": "village",
        "lon": "74.5598169",
        "licence": "Data \u00a9 OpenStreetMap contributors, ODbL 1.0. http://www.openstreetmap.org/copyright",
        "osm_type": "node",
        "lat": "14.5786094",
        "icon": "https://nominatim.openstreetmap.org/images/mapicons/poi_place_village.p.20.png"
    },
    "bellary": {
        "osm_id": "316417114",
        "display_name": "Bellary, Bellary district, Karnataka, India",
        "importance": 0.65,
        "place_id": "1393549",
        "class": "place",
        "boundingbox": [
            "14.6085413",
            "15.8885413",
            "76.1923648",
            "77.4723648"
        ],
        "type": "county",
        "lon": "76.8323648",
        "licence": "Data \u00a9 OpenStreetMap contributors, ODbL 1.0. http://www.openstreetmap.org/copyright",
        "osm_type": "node",
        "lat": "15.2485413",
        "icon": "https://nominatim.openstreetmap.org/images/mapicons/poi_boundary_administrative.p.20.png"
    }
}