{
    "tumkur": {
        "lat": "13.4999406",
        "class": "place",
        "importance": 0.65,
        "osm_type": "node",
        "lon": "77.0002445",
        "place_id": "1397122",
        "display_name": "Tumakuru, Tumkur district, Karnataka, India",
        "osm_id": "316417304",
        "boundingbox": [
            "12.8599406",
            "14.1399406",
            "76.3602445",
            "77.6402445"
        ],
        "type": "county",
        "licence": "Data \u00a9 OpenStreetMap contributors, ODbL 1.0. http://www.openstreetmap.org/copyright",
        "icon": "https://nominatim.openstreetmap.org/images/mapicons/poi_boundary_administrative.p.20.png"
    },
    "belur": {
        "lat": "13.1645671",
        "class": "place",
        "importance": 0.5,
        "osm_type": "node",
        "lon": "75.8634851",
        "place_id": "633330",
        "display_name": "Belur, Beluru taluk, Hassan district, Karnataka, 573115, India",
        "osm_id": "245618812",
        "boundingbox": [
            "13.1245671",
            "13.2045671",
            "75.8234851",
            "75.9034851"
        ],
        "type": "town",
        "licence": "Data \u00a9 OpenStreetMap contributors, ODbL 1.0. http://www.openstreetmap.org/copyright",
        "icon": "https://nominatim.openstreetmap.org/images/mapicons/poi_place_town.p.20.png"
    },
    "mentions": {
        "bandipur valley": {
            "blogLinks": [
                "https://www.tripoto.com/places-to-visit/india/karnataka"
            ],
            "longitude": "76.6285739",
            "address": "Bandipur, Gundlupet taluk, Chamarajanagar district, Karnataka, India",
            "latitude": "11.6662708",
            "locType": "village",
            "closest_to": ""
        },
        "sunset point": {
            "blogLinks": [
                "https://www.tripoto.com/places-to-visit/india/karnataka"
            ],
            "longitude": "76.4594093",
            "address": "Sunset Point, Hampi Kamalapura Road, Hampe, Hosapete taluk, Bellary district, Karnataka, 583239, India",
            "latitude": "15.3326761",
            "locType": "viewpoint",
            "closest_to": ""
        },
        "river kaveri": {
            "blogLinks": [
                "http://www.holidayiq.com/Halebid-and-Belur-Sightseeing-651.html",
                "https://www.tripoto.com/places-to-visit/india/karnataka"
            ],
            "longitude": "77.0635531",
            "address": "Kaveri, Kollegala taluk, Chamarajanagar district, Karnataka, India",
            "latitude": "12.1687878",
            "locType": "river",
            "closest_to": ""
        },
        "castle rock": {
            "blogLinks": [
                "https://www.tripoto.com/places-to-visit/india/karnataka"
            ],
            "longitude": "74.3347387",
            "address": "Castle Rock, Joida taluk, Uttara Kannada, Karnataka, India",
            "latitude": "15.3942582",
            "locType": "village",
            "closest_to": ""
        },
        "sanapur lake": {
            "blogLinks": [
                "https://www.tripoto.com/places-to-visit/india/karnataka"
            ],
            "longitude": "76.4294274988777",
            "address": "Sanapura Kere, Sanapura, Gangavati taluku, Koppal district, Karnataka, India",
            "latitude": "15.35823095",
            "locType": "reservoir",
            "closest_to": ""
        },
        "mowgli": {
            "blogLinks": [
                "https://www.tripoto.com/places-to-visit/india/karnataka"
            ],
            "longitude": "76.4532005",
            "address": "Mowgli Guest House, SH130, Basapura, Koppala taluku, Koppal district, Karnataka, India",
            "latitude": "15.3413499",
            "locType": "hostel",
            "closest_to": ""
        },
        "india": {
            "blogLinks": [
                "https://www.tripadvisor.in/Attraction_Review-g858478-d8591971-Reviews-Sri_Chennakeshava_Temple-Tumkur_Karnataka.html",
                "http://wikitravel.org/en/Shravanabelagola",
                "https://www.travelblog.org/Asia/India/Karnataka/Hassan/blog-5839.html",
                "https://www.tripoto.com/places-to-visit/india/karnataka",
                "https://en.wikipedia.org/wiki/Halebidu"
            ],
            "longitude": "75.7223521",
            "address": "Karnataka, India",
            "latitude": "14.5203896",
            "locType": "administrative",
            "closest_to": ""
        },
        "bijapur": {
            "blogLinks": [
                "https://www.tripoto.com/places-to-visit/india/karnataka"
            ],
            "longitude": "75.7175387",
            "address": "Vijayapura, Vijayapura taluk, Bijapur district, Karnataka, 586101, India",
            "latitude": "16.8269911",
            "locType": "city",
            "closest_to": ""
        },
        "north western": {
            "blogLinks": [
                "https://www.tripoto.com/places-to-visit/india/karnataka"
            ],
            "longitude": "75.1458521440593",
            "address": "South Western Railways Offices, Kamaripet, Hubballi - \u0cb9\u0cc1\u0cac\u0ccd\u0cac\u0cb3\u0ccd\u0cb3\u0cbf, Hubballi taluku, Dharwad district, Karnataka, 580020, India",
            "latitude": "15.35527435",
            "locType": "commercial",
            "closest_to": ""
        },
        "vaderahalli lake": {
            "blogLinks": [
                "https://www.tripoto.com/places-to-visit/india/karnataka"
            ],
            "longitude": "76.1593344",
            "address": "Ujjappa Vaderahalli, Jagaluru taluku, Davanagere district, Karnataka, India",
            "latitude": "14.6149749",
            "locType": "village",
            "closest_to": ""
        },
        "hospet": {
            "blogLinks": [
                "https://www.tripoto.com/places-to-visit/india/karnataka"
            ],
            "longitude": "76.3870527",
            "address": "Hosapete, Hosapete taluk, Bellary district, Karnataka, 583200, India",
            "latitude": "15.266079",
            "locType": "town",
            "closest_to": ""
        },
        "paradise beach": {
            "blogLinks": [
                "https://www.tripoto.com/places-to-visit/india/karnataka"
            ],
            "longitude": "74.3375798576938",
            "address": "Paradise Beach, Om beach road, Gokarna, Kumata taluk, Uttara Kannada, Karnataka, 581326, India",
            "latitude": "14.5181133",
            "locType": "beach",
            "closest_to": ""
        },
        "chunchi falls": {
            "blogLinks": [
                "https://www.tripoto.com/places-to-visit/india/karnataka"
            ],
            "longitude": "77.4459464",
            "address": "Chunchi Falls, Kanakapura taluk, Ramanagara district, Karnataka, India",
            "latitude": "12.3515083",
            "locType": "waterfall",
            "closest_to": ""
        },
        "kabini": {
            "blogLinks": [
                "https://www.tripoto.com/places-to-visit/india/karnataka"
            ],
            "longitude": "76.4152088",
            "address": "Kabini, Heggadadevanakote taluk, Mysuru district, Karnataka, India",
            "latitude": "12.0140065",
            "locType": "river",
            "closest_to": ""
        },
        "chennai": {
            "blogLinks": [
                "https://www.tripoto.com/places-to-visit/india/karnataka"
            ],
            "longitude": "80.2197941",
            "address": "Karnataka Bank, Postal Colony 2nd Street, Postal Colony, Ashok Nagar, Chennai City Corporation Limits, Chennai district, Tamil Nadu, 600033, India",
            "latitude": "13.0365141",
            "locType": "bank",
            "closest_to": ""
        },
        "tamil nadu": {
            "blogLinks": [
                "https://www.tripoto.com/places-to-visit/india/karnataka"
            ],
            "longitude": "76.9514152",
            "address": "KARNATAKA BANK, Diwan Bhadur Road, Five Corner, RS Puram, Coimbatore, Coimbatore district, Tamil Nadu, 641001, India",
            "latitude": "11.0025894",
            "locType": "bank",
            "closest_to": ""
        },
        "half moon": {
            "blogLinks": [
                "https://www.tripoto.com/places-to-visit/india/karnataka"
            ],
            "longitude": "74.3317205",
            "address": "Half Moon Garden Caf\u00e9, Om beach road, Gokarna, Kumata taluk, Uttara Kannada, Karnataka, 581326, India",
            "latitude": "14.5181286",
            "locType": "restaurant",
            "closest_to": ""
        },
        "prince restaurant": {
            "blogLinks": [
                "https://www.tripoto.com/places-to-visit/india/karnataka"
            ],
            "longitude": "76.4602348",
            "address": "Prince, Hampi Bazaar, Hampe, Hosapete taluk, Bellary district, Karnataka, 583239, India",
            "latitude": "15.3355701",
            "locType": "restaurant",
            "closest_to": ""
        },
        "trikuteshwara": {
            "blogLinks": [
                "https://www.tripoto.com/places-to-visit/india/karnataka"
            ],
            "longitude": "75.6267663445114",
            "address": "Trikuteshwara Temple\u200e, SH6, Betageri, Gadag, Gadag taluk, Gadag district, Karnataka, 582102, India",
            "latitude": "15.42449145",
            "locType": "place_of_worship",
            "closest_to": ""
        },
        "aihole": {
            "blogLinks": [
                "https://www.tripoto.com/places-to-visit/india/karnataka"
            ],
            "longitude": "75.8819129",
            "address": "Aihole, Hunagunda taluku, Bagalkote district, Karnataka, India",
            "latitude": "16.0192298",
            "locType": "village",
            "closest_to": ""
        },
        "brahma": {
            "blogLinks": [
                "https://www.tripoto.com/places-to-visit/india/karnataka"
            ],
            "longitude": "75.9026723908286",
            "address": "Sadguru Brahma Chaitanya Mandira, Ring Road, Vinobanagara, Davanagere, Davanagere taluku, Davanagere district, Karnataka, 577004, India",
            "latitude": "14.4564816",
            "locType": "place_of_worship",
            "closest_to": ""
        },
        "karwar": {
            "blogLinks": [
                "https://www.tripoto.com/places-to-visit/india/karnataka"
            ],
            "longitude": "74.1319229",
            "address": "Karwar, Karavara taluk, Uttara Kannada, Karnataka, 581300, India",
            "latitude": "14.8120931",
            "locType": "town",
            "closest_to": ""
        },
        "maravanthe": {
            "blogLinks": [
                "https://www.tripoto.com/places-to-visit/india/karnataka"
            ],
            "longitude": "74.6480358",
            "address": "Nethaji Subhash Chandra Bose Government High School, Maravanthe, NH66, Navunda, \u0c95\u0cc1\u0c82\u0ca6\u0cbe\u0caa\u0cc1\u0cb0 \u0ca4\u0cbe\u0cb2\u0cc2\u0c95\u0cc1, Udupi district, Karnataka, 576224, India",
            "latitude": "13.7316626",
            "locType": "school",
            "closest_to": ""
        },
        "tungabadhra river": {
            "blogLinks": [
                "https://www.tripoto.com/places-to-visit/india/karnataka"
            ],
            "longitude": "76.3337165",
            "address": "Tungabadhra Dam, Hosapete taluk, Bellary district, Karnataka, India",
            "latitude": "15.2635742",
            "locType": "dam",
            "closest_to": ""
        },
        "kutta": {
            "blogLinks": [
                "https://www.tripoto.com/places-to-visit/india/karnataka"
            ],
            "longitude": "76.0491296",
            "address": "Kutta, Virajpet taluk, Kodagu, Karnataka, India",
            "latitude": "11.9696155",
            "locType": "village",
            "closest_to": ""
        },
        "om beach": {
            "blogLinks": [
                "https://www.tripoto.com/places-to-visit/india/karnataka"
            ],
            "longitude": "74.3254331800289",
            "address": "Om Beach, Om beach road, Gokarna, Kumata taluk, Uttara Kannada, Karnataka, 581326, India",
            "latitude": "14.5190376",
            "locType": "beach",
            "closest_to": ""
        },
        "north east": {
            "blogLinks": [
                "https://www.tripoto.com/places-to-visit/india/karnataka"
            ],
            "longitude": "75.7223521",
            "address": "Karnataka, India",
            "latitude": "14.5203896",
            "locType": "administrative",
            "closest_to": ""
        },
        "gundlupet": {
            "blogLinks": [
                "https://www.tripoto.com/places-to-visit/india/karnataka"
            ],
            "longitude": "76.6916141",
            "address": "Gundlupet, Gundlupet taluk, Chamarajanagar district, Karnataka, 571111, India",
            "latitude": "11.808496",
            "locType": "town",
            "closest_to": ""
        },
        "murudeshwara": {
            "blogLinks": [
                "https://www.tripoto.com/places-to-visit/india/karnataka"
            ],
            "longitude": "74.4883354",
            "address": "Murudeshwara, Bhatkala taluk, Uttara Kannada, Karnataka, 581350, India",
            "latitude": "14.0959549",
            "locType": "town",
            "closest_to": ""
        },
        "m.g": {
            "blogLinks": [
                "https://www.tripoto.com/places-to-visit/india/karnataka"
            ],
            "longitude": "75.7223521",
            "address": "Karnataka, India",
            "latitude": "14.5203896",
            "locType": "administrative",
            "closest_to": ""
        },
        "ooty": {
            "blogLinks": [
                "https://www.tripoto.com/places-to-visit/india/karnataka"
            ],
            "longitude": "76.6586807",
            "address": "Ooty Road, Vidyaranyapuram, Mysuru, Mysuru taluk, Mysuru district, Karnataka, 570001, India",
            "latitude": "12.2774807",
            "locType": "primary",
            "closest_to": ""
        },
        "bangalore district of karnataka": {
            "blogLinks": [
                "https://www.tripoto.com/places-to-visit/india/karnataka"
            ],
            "longitude": "76.9275402",
            "address": "Bangalore Road, Ballari, Bellary taluk, Bellary district, Karnataka, 583101, India",
            "latitude": "15.1419665",
            "locType": "secondary",
            "closest_to": ""
        },
        "garden city": {
            "blogLinks": [
                "https://www.tripoto.com/places-to-visit/india/karnataka"
            ],
            "longitude": "80.2197941",
            "address": "Karnataka Bank, Postal Colony 2nd Street, Postal Colony, Ashok Nagar, Chennai City Corporation Limits, Chennai district, Tamil Nadu, 600033, India",
            "latitude": "13.0365141",
            "locType": "bank",
            "closest_to": ""
        },
        "sri chamarajendra zoological gardens": {
            "blogLinks": [
                "https://www.tripoto.com/places-to-visit/india/karnataka"
            ],
            "longitude": "76.6682662743162",
            "address": "Sri Chamarajendra Zoological Garden, Kozhikode - Kollegal Highway, Race Course, Mysuru, Mysuru taluk, Mysuru district, Karnataka, 570001, India",
            "latitude": "12.3006384",
            "locType": "zoo",
            "closest_to": ""
        },
        "chamundi hill": {
            "blogLinks": [
                "https://www.tripoto.com/places-to-visit/india/karnataka"
            ],
            "longitude": "76.6703937",
            "address": "Chamundi Hill, Mysuru, Mysuru taluk, Mysuru district, Karnataka, 570001, India",
            "latitude": "12.2724017",
            "locType": "peak",
            "closest_to": ""
        },
        "linganamakki dam": {
            "blogLinks": [
                "https://www.tripoto.com/places-to-visit/india/karnataka"
            ],
            "longitude": "74.8464623767123",
            "address": "Linganamakki Dam, Sagara taluk, Shimoga district, Karnataka, India",
            "latitude": "14.1758978",
            "locType": "dam",
            "closest_to": ""
        },
        "sangama": {
            "blogLinks": [
                "https://www.tripoto.com/places-to-visit/india/karnataka"
            ],
            "longitude": "77.4320447",
            "address": "Sangam, SH92, Mahalli, Kanakapura taluk, Ramanagara district, Karnataka, India",
            "latitude": "12.2880428",
            "locType": "attraction",
            "closest_to": ""
        },
        "nandi bull": {
            "blogLinks": [
                "https://www.tripoto.com/places-to-visit/india/karnataka"
            ],
            "longitude": "76.4671825",
            "address": "Monolithic Bull, Way to Vitthala Temple, Hampe, Hosapete taluk, Bellary district, Karnataka, 583239, India",
            "latitude": "15.3337944",
            "locType": "attraction",
            "closest_to": ""
        },
        "gadag": {
            "blogLinks": [
                "https://www.makemytrip.com/routeplanner/gadag-belur.html"
            ],
            "longitude": "75.6300786",
            "address": "Gadag, Gadag taluk, Gadag district, Karnataka, 582101, India",
            "latitude": "15.4263647",
            "locType": "town",
            "closest_to": ""
        },
        "jp nagar": {
            "blogLinks": [
                "https://www.tripoto.com/places-to-visit/india/karnataka"
            ],
            "longitude": "76.6465404",
            "address": "JP Nagar, Mysuru, Mysuru taluk, Mysuru district, Karnataka, 570001, India",
            "latitude": "12.2655944",
            "locType": "suburb",
            "closest_to": ""
        },
        "vitthala": {
            "blogLinks": [
                "https://www.tripoto.com/places-to-visit/india/karnataka"
            ],
            "longitude": "76.4705005",
            "address": "Way to Vitthala Temple, Hampe, Hosapete taluk, Bellary district, Karnataka, 583239, India",
            "latitude": "15.3376716",
            "locType": "footway",
            "closest_to": ""
        },
        "virupaksha temple": {
            "blogLinks": [
                "https://www.tripoto.com/places-to-visit/india/karnataka"
            ],
            "longitude": "76.4587777156223",
            "address": "Virupaksha Temple, Hampi Bazaar, Hampe, Hosapete taluk, Bellary district, Karnataka, 583239, India",
            "latitude": "15.3351754",
            "locType": "place_of_worship",
            "closest_to": ""
        },
        "hemakuta hill": {
            "blogLinks": [
                "https://www.tripoto.com/places-to-visit/india/karnataka"
            ],
            "longitude": "76.4602971",
            "address": "Hemakuta Hill, Hosapete taluk, Bellary district, Karnataka, India",
            "latitude": "15.332915",
            "locType": "peak",
            "closest_to": ""
        },
        "gokarna": {
            "blogLinks": [
                "https://www.tripoto.com/places-to-visit/india/karnataka"
            ],
            "longitude": "74.3184418",
            "address": "Gokarna, Kumata taluk, Uttara Kannada, Karnataka, 581326, India",
            "latitude": "14.5439629",
            "locType": "town",
            "closest_to": ""
        },
        "ring road": {
            "blogLinks": [
                "https://www.tripoto.com/places-to-visit/india/karnataka"
            ],
            "longitude": "76.8229563",
            "address": "Ring Road, Rauza, Kalaburagi, Gulbarga taluku, Kalaburagi district, Karnataka, 585101, India",
            "latitude": "17.3625832",
            "locType": "trunk",
            "closest_to": ""
        },
        "kaveri river": {
            "blogLinks": [
                "https://www.tripoto.com/places-to-visit/india/karnataka"
            ],
            "longitude": "77.1600751",
            "address": "Kaveri, Malavalli taluk, Mandya district, Karnataka, India",
            "latitude": "12.2873835",
            "locType": "river",
            "closest_to": ""
        },
        "coimbatore": {
            "blogLinks": [
                "https://www.tripoto.com/places-to-visit/india/karnataka"
            ],
            "longitude": "76.6318246",
            "address": "Gundlupet - Coimbatore Highway, Bandipur, Gundlupet taluk, Chamarajanagar district, Karnataka, India",
            "latitude": "11.6793976",
            "locType": "trunk",
            "closest_to": ""
        },
        "gokarna beach": {
            "blogLinks": [
                "https://www.tripoto.com/places-to-visit/india/karnataka"
            ],
            "longitude": "74.3109489488919",
            "address": "Gokarna Beach, Gokarna Road, Ganji Gadde, Kumata taluk, Uttara Kannada, Karnataka, 581326, India",
            "latitude": "14.5516537",
            "locType": "beach",
            "closest_to": ""
        },
        "nanjangud": {
            "blogLinks": [
                "https://www.tripoto.com/places-to-visit/india/karnataka"
            ],
            "longitude": "76.683164",
            "address": "Nanjangud, Nanjanagudu Bypass, Hejjige, Nanjanagudu taluk, Mysuru district, Karnataka, 571300, India",
            "latitude": "12.1229725",
            "locType": "station",
            "closest_to": ""
        },
        "keladi": {
            "blogLinks": [
                "https://www.tripoto.com/places-to-visit/india/karnataka"
            ],
            "longitude": "75.0165753",
            "address": "Keladi, Sagara taluk, Shimoga district, Karnataka, India",
            "latitude": "14.2214761",
            "locType": "village",
            "closest_to": ""
        },
        "varada river": {
            "blogLinks": [
                "https://www.tripoto.com/places-to-visit/india/karnataka"
            ],
            "longitude": "75.47206",
            "address": "Varada, Savanura taluk, Haveri district, Karnataka, India",
            "latitude": "14.8717792",
            "locType": "river",
            "closest_to": ""
        },
        "half moon beach": {
            "blogLinks": [
                "https://www.tripoto.com/places-to-visit/india/karnataka"
            ],
            "longitude": "74.3310971256284",
            "address": "Half Moon Beach, Om beach road, Gokarna, Kumata taluk, Uttara Kannada, Karnataka, 581326, India",
            "latitude": "14.5179028",
            "locType": "beach",
            "closest_to": ""
        },
        "hill station": {
            "blogLinks": [
                "https://www.tripoto.com/places-to-visit/india/karnataka"
            ],
            "longitude": "75.7223521",
            "address": "Karnataka, India",
            "latitude": "14.5203896",
            "locType": "administrative",
            "closest_to": ""
        },
        "pondicherry": {
            "blogLinks": [
                "https://www.tripoto.com/places-to-visit/india/karnataka"
            ],
            "longitude": "79.831569",
            "address": "Karnataka Bank, Mission Street, Grand Bazaar, Puducherry, Puducherry district, Puducherry, 605001, India",
            "latitude": "11.9365727",
            "locType": "bank",
            "closest_to": ""
        },
        "badami": {
            "blogLinks": [
                "https://www.tripoto.com/places-to-visit/india/karnataka"
            ],
            "longitude": "75.6807865",
            "address": "Badami, Badami taluku, Bagalkote district, Karnataka, 587200, India",
            "latitude": "15.9203874",
            "locType": "town",
            "closest_to": ""
        },
        "food park": {
            "blogLinks": [
                "https://www.tripoto.com/places-to-visit/india/karnataka"
            ],
            "longitude": "76.6791809",
            "address": "Defence Food Research Laboratory, Bannur Road, Alanahalli, Gayathripuram, Mysuru, Mysuru taluk, Mysuru district, Karnataka, 570001, India",
            "latitude": "12.3093358",
            "locType": "research",
            "closest_to": ""
        },
        "badami cave": {
            "blogLinks": [
                "https://www.tripoto.com/places-to-visit/india/karnataka"
            ],
            "longitude": "75.6842639478391",
            "address": "Badami Cave Temples, Bahanpur - Gadankeri Highway, Banashankari, Badami taluku, Bagalkote district, Karnataka, 587200, India",
            "latitude": "15.9184483",
            "locType": "attraction",
            "closest_to": ""
        },
        "bagalkot district": {
            "blogLinks": [
                "https://www.tripoto.com/places-to-visit/india/karnataka"
            ],
            "longitude": "75.6967919",
            "address": "Bagalakote, Bagalakote taluk, Bagalkote district, Karnataka, India",
            "latitude": "16.1853166",
            "locType": "city",
            "closest_to": ""
        },
        "londa": {
            "blogLinks": [
                "https://www.tripoto.com/places-to-visit/india/karnataka"
            ],
            "longitude": "74.4932422",
            "address": "Londa, Khanapura taluku, Belgaum district, Karnataka, India",
            "latitude": "15.4524311",
            "locType": "village",
            "closest_to": ""
        },
        "hampi": {
            "blogLinks": [
                "https://www.tripoto.com/places-to-visit/india/karnataka"
            ],
            "longitude": "76.4606199",
            "address": "Hampe, Hosapete taluk, Bellary district, Karnataka, 583239, India",
            "latitude": "15.3359769",
            "locType": "village",
            "closest_to": ""
        },
        "murudeshwara temple": {
            "blogLinks": [
                "https://www.tripoto.com/places-to-visit/india/karnataka"
            ],
            "longitude": "74.484753966647",
            "address": "Murudeshwara Temple, NH66, Manki, Honnavara taluku, Uttara Kannada, Karnataka, 581348, India",
            "latitude": "14.0934908",
            "locType": "place_of_worship",
            "closest_to": ""
        },
        "kabini river": {
            "blogLinks": [
                "https://www.tripoto.com/places-to-visit/india/karnataka"
            ],
            "longitude": "76.6477184",
            "address": "Kabini right bank canal, Nanjanagudu taluk, Mysuru district, Karnataka, India",
            "latitude": "12.0780998",
            "locType": "canal",
            "closest_to": ""
        },
        "river tungabhadra": {
            "blogLinks": [
                "https://www.tripoto.com/places-to-visit/india/karnataka"
            ],
            "longitude": "76.4931607",
            "address": "Tungabhadra, Gangavati taluku, Koppal district, Karnataka, India",
            "latitude": "15.3446123",
            "locType": "river",
            "closest_to": ""
        },
        "nagarahole": {
            "blogLinks": [
                "https://www.tripoto.com/places-to-visit/india/karnataka"
            ],
            "longitude": "76.2286805",
            "address": "Nagarahole, Heggadadevanakote taluk, Mysuru district, Karnataka, India",
            "latitude": "12.0229466",
            "locType": "river",
            "closest_to": ""
        },
        "mallikarjuna temple": {
            "blogLinks": [
                "https://www.tripoto.com/places-to-visit/india/karnataka"
            ],
            "longitude": "75.7213492",
            "address": "Mallikarjuna Temple, SH135, Nelavagi, Badami taluku, Bagalkote district, Karnataka, India",
            "latitude": "15.9321101",
            "locType": "place_of_worship",
            "closest_to": ""
        },
        "iruppu waterfalls": {
            "blogLinks": [
                "https://www.tripoto.com/places-to-visit/india/karnataka"
            ],
            "longitude": "75.9839484",
            "address": "Iruppu Falls, Virajpet taluk, Kodagu, Karnataka, India",
            "latitude": "11.9667954",
            "locType": "waterfall",
            "closest_to": ""
        },
        "andhra pradesh": {
            "blogLinks": [
                "https://www.tripoto.com/places-to-visit/india/karnataka"
            ],
            "longitude": "79.3452447",
            "address": "Karnataka, West Mada Street, Srivari Temple, Tirumala, Chittoor, Andhra Pradesh, 517504, India",
            "latitude": "13.6841958",
            "locType": "hotel",
            "closest_to": ""
        },
        "zostel": {
            "blogLinks": [
                "https://www.tripoto.com/places-to-visit/india/karnataka"
            ],
            "longitude": "74.3148548",
            "address": "Zostel, Car St., Gokarna, Kumata taluk, Uttara Kannada, Karnataka, 581326, India",
            "latitude": "14.5399074",
            "locType": "hotel",
            "closest_to": ""
        },
        "karantaka": {
            "blogLinks": [
                "https://www.tripoto.com/places-to-visit/india/karnataka"
            ],
            "longitude": "75.9173315988071",
            "address": "OBG & Paediatrics Block, Shamanur Road, K.T. Jambanna Nagara, Davanagere, Davanagere taluku, Davanagere district, Karnataka, 577004, India",
            "latitude": "14.45753495",
            "locType": "hospital",
            "closest_to": ""
        },
        "dandeli": {
            "blogLinks": [
                "https://www.tripoto.com/places-to-visit/india/karnataka"
            ],
            "longitude": "74.6236037",
            "address": "Dandeli, Haliyala taluku, Uttara Kannada, Karnataka, 581325, India",
            "latitude": "15.2490284",
            "locType": "town",
            "closest_to": ""
        },
        "kudle beach": {
            "blogLinks": [
                "https://www.tripoto.com/places-to-visit/india/karnataka"
            ],
            "longitude": "74.3156783937192",
            "address": "Kudle Beach, Om beach road, Gokarna, Kumata taluk, Uttara Kannada, Karnataka, 581326, India",
            "latitude": "14.5281015",
            "locType": "beach",
            "closest_to": ""
        },
        "bandipur national park": {
            "blogLinks": [
                "https://www.tripoto.com/places-to-visit/india/karnataka"
            ],
            "longitude": "76.4314968740264",
            "address": "Bandipur National Park, Kozhikode - Kollegal Highway, Gundlupet taluk, Chamarajanagar district, Karnataka, India",
            "latitude": "11.76682425",
            "locType": "national_park",
            "closest_to": ""
        },
        "kudle": {
            "blogLinks": [
                "https://www.tripoto.com/places-to-visit/india/karnataka"
            ],
            "longitude": "74.3178853",
            "address": "Kudle Ocean Front resort, Om beach road, Gokarna, Kumata taluk, Uttara Kannada, Karnataka, 581326, India",
            "latitude": "14.5290707",
            "locType": "hotel",
            "closest_to": ""
        },
        "karanji lake": {
            "blogLinks": [
                "https://www.tripoto.com/places-to-visit/india/karnataka"
            ],
            "longitude": "77.5474867",
            "address": "Karanji, Aurad taluku, Bidar district, Karnataka, India",
            "latitude": "18.2681849",
            "locType": "village",
            "closest_to": ""
        },
        "tungabhadra river": {
            "blogLinks": [
                "https://www.tripoto.com/places-to-visit/india/karnataka"
            ],
            "longitude": "76.4931607",
            "address": "Tungabhadra, Gangavati taluku, Koppal district, Karnataka, India",
            "latitude": "15.3446123",
            "locType": "river",
            "closest_to": ""
        },
        "kozhikode": {
            "blogLinks": [
                "https://www.tripoto.com/places-to-visit/india/karnataka"
            ],
            "longitude": "76.6598864",
            "address": "Kozhikode - Kollegal Highway, Ittigegudu, Mysuru, Mysuru taluk, Mysuru district, Karnataka, 570001, India",
            "latitude": "12.2926117",
            "locType": "primary",
            "closest_to": ""
        },
        "panaji": {
            "blogLinks": [
                "https://www.tripoto.com/places-to-visit/india/karnataka"
            ],
            "longitude": "74.4876784",
            "address": "Belgaum - Panaji Highway, Londa, Khanapura taluku, Belgaum district, Karnataka, India",
            "latitude": "15.4422981",
            "locType": "trunk",
            "closest_to": ""
        },
        "river kali": {
            "blogLinks": [
                "https://www.tripoto.com/places-to-visit/india/karnataka"
            ],
            "longitude": "74.5802901",
            "address": "Kali, Joida taluk, Uttara Kannada, Karnataka, India",
            "latitude": "15.0145378",
            "locType": "river",
            "closest_to": ""
        },
        "iruppu falls": {
            "blogLinks": [
                "https://www.tripoto.com/places-to-visit/india/karnataka"
            ],
            "longitude": "75.9839484",
            "address": "Iruppu Falls, SH89, Taila, Virajpet taluk, Kodagu, Karnataka, 571217, India",
            "latitude": "11.9667954",
            "locType": "attraction",
            "closest_to": ""
        },
        "chamundi": {
            "blogLinks": [
                "https://www.tripoto.com/places-to-visit/india/karnataka"
            ],
            "longitude": "76.6703937",
            "address": "Chamundi Hill, Mysuru, Mysuru taluk, Mysuru district, Karnataka, 570001, India",
            "latitude": "12.2724017",
            "locType": "peak",
            "closest_to": ""
        },
        "sasivekalu ganesha": {
            "blogLinks": [
                "https://www.tripoto.com/places-to-visit/india/karnataka"
            ],
            "longitude": "76.4604025",
            "address": "Sasivekalu Ganesha, Hampi Kamalapura Road, Hampe, Hosapete taluk, Bellary district, Karnataka, 583239, India",
            "latitude": "15.3322644",
            "locType": "place_of_worship",
            "closest_to": ""
        },
        "gundulpet": {
            "blogLinks": [
                "https://www.tripoto.com/places-to-visit/india/karnataka"
            ],
            "longitude": "76.6916141",
            "address": "Gundlupet, Gundlupet taluk, Chamarajanagar district, Karnataka, 571111, India",
            "latitude": "11.808496",
            "locType": "town",
            "closest_to": ""
        },
        "beladhadi": {
            "blogLinks": [
                "https://www.tripoto.com/places-to-visit/india/karnataka"
            ],
            "longitude": "75.6189768",
            "address": "Beladhadi, Gadag taluk, Gadag district, Karnataka, India",
            "latitude": "15.3369716",
            "locType": "village",
            "closest_to": ""
        },
        "south east": {
            "blogLinks": [
                "https://www.tripoto.com/places-to-visit/india/karnataka"
            ],
            "longitude": "75.7223521",
            "address": "Karnataka, India",
            "latitude": "14.5203896",
            "locType": "administrative",
            "closest_to": ""
        },
        "mahishasura": {
            "blogLinks": [
                "https://www.tripoto.com/places-to-visit/india/karnataka"
            ],
            "longitude": "76.6709592",
            "address": "Mahishasura, Chamundi Hill Road, Race Course, Mysuru, Mysuru taluk, Mysuru district, Karnataka, 570001, India",
            "latitude": "12.2750725",
            "locType": "artwork",
            "closest_to": ""
        },
        "hampi bazaar": {
            "blogLinks": [
                "https://www.tripoto.com/places-to-visit/india/karnataka"
            ],
            "longitude": "76.4621571",
            "address": "Hampi Bazaar, Hampe, Hosapete taluk, Bellary district, Karnataka, 583239, India",
            "latitude": "15.3347585",
            "locType": "unclassified",
            "closest_to": ""
        },
        "kali river": {
            "blogLinks": [
                "https://www.tripoto.com/places-to-visit/india/karnataka"
            ],
            "longitude": "74.5802901",
            "address": "Kali, Joida taluk, Uttara Kannada, Karnataka, India",
            "latitude": "15.0145378",
            "locType": "river",
            "closest_to": ""
        },
        "alur": {
            "blogLinks": [
                "https://www.tripoto.com/places-to-visit/india/karnataka"
            ],
            "longitude": "74.3516977",
            "address": "Bugati Alura, Hukkeri taluku, Belgaum district, Karnataka, India",
            "latitude": "16.3219583",
            "locType": "village",
            "closest_to": ""
        },
        "bandipur": {
            "blogLinks": [
                "https://www.tripoto.com/places-to-visit/india/karnataka"
            ],
            "longitude": "76.6285739",
            "address": "Bandipur, Gundlupet taluk, Chamarajanagar district, Karnataka, India",
            "latitude": "11.6662708",
            "locType": "village",
            "closest_to": ""
        },
        "pune": {
            "blogLinks": [
                "https://www.tripoto.com/travel-guide/tumkur",
                "https://www.tripoto.com/places-to-visit/india/karnataka"
            ],
            "longitude": "76.9479122",
            "address": "Pune - Machilipatnam Highway, Kaudiyala, Basavakalyana taluku, Bidar district, Karnataka, India",
            "latitude": "17.8199745",
            "locType": "trunk",
            "closest_to": ""
        },
        "london": {
            "blogLinks": [
                "https://www.tripoto.com/places-to-visit/india/karnataka"
            ],
            "longitude": "75.7223521",
            "address": "Karnataka, India",
            "latitude": "14.5203896",
            "locType": "administrative",
            "closest_to": ""
        },
        "island": {
            "blogLinks": [
                "https://www.tripoto.com/places-to-visit/india/karnataka"
            ],
            "longitude": "74.8834637",
            "address": "Isa, Shirasi taluk, Uttara Kannada, Karnataka, India",
            "latitude": "14.6799543",
            "locType": "village",
            "closest_to": ""
        },
        "pattadakal": {
            "blogLinks": [
                "https://www.tripoto.com/places-to-visit/india/karnataka"
            ],
            "longitude": "75.815884048161",
            "address": "Pattadakal Temples, SH14, \u0cac\u0cbe\u0c9a\u0cbf\u0ca8\u0c97\u0cc1\u0ca1\u0ccd\u0ca1, Badami taluku, Bagalkote district, Karnataka, 587211, India",
            "latitude": "15.9506349",
            "locType": "attraction",
            "closest_to": ""
        },
        "lakkundi": {
            "blogLinks": [
                "https://www.tripoto.com/places-to-visit/india/karnataka"
            ],
            "longitude": "76.4084687",
            "address": "Lakkundi, Muddebihala taluku, Bijapur district, Karnataka, India",
            "latitude": "16.5255464",
            "locType": "village",
            "closest_to": ""
        },
        "nugu": {
            "blogLinks": [
                "https://www.tripoto.com/places-to-visit/india/karnataka"
            ],
            "longitude": "76.4213276",
            "address": "Nugu, Heggadadevanakote taluk, Mysuru district, Karnataka, India",
            "latitude": "11.8823658",
            "locType": "river",
            "closest_to": ""
        },
        "betageri": {
            "blogLinks": [
                "https://www.tripoto.com/places-to-visit/india/karnataka"
            ],
            "longitude": "74.9538058",
            "address": "Betageri, Gokak taluku, Belgaum district, Karnataka, India",
            "latitude": "16.1144865",
            "locType": "village",
            "closest_to": ""
        },
        "lakshmana tirtha falls": {
            "blogLinks": [
                "https://www.tripoto.com/places-to-visit/india/karnataka"
            ],
            "longitude": "75.9839484",
            "address": "Iruppu Falls, SH89, Taila, Virajpet taluk, Kodagu, Karnataka, 571217, India",
            "latitude": "11.9667954",
            "locType": "attraction",
            "closest_to": ""
        },
        "swaswara": {
            "blogLinks": [
                "https://www.tripoto.com/places-to-visit/india/karnataka"
            ],
            "longitude": "74.3201237772373",
            "address": "Swaswara, Om beach road, Gokarna, Kumata taluk, Uttara Kannada, Karnataka, 581326, India",
            "latitude": "14.5212941",
            "locType": "hotel",
            "closest_to": ""
        },
        "fort": {
            "blogLinks": [
                "https://www.tripoto.com/places-to-visit/india/karnataka"
            ],
            "longitude": "76.8313091",
            "address": "Fort, Rauza, Kalaburagi, Gulbarga taluku, Kalaburagi district, Karnataka, 585101, India",
            "latitude": "17.3439629",
            "locType": "neighbourhood",
            "closest_to": ""
        },
        "hyderabad": {
            "blogLinks": [
                "https://www.tripoto.com/places-to-visit/india/karnataka"
            ],
            "longitude": "77.5344002",
            "address": "Hyderabad Road, Old City, Bidar, Bidar taluku, Bidar district, Karnataka, 585400, India",
            "latitude": "17.9003114",
            "locType": "primary",
            "closest_to": ""
        },
        "gaganachukki": {
            "blogLinks": [
                "https://www.tripoto.com/places-to-visit/india/karnataka"
            ],
            "longitude": "77.1684763",
            "address": "Gaganachukki Falls, Malavalli taluk, Mandya district, Karnataka, India",
            "latitude": "12.2933696",
            "locType": "waterfall",
            "closest_to": ""
        },
        "himavad gopalaswamy betta": {
            "blogLinks": [
                "https://www.tripoto.com/places-to-visit/india/karnataka"
            ],
            "longitude": "76.5804063",
            "address": "Gopalaswami Temple, Gopal Swami Betta road, Devarahalli, Gundlupet taluk, Chamarajanagar district, Karnataka, India",
            "latitude": "11.7206016",
            "locType": "place_of_worship",
            "closest_to": ""
        },
        "kaveri": {
            "blogLinks": [
                "https://www.tripoto.com/places-to-visit/india/karnataka"
            ],
            "longitude": "77.0635531",
            "address": "Kaveri, Kollegala taluk, Chamarajanagar district, Karnataka, India",
            "latitude": "12.1687878",
            "locType": "river",
            "closest_to": ""
        },
        "indiranagar": {
            "blogLinks": [
                "https://www.tripoto.com/places-to-visit/india/karnataka"
            ],
            "longitude": "77.1889052",
            "address": "Indiranagar, Humanabad taluku, Bidar district, Karnataka, India",
            "latitude": "17.7569637",
            "locType": "village",
            "closest_to": ""
        },
        "madhukeshwara temple": {
            "blogLinks": [
                "https://www.tripoto.com/places-to-visit/india/karnataka"
            ],
            "longitude": "75.0171155065268",
            "address": "Madhukeshwara Temple, Ratha Beedhi, Banavasi, Shirasi taluk, Uttara Kannada, Karnataka, India",
            "latitude": "14.5352632",
            "locType": "place_of_worship",
            "closest_to": ""
        },
        "brahmagiri range": {
            "blogLinks": [
                "https://www.tripoto.com/places-to-visit/india/karnataka"
            ],
            "longitude": "76.8122474",
            "address": "Brahmagiri Betta, Molakalmuru taluku, Chitradurga district, Karnataka, India",
            "latitude": "14.8001586",
            "locType": "peak",
            "closest_to": ""
        },
        "state highway": {
            "blogLinks": [
                "https://www.tripoto.com/places-to-visit/india/karnataka"
            ],
            "longitude": "80.161486",
            "address": "Karnataka Bank, Mount Poonamallee Highway, Sri Laxmi Nagar, Ramapuram, Chennai City Corporation Limits, Kanchipuram, Thiruvallur district, Tamil Nadu, 600125, India",
            "latitude": "13.0330479",
            "locType": "atm",
            "closest_to": ""
        }
    }
}