{
    "chikmagalur": {
        "lat": "13.5",
        "class": "place",
        "importance": 0.65,
        "osm_type": "node",
        "lon": "75.5",
        "place_id": "1426840",
        "display_name": "Chikmagalur, Chikkamagaluru district, Karnataka, India",
        "osm_id": "316417001",
        "boundingbox": [
            "12.86",
            "14.14",
            "74.86",
            "76.14"
        ],
        "type": "county",
        "licence": "Data \u00a9 OpenStreetMap contributors, ODbL 1.0. http://www.openstreetmap.org/copyright",
        "icon": "https://nominatim.openstreetmap.org/images/mapicons/poi_boundary_administrative.p.20.png"
    },
    "mentions": {
        "nagamangala": {
            "blogLinks": [
                "https://www.triphobo.com/blog/places-to-visit-chikmagalur"
            ],
            "longitude": "76.7542189",
            "address": "Nagamangala, Nagamangala taluk, Mandya district, Karnataka, 571432, India",
            "latitude": "12.8196077",
            "locType": "town",
            "closest_to": ""
        },
        "rose garden": {
            "blogLinks": [
                "https://www.quora.com/What-are-the-best-places-to-visit-in-Chikmagalur",
                "https://www.thrillophilia.com/places-to-visit-in-chikmagalur"
            ],
            "longitude": "77.590382853852",
            "address": "Rose Garden, Dr B R Ambedkar Veedhi, Shantala Nagar, Gandhinagar, Bengaluru, Bangalore Urban, Karnataka, 560001, India",
            "latitude": "12.97371325",
            "locType": "garden",
            "closest_to": ""
        },
        "maharaja": {
            "blogLinks": [
                "http://travel.india.com/chikmagalur/"
            ],
            "longitude": "76.6438602",
            "address": "Maharaja, College Road, Vani Vilas, Mysuru, Mysuru taluk, Mysuru district, Karnataka, 570001, India",
            "latitude": "12.3047676",
            "locType": "restaurant",
            "closest_to": ""
        },
        "sri krishnarajendra hill station": {
            "blogLinks": [
                "http://www.nivalink.com/destination/chikmagalur",
                "https://www.quora.com/What-are-the-best-places-to-visit-in-Chikmagalur",
                "https://www.thrillophilia.com/places-to-visit-in-chikmagalur"
            ],
            "longitude": "77.583027619944",
            "address": "Silver Jubilee Park, Narasimharaja Road, Ganigarpet, Kalasipalya, Bengaluru, Bangalore Urban, Karnataka, 560001, India",
            "latitude": "12.96370475",
            "locType": "park",
            "closest_to": ""
        },
        "gudur": {
            "blogLinks": [
                "http://travel.india.com/chikmagalur/"
            ],
            "longitude": "77.241526",
            "address": "Gudur, Yadagiri taluku, Yadagiri district, Karnataka, India",
            "latitude": "16.4851262",
            "locType": "village",
            "closest_to": ""
        },
        "udipi": {
            "blogLinks": [
                "http://www.nivalink.com/destination/chikmagalur"
            ],
            "longitude": "77.652888",
            "address": "Udipi Park, 2nd Cross Road, Muniyappa Layout, Murugeshpalaya, Belure Ambedkar Nagar, Bangalore Urban, Karnataka, 560067, India",
            "latitude": "12.9530588",
            "locType": "restaurant",
            "closest_to": ""
        },
        "mumbai": {
            "blogLinks": [
                "http://travel.india.com/chikmagalur/",
                "https://en.wikipedia.org/wiki/Sirsi,_Karnataka",
                "http://www.mygola.com/road-trip-from-bangalore-to-chikmagalur/q9090"
            ],
            "longitude": "77.5718472",
            "address": "Mumbai Spice, 18/2, 10th Cross, Malleswaram, Vyalikaval, Malleswaram, Bengaluru, Bangalore Urban, Karnataka, 560003, India",
            "latitude": "13.0002869",
            "locType": "restaurant",
            "closest_to": ""
        },
        "sharadamba temple": {
            "blogLinks": [
                "https://www.quora.com/What-are-the-best-places-to-visit-in-Chikmagalur",
                "https://www.thrillophilia.com/places-to-visit-in-chikmagalur"
            ],
            "longitude": "77.5656194",
            "address": "Sharadamba Temple, 7th Main Road, Yediyur, Thyagaraja Nagar, Bengaluru, Bangalore Urban, Karnataka, 560001, India",
            "latitude": "12.9321898",
            "locType": "place_of_worship",
            "closest_to": ""
        },
        "north kerala": {
            "blogLinks": [
                "http://www.nivalink.com/destination/chikmagalur"
            ],
            "longitude": "77.6382683",
            "address": "New Life Kerala Mess, Sai Baba Mandira Road, Mottappanapalaya, Indiranagar, Bengaluru, Bangalore Urban, Karnataka, 560001, India",
            "latitude": "12.9726449",
            "locType": "restaurant",
            "closest_to": ""
        },
        "parvati": {
            "blogLinks": [
                "http://www.nivalink.com/destination/chikmagalur"
            ],
            "longitude": "75.7898501",
            "address": "Parvati, Badami taluku, Bagalkote district, Karnataka, India",
            "latitude": "16.0395701",
            "locType": "village",
            "closest_to": ""
        },
        "goa": {
            "blogLinks": [
                "http://travel.india.com/chikmagalur/",
                "https://en.wikipedia.org/wiki/Sirsi,_Karnataka"
            ],
            "longitude": "77.6200027",
            "address": "Carnival De Goa, Bhaskaran Road, Gupta Layout, Halasuru, Bengaluru, Bangalore Urban, Karnataka, 560001, India",
            "latitude": "12.9750047",
            "locType": "restaurant",
            "closest_to": ""
        },
        "chennai": {
            "blogLinks": [
                "https://en.wikipedia.org/wiki/Sirsi,_Karnataka",
                "http://www.mygola.com/road-trip-from-bangalore-to-chikmagalur/q9090",
                "https://www.triphobo.com/blog/places-to-visit-chikmagalur"
            ],
            "longitude": "80.2197941",
            "address": "Karnataka Bank, Postal Colony 2nd Street, Postal Colony, Ashok Nagar, Chennai City Corporation Limits, Chennai district, Tamil Nadu, 600033, India",
            "latitude": "13.0365141",
            "locType": "bank",
            "closest_to": ""
        },
        "golden triangle of karnataka": {
            "blogLinks": [
                "http://travel.india.com/chikmagalur/"
            ],
            "longitude": "77.7617021687636",
            "address": "Brigade Golden Triangle Apartments (Under Construction), Kattamanallur, Bangalore Urban, Karnataka, 560066, India",
            "latitude": "13.05444825",
            "locType": "construction",
            "closest_to": ""
        },
        "rameshwara": {
            "blogLinks": [
                "http://www.nivalink.com/destination/chikmagalur"
            ],
            "longitude": "77.5678621969321",
            "address": "Rameshwara Temple, Kranthikavi Sarvagnya Road, Rajajinagar 4th Block, Sriramapura, Bengaluru, Bangalore Urban, Karnataka, 560001, India",
            "latitude": "12.99365815",
            "locType": "place_of_worship",
            "closest_to": ""
        },
        "maharashtra": {
            "blogLinks": [
                "https://en.wikipedia.org/wiki/Sirsi,_Karnataka"
            ],
            "longitude": "77.5856013",
            "address": "Bank of Maharashtra, 24th Main, K R Layout, Puttenahalli, Bengaluru, Bangalore Urban, Karnataka, 560001, India",
            "latitude": "12.9049455",
            "locType": "bank",
            "closest_to": ""
        },
        "gandhi park": {
            "blogLinks": [
                "http://travel.india.com/chikmagalur/"
            ],
            "longitude": "75.9716938",
            "address": "Gandhi Nagara, Indi taluku, Bijapur district, Karnataka, India",
            "latitude": "16.9834411",
            "locType": "hamlet",
            "closest_to": ""
        },
        "vijayapura main road": {
            "blogLinks": [
                "http://wikitravel.org/en/Chikmagalur"
            ],
            "longitude": "75.6425088",
            "address": "Karnataka State Women's University, Athani Road, Ratnapura, Vijayapura taluk, Bijapur district, Karnataka, India",
            "latitude": "16.8319715",
            "locType": "college",
            "closest_to": ""
        },
        "tumkur": {
            "blogLinks": [
                "http://wikitravel.org/en/Chikmagalur"
            ],
            "longitude": "77.0002445",
            "address": "Tumakuru, Tumkur district, Karnataka, India",
            "latitude": "13.4999406",
            "locType": "county",
            "closest_to": ""
        },
        "daivajna": {
            "blogLinks": [
                "https://en.wikipedia.org/wiki/Sirsi,_Karnataka"
            ],
            "longitude": "76.6252066983597",
            "address": "Daivajna Bhavana, New Kantharaje Urs Road, Sarasvatipuram, Mysuru, Mysuru taluk, Mysuru district, Karnataka, 570023, India",
            "latitude": "12.2958536",
            "locType": "community_centre",
            "closest_to": ""
        },
        "bangalore": {
            "blogLinks": [
                "https://www.quora.com/What-are-the-best-places-to-visit-in-Chikmagalur",
                "http://www.mygola.com/road-trip-from-bangalore-to-chikmagalur/q9090",
                "http://wikitravel.org/en/Chikmagalur",
                "http://travel.india.com/chikmagalur/",
                "http://www.nivalink.com/destination/chikmagalur",
                "https://en.wikipedia.org/wiki/Sirsi,_Karnataka",
                "https://www.thrillophilia.com/places-to-visit-in-chikmagalur",
                "https://www.triphobo.com/blog/places-to-visit-chikmagalur"
            ],
            "longitude": "77.5912997",
            "address": "Bengaluru, Bangalore Urban, Karnataka, 560001, India",
            "latitude": "12.9791198",
            "locType": "city",
            "closest_to": ""
        },
        "mahatma gandhi park": {
            "blogLinks": [
                "http://travel.india.com/chikmagalur/"
            ],
            "longitude": "77.5997033330292",
            "address": "Mahatma Gandhi Park, Mahatma Gandhi Road, Shantala Nagar, MacIvor Town, Bengaluru, Bangalore Urban, Karnataka, 560001, India",
            "latitude": "12.9772144",
            "locType": "park",
            "closest_to": ""
        },
        "vijaya karnataka": {
            "blogLinks": [
                "https://en.wikipedia.org/wiki/Sirsi,_Karnataka"
            ],
            "longitude": "76.6418941",
            "address": "Vijaya Karnataka, 1st Cross Road, Chamarajapuram, Mysuru, Mysuru taluk, Mysuru district, Karnataka, 570001, India",
            "latitude": "12.2982365",
            "locType": "newspaper",
            "closest_to": ""
        },
        "national park": {
            "blogLinks": [
                "http://travel.india.com/chikmagalur/"
            ],
            "longitude": "77.5722783830694",
            "address": "Bannerghatta National Park, Anekal Road, Begihalli, Bangalore Urban, Karnataka, 560076, India",
            "latitude": "12.77900335",
            "locType": "national_park",
            "closest_to": ""
        },
        "singapore": {
            "blogLinks": [
                "http://wikitravel.org/en/Chikmagalur"
            ],
            "longitude": "77.5483703",
            "address": "Singapore Gardens, Vajrahalli, Bengaluru, Bangalore Urban, Karnataka, 560001, India",
            "latitude": "12.8861812",
            "locType": "neighbourhood",
            "closest_to": ""
        },
        "maddur": {
            "blogLinks": [
                "https://www.triphobo.com/blog/places-to-visit-chikmagalur"
            ],
            "longitude": "77.0456404",
            "address": "Maddur, Madduru taluk, Mandya district, Karnataka, 571428, India",
            "latitude": "12.5851916",
            "locType": "town",
            "closest_to": ""
        },
        "hoysala": {
            "blogLinks": [
                "http://travel.india.com/chikmagalur/"
            ],
            "longitude": "77.6375990817051",
            "address": "Hoysala Nagar, Bengaluru, Bangalore Urban, Karnataka, 560001, India",
            "latitude": "12.97813815",
            "locType": "administrative",
            "closest_to": ""
        },
        "malgudi": {
            "blogLinks": [
                "http://travel.india.com/chikmagalur/"
            ],
            "longitude": "77.7017267",
            "address": "Malgudi Southern Cuisine, 3, Outer Ring Road, Ananda Nagara, Doddanekundi, Garudacharpalya, Bangalore Urban, Karnataka, 560037, India",
            "latitude": "12.9651193",
            "locType": "restaurant",
            "closest_to": ""
        },
        "basaralu": {
            "blogLinks": [
                "https://www.triphobo.com/blog/places-to-visit-chikmagalur"
            ],
            "longitude": "76.81836",
            "address": "Basaralu, Mandya taluk, Mandya district, Karnataka, India",
            "latitude": "12.7090838",
            "locType": "village",
            "closest_to": ""
        },
        "south karnataka": {
            "blogLinks": [
                "http://wikitravel.org/en/Chikmagalur"
            ],
            "longitude": "77.8040874",
            "address": "s, Vijayapura, Devanahalli taluk, Bangalore Rural, Karnataka, 562135, India",
            "latitude": "13.2942848",
            "locType": "residential",
            "closest_to": ""
        },
        "nelamangala": {
            "blogLinks": [
                "http://www.mygola.com/road-trip-from-bangalore-to-chikmagalur/q9090"
            ],
            "longitude": "77.3963586",
            "address": "Nelamangala, Nelamangala taluk, Bangalore Rural, Karnataka, India",
            "latitude": "13.0953024",
            "locType": "town",
            "closest_to": ""
        },
        "kerala": {
            "blogLinks": [
                "https://en.wikipedia.org/wiki/Sirsi,_Karnataka"
            ],
            "longitude": "77.6382683",
            "address": "New Life Kerala Mess, Sai Baba Mandira Road, Mottappanapalaya, Indiranagar, Bengaluru, Bangalore Urban, Karnataka, 560001, India",
            "latitude": "12.9726449",
            "locType": "restaurant",
            "closest_to": ""
        },
        "jaladarshini": {
            "blogLinks": [
                "https://www.thrillophilia.com/places-to-visit-in-chikmagalur"
            ],
            "longitude": "77.5696419",
            "address": "Jaladarshini Layout, Bangalore Urban, Karnataka, India",
            "latitude": "13.0307999",
            "locType": "hamlet",
            "closest_to": ""
        },
        "tungabhadra river": {
            "blogLinks": [
                "http://travel.india.com/chikmagalur/",
                "https://www.quora.com/What-are-the-best-places-to-visit-in-Chikmagalur",
                "https://www.thrillophilia.com/places-to-visit-in-chikmagalur"
            ],
            "longitude": "76.4931607",
            "address": "Tungabhadra, Gangavati taluku, Koppal district, Karnataka, India",
            "latitude": "15.3446123",
            "locType": "river",
            "closest_to": ""
        },
        "halebidu": {
            "blogLinks": [
                "http://www.nivalink.com/destination/chikmagalur"
            ],
            "longitude": "76.4607075",
            "address": "Halebidu, Hunasuru taluk, Mysuru district, Karnataka, India",
            "latitude": "12.359893",
            "locType": "village",
            "closest_to": ""
        },
        "karnataka": {
            "blogLinks": [
                "https://www.quora.com/What-are-the-best-places-to-visit-in-Chikmagalur",
                "http://www.mygola.com/road-trip-from-bangalore-to-chikmagalur/q9090",
                "http://distancecalculator.globefeed.com/India_Distance_Calculator.asp?state=19",
                "http://wikitravel.org/en/Chikmagalur",
                "http://travel.india.com/chikmagalur/",
                "http://www.nivalink.com/destination/chikmagalur",
                "https://en.wikipedia.org/wiki/Sirsi,_Karnataka",
                "http://www.karnatakatourism.org/",
                "https://www.thrillophilia.com/places-to-visit-in-chikmagalur",
                "https://www.triphobo.com/blog/places-to-visit-chikmagalur"
            ],
            "longitude": "76.6639936",
            "address": "Karnataka, Shalivahana Road, Nazarbad, Mysuru, Mysuru taluk, Mysuru district, Karnataka, 570001, India",
            "latitude": "12.3084901",
            "locType": "atm",
            "closest_to": ""
        }
    },
    "sirsi": {
        "lat": "14.6192362",
        "class": "place",
        "importance": 0.5,
        "osm_type": "node",
        "lon": "74.8388611",
        "place_id": "630058",
        "display_name": "Sirsi, Shirasi taluk, Uttara Kannada, Karnataka, 581400, India",
        "osm_id": "245628312",
        "boundingbox": [
            "14.5792362",
            "14.6592362",
            "74.7988611",
            "74.8788611"
        ],
        "type": "town",
        "licence": "Data \u00a9 OpenStreetMap contributors, ODbL 1.0. http://www.openstreetmap.org/copyright",
        "icon": "https://nominatim.openstreetmap.org/images/mapicons/poi_place_town.p.20.png"
    }
}