{
    "chitradurga": {
        "place_id": "4897275",
        "osm_id": "571409087",
        "icon": "https://nominatim.openstreetmap.org/images/mapicons/poi_place_town.p.20.png",
        "osm_type": "node",
        "licence": "Data \u00a9 OpenStreetMap contributors, ODbL 1.0. http://www.openstreetmap.org/copyright",
        "display_name": "Chitradurga, Chitradurga taluku, Chitradurga district, Karnataka, 577500, India",
        "type": "town",
        "lon": "76.4005122",
        "boundingbox": [
            "14.1866443",
            "14.2666443",
            "76.3605122",
            "76.4405122"
        ],
        "importance": 0.5,
        "lat": "14.2266443",
        "class": "place"
    },
    "mentions": {
        "badami": {
            "closest_to": "",
            "address": "Badami, Badami taluku, Bagalkote district, Karnataka, 587200, India",
            "longitude": "75.6807865",
            "latitude": "15.9203874",
            "blogLinks": [
                "https://en.wikipedia.org/wiki/Tourism_in_Karnataka"
            ],
            "locType": "town"
        },
        "sagara taluk": {
            "closest_to": "",
            "address": "Sagara taluk, Shimoga district, Karnataka, India",
            "longitude": "74.9610874491152",
            "latitude": "14.09993045",
            "blogLinks": [
                "https://en.wikipedia.org/wiki/Tourism_in_Karnataka"
            ],
            "locType": "administrative"
        },
        "manipal": {
            "closest_to": "",
            "address": "Manipal, Udupi taluku, Udupi district, Karnataka, India",
            "longitude": "74.7870308",
            "latitude": "13.3519723",
            "blogLinks": [
                "https://en.wikipedia.org/wiki/Tourism_in_Karnataka"
            ],
            "locType": "town"
        },
        "kalaseshwara temple": {
            "closest_to": "",
            "address": "Kalaseshwara Temple, SH66, Kalasa, Mudigere taluk, Chikkamagaluru district, Karnataka, 577124, India",
            "longitude": "75.363446975",
            "latitude": "13.23228505",
            "blogLinks": [
                "http://www.nivalink.com/destination/chitradurga"
            ],
            "locType": "place_of_worship"
        },
        "coastal karnataka": {
            "closest_to": "",
            "address": "Bharat Petroleum Mangalore Coastal Installation, Baikampady, Mangaluru taluk, Dakshina Kannada, Karnataka, 575014, India",
            "longitude": "74.8137275833157",
            "latitude": "12.96014675",
            "blogLinks": [
                "https://en.wikipedia.org/wiki/Tourism_in_Karnataka"
            ],
            "locType": "industrial"
        },
        "dattatreya": {
            "closest_to": "",
            "address": "Inam Dattatreya Pitha, Chikkamagaluru taluku, Chikkamagaluru district, Karnataka, India",
            "longitude": "75.7539724",
            "latitude": "13.4315216",
            "blogLinks": [
                "https://en.wikipedia.org/wiki/Tourism_in_Karnataka"
            ],
            "locType": "hamlet"
        },
        "mastikatte": {
            "closest_to": "",
            "address": "Mastikatte, Ankola taluk, Uttara Kannada, Karnataka, India",
            "longitude": "74.4604101",
            "latitude": "14.6857168",
            "blogLinks": [
                "https://en.wikipedia.org/wiki/Tourism_in_Karnataka"
            ],
            "locType": "village"
        },
        "belgaum": {
            "closest_to": "",
            "address": "Belgaum, Belgaum district, Karnataka, India",
            "longitude": "74.75",
            "latitude": "16.333333",
            "blogLinks": [
                "https://en.wikipedia.org/wiki/Tourism_in_Karnataka"
            ],
            "locType": "county"
        },
        "chamarajanagar": {
            "closest_to": "",
            "address": "Chamarajanagar, Nanjangudu-Chamarajanagar Road, Kadahalli, Chamarajanagara taluk, Chamarajanagar district, Karnataka, 571313, India",
            "longitude": "76.9331345",
            "latitude": "11.9346624",
            "blogLinks": [
                "https://en.wikipedia.org/wiki/Tourism_in_Karnataka"
            ],
            "locType": "station"
        },
        "tungabhadra river": {
            "closest_to": "",
            "address": "Tungabhadra, Gangavati taluku, Koppal district, Karnataka, India",
            "longitude": "76.4931607",
            "latitude": "15.3446123",
            "blogLinks": [
                "http://familypedia.wikia.com/wiki/Chitradurga_district",
                "http://visitingplacesofgreatindia.blogspot.in/2013/11/chitradurga-district-is-administrative.html",
                "https://en.wikipedia.org/wiki/Chitradurga_district"
            ],
            "locType": "river"
        },
        "mangalore": {
            "closest_to": "",
            "address": "Mangaluru, Mangaluru taluk, Dakshina Kannada, Karnataka, 575001, India",
            "longitude": "74.8430082",
            "latitude": "12.8698101",
            "blogLinks": [
                "https://en.wikipedia.org/wiki/Tourism_in_Karnataka"
            ],
            "locType": "city"
        },
        "pune": {
            "closest_to": "",
            "address": "Pune - Machilipatnam Highway, Kaudiyala, Basavakalyana taluku, Bidar district, Karnataka, India",
            "longitude": "76.9479122",
            "latitude": "17.8199745",
            "blogLinks": [
                "http://www.mouthshut.com/review/Chitradurga-review-rtsmpumlmom",
                "https://www.tripoto.com/travel-guide/tumkur"
            ],
            "locType": "trunk"
        },
        "district bagalkot": {
            "closest_to": "",
            "address": "District Commissioner's Office, Bagalkot, Navanagara, Bagalakote, Bagalakote taluk, Bagalkote district, Karnataka, India",
            "longitude": "75.6736388363024",
            "latitude": "16.16028195",
            "blogLinks": [
                "https://en.wikipedia.org/wiki/Tourism_in_Karnataka"
            ],
            "locType": "commercial"
        },
        "anshi national park": {
            "closest_to": "",
            "address": "Anshi National Park, SH46, Bidoli, Joida taluk, Uttara Kannada, Karnataka, India",
            "longitude": "74.3934408094182",
            "latitude": "14.9994424",
            "blogLinks": [
                "https://en.wikipedia.org/wiki/Tourism_in_Karnataka"
            ],
            "locType": "national_park"
        },
        "chennai": {
            "closest_to": "",
            "address": "Karnataka Bank, Postal Colony 2nd Street, Postal Colony, Ashok Nagar, Chennai City Corporation Limits, Chennai district, Tamil Nadu, 600033, India",
            "longitude": "80.2197941",
            "latitude": "13.0365141",
            "blogLinks": [
                "https://en.wikipedia.org/wiki/Tourism_in_Karnataka"
            ],
            "locType": "bank"
        },
        "bellary district": {
            "closest_to": "",
            "address": "Bellary district, Karnataka, India",
            "longitude": "76.7137978546465",
            "latitude": "15.20597305",
            "blogLinks": [
                "https://en.wikipedia.org/wiki/Tourism_in_Karnataka",
                "http://familypedia.wikia.com/wiki/Chitradurga_district",
                "http://visitingplacesofgreatindia.blogspot.in/2013/11/chitradurga-district-is-administrative.html",
                "https://en.wikipedia.org/wiki/Chitradurga_district"
            ],
            "locType": "administrative"
        },
        "amingad": {
            "closest_to": "",
            "address": "Amingad Cold Drinks, Subhas Road, Saidapur, Kamalapura, Dharwad, Dharawada taluku, Dharwad district, Karnataka, 580001, India",
            "longitude": "75.0145999",
            "latitude": "15.4596361",
            "blogLinks": [
                "http://www.team-bhp.com/forum/route-travel-queries/19934-bangalore-hampi-bellary-route-queries-16.html"
            ],
            "locType": "cafe"
        },
        "chandramoulishwara": {
            "closest_to": "",
            "address": "Chandramoulishwara Temple, Adipampa Road, Gokulam, Mysuru, Mysuru taluk, Mysuru district, Karnataka, 570001, India",
            "longitude": "76.6290267",
            "latitude": "12.3225663",
            "blogLinks": [
                "https://en.wikipedia.org/wiki/Tourism_in_Karnataka"
            ],
            "locType": "place_of_worship"
        },
        "koppal": {
            "closest_to": "",
            "address": "Koppala, Koppala taluku, Koppal district, Karnataka, 583231, India",
            "longitude": "76.1547421",
            "latitude": "15.3484144",
            "blogLinks": [
                "https://en.wikipedia.org/wiki/Tourism_in_Karnataka"
            ],
            "locType": "town"
        },
        "dharwad": {
            "closest_to": "",
            "address": "Dharwad, Dharawada taluku, Dharwad district, Karnataka, 580001, India",
            "longitude": "75.0066516",
            "latitude": "15.4540505",
            "blogLinks": [
                "https://en.wikipedia.org/wiki/Tourism_in_Karnataka"
            ],
            "locType": "city"
        },
        "kudalasangama": {
            "closest_to": "",
            "address": "Kudala Sangama, Hunagunda taluku, Bagalkote district, Karnataka, India",
            "longitude": "76.0604244",
            "latitude": "16.2033992",
            "blogLinks": [
                "https://en.wikipedia.org/wiki/Tourism_in_Karnataka"
            ],
            "locType": "village"
        },
        "gulbarga": {
            "closest_to": "",
            "address": "Kalaburgi, Kalaburagi district, Karnataka, India",
            "longitude": "77.083333",
            "latitude": "17.166667",
            "blogLinks": [
                "https://en.wikipedia.org/wiki/Tourism_in_Karnataka"
            ],
            "locType": "county"
        },
        "hassan district": {
            "closest_to": "",
            "address": "Hassan district, Karnataka, India",
            "longitude": "76.1745460751981",
            "latitude": "13.0315068",
            "blogLinks": [
                "https://en.wikipedia.org/wiki/Tourism_in_Karnataka"
            ],
            "locType": "administrative"
        },
        "ranganathaswamy temple": {
            "closest_to": "",
            "address": "Ranganathaswamy Temple, Steps to Ranganathaswami Temple, Halekote, Hole Narasipura taluk, Hassan district, Karnataka, 573211, India",
            "longitude": "76.1812411",
            "latitude": "12.854149",
            "blogLinks": [
                "http://visitingplacesofgreatindia.blogspot.in/2013/11/chitradurga-district-is-administrative.html",
                "http://www.holidayiq.com/Chitradurga-Sightseeing-650.html"
            ],
            "locType": "place_of_worship"
        },
        "bagalkot district": {
            "closest_to": "",
            "address": "Bagalakote, Bagalakote taluk, Bagalkote district, Karnataka, India",
            "longitude": "75.6967919",
            "latitude": "16.1853166",
            "blogLinks": [
                "https://en.wikipedia.org/wiki/Tourism_in_Karnataka"
            ],
            "locType": "city"
        },
        "karkala": {
            "closest_to": "",
            "address": "Karkala, Karkala taluk, Udupi district, Karnataka, 574104, India",
            "longitude": "74.9959586",
            "latitude": "13.2112826",
            "blogLinks": [
                "https://en.wikipedia.org/wiki/Tourism_in_Karnataka"
            ],
            "locType": "town"
        },
        "bijapur": {
            "closest_to": "",
            "address": "Vijayapura, Vijayapura taluk, Bijapur district, Karnataka, 586101, India",
            "longitude": "75.7175387",
            "latitude": "16.8269911",
            "blogLinks": [
                "https://en.wikipedia.org/wiki/Tourism_in_Karnataka",
                "http://visitingplacesofgreatindia.blogspot.in/2013/11/chitradurga-district-is-administrative.html"
            ],
            "locType": "city"
        },
        "shirali": {
            "closest_to": "",
            "address": "Shirali, Bhatkala taluk, Uttara Kannada, Karnataka, 581354, India",
            "longitude": "74.5286591",
            "latitude": "14.0280925",
            "blogLinks": [
                "https://en.wikipedia.org/wiki/Tourism_in_Karnataka"
            ],
            "locType": "village"
        },
        "uttara kannada": {
            "closest_to": "",
            "address": "Uttara Kannada, Karnataka, India",
            "longitude": "74.4729163045979",
            "latitude": "14.6726379",
            "blogLinks": [
                "https://en.wikipedia.org/wiki/Tourism_in_Karnataka"
            ],
            "locType": "administrative"
        },
        "kabini": {
            "closest_to": "",
            "address": "Kabini, Heggadadevanakote taluk, Mysuru district, Karnataka, India",
            "longitude": "76.4152088",
            "latitude": "12.0140065",
            "blogLinks": [
                "https://en.wikipedia.org/wiki/Tourism_in_Karnataka"
            ],
            "locType": "river"
        },
        "gadag": {
            "closest_to": "",
            "address": "Gadag, Gadag taluk, Gadag district, Karnataka, 582101, India",
            "longitude": "75.6300786",
            "latitude": "15.4263647",
            "blogLinks": [
                "https://en.wikipedia.org/wiki/Tourism_in_Karnataka"
            ],
            "locType": "town"
        },
        "nagareshwara": {
            "closest_to": "",
            "address": "Nagareshwara Temple, SH126, Dantapur, Yadagiri taluku, Yadagiri district, Karnataka, India",
            "longitude": "77.3934679",
            "latitude": "16.8662525",
            "blogLinks": [
                "https://en.wikipedia.org/wiki/Tourism_in_Karnataka"
            ],
            "locType": "place_of_worship"
        },
        "kabini river": {
            "closest_to": "",
            "address": "Kabini right bank canal, Nanjanagudu taluk, Mysuru district, Karnataka, India",
            "longitude": "76.6477184",
            "latitude": "12.0780998",
            "blogLinks": [
                "https://en.wikipedia.org/wiki/Tourism_in_Karnataka"
            ],
            "locType": "canal"
        },
        "bankpur fort": {
            "closest_to": "",
            "address": "Bankapura Fort, SH137, Guddada Channapura, Shiggaon taluk, Haveri district, Karnataka, 581202, India",
            "longitude": "75.2512090188504",
            "latitude": "14.9231815",
            "blogLinks": [
                "https://en.wikipedia.org/wiki/Tourism_in_Karnataka"
            ],
            "locType": "archaeological_site"
        },
        "shivanasamudra": {
            "closest_to": "",
            "address": "Shivanasamudra, Kollegala taluk, Chamarajanagar district, Karnataka, India",
            "longitude": "77.1703215",
            "latitude": "12.2719056",
            "blogLinks": [
                "https://en.wikipedia.org/wiki/Tourism_in_Karnataka"
            ],
            "locType": "village"
        },
        "nagarhole national park": {
            "closest_to": "",
            "address": "Nagarahole National Park, Virajpet taluk, Kodagu, Karnataka, India",
            "longitude": "76.1537073415874",
            "latitude": "12.0600362",
            "blogLinks": [
                "https://en.wikipedia.org/wiki/Tourism_in_Karnataka"
            ],
            "locType": "national_park"
        },
        "malaprabha": {
            "closest_to": "",
            "address": "Malaprabha, Ramadurga taluku, Belgaum district, Karnataka, India",
            "longitude": "75.1982668",
            "latitude": "15.8914192",
            "blogLinks": [
                "https://en.wikipedia.org/wiki/Tourism_in_Karnataka"
            ],
            "locType": "river"
        },
        "nagarahole national park": {
            "closest_to": "",
            "address": "Nagarahole National Park, Virajpet taluk, Kodagu, Karnataka, India",
            "longitude": "76.1537073415874",
            "latitude": "12.0600362",
            "blogLinks": [
                "https://en.wikipedia.org/wiki/Tourism_in_Karnataka"
            ],
            "locType": "national_park"
        },
        "pattadakal": {
            "closest_to": "",
            "address": "Pattadakal Temples, SH14, \u0cac\u0cbe\u0c9a\u0cbf\u0ca8\u0c97\u0cc1\u0ca1\u0ccd\u0ca1, Badami taluku, Bagalkote district, Karnataka, 587211, India",
            "longitude": "75.815884048161",
            "latitude": "15.9506349",
            "blogLinks": [
                "https://en.wikipedia.org/wiki/Tourism_in_Karnataka"
            ],
            "locType": "attraction"
        },
        "beluru": {
            "closest_to": "",
            "address": "Belur, Beluru taluk, Hassan district, Karnataka, 573115, India",
            "longitude": "75.8634851",
            "latitude": "13.1645671",
            "blogLinks": [
                "https://en.wikipedia.org/wiki/Tourism_in_Karnataka"
            ],
            "locType": "town"
        },
        "mandya": {
            "closest_to": "",
            "address": "Mandya, Mandya taluk, Mandya district, Karnataka, 571401, India",
            "longitude": "76.8937392",
            "latitude": "12.5217836",
            "blogLinks": [
                "https://en.wikipedia.org/wiki/Tourism_in_Karnataka"
            ],
            "locType": "town"
        },
        "bandipur": {
            "closest_to": "",
            "address": "Bandipur, Gundlupet taluk, Chamarajanagar district, Karnataka, India",
            "longitude": "76.6285739",
            "latitude": "11.6662708",
            "blogLinks": [
                "https://en.wikipedia.org/wiki/Tourism_in_Karnataka"
            ],
            "locType": "village"
        },
        "halebidu": {
            "closest_to": "",
            "address": "Halebidu, Hunasuru taluk, Mysuru district, Karnataka, India",
            "longitude": "76.4607075",
            "latitude": "12.359893",
            "blogLinks": [
                "https://en.wikipedia.org/wiki/Tourism_in_Karnataka"
            ],
            "locType": "village"
        },
        "ranganathittu bird sanctuary": {
            "closest_to": "",
            "address": "Ranganathittu Bird Sanctuary, SH154, Palahalli, Srirangapattana taluk, Mandya district, Karnataka, 571438, India",
            "longitude": "76.6553081",
            "latitude": "12.4238524",
            "blogLinks": [
                "https://en.wikipedia.org/wiki/Tourism_in_Karnataka"
            ],
            "locType": "attraction"
        },
        "malpe": {
            "closest_to": "",
            "address": "Malpe, Udupi taluku, Udupi district, Karnataka, India",
            "longitude": "74.7036914",
            "latitude": "13.3507423",
            "blogLinks": [
                "https://en.wikipedia.org/wiki/Tourism_in_Karnataka"
            ],
            "locType": "village"
        },
        "shimoga district": {
            "closest_to": "",
            "address": "Shimoga district, Karnataka, India",
            "longitude": "75.1312533993886",
            "latitude": "14.0558284",
            "blogLinks": [
                "https://en.wikipedia.org/wiki/Tourism_in_Karnataka"
            ],
            "locType": "administrative"
        },
        "mysore district": {
            "closest_to": "",
            "address": "Mysuru, Mysuru taluk, Mysuru district, Karnataka, 570001, India",
            "longitude": "76.6553609",
            "latitude": "12.3051828",
            "blogLinks": [
                "https://en.wikipedia.org/wiki/Tourism_in_Karnataka"
            ],
            "locType": "city"
        },
        "poona": {
            "closest_to": "",
            "address": "Karnataka High School / Kalmadi High School, Bhausaheb Karanjkar Path, Sneh Paradise, Erandwana, Pune, Maharashtra, 411001, India",
            "longitude": "73.8268035762088",
            "latitude": "18.50238145",
            "blogLinks": [
                "http://familypedia.wikia.com/wiki/Chitradurga_district",
                "http://www.sutthonabanni.com/2010/04/chitradurga-district.html"
            ],
            "locType": "school"
        },
        "afzalpur": {
            "closest_to": "",
            "address": "Afzalpur, Afzalpura taluku, Kalaburagi district, Karnataka, 585301, India",
            "longitude": "76.3605783",
            "latitude": "17.2005764",
            "blogLinks": [
                "https://en.wikipedia.org/wiki/Tourism_in_Karnataka"
            ],
            "locType": "town"
        },
        "bhatkal": {
            "closest_to": "",
            "address": "Bhatkal, Bhatkala taluk, Uttara Kannada, Karnataka, 581320, India",
            "longitude": "74.5485295",
            "latitude": "13.9952114",
            "blogLinks": [
                "https://en.wikipedia.org/wiki/Tourism_in_Karnataka"
            ],
            "locType": "town"
        },
        "mysore maharaja": {
            "closest_to": "",
            "address": "Maharaja Hotel Mysore, Bangalore Nilgiri Road, Mandi Mohalla, Mysuru, Mysuru taluk, Mysuru district, Karnataka, 570001, India",
            "longitude": "76.6596385",
            "latitude": "12.3112197",
            "blogLinks": [
                "http://familypedia.wikia.com/wiki/Chitradurga_district",
                "https://en.wikipedia.org/wiki/Chitradurga_district"
            ],
            "locType": "hotel"
        },
        "bagalkote": {
            "closest_to": "",
            "address": "Bagalkote district, Karnataka, India",
            "longitude": "75.5825586777167",
            "latitude": "16.28998085",
            "blogLinks": [
                "https://en.wikipedia.org/wiki/Tourism_in_Karnataka"
            ],
            "locType": "administrative"
        },
        "netravati": {
            "closest_to": "",
            "address": "Netravati, Bantwal taluk, Dakshina Kannada, Karnataka, India",
            "longitude": "75.1562182",
            "latitude": "12.8537655",
            "blogLinks": [
                "https://en.wikipedia.org/wiki/Tourism_in_Karnataka"
            ],
            "locType": "river"
        },
        "sannati": {
            "closest_to": "",
            "address": "Sannati, Chitapura taluku, Kalaburagi district, Karnataka, India",
            "longitude": "76.9080631",
            "latitude": "16.8293201",
            "blogLinks": [
                "https://en.wikipedia.org/wiki/Tourism_in_Karnataka"
            ],
            "locType": "village"
        },
        "vijayanagara": {
            "closest_to": "",
            "address": "Vijayanagara, Chikodi taluk, Belgaum district, Karnataka, India",
            "longitude": "74.7380455",
            "latitude": "16.3270486",
            "blogLinks": [
                "https://en.wikipedia.org/wiki/Tourism_in_Karnataka",
                "http://familypedia.wikia.com/wiki/Chitradurga_district",
                "http://www.sutthonabanni.com/2010/04/chitradurga-district.html",
                "http://visitingplacesofgreatindia.blogspot.in/2013/11/chitradurga-district-is-administrative.html",
                "https://en.wikipedia.org/wiki/Chitradurga_district"
            ],
            "locType": "village"
        },
        "varur": {
            "closest_to": "",
            "address": "Varur, Hubballi taluku, Dharwad district, Karnataka, India",
            "longitude": "75.1387568",
            "latitude": "15.2077105",
            "blogLinks": [
                "https://en.wikipedia.org/wiki/Tourism_in_Karnataka"
            ],
            "locType": "village"
        },
        "irupu falls": {
            "closest_to": "",
            "address": "Iruppu Falls, SH89, Taila, Virajpet taluk, Kodagu, Karnataka, 571217, India",
            "longitude": "75.9839484",
            "latitude": "11.9667954",
            "blogLinks": [
                "https://en.wikipedia.org/wiki/Tourism_in_Karnataka"
            ],
            "locType": "attraction"
        },
        "gotagodi village": {
            "closest_to": "",
            "address": "Gotagodi, Hanagal taluk, Haveri district, Karnataka, India",
            "longitude": "75.0452834",
            "latitude": "14.7634556",
            "blogLinks": [
                "https://en.wikipedia.org/wiki/Tourism_in_Karnataka"
            ],
            "locType": "village"
        },
        "kaveri": {
            "closest_to": "",
            "address": "Kaveri, Kollegala taluk, Chamarajanagar district, Karnataka, India",
            "longitude": "77.0635531",
            "latitude": "12.1687878",
            "blogLinks": [
                "https://en.wikipedia.org/wiki/Tourism_in_Karnataka"
            ],
            "locType": "river"
        },
        "gokak": {
            "closest_to": "",
            "address": "Gokak, Gokak taluku, Belgaum district, Karnataka, 591307, India",
            "longitude": "74.8224338",
            "latitude": "16.1693033",
            "blogLinks": [
                "https://en.wikipedia.org/wiki/Tourism_in_Karnataka"
            ],
            "locType": "town"
        },
        "varaha": {
            "closest_to": "",
            "address": "Varaha, Hirekeruru taluk, Haveri district, Karnataka, India",
            "longitude": "75.3718812",
            "latitude": "14.390777",
            "blogLinks": [
                "https://en.wikipedia.org/wiki/Tourism_in_Karnataka"
            ],
            "locType": "village"
        },
        "banavasi": {
            "closest_to": "",
            "address": "Banavasi, Shirasi taluk, Uttara Kannada, Karnataka, India",
            "longitude": "75.0129845",
            "latitude": "14.5389738",
            "blogLinks": [
                "https://en.wikipedia.org/wiki/Tourism_in_Karnataka"
            ],
            "locType": "town"
        },
        "shiggaon taluk": {
            "closest_to": "",
            "address": "Shiggaon taluk, Haveri district, Karnataka, India",
            "longitude": "75.1756764988777",
            "latitude": "15.0138079",
            "blogLinks": [
                "https://en.wikipedia.org/wiki/Tourism_in_Karnataka"
            ],
            "locType": "administrative"
        },
        "andhra pradesh": {
            "closest_to": "",
            "address": "Karnataka, West Mada Street, Srivari Temple, Tirumala, Chittoor, Andhra Pradesh, 517504, India",
            "longitude": "79.3452447",
            "latitude": "13.6841958",
            "blogLinks": [
                "http://www.sutthonabanni.com/2010/04/chitradurga-district.html",
                "http://www.inditales.com/chitradurga-chandravalli-jogimatti/",
                "http://visitingplacesofgreatindia.blogspot.in/2013/11/chitradurga-district-is-administrative.html",
                "http://www.holidayiq.com/Chitradurga-Sightseeing-650.html"
            ],
            "locType": "hotel"
        },
        "karwar": {
            "closest_to": "",
            "address": "Karwar, Karavara taluk, Uttara Kannada, Karnataka, 581300, India",
            "longitude": "74.1319229",
            "latitude": "14.8120931",
            "blogLinks": [
                "https://en.wikipedia.org/wiki/Tourism_in_Karnataka"
            ],
            "locType": "town"
        },
        "chola": {
            "closest_to": "",
            "address": "Chola Gold Loan, Bengaluru - Mangaluru Road, Ravindra Nagar, Santhe Pete, Hassan, Hasana taluk, Hassan district, Karnataka, 573201, India",
            "longitude": "76.098782",
            "latitude": "13.0023906",
            "blogLinks": [
                "https://en.wikipedia.org/wiki/Tourism_in_Karnataka"
            ],
            "locType": "yes"
        },
        "gulbarga district": {
            "closest_to": "",
            "address": "Kalaburgi, Kalaburagi district, Karnataka, India",
            "longitude": "77.083333",
            "latitude": "17.166667",
            "blogLinks": [
                "https://en.wikipedia.org/wiki/Tourism_in_Karnataka"
            ],
            "locType": "county"
        },
        "kannada": {
            "closest_to": "",
            "address": "Dakshina Kannada, Karnataka, India",
            "longitude": "75.1008028650794",
            "latitude": "12.8114089",
            "blogLinks": [
                "http://familypedia.wikia.com/wiki/Chitradurga_district",
                "http://visitingplacesofgreatindia.blogspot.in/2013/11/chitradurga-district-is-administrative.html",
                "https://en.wikipedia.org/wiki/Chitradurga_district"
            ],
            "locType": "administrative"
        },
        "belavadi": {
            "closest_to": "",
            "address": "Belavadi, Koppa taluk, Chikkamagaluru district, Karnataka, India",
            "longitude": "75.3760773",
            "latitude": "13.5284899",
            "blogLinks": [
                "https://en.wikipedia.org/wiki/Tourism_in_Karnataka"
            ],
            "locType": "village"
        },
        "kagal": {
            "closest_to": "",
            "address": "Kagal Fort, Birkodi Village, Kumata taluk, Uttara Kannada, Karnataka, India",
            "longitude": "74.3575302591262",
            "latitude": "14.5055819",
            "blogLinks": [
                "https://en.wikipedia.org/wiki/Tourism_in_Karnataka"
            ],
            "locType": "grass"
        },
        "nippani": {
            "closest_to": "",
            "address": "Nippani, Chikodi taluk, Belgaum district, Karnataka, 591237, India",
            "longitude": "74.3842372",
            "latitude": "16.4020402",
            "blogLinks": [
                "https://en.wikipedia.org/wiki/Tourism_in_Karnataka"
            ],
            "locType": "town"
        },
        "mercara": {
            "closest_to": "",
            "address": "Madikeri, Madikeri taluku, Kodagu, Karnataka, India",
            "longitude": "75.740031",
            "latitude": "12.4204003",
            "blogLinks": [
                "https://en.wikipedia.org/wiki/Tourism_in_Karnataka"
            ],
            "locType": "town"
        },
        "' river varahi": {
            "closest_to": "",
            "address": "Varahi, \u0c95\u0cc1\u0c82\u0ca6\u0cbe\u0caa\u0cc1\u0cb0 \u0ca4\u0cbe\u0cb2\u0cc2\u0c95\u0cc1, Udupi district, Karnataka, India",
            "longitude": "74.9489117",
            "latitude": "13.6582668",
            "blogLinks": [
                "https://en.wikipedia.org/wiki/Tourism_in_Karnataka"
            ],
            "locType": "river"
        },
        "sagara": {
            "closest_to": "",
            "address": "Sagara, Sagara taluk, Shimoga district, Karnataka, 577400, India",
            "longitude": "75.0262551",
            "latitude": "14.1666594",
            "blogLinks": [
                "https://en.wikipedia.org/wiki/Tourism_in_Karnataka"
            ],
            "locType": "town"
        },
        "arabhavi": {
            "closest_to": "",
            "address": "Arabhavi, Gokak taluku, Belgaum district, Karnataka, India",
            "longitude": "74.8213227",
            "latitude": "16.2193552",
            "blogLinks": [
                "https://en.wikipedia.org/wiki/Tourism_in_Karnataka"
            ],
            "locType": "village"
        },
        "kodachadri": {
            "closest_to": "",
            "address": "Kodachadri, \u0c95\u0cc1\u0c82\u0ca6\u0cbe\u0caa\u0cc1\u0cb0 \u0ca4\u0cbe\u0cb2\u0cc2\u0c95\u0cc1, Udupi district, Karnataka, India",
            "longitude": "74.8705395",
            "latitude": "13.8565758",
            "blogLinks": [
                "https://en.wikipedia.org/wiki/Tourism_in_Karnataka"
            ],
            "locType": "peak"
        },
        "sangameshwara": {
            "closest_to": "",
            "address": "Sangameshwara, Kalaghatagi taluku, Dharwad district, Karnataka, India",
            "longitude": "74.87651",
            "latitude": "15.184341",
            "blogLinks": [
                "https://en.wikipedia.org/wiki/Tourism_in_Karnataka"
            ],
            "locType": "village"
        },
        "chikmagalur district": {
            "closest_to": "",
            "address": "Chikmagalur, Chikkamagaluru district, Karnataka, India",
            "longitude": "75.5",
            "latitude": "13.5",
            "blogLinks": [
                "https://en.wikipedia.org/wiki/Tourism_in_Karnataka",
                "http://familypedia.wikia.com/wiki/Chitradurga_district",
                "http://visitingplacesofgreatindia.blogspot.in/2013/11/chitradurga-district-is-administrative.html",
                "https://en.wikipedia.org/wiki/Chitradurga_district"
            ],
            "locType": "county"
        },
        "brahmagiri": {
            "closest_to": "",
            "address": "Brahmagiri, Madikeri taluku, Kodagu, Karnataka, India",
            "longitude": "75.490746",
            "latitude": "12.3868578",
            "blogLinks": [
                "http://familypedia.wikia.com/wiki/Chitradurga_district",
                "http://www.sutthonabanni.com/2010/04/chitradurga-district.html",
                "https://en.wikipedia.org/wiki/Chitradurga_district"
            ],
            "locType": "peak"
        },
        "bheemeshwari": {
            "closest_to": "",
            "address": "Bheemeshwari, Muttatti, Malavalli taluk, Mandya district, Karnataka, India",
            "longitude": "77.2778171",
            "latitude": "12.3124122",
            "blogLinks": [
                "https://en.wikipedia.org/wiki/Tourism_in_Karnataka"
            ],
            "locType": "locality"
        },
        "virupaksha temple": {
            "closest_to": "",
            "address": "Virupaksha Temple, Hampi Bazaar, Hampe, Hosapete taluk, Bellary district, Karnataka, 583239, India",
            "longitude": "76.4587777156223",
            "latitude": "15.3351754",
            "blogLinks": [
                "https://en.wikipedia.org/wiki/Tourism_in_Karnataka"
            ],
            "locType": "place_of_worship"
        },
        "hubli airport": {
            "closest_to": "",
            "address": "Hubli Airport, \u0c97\u0ccb\u0c95\u0cc1\u0cb2 \u0cb0\u0ccb\u0ca1\u0ccd, Padmaraj Nagar, Gokul, Hubballi taluku, Dharwad district, Karnataka, 580030, India",
            "longitude": "75.0860974",
            "latitude": "15.3598315",
            "blogLinks": [
                "https://www.goibibo.com/routeplanner/tumkur-chitradurga/"
            ],
            "locType": "aerodrome"
        },
        "ghataprabha river": {
            "closest_to": "",
            "address": "Ghataprabha, Gokak taluku, Belgaum district, Karnataka, India",
            "longitude": "74.9165235",
            "latitude": "16.2124344",
            "blogLinks": [
                "https://en.wikipedia.org/wiki/Tourism_in_Karnataka"
            ],
            "locType": "river"
        },
        "kuknur": {
            "closest_to": "",
            "address": "Kukanura, Yelaburga taluku, Koppal district, Karnataka, 583232, India",
            "longitude": "75.9934934",
            "latitude": "15.4902753",
            "blogLinks": [
                "https://en.wikipedia.org/wiki/Tourism_in_Karnataka"
            ],
            "locType": "village"
        },
        "nayaka": {
            "closest_to": "",
            "address": "Ramasing Nayaka Tanda, Aurad taluku, Bidar district, Karnataka, India",
            "longitude": "77.378123",
            "latitude": "18.3716544",
            "blogLinks": [
                "http://www.sutthonabanni.com/2010/04/chitradurga-district.html"
            ],
            "locType": "hamlet"
        },
        "gadag district": {
            "closest_to": "",
            "address": "Gadag district, Karnataka, India",
            "longitude": "75.6807542794645",
            "latitude": "15.416337",
            "blogLinks": [
                "https://en.wikipedia.org/wiki/Tourism_in_Karnataka"
            ],
            "locType": "administrative"
        },
        "bidar district": {
            "closest_to": "",
            "address": "Bidar district, Karnataka, India",
            "longitude": "77.2496344350342",
            "latitude": "18.0158574",
            "blogLinks": [
                "https://en.wikipedia.org/wiki/Tourism_in_Karnataka"
            ],
            "locType": "administrative"
        },
        "udupi": {
            "closest_to": "",
            "address": "Udupi, Udupi taluku, Udupi district, Karnataka, 576101, India",
            "longitude": "74.7473232",
            "latitude": "13.3419169",
            "blogLinks": [
                "https://en.wikipedia.org/wiki/Tourism_in_Karnataka"
            ],
            "locType": "city"
        },
        "nethrani island": {
            "closest_to": "",
            "address": "Netrani, Uttara Kannada, Karnataka, India",
            "longitude": "74.3272086675849",
            "latitude": "14.0174924",
            "blogLinks": [
                "https://en.wikipedia.org/wiki/Tourism_in_Karnataka"
            ],
            "locType": "island"
        },
        "kanaganahalli": {
            "closest_to": "",
            "address": "Kanaganahalli, Pandavapura taluk, Mandya district, Karnataka, India",
            "longitude": "76.5876958",
            "latitude": "12.5588444",
            "blogLinks": [
                "https://en.wikipedia.org/wiki/Tourism_in_Karnataka"
            ],
            "locType": "village"
        },
        "lokapura": {
            "closest_to": "",
            "address": "Lokapura, Mudhola taluku, Bagalkote district, Karnataka, 587122, India",
            "longitude": "75.3685939",
            "latitude": "16.1627427",
            "blogLinks": [
                "https://en.wikipedia.org/wiki/Tourism_in_Karnataka"
            ],
            "locType": "town"
        },
        "bhadra river": {
            "closest_to": "",
            "address": "Bhadra, Chikkamagaluru taluku, Chikkamagaluru district, Karnataka, India",
            "longitude": "75.527118",
            "latitude": "13.4888356",
            "blogLinks": [
                "https://en.wikipedia.org/wiki/Tourism_in_Karnataka"
            ],
            "locType": "river"
        },
        "bandipur national park": {
            "closest_to": "",
            "address": "Bandipur National Park, Kozhikode - Kollegal Highway, Gundlupet taluk, Chamarajanagar district, Karnataka, India",
            "longitude": "76.4314968740264",
            "latitude": "11.76682425",
            "blogLinks": [
                "https://en.wikipedia.org/wiki/Tourism_in_Karnataka"
            ],
            "locType": "national_park"
        },
        "gudavi": {
            "closest_to": "",
            "address": "Gudavi, Soraba taluk, Shimoga district, Karnataka, India",
            "longitude": "75.009649",
            "latitude": "14.4400296",
            "blogLinks": [
                "https://en.wikipedia.org/wiki/Tourism_in_Karnataka"
            ],
            "locType": "village"
        },
        "hassan": {
            "closest_to": "",
            "address": "Hassan, Hasana taluk, Hassan district, Karnataka, 573201, India",
            "longitude": "76.0992703",
            "latitude": "13.0070817",
            "blogLinks": [
                "https://en.wikipedia.org/wiki/Tourism_in_Karnataka"
            ],
            "locType": "town"
        },
        "belgaum fort": {
            "closest_to": "",
            "address": "Belgaum Fort, Belagavi, Belagavi taluku, Belgaum district, Karnataka, 590001, India",
            "longitude": "74.5255651",
            "latitude": "15.8581696",
            "blogLinks": [
                "https://en.wikipedia.org/wiki/Tourism_in_Karnataka"
            ],
            "locType": "locality"
        },
        "hampi": {
            "closest_to": "",
            "address": "Hampe, Hosapete taluk, Bellary district, Karnataka, 583239, India",
            "longitude": "76.4606199",
            "latitude": "15.3359769",
            "blogLinks": [
                "https://en.wikipedia.org/wiki/Tourism_in_Karnataka",
                "https://www.tripoto.com/travel-guide/tumkur",
                "http://www.team-bhp.com/forum/route-travel-queries/19934-bangalore-hampi-bellary-route-queries-16.html"
            ],
            "locType": "village"
        },
        "nagarahole": {
            "closest_to": "",
            "address": "Nagarahole, Heggadadevanakote taluk, Mysuru district, Karnataka, India",
            "longitude": "76.2286805",
            "latitude": "12.0229466",
            "blogLinks": [
                "https://en.wikipedia.org/wiki/Tourism_in_Karnataka"
            ],
            "locType": "river"
        },
        "aihole": {
            "closest_to": "",
            "address": "Aihole, Hunagunda taluku, Bagalkote district, Karnataka, India",
            "longitude": "75.8819129",
            "latitude": "16.0192298",
            "blogLinks": [
                "https://en.wikipedia.org/wiki/Tourism_in_Karnataka",
                "http://www.team-bhp.com/forum/route-travel-queries/19934-bangalore-hampi-bellary-route-queries-16.html"
            ],
            "locType": "village"
        },
        "manjusha museum": {
            "closest_to": "",
            "address": "Manjusha Museum, SH37, Dharmasthala, Beltangadi taluk, Dakshina Kannada, Karnataka, 574216, India",
            "longitude": "75.3821342838196",
            "latitude": "12.95116975",
            "blogLinks": [
                "https://en.wikipedia.org/wiki/Tourism_in_Karnataka"
            ],
            "locType": "museum"
        },
        "haveri district": {
            "closest_to": "",
            "address": "Haveri district, Karnataka, India",
            "longitude": "75.3845674304742",
            "latitude": "14.714635",
            "blogLinks": [
                "https://en.wikipedia.org/wiki/Tourism_in_Karnataka"
            ],
            "locType": "administrative"
        },
        "kudremukh national park": {
            "closest_to": "",
            "address": "Kudremukh National Park, SH66, Sringeri taluku, Chikkamagaluru district, Karnataka, India",
            "longitude": "75.1828713712862",
            "latitude": "13.25397485",
            "blogLinks": [
                "https://en.wikipedia.org/wiki/Tourism_in_Karnataka"
            ],
            "locType": "national_park"
        },
        "lakkundi": {
            "closest_to": "",
            "address": "Lakkundi, Muddebihala taluku, Bijapur district, Karnataka, India",
            "longitude": "76.4084687",
            "latitude": "16.5255464",
            "blogLinks": [
                "https://en.wikipedia.org/wiki/Tourism_in_Karnataka"
            ],
            "locType": "village"
        },
        "tungabhadra": {
            "closest_to": "",
            "address": "Tungabhadra, Gangavati taluku, Koppal district, Karnataka, India",
            "longitude": "76.4931607",
            "latitude": "15.3446123",
            "blogLinks": [
                "https://en.wikipedia.org/wiki/Tourism_in_Karnataka"
            ],
            "locType": "river"
        },
        "naganur": {
            "closest_to": "",
            "address": "Naganur, Hukkeri taluku, Belgaum district, Karnataka, India",
            "longitude": "74.4824431",
            "latitude": "16.073351",
            "blogLinks": [
                "https://en.wikipedia.org/wiki/Tourism_in_Karnataka"
            ],
            "locType": "village"
        },
        "bagamandala": {
            "closest_to": "",
            "address": "Madikeri - Bagamandala ,Tala Kaveri Road, Mekeri, Madikeri taluku, Kodagu, Karnataka, India",
            "longitude": "75.748408",
            "latitude": "12.388062",
            "blogLinks": [
                "https://en.wikipedia.org/wiki/Tourism_in_Karnataka"
            ],
            "locType": "primary"
        },
        "netrani island of uttara kannada": {
            "closest_to": "",
            "address": "Netrani, Uttara Kannada, Karnataka, India",
            "longitude": "74.3272086675849",
            "latitude": "14.0174924",
            "blogLinks": [
                "https://en.wikipedia.org/wiki/Tourism_in_Karnataka"
            ],
            "locType": "island"
        },
        "anegundi": {
            "closest_to": "",
            "address": "Anegundi, Gangavati taluku, Koppal district, Karnataka, India",
            "longitude": "76.4924232",
            "latitude": "15.3509583",
            "blogLinks": [
                "https://en.wikipedia.org/wiki/Tourism_in_Karnataka"
            ],
            "locType": "village"
        },
        "varada": {
            "closest_to": "",
            "address": "Varada, Savanura taluk, Haveri district, Karnataka, India",
            "longitude": "75.47206",
            "latitude": "14.8717792",
            "blogLinks": [
                "https://en.wikipedia.org/wiki/Tourism_in_Karnataka"
            ],
            "locType": "river"
        },
        "haveri": {
            "closest_to": "",
            "address": "Haveri, Haveri taluku, Haveri district, Karnataka, 581110, India",
            "longitude": "75.3996731",
            "latitude": "14.7874825",
            "blogLinks": [
                "https://en.wikipedia.org/wiki/Tourism_in_Karnataka"
            ],
            "locType": "town"
        },
        "kundapura": {
            "closest_to": "",
            "address": "Kundapura, \u0c95\u0cc1\u0c82\u0ca6\u0cbe\u0caa\u0cc1\u0cb0 \u0ca4\u0cbe\u0cb2\u0cc2\u0c95\u0cc1, Udupi district, Karnataka, 576200, India",
            "longitude": "74.6915722",
            "latitude": "13.6250993",
            "blogLinks": [
                "http://www.nivalink.com/destination/chitradurga"
            ],
            "locType": "town"
        },
        "mookambika": {
            "closest_to": "",
            "address": "Mukambika Devasthana, NH766C;SH26, Halkal, \u0c95\u0cc1\u0c82\u0ca6\u0cbe\u0caa\u0cc1\u0cb0 \u0ca4\u0cbe\u0cb2\u0cc2\u0c95\u0cc1, Udupi district, Karnataka, 576220, India",
            "longitude": "74.8145296",
            "latitude": "13.8638043",
            "blogLinks": [
                "https://en.wikipedia.org/wiki/Tourism_in_Karnataka"
            ],
            "locType": "place_of_worship"
        },
        "lakshmeshwar": {
            "closest_to": "",
            "address": "Lakshmeshwar KSRTC Bus stand, SH6, Bastibana, Lakshmeshvara, Shirahatti taluku, Gadag district, Karnataka, 582116, India",
            "longitude": "75.4741167",
            "latitude": "15.12373",
            "blogLinks": [
                "https://en.wikipedia.org/wiki/Tourism_in_Karnataka"
            ],
            "locType": "bus_station"
        },
        "kumta": {
            "closest_to": "",
            "address": "Kumta, Kumata taluk, Uttara Kannada, Karnataka, India",
            "longitude": "74.4107617",
            "latitude": "14.4261647",
            "blogLinks": [
                "https://en.wikipedia.org/wiki/Tourism_in_Karnataka"
            ],
            "locType": "town"
        },
        "hubli": {
            "closest_to": "",
            "address": "Hubballi - \u0cb9\u0cc1\u0cac\u0ccd\u0cac\u0cb3\u0ccd\u0cb3\u0cbf, Hubballi taluku, Dharwad district, Karnataka, 580020, India",
            "longitude": "75.1379848",
            "latitude": "15.3518378",
            "blogLinks": [
                "https://en.wikipedia.org/wiki/Tourism_in_Karnataka",
                "http://www.nivalink.com/destination/chitradurga"
            ],
            "locType": "city"
        },
        "rock garden": {
            "closest_to": "",
            "address": "Waterfalls by the Rock site, Madikeri taluku, Kodagu, Karnataka, India",
            "longitude": "75.6142269",
            "latitude": "12.2248591",
            "blogLinks": [
                "https://en.wikipedia.org/wiki/Tourism_in_Karnataka"
            ],
            "locType": "waterfall"
        },
        "bangalore-pune": {
            "closest_to": "",
            "address": "Pune-Bangalore Road, Motebennur, Byadagi taluk, Haveri district, Karnataka, 581106, India",
            "longitude": "75.4974847",
            "latitude": "14.7156528",
            "blogLinks": [
                "http://nychthemeron.blogspot.com/2014/01/day-3-day-trip-to-chitradurga-fort.html"
            ],
            "locType": "trunk"
        },
        "shiva cave": {
            "closest_to": "",
            "address": "Shiva cave, Om beach road, Gokarna, Kumata taluk, Uttara Kannada, Karnataka, 581326, India",
            "longitude": "74.3172042",
            "latitude": "14.5348968",
            "blogLinks": [
                "http://visitingplacesofgreatindia.blogspot.in/2013/11/chitradurga-district-is-administrative.html"
            ],
            "locType": "cave_entrance"
        },
        "tamil nadu": {
            "closest_to": "",
            "address": "KARNATAKA BANK, Diwan Bhadur Road, Five Corner, RS Puram, Coimbatore, Coimbatore district, Tamil Nadu, 641001, India",
            "longitude": "76.9514152",
            "latitude": "11.0025894",
            "blogLinks": [
                "https://en.wikipedia.org/wiki/Tourism_in_Karnataka",
                "http://www.inditales.com/chitradurga-chandravalli-jogimatti/"
            ],
            "locType": "bank"
        },
        "bellary": {
            "closest_to": "",
            "address": "Bellary, Bellary district, Karnataka, India",
            "longitude": "76.8323648",
            "latitude": "15.2485413",
            "blogLinks": [
                "https://en.wikipedia.org/wiki/Tourism_in_Karnataka",
                "http://www.team-bhp.com/forum/route-travel-queries/19934-bangalore-hampi-bellary-route-queries-16.html"
            ],
            "locType": "county"
        },
        "karnataka": {
            "closest_to": "",
            "address": "Karnataka, Shalivahana Road, Nazarbad, Mysuru, Mysuru taluk, Mysuru district, Karnataka, 570001, India",
            "longitude": "76.6639936",
            "latitude": "12.3084901",
            "blogLinks": [
                "http://familypedia.wikia.com/wiki/Chitradurga_district",
                "http://www.hivayking.in/blog/2012/08/nh4-between-bangalore-punemumbai/"
            ],
            "locType": "atm"
        },
        "unchalli falls": {
            "closest_to": "",
            "address": "\u0c89\u0c82\u0c9a\u0cb3\u0ccd\u0cb3\u0cbf \u0c9c\u0cb2\u0caa\u0cbe\u0ca4, Siddapura taluk, Uttara Kannada, Karnataka, India",
            "longitude": "74.7477592",
            "latitude": "14.4097755",
            "blogLinks": [
                "https://en.wikipedia.org/wiki/Tourism_in_Karnataka"
            ],
            "locType": "waterfall"
        },
        "hebbe falls": {
            "closest_to": "",
            "address": "Hebbe falls, Kemmannagundi Road, Attigundi, Chikkamagaluru taluku, Chikkamagaluru district, Karnataka, India",
            "longitude": "75.7253701",
            "latitude": "13.5414025",
            "blogLinks": [
                "https://en.wikipedia.org/wiki/Tourism_in_Karnataka"
            ],
            "locType": "attraction"
        },
        "kodagu": {
            "closest_to": "",
            "address": "Kodagu, Karnataka, India",
            "longitude": "75.6677235950852",
            "latitude": "12.38117345",
            "blogLinks": [
                "https://en.wikipedia.org/wiki/Tourism_in_Karnataka",
                "http://visitingplacesofgreatindia.blogspot.in/2013/11/chitradurga-district-is-administrative.html"
            ],
            "locType": "administrative"
        },
        "lushington falls": {
            "closest_to": "",
            "address": "\u0c89\u0c82\u0c9a\u0cb3\u0ccd\u0cb3\u0cbf \u0c9c\u0cb2\u0caa\u0cbe\u0ca4, Siddapura taluk, Uttara Kannada, Karnataka, India",
            "longitude": "74.7477592",
            "latitude": "14.4097755",
            "blogLinks": [
                "https://en.wikipedia.org/wiki/Tourism_in_Karnataka"
            ],
            "locType": "waterfall"
        },
        "kalasa": {
            "closest_to": "",
            "address": "Kalasa, Mudigere taluk, Chikkamagaluru district, Karnataka, 577124, India",
            "longitude": "75.3582366",
            "latitude": "13.2322235",
            "blogLinks": [
                "https://en.wikipedia.org/wiki/Tourism_in_Karnataka"
            ],
            "locType": "town"
        },
        "gopalakrishna temple": {
            "closest_to": "",
            "address": "Sri Gopalakrishna Temple, Valagere, Sagara taluk, Shimoga district, Karnataka, India",
            "longitude": "74.8713209348962",
            "latitude": "14.05922645",
            "blogLinks": [
                "http://visitingplacesofgreatindia.blogspot.in/2013/11/chitradurga-district-is-administrative.html"
            ],
            "locType": "place_of_worship"
        },
        "dakshina kannada": {
            "closest_to": "",
            "address": "Dakshina Kannada, Karnataka, India",
            "longitude": "75.1008028650794",
            "latitude": "12.8114089",
            "blogLinks": [
                "https://en.wikipedia.org/wiki/Tourism_in_Karnataka"
            ],
            "locType": "administrative"
        },
        "koppal district": {
            "closest_to": "",
            "address": "Koppal district, Karnataka, India",
            "longitude": "76.310639117029",
            "latitude": "15.57825725",
            "blogLinks": [
                "https://en.wikipedia.org/wiki/Tourism_in_Karnataka"
            ],
            "locType": "administrative"
        },
        "venur": {
            "closest_to": "",
            "address": "Venoor, Beltangadi taluk, Dakshina Kannada, Karnataka, 574242, India",
            "longitude": "75.1443252",
            "latitude": "13.0122097",
            "blogLinks": [
                "https://en.wikipedia.org/wiki/Tourism_in_Karnataka"
            ],
            "locType": "village"
        },
        "srirangapatna": {
            "closest_to": "",
            "address": "Srirangapatna, Srirangapattana taluk, Mandya district, Karnataka, 571438, India",
            "longitude": "76.6850743",
            "latitude": "12.4225604",
            "blogLinks": [
                "https://en.wikipedia.org/wiki/Tourism_in_Karnataka"
            ],
            "locType": "town"
        },
        "gokarna": {
            "closest_to": "",
            "address": "Gokarna, Kumata taluk, Uttara Kannada, Karnataka, 581326, India",
            "longitude": "74.3184418",
            "latitude": "14.5439629",
            "blogLinks": [
                "https://en.wikipedia.org/wiki/Tourism_in_Karnataka"
            ],
            "locType": "town"
        },
        "bankapura": {
            "closest_to": "",
            "address": "Bankapura, Shiggaon taluk, Haveri district, Karnataka, 581202, India",
            "longitude": "75.2639298",
            "latitude": "14.9217443",
            "blogLinks": [
                "https://en.wikipedia.org/wiki/Tourism_in_Karnataka"
            ],
            "locType": "town"
        },
        "sharavati": {
            "closest_to": "",
            "address": "Sharavati, Sagara taluk, Shimoga district, Karnataka, India",
            "longitude": "74.7647294",
            "latitude": "14.2360979",
            "blogLinks": [
                "https://en.wikipedia.org/wiki/Tourism_in_Karnataka"
            ],
            "locType": "river"
        }
    },
    "tumkur": {
        "place_id": "1397122",
        "osm_id": "316417304",
        "icon": "https://nominatim.openstreetmap.org/images/mapicons/poi_boundary_administrative.p.20.png",
        "osm_type": "node",
        "licence": "Data \u00a9 OpenStreetMap contributors, ODbL 1.0. http://www.openstreetmap.org/copyright",
        "display_name": "Tumakuru, Tumkur district, Karnataka, India",
        "type": "county",
        "lon": "77.0002445",
        "boundingbox": [
            "12.8599406",
            "14.1399406",
            "76.3602445",
            "77.6402445"
        ],
        "importance": 0.65,
        "lat": "13.4999406",
        "class": "place"
    }
}