{
    "madikeri": {
        "lat": "12.4204003",
        "class": "place",
        "importance": 0.55113932557876,
        "osm_type": "node",
        "lon": "75.740031",
        "place_id": "3592336",
        "display_name": "Madikeri, Madikeri taluku, Kodagu, Karnataka, India",
        "osm_id": "390887113",
        "boundingbox": [
            "12.3804003",
            "12.4604003",
            "75.700031",
            "75.780031"
        ],
        "type": "town",
        "licence": "Data \u00a9 OpenStreetMap contributors, ODbL 1.0. http://www.openstreetmap.org/copyright",
        "icon": "https://nominatim.openstreetmap.org/images/mapicons/poi_place_town.p.20.png"
    },
    "chitradurga": {
        "lat": "14.2266443",
        "class": "place",
        "importance": 0.5,
        "osm_type": "node",
        "lon": "76.4005122",
        "place_id": "4897275",
        "display_name": "Chitradurga, Chitradurga taluku, Chitradurga district, Karnataka, 577500, India",
        "osm_id": "571409087",
        "boundingbox": [
            "14.1866443",
            "14.2666443",
            "76.3605122",
            "76.4405122"
        ],
        "type": "town",
        "licence": "Data \u00a9 OpenStreetMap contributors, ODbL 1.0. http://www.openstreetmap.org/copyright",
        "icon": "https://nominatim.openstreetmap.org/images/mapicons/poi_place_town.p.20.png"
    },
    "mentions": {
        "chennai": {
            "blogLinks": [
                "https://www.goibibo.com/hotels/hotels-in-coorg/madikeri/"
            ],
            "longitude": "80.2197941",
            "address": "Karnataka Bank, Postal Colony 2nd Street, Postal Colony, Ashok Nagar, Chennai City Corporation Limits, Chennai district, Tamil Nadu, 600033, India",
            "latitude": "13.0365141",
            "locType": "bank",
            "closest_to": ""
        },
        "jaipur": {
            "blogLinks": [
                "https://www.goibibo.com/hotels/hotels-in-coorg/madikeri/"
            ],
            "longitude": "75.7985653",
            "address": "Karnataka Bank, Mirza Ismail Road, Hasanpura, Bani Park, Jaipur, Rajasthan, 302006, India",
            "latitude": "26.91869",
            "locType": "atm",
            "closest_to": ""
        },
        "river kali": {
            "blogLinks": [
                "http://traveltriangle.com/blog/best-places-to-visit-in-karnataka/"
            ],
            "longitude": "74.5802901",
            "address": "Kali, Joida taluk, Uttara Kannada, Karnataka, India",
            "latitude": "15.0145378",
            "locType": "river",
            "closest_to": ""
        },
        "andhra pradesh": {
            "blogLinks": [
                "http://www.holidayiq.com/Chitradurga-Sightseeing-650.html"
            ],
            "longitude": "79.3452447",
            "address": "Karnataka, West Mada Street, Srivari Temple, Tirumala, Chittoor, Andhra Pradesh, 517504, India",
            "latitude": "13.6841958",
            "locType": "hotel",
            "closest_to": ""
        },
        "hyderabad": {
            "blogLinks": [
                "https://www.goibibo.com/hotels/hotels-in-coorg/madikeri/"
            ],
            "longitude": "77.5344002",
            "address": "Hyderabad Road, Old City, Bidar, Bidar taluku, Bidar district, Karnataka, 585400, India",
            "latitude": "17.9003114",
            "locType": "primary",
            "closest_to": ""
        },
        "belgaum airport": {
            "blogLinks": [
                "http://traveltriangle.com/blog/best-places-to-visit-in-karnataka/"
            ],
            "longitude": "74.6189763983851",
            "address": "Belgaum Airport, SH20, Balekundri, Belagavi taluku, Belgaum district, Karnataka, 591124, India",
            "latitude": "15.8602827",
            "locType": "aerodrome",
            "closest_to": ""
        },
        "rajasthan": {
            "blogLinks": [
                "http://www.tripwip.com/mysore-byalukuppe-madikeri-bhagamandala-talakaveri-dubare/"
            ],
            "longitude": "75.7985653",
            "address": "Karnataka Bank, Mirza Ismail Road, Hasanpura, Bani Park, Jaipur, Rajasthan, 302006, India",
            "latitude": "26.91869",
            "locType": "atm",
            "closest_to": ""
        },
        "kali river": {
            "blogLinks": [
                "http://traveltriangle.com/blog/best-places-to-visit-in-karnataka/"
            ],
            "longitude": "74.5802901",
            "address": "Kali, Joida taluk, Uttara Kannada, Karnataka, India",
            "latitude": "15.0145378",
            "locType": "river",
            "closest_to": ""
        },
        "bijapur": {
            "blogLinks": [
                "http://traveltriangle.com/blog/best-places-to-visit-in-karnataka/"
            ],
            "longitude": "75.7175387",
            "address": "Vijayapura, Vijayapura taluk, Bijapur district, Karnataka, 586101, India",
            "latitude": "16.8269911",
            "locType": "city",
            "closest_to": ""
        }
    }
}