{
    "dandeli": {
        "place_id": "5820025",
        "osm_id": "612546262",
        "icon": "https://nominatim.openstreetmap.org/images/mapicons/poi_place_town.p.20.png",
        "osm_type": "node",
        "licence": "Data \u00a9 OpenStreetMap contributors, ODbL 1.0. http://www.openstreetmap.org/copyright",
        "display_name": "Dandeli, Haliyala taluku, Uttara Kannada, Karnataka, 581325, India",
        "type": "town",
        "lon": "74.6236037",
        "boundingbox": [
            "15.2090284",
            "15.2890284",
            "74.5836037",
            "74.6636037"
        ],
        "importance": 0.5,
        "lat": "15.2490284",
        "class": "place"
    },
    "mentions": {
        "manjarabad fort": {
            "closest_to": "",
            "address": "Manjarabad Fort, SH27, Hullahalli, Sakaleshapura taluk, Hassan district, Karnataka, 573134, India",
            "longitude": "75.7580572896098",
            "latitude": "12.9173302",
            "blogLinks": [
                "https://www.quora.com/What-are-the-best-places-to-visit-for-a-2-day-trip-from-Bangalore-by-car"
            ],
            "locType": "attraction"
        },
        "kondaji": {
            "closest_to": "",
            "address": "Kondaji Basappa Road, Mavalli, Kalasipalya, Bengaluru, Bangalore Urban, Karnataka, 560001, India",
            "longitude": "77.5763222",
            "latitude": "12.9564976",
            "blogLinks": [
                "https://www.thrillophilia.com/rafting-places-around-bangalore"
            ],
            "locType": "primary"
        },
        "coorg": {
            "closest_to": "",
            "address": "Madikeri, Madikeri taluku, Kodagu, Karnataka, India",
            "longitude": "75.740031",
            "latitude": "12.4204003",
            "blogLinks": [
                "https://www.thrillophilia.com/rafting-places-around-bangalore"
            ],
            "locType": "town"
        },
        "maharashtra": {
            "closest_to": "",
            "address": "Bank of Maharashtra, 24th Main, K R Layout, Puttenahalli, Bengaluru, Bangalore Urban, Karnataka, 560001, India",
            "longitude": "77.5856013",
            "latitude": "12.9049455",
            "blogLinks": [
                "http://www.nivalink.com/destination/dandeli",
                "http://www.holidayiq.com/Dandeli-Sightseeing-345.html",
                "http://travel.paintedstork.com/blog/2005/12/amazing-dandeli-world-of-wilderness.html"
            ],
            "locType": "bank"
        },
        "silent valley": {
            "closest_to": "",
            "address": "Silent Shores Resort, Krishnaraja Sagara Road, Kurgalli, Bastipura, Srirangapattana taluk, Mandya district, Karnataka, 570027, India",
            "longitude": "76.5819054",
            "latitude": "12.3459371",
            "blogLinks": [
                "http://travel.india.com/explore/wildlife-sanctuaries-in-karnataka/"
            ],
            "locType": "hotel"
        },
        "bheemeshwari": {
            "closest_to": "",
            "address": "Bheemeshwari, Muttatti, Malavalli taluk, Mandya district, Karnataka, India",
            "longitude": "77.2778171",
            "latitude": "12.3124122",
            "blogLinks": [
                "https://www.thrillophilia.com/rafting-places-around-bangalore"
            ],
            "locType": "locality"
        },
        "bangalore": {
            "closest_to": "",
            "address": "Bengaluru, Bangalore Urban, Karnataka, 560001, India",
            "longitude": "77.5912997",
            "latitude": "12.9791198",
            "blogLinks": [
                "https://www.makemytrip.com/bus-tickets/bangalore-dandeli-booking.html",
                "https://www.quora.com/What-are-the-best-places-to-visit-for-a-2-day-trip-from-Bangalore-by-car",
                "http://travel.paintedstork.com/blog/2005/12/amazing-dandeli-world-of-wilderness.html",
                "https://www.thrillophilia.com/best-places-to-visit-in-davanagere-in-january",
                "http://www.nivalink.com/destination/dandeli",
                "http://travel.india.com/explore/wildlife-sanctuaries-in-karnataka/",
                "http://www.karnatakatourism.org/",
                "https://www.thrillophilia.com/rafting-places-around-bangalore"
            ],
            "locType": "city"
        },
        "ambika nagar": {
            "closest_to": "",
            "address": "ambika hotel and bar, 638, 46th A cross, Rajajinagar 4th Block, Rajaji Nagar, Bengaluru, Bangalore Urban, Karnataka, 560010, India",
            "longitude": "77.5557527",
            "latitude": "12.9878802",
            "blogLinks": [
                "https://www.thrillophilia.com/best-places-to-visit-in-davanagere-in-january"
            ],
            "locType": "restaurant"
        },
        "north karnataka": {
            "closest_to": "",
            "address": "N, Chaithanya Samarpan, Kadugodi, Kannamangala, Bangalore Urban, Karnataka, 560066, India",
            "longitude": "77.7660547",
            "latitude": "13.0217151",
            "blogLinks": [
                "http://www.nivalink.com/destination/dandeli",
                "https://www.quora.com/What-are-the-best-places-to-visit-for-a-2-day-trip-from-Bangalore-by-car"
            ],
            "locType": "service"
        },
        "dakshina kashi": {
            "closest_to": "",
            "address": "Sahasralingeshwara Temple, Car Street, Uppinangadi, Putturu taluk, Dakshina Kannada, Karnataka, India",
            "longitude": "75.2439609",
            "latitude": "12.838765",
            "blogLinks": [
                "https://www.quora.com/What-are-the-best-places-to-visit-for-a-2-day-trip-from-Bangalore-by-car"
            ],
            "locType": "place_of_worship"
        },
        "bannerghatta national park": {
            "closest_to": "",
            "address": "Bannerghatta National Park, Anekal Road, Begihalli, Bangalore Urban, Karnataka, 560076, India",
            "longitude": "77.5722783830694",
            "latitude": "12.77900335",
            "blogLinks": [
                "https://www.makemytrip.com/bus-tickets/bangalore-dandeli-booking.html"
            ],
            "locType": "national_park"
        },
        "moyar": {
            "closest_to": "",
            "address": "Moyar Gorge, Gundlupet - Coimbatore Highway, Bandipur, Gundlupet taluk, Chamarajanagar district, Karnataka, India",
            "longitude": "76.631118",
            "latitude": "11.6161121",
            "blogLinks": [
                "http://travel.india.com/explore/wildlife-sanctuaries-in-karnataka/"
            ],
            "locType": "viewpoint"
        },
        "hoysala": {
            "closest_to": "",
            "address": "Hoysala Nagar, Bengaluru, Bangalore Urban, Karnataka, 560001, India",
            "longitude": "77.6375990817051",
            "latitude": "12.97813815",
            "blogLinks": [
                "http://www.nivalink.com/destination/davanagere"
            ],
            "locType": "administrative"
        },
        "karnataka state": {
            "closest_to": "",
            "address": "Karnataka State Open University, \u0cb9\u0cc1\u0ca3\u0cb8\u0cc2\u0cb0\u0cc1 \u0cb0\u0cb8\u0ccd\u0ca4\u0cc6, Gokulam, Mysuru, Mysuru taluk, Mysuru district, Karnataka, 570001, India",
            "longitude": "76.6236231",
            "latitude": "12.315382",
            "blogLinks": [
                "http://www.holidayiq.com/Dandeli-Sightseeing-345.html"
            ],
            "locType": "university"
        },
        "india bengaluru": {
            "closest_to": "",
            "address": "Karnataka High Court, Dr B R Ambedkar Veedhi, Shantala Nagar, Gandhinagar, Bengaluru, Bangalore Urban, Karnataka, 560001, India",
            "longitude": "77.5925914",
            "latitude": "12.977944",
            "blogLinks": [
                "https://www.quora.com/What-are-the-best-places-to-visit-for-a-2-day-trip-from-Bangalore-by-car"
            ],
            "locType": "courthouse"
        },
        "kabini": {
            "closest_to": "",
            "address": "Kabini, Heggadadevanakote taluk, Mysuru district, Karnataka, India",
            "longitude": "76.4152088",
            "latitude": "12.0140065",
            "blogLinks": [
                "http://travel.india.com/explore/wildlife-sanctuaries-in-karnataka/",
                "https://www.thrillophilia.com/rafting-places-around-bangalore"
            ],
            "locType": "river"
        },
        "harihareshwara": {
            "closest_to": "",
            "address": "Harihareshwara Temple, NH66, Charanthipete, Karnad, Mulki, Mangaluru taluk, Dakshina Kannada, Karnataka, 574154, India",
            "longitude": "74.7930728229472",
            "latitude": "13.0824827",
            "blogLinks": [
                "http://www.nivalink.com/destination/davanagere"
            ],
            "locType": "place_of_worship"
        },
        "brindavan gardens": {
            "closest_to": "",
            "address": "Brindavan Gardens, Krishnaraja Sagara Road, Krushnarajasagara, Srirangapattana taluk, Mandya district, Karnataka, India",
            "longitude": "76.5741029405883",
            "latitude": "12.4208084",
            "blogLinks": [
                "https://www.makemytrip.com/bus-tickets/bangalore-dandeli-booking.html"
            ],
            "locType": "garden"
        },
        "bangalore railway": {
            "closest_to": "",
            "address": "Bangalore East Railway Station, Cox Town, Bengaluru, Bangalore Urban, Karnataka, 560001, India",
            "longitude": "77.6182271274845",
            "latitude": "13.001147",
            "blogLinks": [
                "http://travel.india.com/explore/wildlife-sanctuaries-in-karnataka/"
            ],
            "locType": "railway"
        },
        "kabini river": {
            "closest_to": "",
            "address": "Kabini right bank canal, Nanjanagudu taluk, Mysuru district, Karnataka, India",
            "longitude": "76.6477184",
            "latitude": "12.0780998",
            "blogLinks": [
                "https://www.thrillophilia.com/rafting-places-around-bangalore"
            ],
            "locType": "canal"
        },
        "kerala": {
            "closest_to": "",
            "address": "New Life Kerala Mess, Sai Baba Mandira Road, Mottappanapalaya, Indiranagar, Bengaluru, Bangalore Urban, Karnataka, 560001, India",
            "longitude": "77.6382683",
            "latitude": "12.9726449",
            "blogLinks": [
                "http://travel.india.com/explore/wildlife-sanctuaries-in-karnataka/"
            ],
            "locType": "restaurant"
        },
        "udipi": {
            "closest_to": "",
            "address": "Udipi Park, 2nd Cross Road, Muniyappa Layout, Murugeshpalaya, Belure Ambedkar Nagar, Bangalore Urban, Karnataka, 560067, India",
            "longitude": "77.652888",
            "latitude": "12.9530588",
            "blogLinks": [
                "http://www.nivalink.com/destination/dandeli",
                "http://www.nivalink.com/destination/davanagere"
            ],
            "locType": "restaurant"
        },
        "nandi hills": {
            "closest_to": "",
            "address": "Nandi Upahara, Nandhi Hills Road, Kottige Thimmanahalli, Devanahalli taluk, Bangalore Rural, Karnataka, India",
            "longitude": "77.7194741670394",
            "latitude": "13.268142",
            "blogLinks": [
                "https://www.makemytrip.com/bus-tickets/bangalore-dandeli-booking.html"
            ],
            "locType": "hotel"
        },
        "cauvery river": {
            "closest_to": "",
            "address": "Temple Trees Rd, Cauvery Colony, ST Bed Layout, Koramangala, Bengaluru, Bangalore Urban, Karnataka, 560001, India",
            "longitude": "77.635647",
            "latitude": "12.9327668",
            "blogLinks": [
                "https://www.thrillophilia.com/rafting-places-around-bangalore"
            ],
            "locType": "unclassified"
        },
        "mangalore": {
            "closest_to": "",
            "address": "Mangaluru, Mangaluru taluk, Dakshina Kannada, Karnataka, 575001, India",
            "longitude": "74.8430082",
            "latitude": "12.8698101",
            "blogLinks": [
                "http://travel.india.com/explore/wildlife-sanctuaries-in-karnataka/",
                "https://www.quora.com/What-are-the-best-places-to-visit-for-a-2-day-trip-from-Bangalore-by-car"
            ],
            "locType": "city"
        },
        "lingeshwara temple": {
            "closest_to": "",
            "address": "Naga Lingeshwara Temple, Netaji Subash Chandra Bose Road, Robertsonpet, Urigam, Bangarapet taluk, Kolar district, Karnataka, 563122, India",
            "longitude": "78.2537909",
            "latitude": "12.9651268",
            "blogLinks": [
                "https://www.tripoto.com/travel-guide/davangere"
            ],
            "locType": "place_of_worship"
        },
        "xa0kodachadri hills": {
            "closest_to": "",
            "address": "Kadri Hills, Mangaluru, Mangaluru taluk, Dakshina Kannada, Karnataka, 575001, India",
            "longitude": "74.860152",
            "latitude": "12.8935998",
            "blogLinks": [
                "https://www.thrillophilia.com/rafting-places-around-bangalore"
            ],
            "locType": "suburb"
        },
        "bangalore international": {
            "closest_to": "",
            "address": "Bangalore International School, Hennur Bagalur Road, Poojappa Layout, Agara, Geddalahalli, Bangalore Urban, Karnataka, 560 077, India",
            "longitude": "77.6467233975225",
            "latitude": "13.0471784",
            "blogLinks": [
                "http://travel.india.com/explore/wildlife-sanctuaries-in-karnataka/"
            ],
            "locType": "school"
        },
        "bombay": {
            "closest_to": "",
            "address": "Bombay tea hotel, Hosahalli Main Road, Rajajinagar 6th Block, Goripalya, Bengaluru, Bangalore Urban, Karnataka, 560001, India",
            "longitude": "77.5500256",
            "latitude": "12.9632318",
            "blogLinks": [
                "http://travel.paintedstork.com/blog/2005/12/amazing-dandeli-world-of-wilderness.html"
            ],
            "locType": "cafe"
        },
        "navagraha temple": {
            "closest_to": "",
            "address": "Navagraha Temple, Gatti Layout Main Road, Gubbi, Gubbi taluk, Tumkur district, Karnataka, 572216, India",
            "longitude": "76.9364719",
            "latitude": "13.3106354",
            "blogLinks": [
                "https://www.tripoto.com/travel-guide/davangere"
            ],
            "locType": "place_of_worship"
        },
        "nisarga dhama": {
            "closest_to": "",
            "address": "Pilikula Nisarga Dhama, Solapur-Mangalore Highway, Shakthinagar, Kulashekara, Kudupu, Mangaluru taluk, Dakshina Kannada, Karnataka, 575007, India",
            "longitude": "74.9027278387408",
            "latitude": "12.92920145",
            "blogLinks": [
                "https://www.thrillophilia.com/rafting-places-around-bangalore"
            ],
            "locType": "wood"
        },
        "river cauvery": {
            "closest_to": "",
            "address": "Cauvery, 1st Main Road, Lower Palace Orchard, Guttahalli, Bengaluru, Bangalore Urban, Karnataka, 560001, India",
            "longitude": "77.5832796015599",
            "latitude": "13.00262215",
            "blogLinks": [
                "https://www.quora.com/What-are-the-best-places-to-visit-for-a-2-day-trip-from-Bangalore-by-car"
            ],
            "locType": "cinema"
        },
        "ooty-mysore": {
            "closest_to": "",
            "address": "Ooty Road, Vidyaranyapuram, Mysuru, Mysuru taluk, Mysuru district, Karnataka, 570001, India",
            "longitude": "76.6586807",
            "latitude": "12.2774807",
            "blogLinks": [
                "http://travel.india.com/explore/wildlife-sanctuaries-in-karnataka/"
            ],
            "locType": "primary"
        },
        "bandipur": {
            "closest_to": "",
            "address": "Bandipur, Gundlupet taluk, Chamarajanagar district, Karnataka, India",
            "longitude": "76.6285739",
            "latitude": "11.6662708",
            "blogLinks": [
                "http://travel.india.com/explore/wildlife-sanctuaries-in-karnataka/",
                "https://www.quora.com/What-are-the-best-places-to-visit-for-a-2-day-trip-from-Bangalore-by-car"
            ],
            "locType": "village"
        },
        "bandipur national park": {
            "closest_to": "",
            "address": "Bandipur National Park, Kozhikode - Kollegal Highway, Gundlupet taluk, Chamarajanagar district, Karnataka, India",
            "longitude": "76.4314968740264",
            "latitude": "11.76682425",
            "blogLinks": [
                "http://travel.india.com/explore/wildlife-sanctuaries-in-karnataka/"
            ],
            "locType": "national_park"
        },
        "karnataka": {
            "closest_to": "",
            "address": "Karnataka, Shalivahana Road, Nazarbad, Mysuru, Mysuru taluk, Mysuru district, Karnataka, 570001, India",
            "longitude": "76.6639936",
            "latitude": "12.3084901",
            "blogLinks": [
                "https://www.makemytrip.com/bus-tickets/bangalore-dandeli-booking.html",
                "https://www.quora.com/What-are-the-best-places-to-visit-for-a-2-day-trip-from-Bangalore-by-car",
                "http://www.nivalink.com/destination/davanagere",
                "http://travel.paintedstork.com/blog/2005/12/amazing-dandeli-world-of-wilderness.html",
                "https://www.tripoto.com/travel-guide/davangere",
                "https://www.thrillophilia.com/best-places-to-visit-in-davanagere-in-january",
                "http://www.nivalink.com/destination/dandeli",
                "http://www.holidayiq.com/Dandeli-Sightseeing-345.html",
                "http://travel.india.com/explore/wildlife-sanctuaries-in-karnataka/",
                "http://dandelitrip.com/dandeli-tourist-places/",
                "http://www.karnatakatourism.org/",
                "https://www.thrillophilia.com/rafting-places-around-bangalore"
            ],
            "locType": "atm"
        },
        "bengal": {
            "closest_to": "",
            "address": "Bengal Lamps, Konadasapura, Bangalore Urban, Karnataka, 560066, India",
            "longitude": "77.7517038151245",
            "latitude": "13.0492646",
            "blogLinks": [
                "http://travel.india.com/explore/wildlife-sanctuaries-in-karnataka/"
            ],
            "locType": "industrial"
        },
        "ragihalli": {
            "closest_to": "",
            "address": "Ragihalli, Bangalore Urban, Karnataka, India",
            "longitude": "77.5745803",
            "latitude": "12.7386426",
            "blogLinks": [
                "http://travel.india.com/explore/wildlife-sanctuaries-in-karnataka/"
            ],
            "locType": "village"
        },
        "goa": {
            "closest_to": "",
            "address": "Carnival De Goa, Bhaskaran Road, Gupta Layout, Halasuru, Bengaluru, Bangalore Urban, Karnataka, 560001, India",
            "longitude": "77.6200027",
            "latitude": "12.9750047",
            "blogLinks": [
                "http://www.holidayiq.com/Dandeli-Sightseeing-345.html",
                "http://travel.paintedstork.com/blog/2005/12/amazing-dandeli-world-of-wilderness.html"
            ],
            "locType": "restaurant"
        },
        "barapole": {
            "closest_to": "",
            "address": "Barapole, Virajpet taluk, Kodagu, Karnataka, India",
            "longitude": "75.8218551",
            "latitude": "12.0738308",
            "blogLinks": [
                "https://www.thrillophilia.com/rafting-places-around-bangalore"
            ],
            "locType": "river"
        },
        "vittala": {
            "closest_to": "",
            "address": "Vijaya Vittala PU College, Sahukar Chennaiah Road, Sarasvatipuram, Mysuru, Mysuru taluk, Mysuru district, Karnataka, 570001, India",
            "longitude": "76.6237847175927",
            "latitude": "12.30129655",
            "blogLinks": [
                "https://www.quora.com/What-are-the-best-places-to-visit-for-a-2-day-trip-from-Bangalore-by-car"
            ],
            "locType": "yes"
        },
        "diggi": {
            "closest_to": "",
            "address": "Diggi, Shahapura taluku, Yadagiri district, Karnataka, India",
            "longitude": "76.8025595",
            "latitude": "16.7083137",
            "blogLinks": [
                "http://www.holidayiq.com/Dandeli-Sightseeing-345.html"
            ],
            "locType": "village"
        },
        "kadamba": {
            "closest_to": "",
            "address": "Kadamba Avenue, R. Narayanapura, Brookefields, Dodsworth Enclave, Bangalore Urban, Karnataka, 560066, India",
            "longitude": "77.7436954",
            "latitude": "12.9703178",
            "blogLinks": [
                "http://www.holidayiq.com/Dandeli-Sightseeing-345.html"
            ],
            "locType": "residential"
        },
        "sharavathi river": {
            "closest_to": "",
            "address": "Sharavathi Block, National Games Village Road, Ambedkar Nagar, Ejipura, Bengaluru, Bangalore Urban, Karnataka, 560001, India",
            "longitude": "77.6216184337102",
            "latitude": "12.9464709",
            "blogLinks": [
                "https://www.thrillophilia.com/rafting-places-around-bangalore"
            ],
            "locType": "yes"
        },
        "tamil nadu": {
            "closest_to": "",
            "address": "KARNATAKA BANK, Diwan Bhadur Road, Five Corner, RS Puram, Coimbatore, Coimbatore district, Tamil Nadu, 641001, India",
            "longitude": "76.9514152",
            "latitude": "11.0025894",
            "blogLinks": [
                "http://travel.india.com/explore/wildlife-sanctuaries-in-karnataka/",
                "https://www.quora.com/What-are-the-best-places-to-visit-for-a-2-day-trip-from-Bangalore-by-car"
            ],
            "locType": "bank"
        }
    },
    "davanagere": {
        "place_id": "5056634",
        "osm_id": "571395225",
        "icon": "https://nominatim.openstreetmap.org/images/mapicons/poi_place_city.p.20.png",
        "osm_type": "node",
        "licence": "Data \u00a9 OpenStreetMap contributors, ODbL 1.0. http://www.openstreetmap.org/copyright",
        "display_name": "Davanagere, Davanagere taluku, Davanagere district, Karnataka, 577000, India",
        "type": "city",
        "lon": "75.9206361",
        "boundingbox": [
            "14.3061266",
            "14.6261266",
            "75.7606361",
            "76.0806361"
        ],
        "importance": 0.55,
        "lat": "14.4661266",
        "class": "place"
    }
}