{
    "dandeli": {
        "place_id": "5820025",
        "osm_id": "612546262",
        "icon": "https://nominatim.openstreetmap.org/images/mapicons/poi_place_town.p.20.png",
        "osm_type": "node",
        "licence": "Data \u00a9 OpenStreetMap contributors, ODbL 1.0. http://www.openstreetmap.org/copyright",
        "display_name": "Dandeli, Haliyala taluku, Uttara Kannada, Karnataka, 581325, India",
        "type": "town",
        "lon": "74.6236037",
        "boundingbox": [
            "15.2090284",
            "15.2890284",
            "74.5836037",
            "74.6636037"
        ],
        "importance": 0.5,
        "lat": "15.2490284",
        "class": "place"
    },
    "mentions": {
        "pune": {
            "closest_to": "",
            "address": "Pune - Machilipatnam Highway, Kaudiyala, Basavakalyana taluku, Bidar district, Karnataka, India",
            "longitude": "76.9479122",
            "latitude": "17.8199745",
            "blogLinks": [
                "http://www.beontheroad.com/2014/02/top-13-things-to-do-in-dandeli-karnataka.html"
            ],
            "locType": "trunk"
        },
        "north karnataka": {
            "closest_to": "",
            "address": "N, Chaithanya Samarpan, Kadugodi, Kannamangala, Bangalore Urban, Karnataka, 560066, India",
            "longitude": "77.7660547",
            "latitude": "13.0217151",
            "blogLinks": [
                "https://www.thrillophilia.com/resorts-near-dandeli",
                "http://www.nivalink.com/destination/dandeli"
            ],
            "locType": "service"
        },
        "rajasthan": {
            "closest_to": "",
            "address": "Karnataka Bank, Mirza Ismail Road, Hasanpura, Bani Park, Jaipur, Rajasthan, 302006, India",
            "longitude": "75.7985653",
            "latitude": "26.91869",
            "blogLinks": [
                "http://www.beontheroad.com/2014/02/top-13-things-to-do-in-dandeli-karnataka.html"
            ],
            "locType": "atm"
        },
        "kadamba": {
            "closest_to": "",
            "address": "Kadamba Avenue, R. Narayanapura, Brookefields, Dodsworth Enclave, Bangalore Urban, Karnataka, 560066, India",
            "longitude": "77.7436954",
            "latitude": "12.9703178",
            "blogLinks": [
                "http://www.holidayiq.com/Dandeli-Sightseeing-345.html"
            ],
            "locType": "residential"
        },
        "diggi": {
            "closest_to": "",
            "address": "Diggi, Shahapura taluku, Yadagiri district, Karnataka, India",
            "longitude": "76.8025595",
            "latitude": "16.7083137",
            "blogLinks": [
                "http://www.holidayiq.com/Dandeli-Sightseeing-345.html"
            ],
            "locType": "village"
        },
        "north west karnataka": {
            "closest_to": "",
            "address": "N, Chaithanya Samarpan, Kadugodi, Kannamangala, Bangalore Urban, Karnataka, 560066, India",
            "longitude": "77.7660547",
            "latitude": "13.0217151",
            "blogLinks": [
                "http://www.beontheroad.com/2014/02/top-13-things-to-do-in-dandeli-karnataka.html"
            ],
            "locType": "service"
        }
    },
    "kemmangundi": {
        "place_id": "22846400",
        "osm_id": "2253231504",
        "icon": "https://nominatim.openstreetmap.org/images/mapicons/poi_place_village.p.20.png",
        "osm_type": "node",
        "licence": "Data \u00a9 OpenStreetMap contributors, ODbL 1.0. http://www.openstreetmap.org/copyright",
        "display_name": "Kemmannagundi, Tarikere taluku, Chikkamagaluru district, Karnataka, India",
        "type": "village",
        "lon": "75.7520082",
        "boundingbox": [
            "13.5263048",
            "13.5663048",
            "75.7320082",
            "75.7720082"
        ],
        "importance": 0.375,
        "lat": "13.5463048",
        "class": "place"
    }
}