{
    "dandeli": {
        "place_id": "5820025",
        "osm_id": "612546262",
        "icon": "https://nominatim.openstreetmap.org/images/mapicons/poi_place_town.p.20.png",
        "osm_type": "node",
        "licence": "Data \u00a9 OpenStreetMap contributors, ODbL 1.0. http://www.openstreetmap.org/copyright",
        "display_name": "Dandeli, Haliyala taluku, Uttara Kannada, Karnataka, 581325, India",
        "type": "town",
        "lon": "74.6236037",
        "boundingbox": [
            "15.2090284",
            "15.2890284",
            "74.5836037",
            "74.6636037"
        ],
        "importance": 0.5,
        "lat": "15.2490284",
        "class": "place"
    },
    "kundapur": {
        "place_id": "33849904",
        "osm_id": "2806096352",
        "icon": "https://nominatim.openstreetmap.org/images/mapicons/education_school.p.20.png",
        "osm_type": "node",
        "licence": "Data \u00a9 OpenStreetMap contributors, ODbL 1.0. http://www.openstreetmap.org/copyright",
        "display_name": "United Basel mission church Higher Primary School, Kundapur, Chikkansal Road, Vaderahobali, Kundapura, \u0c95\u0cc1\u0c82\u0ca6\u0cbe\u0caa\u0cc1\u0cb0 \u0ca4\u0cbe\u0cb2\u0cc2\u0c95\u0cc1, Udupi district, Karnataka, 576200, India",
        "type": "school",
        "lon": "74.6906749",
        "boundingbox": [
            "13.6343009",
            "13.6344009",
            "74.6906249",
            "74.6907249"
        ],
        "importance": 0.201,
        "lat": "13.6343509",
        "class": "amenity"
    },
    "mentions": {
        "kaveri": {
            "closest_to": "",
            "address": "Kaveri, Kollegala taluk, Chamarajanagar district, Karnataka, India",
            "longitude": "77.0635531",
            "latitude": "12.1687878",
            "blogLinks": [
                "https://www.quora.com/What-are-the-best-places-to-visit-on-a-3-day-trip-in-and-around-Karnataka"
            ],
            "locType": "river"
        },
        "earth": {
            "closest_to": "",
            "address": "Bharat Earth Movers Limited - BEML, GM Palya, Bengaluru, Bangalore Urban, Karnataka, 560001, India",
            "longitude": "77.659986649248",
            "latitude": "12.9740596",
            "blogLinks": [
                "https://www.tripoto.com/weekend-getaways/from-dandeli"
            ],
            "locType": "industrial"
        },
        "hampi": {
            "closest_to": "",
            "address": "Hampe, Hosapete taluk, Bellary district, Karnataka, 583239, India",
            "longitude": "76.4606199",
            "latitude": "15.3359769",
            "blogLinks": [
                "https://www.quora.com/What-are-the-best-places-to-visit-on-a-3-day-trip-in-and-around-Karnataka",
                "http://www.nivalink.com/destination/dandeli"
            ],
            "locType": "village"
        },
        "udipi": {
            "closest_to": "",
            "address": "Udipi Park, 2nd Cross Road, Muniyappa Layout, Murugeshpalaya, Belure Ambedkar Nagar, Bangalore Urban, Karnataka, 560067, India",
            "longitude": "77.652888",
            "latitude": "12.9530588",
            "blogLinks": [
                "http://www.nivalink.com/destination/kundapura",
                "http://www.nivalink.com/destination/dandeli"
            ],
            "locType": "restaurant"
        },
        "hogenakkal falls": {
            "closest_to": "",
            "address": "Hogenakkal Falls, Kollegala taluk, Chamarajanagar district, Karnataka, India",
            "longitude": "77.7758632",
            "latitude": "12.1184195",
            "blogLinks": [
                "https://www.quora.com/What-are-the-best-places-to-visit-on-a-3-day-trip-in-and-around-Karnataka"
            ],
            "locType": "waterfall"
        },
        "baga": {
            "closest_to": "",
            "address": "Baga Hipparaga, Basavakalyana taluku, Bidar district, Karnataka, India",
            "longitude": "76.9300452",
            "latitude": "17.6148763",
            "blogLinks": [
                "https://www.tripoto.com/weekend-getaways/from-dandeli"
            ],
            "locType": "village"
        },
        "maddur": {
            "closest_to": "",
            "address": "Maddur, Madduru taluk, Mandya district, Karnataka, 571428, India",
            "longitude": "77.0456404",
            "latitude": "12.5851916",
            "blogLinks": [
                "https://www.quora.com/What-are-the-best-places-to-visit-on-a-3-day-trip-in-and-around-Karnataka"
            ],
            "locType": "town"
        },
        "silent valley": {
            "closest_to": "",
            "address": "Silent Shores Resort, Krishnaraja Sagara Road, Kurgalli, Bastipura, Srirangapattana taluk, Mandya district, Karnataka, 570027, India",
            "longitude": "76.5819054",
            "latitude": "12.3459371",
            "blogLinks": [
                "https://www.quora.com/What-are-the-best-places-to-visit-on-a-3-day-trip-in-and-around-Karnataka"
            ],
            "locType": "hotel"
        },
        "south": {
            "closest_to": "",
            "address": "s, Vijayapura, Devanahalli taluk, Bangalore Rural, Karnataka, 562135, India",
            "longitude": "77.8040874",
            "latitude": "13.2942848",
            "blogLinks": [
                "https://www.quora.com/What-are-the-best-places-to-visit-on-a-3-day-trip-in-and-around-Karnataka"
            ],
            "locType": "residential"
        },
        "bijapur district": {
            "closest_to": "",
            "address": "Bijapur district, Karnataka, India",
            "longitude": "75.897147327785",
            "latitude": "16.81105965",
            "blogLinks": [
                "https://www.quora.com/What-are-the-best-places-to-visit-on-a-3-day-trip-in-and-around-Karnataka"
            ],
            "locType": "administrative"
        },
        "mahabaleshwara temple": {
            "closest_to": "",
            "address": "Mahabaleshwara Temple, Mission Road (Kalinga Rao Road ), Sampangirama Nagar, Shanti Nagar, Bengaluru, Bangalore Urban, Karnataka, 560001, India",
            "longitude": "77.5899749843004",
            "latitude": "12.96264945",
            "blogLinks": [
                "https://www.quora.com/What-are-some-good-places-to-visit-on-the-Goa-Mangalore-route"
            ],
            "locType": "place_of_worship"
        },
        "bijapur": {
            "closest_to": "",
            "address": "Vijayapura, Vijayapura taluk, Bijapur district, Karnataka, 586101, India",
            "longitude": "75.7175387",
            "latitude": "16.8269911",
            "blogLinks": [
                "https://www.quora.com/What-are-the-best-places-to-visit-on-a-3-day-trip-in-and-around-Karnataka",
                "http://www.nivalink.com/destination/dandeli"
            ],
            "locType": "city"
        },
        "bangalore": {
            "closest_to": "",
            "address": "Bengaluru, Bangalore Urban, Karnataka, 560001, India",
            "longitude": "77.5912997",
            "latitude": "12.9791198",
            "blogLinks": [
                "http://www.nivalink.com/destination/kundapura",
                "https://www.quora.com/What-are-the-best-places-to-visit-on-a-3-day-trip-in-and-around-Karnataka",
                "http://travel.paintedstork.com/blog/2005/12/amazing-dandeli-world-of-wilderness.html",
                "http://www.nivalink.com/destination/dandeli"
            ],
            "locType": "city"
        },
        "ambika nagar": {
            "closest_to": "",
            "address": "ambika hotel and bar, 638, 46th A cross, Rajajinagar 4th Block, Rajaji Nagar, Bengaluru, Bangalore Urban, Karnataka, 560010, India",
            "longitude": "77.5557527",
            "latitude": "12.9878802",
            "blogLinks": [
                "http://distancecalculator.globefeed.com/India_Distance_Calculator.asp?state=19",
                "http://travel.paintedstork.com/blog/2005/12/amazing-dandeli-world-of-wilderness.html"
            ],
            "locType": "restaurant"
        },
        "kusha garden": {
            "closest_to": "",
            "address": "Lava Kusha Park, Lalitadri Road, Kuvempunagara, Mysuru, Mysuru taluk, Mysuru district, Karnataka, 570001, India",
            "longitude": "76.6283545564802",
            "latitude": "12.2905505",
            "blogLinks": [
                "https://www.quora.com/What-are-the-best-places-to-visit-on-a-3-day-trip-in-and-around-Karnataka"
            ],
            "locType": "park"
        },
        "mahabaleshwara": {
            "closest_to": "",
            "address": "Mahabaleshwara Temple, Mission Road (Kalinga Rao Road ), Sampangirama Nagar, Shanti Nagar, Bengaluru, Bangalore Urban, Karnataka, 560001, India",
            "longitude": "77.5899749843004",
            "latitude": "12.96264945",
            "blogLinks": [
                "https://www.quora.com/What-are-the-best-places-to-visit-on-a-3-day-trip-in-and-around-Karnataka"
            ],
            "locType": "place_of_worship"
        },
        "hyderabad": {
            "closest_to": "",
            "address": "Hyderabad Road, Old City, Bidar, Bidar taluku, Bidar district, Karnataka, 585400, India",
            "longitude": "77.5344002",
            "latitude": "17.9003114",
            "blogLinks": [
                "https://www.quora.com/What-are-some-good-places-to-visit-on-the-Goa-Mangalore-route"
            ],
            "locType": "primary"
        },
        "hospet": {
            "closest_to": "",
            "address": "Hosapete, Hosapete taluk, Bellary district, Karnataka, 583200, India",
            "longitude": "76.3870527",
            "latitude": "15.266079",
            "blogLinks": [
                "http://www.nivalink.com/destination/dandeli"
            ],
            "locType": "town"
        },
        "salem": {
            "closest_to": "",
            "address": "Salem Kitchen, 1st Main Road, AECS Layout B Block, Brookefields, Siddapura, Bangalore Urban, Karnataka, 560066, India",
            "longitude": "77.717708",
            "latitude": "12.9645529",
            "blogLinks": [
                "https://www.quora.com/What-are-the-best-places-to-visit-on-a-3-day-trip-in-and-around-Karnataka"
            ],
            "locType": "restaurant"
        },
        "north karnataka": {
            "closest_to": "",
            "address": "N, Chaithanya Samarpan, Kadugodi, Kannamangala, Bangalore Urban, Karnataka, 560066, India",
            "longitude": "77.7660547",
            "latitude": "13.0217151",
            "blogLinks": [
                "https://www.quora.com/What-are-the-best-places-to-visit-on-a-3-day-trip-in-and-around-Karnataka",
                "http://www.nivalink.com/destination/dandeli"
            ],
            "locType": "service"
        },
        "durga temple": {
            "closest_to": "",
            "address": "Durga Temple, 29th Main, Mahadeshwara Nagara, BTM Layout, Bengaluru, Bangalore Urban, Karnataka, 560001, India",
            "longitude": "77.6125928",
            "latitude": "12.9057731",
            "blogLinks": [
                "https://www.quora.com/What-are-the-best-places-to-visit-on-a-3-day-trip-in-and-around-Karnataka"
            ],
            "locType": "place_of_worship"
        },
        "ocean": {
            "closest_to": "",
            "address": "Gayatri Ocean Blue Apartments, Thubarahalli, Siddapura, Bangalore Urban, Karnataka, 560066, India",
            "longitude": "77.7178261979437",
            "latitude": "12.95490595",
            "blogLinks": [
                "http://www.nivalink.com/destination/kundapura",
                "https://www.quora.com/What-are-the-best-places-to-visit-on-a-3-day-trip-in-and-around-Karnataka"
            ],
            "locType": "residential"
        },
        "hoysala": {
            "closest_to": "",
            "address": "Hoysala Nagar, Bengaluru, Bangalore Urban, Karnataka, 560001, India",
            "longitude": "77.6375990817051",
            "latitude": "12.97813815",
            "blogLinks": [
                "https://www.quora.com/What-are-the-best-places-to-visit-on-a-3-day-trip-in-and-around-Karnataka"
            ],
            "locType": "administrative"
        },
        "karnataka state": {
            "closest_to": "",
            "address": "Karnataka State Open University, \u0cb9\u0cc1\u0ca3\u0cb8\u0cc2\u0cb0\u0cc1 \u0cb0\u0cb8\u0ccd\u0ca4\u0cc6, Gokulam, Mysuru, Mysuru taluk, Mysuru district, Karnataka, 570001, India",
            "longitude": "76.6236231",
            "latitude": "12.315382",
            "blogLinks": [
                "http://www.holidayiq.com/Dandeli-Sightseeing-345.html"
            ],
            "locType": "university"
        },
        "karanji lake": {
            "closest_to": "",
            "address": "Karanji, Aurad taluku, Bidar district, Karnataka, India",
            "longitude": "77.5474867",
            "latitude": "18.2681849",
            "blogLinks": [
                "https://www.quora.com/What-are-the-best-places-to-visit-on-a-3-day-trip-in-and-around-Karnataka"
            ],
            "locType": "village"
        },
        "lord shiva": {
            "closest_to": "",
            "address": "Lord Shiva Temple, Marenahalli Road (South End), MICO Layout, BTM Layout, Bengaluru, Bangalore Urban, Karnataka, 560001, India",
            "longitude": "77.6024995",
            "latitude": "12.916875",
            "blogLinks": [
                "https://www.quora.com/What-are-the-best-places-to-visit-on-a-3-day-trip-in-and-around-Karnataka"
            ],
            "locType": "place_of_worship"
        },
        "kabini": {
            "closest_to": "",
            "address": "Kabini, Heggadadevanakote taluk, Mysuru district, Karnataka, India",
            "longitude": "76.4152088",
            "latitude": "12.0140065",
            "blogLinks": [
                "https://www.quora.com/What-are-the-best-places-to-visit-on-a-3-day-trip-in-and-around-Karnataka"
            ],
            "locType": "river"
        },
        "gulbarga": {
            "closest_to": "",
            "address": "Kalaburgi, Kalaburagi district, Karnataka, India",
            "longitude": "77.083333",
            "latitude": "17.166667",
            "blogLinks": [
                "https://www.quora.com/What-are-the-best-places-to-visit-on-a-3-day-trip-in-and-around-Karnataka"
            ],
            "locType": "county"
        },
        "north goa": {
            "closest_to": "",
            "address": "Carnival De Goa, Bhaskaran Road, Gupta Layout, Halasuru, Bengaluru, Bangalore Urban, Karnataka, 560001, India",
            "longitude": "77.6200027",
            "latitude": "12.9750047",
            "blogLinks": [
                "https://www.tripoto.com/weekend-getaways/from-dandeli"
            ],
            "locType": "restaurant"
        },
        "talakadu": {
            "closest_to": "",
            "address": "Talakadu, Tirumakudalu Narasipura taluk, Mysuru district, Karnataka, India",
            "longitude": "77.0293979",
            "latitude": "12.1919942",
            "blogLinks": [
                "https://www.quora.com/What-are-the-best-places-to-visit-on-a-3-day-trip-in-and-around-Karnataka"
            ],
            "locType": "village"
        },
        "kerala": {
            "closest_to": "",
            "address": "New Life Kerala Mess, Sai Baba Mandira Road, Mottappanapalaya, Indiranagar, Bengaluru, Bangalore Urban, Karnataka, 560001, India",
            "longitude": "77.6382683",
            "latitude": "12.9726449",
            "blogLinks": [
                "https://www.quora.com/What-are-the-best-places-to-visit-on-a-3-day-trip-in-and-around-Karnataka"
            ],
            "locType": "restaurant"
        },
        "india karnataka": {
            "closest_to": "",
            "address": "Karnataka, Shalivahana Road, Nazarbad, Mysuru, Mysuru taluk, Mysuru district, Karnataka, 570001, India",
            "longitude": "76.6639936",
            "latitude": "12.3084901",
            "blogLinks": [
                "https://www.quora.com/What-are-the-best-places-to-visit-on-a-3-day-trip-in-and-around-Karnataka"
            ],
            "locType": "atm"
        },
        "chamundi hill": {
            "closest_to": "",
            "address": "Chamundi Hill, Mysuru, Mysuru taluk, Mysuru district, Karnataka, 570001, India",
            "longitude": "76.6703937",
            "latitude": "12.2724017",
            "blogLinks": [
                "https://www.quora.com/What-are-the-best-places-to-visit-on-a-3-day-trip-in-and-around-Karnataka"
            ],
            "locType": "peak"
        },
        "himavad": {
            "closest_to": "",
            "address": "Gopalaswami Temple, Gopal Swami Betta road, Devarahalli, Gundlupet taluk, Chamarajanagar district, Karnataka, India",
            "longitude": "76.5804063",
            "latitude": "11.7206016",
            "blogLinks": [
                "https://www.quora.com/What-are-the-best-places-to-visit-on-a-3-day-trip-in-and-around-Karnataka"
            ],
            "locType": "place_of_worship"
        },
        "bidar": {
            "closest_to": "",
            "address": "Bidar, Bidar district, Karnataka, India",
            "longitude": "77.333333",
            "latitude": "18.083333",
            "blogLinks": [
                "https://www.quora.com/What-are-the-best-places-to-visit-on-a-3-day-trip-in-and-around-Karnataka"
            ],
            "locType": "county"
        },
        "golden temple": {
            "closest_to": "",
            "address": "Padmasambhava Buddhist Vihara (Golden Temple), MDR21, Koppa, Piriyapattana taluk, Mysuru district, Karnataka, India",
            "longitude": "75.9674656",
            "latitude": "12.430821",
            "blogLinks": [
                "https://www.quora.com/What-are-the-best-places-to-visit-on-a-3-day-trip-in-and-around-Karnataka"
            ],
            "locType": "place_of_worship"
        },
        "california": {
            "closest_to": "",
            "address": "California Pizza Kitchen, 10th Main Road, Indiranagar 2nd Stage, Indiranagar, Bengaluru, Bangalore Urban, Karnataka, 560001, India",
            "longitude": "77.640789",
            "latitude": "12.9759858",
            "blogLinks": [
                "https://www.quora.com/What-are-some-good-places-to-visit-on-the-Goa-Mangalore-route"
            ],
            "locType": "restaurant"
        },
        "india bengaluru": {
            "closest_to": "",
            "address": "Karnataka High Court, Dr B R Ambedkar Veedhi, Shantala Nagar, Gandhinagar, Bengaluru, Bangalore Urban, Karnataka, 560001, India",
            "longitude": "77.5925914",
            "latitude": "12.977944",
            "blogLinks": [
                "https://www.quora.com/What-are-some-good-places-to-visit-on-the-Goa-Mangalore-route"
            ],
            "locType": "courthouse"
        },
        "pune": {
            "closest_to": "",
            "address": "Pune - Machilipatnam Highway, Kaudiyala, Basavakalyana taluku, Bidar district, Karnataka, India",
            "longitude": "76.9479122",
            "latitude": "17.8199745",
            "blogLinks": [
                "http://www.nivalink.com/destination/dandeli"
            ],
            "locType": "trunk"
        },
        "mahadeshwara": {
            "closest_to": "",
            "address": "Mahadeshwara Nagara, BTM Layout, Bengaluru, Bangalore Urban, Karnataka, 560001, India",
            "longitude": "77.6123722",
            "latitude": "12.9076689",
            "blogLinks": [
                "https://www.quora.com/What-are-the-best-places-to-visit-on-a-3-day-trip-in-and-around-Karnataka"
            ],
            "locType": "neighbourhood"
        },
        "bengaluru": {
            "closest_to": "",
            "address": "Bengaluru, Bangalore Urban, Karnataka, 560001, India",
            "longitude": "77.5912997",
            "latitude": "12.9791198",
            "blogLinks": [
                "https://www.quora.com/What-are-the-best-places-to-visit-on-a-3-day-trip-in-and-around-Karnataka"
            ],
            "locType": "city"
        },
        "diggi": {
            "closest_to": "",
            "address": "Diggi, Shahapura taluku, Yadagiri district, Karnataka, India",
            "longitude": "76.8025595",
            "latitude": "16.7083137",
            "blogLinks": [
                "http://www.holidayiq.com/Dandeli-Sightseeing-345.html"
            ],
            "locType": "village"
        },
        "mumbai": {
            "closest_to": "",
            "address": "Mumbai Spice, 18/2, 10th Cross, Malleswaram, Vyalikaval, Malleswaram, Bengaluru, Bangalore Urban, Karnataka, 560003, India",
            "longitude": "77.5718472",
            "latitude": "13.0002869",
            "blogLinks": [
                "https://www.quora.com/What-are-some-good-places-to-visit-on-the-Goa-Mangalore-route"
            ],
            "locType": "restaurant"
        },
        "bombay": {
            "closest_to": "",
            "address": "Bombay tea hotel, Hosahalli Main Road, Rajajinagar 6th Block, Goripalya, Bengaluru, Bangalore Urban, Karnataka, 560001, India",
            "longitude": "77.5500256",
            "latitude": "12.9632318",
            "blogLinks": [
                "http://travel.paintedstork.com/blog/2005/12/amazing-dandeli-world-of-wilderness.html"
            ],
            "locType": "cafe"
        },
        "mysore": {
            "closest_to": "",
            "address": "Mysuru, Mysuru taluk, Mysuru district, Karnataka, 570001, India",
            "longitude": "76.6553609",
            "latitude": "12.3051828",
            "blogLinks": [
                "https://www.quora.com/What-are-the-best-places-to-visit-on-a-3-day-trip-in-and-around-Karnataka"
            ],
            "locType": "city"
        },
        "ooty": {
            "closest_to": "",
            "address": "Ooty Road, Vidyaranyapuram, Mysuru, Mysuru taluk, Mysuru district, Karnataka, 570001, India",
            "longitude": "76.6586807",
            "latitude": "12.2774807",
            "blogLinks": [
                "https://www.quora.com/What-are-the-best-places-to-visit-on-a-3-day-trip-in-and-around-Karnataka"
            ],
            "locType": "primary"
        },
        "kuvempu": {
            "closest_to": "",
            "address": "Kuvempu, Kengeri Main Road, ITI Layout, Jnana Bharathi, Nagadevanahalli, Bangalore Urban, Karnataka, 560056, India",
            "longitude": "77.5064032",
            "latitude": "12.9560369",
            "blogLinks": [
                "https://www.quora.com/What-are-the-best-places-to-visit-on-a-3-day-trip-in-and-around-Karnataka"
            ],
            "locType": "artwork"
        },
        "maharashtra": {
            "closest_to": "",
            "address": "Bank of Maharashtra, 24th Main, K R Layout, Puttenahalli, Bengaluru, Bangalore Urban, Karnataka, 560001, India",
            "longitude": "77.5856013",
            "latitude": "12.9049455",
            "blogLinks": [
                "http://www.holidayiq.com/Dandeli-Sightseeing-345.html",
                "http://travel.paintedstork.com/blog/2005/12/amazing-dandeli-world-of-wilderness.html",
                "http://www.nivalink.com/destination/dandeli"
            ],
            "locType": "bank"
        },
        "nandi hills": {
            "closest_to": "",
            "address": "Nandi Upahara, Nandhi Hills Road, Kottige Thimmanahalli, Devanahalli taluk, Bangalore Rural, Karnataka, India",
            "longitude": "77.7194741670394",
            "latitude": "13.268142",
            "blogLinks": [
                "https://www.quora.com/What-are-the-best-places-to-visit-on-a-3-day-trip-in-and-around-Karnataka"
            ],
            "locType": "hotel"
        },
        "mandovi river": {
            "closest_to": "",
            "address": "Mandovi Motors, Wheeler Road Flyover, MSO Colony, Cox Town, Bengaluru, Bangalore Urban, Karnataka, 560001, India",
            "longitude": "77.6190505",
            "latitude": "12.9965335",
            "blogLinks": [
                "https://www.tripoto.com/weekend-getaways/from-dandeli"
            ],
            "locType": "car"
        },
        "kadamba": {
            "closest_to": "",
            "address": "Kadamba Avenue, R. Narayanapura, Brookefields, Dodsworth Enclave, Bangalore Urban, Karnataka, 560066, India",
            "longitude": "77.7436954",
            "latitude": "12.9703178",
            "blogLinks": [
                "http://www.holidayiq.com/Dandeli-Sightseeing-345.html",
                "https://www.quora.com/What-are-the-best-places-to-visit-on-a-3-day-trip-in-and-around-Karnataka"
            ],
            "locType": "residential"
        },
        "sri krishna temple": {
            "closest_to": "",
            "address": "Sri Krishna Temple Road, Old Binnamangala, Hoysala Nagar, Bengaluru, Bangalore Urban, Karnataka, 560001, India",
            "longitude": "77.6437236",
            "latitude": "12.9791699",
            "blogLinks": [
                "https://www.quora.com/What-are-the-best-places-to-visit-on-a-3-day-trip-in-and-around-Karnataka"
            ],
            "locType": "unclassified"
        },
        "kotilingeshwara": {
            "closest_to": "",
            "address": "Kotilingeshwara Temple, SH95, Robertsonpet, Pichchahalli, Bangarapet taluk, Kolar district, Karnataka, 563122, India",
            "longitude": "78.2953283564827",
            "latitude": "12.99473275",
            "blogLinks": [
                "http://www.nivalink.com/destination/kundapura"
            ],
            "locType": "place_of_worship"
        },
        "tagore": {
            "closest_to": "",
            "address": "Rabindranath Tagore Nagar, Bengaluru, Bangalore Urban, Karnataka, 560001, India",
            "longitude": "77.595715",
            "latitude": "13.0227204",
            "blogLinks": [
                "https://www.quora.com/What-are-the-best-places-to-visit-on-a-3-day-trip-in-and-around-Karnataka",
                "https://www.quora.com/What-are-some-good-places-to-visit-on-the-Goa-Mangalore-route"
            ],
            "locType": "suburb"
        },
        "manjunatha temple": {
            "closest_to": "",
            "address": "Devagiri Manjunatha Swamy Temple, 30th Cross, Jayanagar 8th Block, Banashankari 2nd Stage, Bengaluru, Bangalore Urban, Karnataka, 560001, India",
            "longitude": "77.5640116772773",
            "latitude": "12.9211928",
            "blogLinks": [
                "https://www.quora.com/What-are-the-best-places-to-visit-on-a-3-day-trip-in-and-around-Karnataka"
            ],
            "locType": "place_of_worship"
        },
        "north kerala": {
            "closest_to": "",
            "address": "New Life Kerala Mess, Sai Baba Mandira Road, Mottappanapalaya, Indiranagar, Bengaluru, Bangalore Urban, Karnataka, 560001, India",
            "longitude": "77.6382683",
            "latitude": "12.9726449",
            "blogLinks": [
                "http://www.nivalink.com/destination/kundapura"
            ],
            "locType": "restaurant"
        },
        "brindavan gardens": {
            "closest_to": "",
            "address": "Brindavan Gardens, Krishnaraja Sagara Road, Krushnarajasagara, Srirangapattana taluk, Mandya district, Karnataka, India",
            "longitude": "76.5741029405883",
            "latitude": "12.4208084",
            "blogLinks": [
                "https://www.quora.com/What-are-the-best-places-to-visit-on-a-3-day-trip-in-and-around-Karnataka"
            ],
            "locType": "garden"
        },
        "bandipur": {
            "closest_to": "",
            "address": "Bandipur, Gundlupet taluk, Chamarajanagar district, Karnataka, India",
            "longitude": "76.6285739",
            "latitude": "11.6662708",
            "blogLinks": [
                "https://www.quora.com/What-are-the-best-places-to-visit-on-a-3-day-trip-in-and-around-Karnataka"
            ],
            "locType": "village"
        },
        "daria daulat gardens": {
            "closest_to": "",
            "address": "Daria Daulat Bagh Museum, Bangalore-Mysore Road, Srirangapatna, Srirangapattana taluk, Mandya district, Karnataka, 571438, India",
            "longitude": "76.6969039957315",
            "latitude": "12.4200182",
            "blogLinks": [
                "https://www.quora.com/What-are-the-best-places-to-visit-on-a-3-day-trip-in-and-around-Karnataka"
            ],
            "locType": "museum"
        },
        "bandipur national park": {
            "closest_to": "",
            "address": "Bandipur National Park, Kozhikode - Kollegal Highway, Gundlupet taluk, Chamarajanagar district, Karnataka, India",
            "longitude": "76.4314968740264",
            "latitude": "11.76682425",
            "blogLinks": [
                "https://www.quora.com/What-are-the-best-places-to-visit-on-a-3-day-trip-in-and-around-Karnataka"
            ],
            "locType": "national_park"
        },
        "bangkok": {
            "closest_to": "",
            "address": "One night in Bangkok, 12th Main Road, HAL 2nd Stage, Indiranagar, Bengaluru, Bangalore Urban, Karnataka, 560001, India",
            "longitude": "77.6382633",
            "latitude": "12.9701967",
            "blogLinks": [
                "https://www.quora.com/What-are-the-best-places-to-visit-on-a-3-day-trip-in-and-around-Karnataka"
            ],
            "locType": "bar"
        },
        "sharadamba": {
            "closest_to": "",
            "address": "Sharadamba Temple, 7th Main Road, Yediyur, Thyagaraja Nagar, Bengaluru, Bangalore Urban, Karnataka, 560001, India",
            "longitude": "77.5656194",
            "latitude": "12.9321898",
            "blogLinks": [
                "https://www.quora.com/What-are-the-best-places-to-visit-on-a-3-day-trip-in-and-around-Karnataka"
            ],
            "locType": "place_of_worship"
        },
        "nataraja": {
            "closest_to": "",
            "address": "Nataraja, Sirur Park Road, Vyalikaval, Seshadripuram, Bengaluru, Bangalore Urban, Karnataka, 560001, India",
            "longitude": "77.5730381173154",
            "latitude": "12.9900332",
            "blogLinks": [
                "https://www.quora.com/What-are-the-best-places-to-visit-on-a-3-day-trip-in-and-around-Karnataka"
            ],
            "locType": "cinema"
        },
        "japanese garden": {
            "closest_to": "",
            "address": "Hae Kum Gang (Korean/Japanese), 20, Castle Street, Shantala Nagar, Ashok Nagar, Bengaluru, Bangalore Urban, Karnataka, 560001, India",
            "longitude": "77.6055915",
            "latitude": "12.9655328",
            "blogLinks": [
                "https://www.tripoto.com/weekend-getaways/from-dandeli"
            ],
            "locType": "restaurant"
        },
        "goa": {
            "closest_to": "",
            "address": "Carnival De Goa, Bhaskaran Road, Gupta Layout, Halasuru, Bengaluru, Bangalore Urban, Karnataka, 560001, India",
            "longitude": "77.6200027",
            "latitude": "12.9750047",
            "blogLinks": [
                "http://www.holidayiq.com/Dandeli-Sightseeing-345.html",
                "https://www.tripoto.com/weekend-getaways/from-dandeli",
                "https://www.quora.com/What-are-some-good-places-to-visit-on-the-Goa-Mangalore-route",
                "http://travel.paintedstork.com/blog/2005/12/amazing-dandeli-world-of-wilderness.html"
            ],
            "locType": "restaurant"
        },
        "karnataka": {
            "closest_to": "",
            "address": "Karnataka, Shalivahana Road, Nazarbad, Mysuru, Mysuru taluk, Mysuru district, Karnataka, 570001, India",
            "longitude": "76.6639936",
            "latitude": "12.3084901",
            "blogLinks": [
                "http://www.nivalink.com/destination/kundapura",
                "http://www.holidayiq.com/Dandeli-Sightseeing-345.html",
                "http://distancecalculator.globefeed.com/India_Distance_Calculator.asp?state=19",
                "http://travel.india.com/dandeli/",
                "https://www.quora.com/What-are-the-best-places-to-visit-on-a-3-day-trip-in-and-around-Karnataka",
                "https://www.quora.com/What-are-some-good-places-to-visit-on-the-Goa-Mangalore-route",
                "http://www.nivalink.com/destination/dandeli"
            ],
            "locType": "atm"
        },
        "tumkur": {
            "closest_to": "",
            "address": "Tumakuru, Tumkur district, Karnataka, India",
            "longitude": "77.0002445",
            "latitude": "13.4999406",
            "blogLinks": [
                "http://travel.paintedstork.com/blog/2005/12/amazing-dandeli-world-of-wilderness.html"
            ],
            "locType": "county"
        },
        "nilgiris": {
            "closest_to": "",
            "address": "Nilgiris, Brigade Road, Tasker Town, Ashok Nagar, Bengaluru, Bangalore Urban, Karnataka, 560001, India",
            "longitude": "77.6069792",
            "latitude": "12.9725052",
            "blogLinks": [
                "https://www.quora.com/What-are-the-best-places-to-visit-on-a-3-day-trip-in-and-around-Karnataka"
            ],
            "locType": "supermarket"
        },
        "brahmagiri range": {
            "closest_to": "",
            "address": "Brahmagiri Betta, Molakalmuru taluku, Chitradurga district, Karnataka, India",
            "longitude": "76.8122474",
            "latitude": "14.8001586",
            "blogLinks": [
                "https://www.quora.com/What-are-the-best-places-to-visit-on-a-3-day-trip-in-and-around-Karnataka"
            ],
            "locType": "peak"
        },
        "mahadeshwara hills": {
            "closest_to": "",
            "address": "Sri Mahadeshwara Filling Station, Outer Ring Road, Seven Hills Layout, Kathriguppe, Bengaluru, Bangalore Urban, Karnataka, 560001, India",
            "longitude": "77.5414216",
            "latitude": "12.932367",
            "blogLinks": [
                "https://www.quora.com/What-are-the-best-places-to-visit-on-a-3-day-trip-in-and-around-Karnataka"
            ],
            "locType": "fuel"
        },
        "kodava": {
            "closest_to": "",
            "address": "Kodava Samaja, M V Jayaram Road, Jayamahal Extension, Vasantnagar, Bengaluru, Bangalore Urban, Karnataka, 560001, India",
            "longitude": "77.5947466457941",
            "latitude": "12.9946227",
            "blogLinks": [
                "https://www.quora.com/What-are-the-best-places-to-visit-on-a-3-day-trip-in-and-around-Karnataka"
            ],
            "locType": "community_centre"
        },
        "chamarajanagar": {
            "closest_to": "",
            "address": "Chamarajanagar, Nanjangudu-Chamarajanagar Road, Kadahalli, Chamarajanagara taluk, Chamarajanagar district, Karnataka, 571313, India",
            "longitude": "76.9331345",
            "latitude": "11.9346624",
            "blogLinks": [
                "https://www.quora.com/What-are-the-best-places-to-visit-on-a-3-day-trip-in-and-around-Karnataka"
            ],
            "locType": "station"
        },
        "bahubali": {
            "closest_to": "",
            "address": "Bahubali Statue, SH8, Shravanabelagola, Channarayapattana taluk, Hassan district, Karnataka, 573135, India",
            "longitude": "76.4846128",
            "latitude": "12.8540505",
            "blogLinks": [
                "https://www.quora.com/What-are-the-best-places-to-visit-on-a-3-day-trip-in-and-around-Karnataka"
            ],
            "locType": "place_of_worship"
        },
        "tamil nadu": {
            "closest_to": "",
            "address": "KARNATAKA BANK, Diwan Bhadur Road, Five Corner, RS Puram, Coimbatore, Coimbatore district, Tamil Nadu, 641001, India",
            "longitude": "76.9514152",
            "latitude": "11.0025894",
            "blogLinks": [
                "https://www.quora.com/What-are-the-best-places-to-visit-on-a-3-day-trip-in-and-around-Karnataka"
            ],
            "locType": "bank"
        },
        "kalyan": {
            "closest_to": "",
            "address": "Kalyan Nagar, Chelekere, Bangalore Urban, Karnataka, India",
            "longitude": "77.6403368",
            "latitude": "13.0221416",
            "blogLinks": [
                "https://www.quora.com/What-are-the-best-places-to-visit-on-a-3-day-trip-in-and-around-Karnataka"
            ],
            "locType": "suburb"
        },
        "mandovi": {
            "closest_to": "",
            "address": "Mandovi Motors, Wheeler Road Flyover, MSO Colony, Cox Town, Bengaluru, Bangalore Urban, Karnataka, 560001, India",
            "longitude": "77.6190505",
            "latitude": "12.9965335",
            "blogLinks": [
                "https://www.quora.com/What-are-the-best-places-to-visit-on-a-3-day-trip-in-and-around-Karnataka"
            ],
            "locType": "car"
        },
        "tarikere": {
            "closest_to": "",
            "address": "Tarikere, Madduru taluk, Mandya district, Karnataka, India",
            "longitude": "76.9606245",
            "latitude": "12.7569125",
            "blogLinks": [
                "https://www.quora.com/What-are-the-best-places-to-visit-on-a-3-day-trip-in-and-around-Karnataka"
            ],
            "locType": "village"
        }
    }
}