{
    "kollur": {
        "place_id": "638186",
        "osm_id": "245625243",
        "icon": "https://nominatim.openstreetmap.org/images/mapicons/poi_place_village.p.20.png",
        "osm_type": "node",
        "licence": "Data \u00a9 OpenStreetMap contributors, ODbL 1.0. http://www.openstreetmap.org/copyright",
        "display_name": "Kollur, \u0c95\u0cc1\u0c82\u0ca6\u0cbe\u0caa\u0cc1\u0cb0 \u0ca4\u0cbe\u0cb2\u0cc2\u0c95\u0cc1, Udupi district, Karnataka, 576220, India",
        "type": "village",
        "lon": "74.8137959",
        "boundingbox": [
            "13.8434049",
            "13.8834049",
            "74.7937959",
            "74.8337959"
        ],
        "importance": 0.475,
        "lat": "13.8634049",
        "class": "place"
    },
    "hampi": {
        "place_id": "2384737",
        "osm_id": "345110048",
        "icon": "https://nominatim.openstreetmap.org/images/mapicons/poi_place_village.p.20.png",
        "osm_type": "node",
        "licence": "Data \u00a9 OpenStreetMap contributors, ODbL 1.0. http://www.openstreetmap.org/copyright",
        "display_name": "Hampe, Hosapete taluk, Bellary district, Karnataka, 583239, India",
        "type": "village",
        "lon": "76.4606199",
        "boundingbox": [
            "15.3159769",
            "15.3559769",
            "76.4406199",
            "76.4806199"
        ],
        "importance": 0.375,
        "lat": "15.3359769",
        "class": "place"
    },
    "mentions": {
        "hanuman temple": {
            "closest_to": "",
            "address": "Hanuman Temple, 1st Cross Road, MEI Colony, Peenya, Bengaluru, Bangalore Urban, Karnataka, 560001, India",
            "longitude": "77.5273276",
            "latitude": "13.0343487",
            "blogLinks": [
                "https://www.tripoto.com/places-to-visit/india/hampi"
            ],
            "locType": "place_of_worship"
        },
        "orissa": {
            "closest_to": "",
            "address": "Little Orissa, 18th Main Road, Babasaheb Colony, Kodihalli, Bengaluru, Bangalore Urban, Karnataka, 560001, India",
            "longitude": "77.6448007",
            "latitude": "12.9622425",
            "blogLinks": [
                "https://en.wikipedia.org/wiki/Hampi"
            ],
            "locType": "restaurant"
        },
        "ghat": {
            "closest_to": "",
            "address": "Vyalikaval Dhobi Ghat, Malleswaram, Bengaluru, Bangalore Urban, Karnataka, 560001, India",
            "longitude": "77.5746371380719",
            "latitude": "13.00467655",
            "blogLinks": [
                "http://www.holidayiq.com/Hampi-Sightseeing-370-p2.html"
            ],
            "locType": "industrial"
        },
        "mumbai": {
            "closest_to": "",
            "address": "Mumbai Spice, 18/2, 10th Cross, Malleswaram, Vyalikaval, Malleswaram, Bengaluru, Bangalore Urban, Karnataka, 560003, India",
            "longitude": "77.5718472",
            "latitude": "13.0002869",
            "blogLinks": [
                "https://www.tripoto.com/weekend-getaways/from-kollur",
                "https://www.tripadvisor.in/ShowTopic-g297627-i2498-k3449059-Udipi_Kollur_Shimoga_Sringeri_Horanadu_Dharmasthala-Karnataka.html"
            ],
            "locType": "restaurant"
        },
        "udipi": {
            "closest_to": "",
            "address": "Udipi Park, 2nd Cross Road, Muniyappa Layout, Murugeshpalaya, Belure Ambedkar Nagar, Bangalore Urban, Karnataka, 560067, India",
            "longitude": "77.652888",
            "latitude": "12.9530588",
            "blogLinks": [
                "http://www.nivalink.com/destination/kollur",
                "https://www.tripadvisor.in/ShowTopic-g297627-i2498-k3449059-Udipi_Kollur_Shimoga_Sringeri_Horanadu_Dharmasthala-Karnataka.html"
            ],
            "locType": "restaurant"
        },
        "balakrishna": {
            "closest_to": "",
            "address": "Balakrishna Rangamandira, Gokhale Road, Rajarajeshwari Nagar, Patanagere, Bangalore Urban, Karnataka, 560098, India",
            "longitude": "77.5200084",
            "latitude": "12.9176066",
            "blogLinks": [
                "http://www.holidayiq.com/Hampi-Sightseeing-370.html"
            ],
            "locType": "playground"
        },
        "bangalore": {
            "closest_to": "",
            "address": "Bengaluru, Bangalore Urban, Karnataka, 560001, India",
            "longitude": "77.5912997",
            "latitude": "12.9791198",
            "blogLinks": [
                "http://www.ticketgoose.com/bus-tickets/hampi-to-kollur",
                "http://www.nivalink.com/destination/kollur",
                "http://travel.india.com/hampi/places-to-visit/",
                "https://www.tripadvisor.com/ShowTopic-g297627-i2498-k6657230-Visiting_Hampi_Badami_Aihole_Pattadakal_Bijapur-Karnataka.html",
                "http://www.nivalink.com/destination/hospet",
                "https://en.wikipedia.org/wiki/Hampi"
            ],
            "locType": "city"
        },
        "lakshmi": {
            "closest_to": "",
            "address": "Lakshmi, Tavarekere Main Road, Sadgunte Palya, Madivala, Bengaluru, Bangalore Urban, Karnataka, 560001, India",
            "longitude": "77.6075298044091",
            "latitude": "12.9251835",
            "blogLinks": [
                "https://www.tripoto.com/places-to-visit/india/hampi"
            ],
            "locType": "cinema"
        },
        "hyderabad": {
            "closest_to": "",
            "address": "Hyderabad Road, Old City, Bidar, Bidar taluku, Bidar district, Karnataka, 585400, India",
            "longitude": "77.5344002",
            "latitude": "17.9003114",
            "blogLinks": [
                "http://www.nivalink.com/destination/hospet",
                "http://www.ticketgoose.com/bus-tickets/hampi-to-kollur"
            ],
            "locType": "primary"
        },
        "beijing": {
            "closest_to": "",
            "address": "Beijing bites, 407, Kammanahalli Main Road, GNR Gardens, Kalyan Nagar, Bengaluru, Bangalore Urban, Karnataka, 560043, India",
            "longitude": "77.637388",
            "latitude": "13.0245897",
            "blogLinks": [
                "https://en.wikipedia.org/wiki/Hampi"
            ],
            "locType": "restaurant"
        },
        "new delhi": {
            "closest_to": "",
            "address": "Regional Institute of Education, Chaduranga Road, Jayalakshmipuram, Mysuru, Mysuru taluk, Mysuru district, Karnataka, 570001, India",
            "longitude": "76.6142178649055",
            "latitude": "12.30911465",
            "blogLinks": [
                "http://www.ticketgoose.com/bus-tickets/hampi-to-kollur",
                "https://en.wikipedia.org/wiki/Hampi"
            ],
            "locType": "college"
        },
        "mandovi river": {
            "closest_to": "",
            "address": "Mandovi Motors, Wheeler Road Flyover, MSO Colony, Cox Town, Bengaluru, Bangalore Urban, Karnataka, 560001, India",
            "longitude": "77.6190505",
            "latitude": "12.9965335",
            "blogLinks": [
                "https://www.tripoto.com/weekend-getaways/from-kollur"
            ],
            "locType": "car"
        },
        "paris": {
            "closest_to": "",
            "address": "Paris Bakery, 6th Cross Road (Leela Palace Road), Babasaheb Colony, Kodihalli, Bengaluru, Bangalore Urban, Karnataka, 560001, India",
            "longitude": "77.6492",
            "latitude": "12.9654449",
            "blogLinks": [
                "https://en.wikipedia.org/wiki/Hampi"
            ],
            "locType": "bakery"
        },
        "karnataka": {
            "closest_to": "",
            "address": "Karnataka, Shalivahana Road, Nazarbad, Mysuru, Mysuru taluk, Mysuru district, Karnataka, 570001, India",
            "longitude": "76.6639936",
            "latitude": "12.3084901",
            "blogLinks": [
                "http://www.ticketgoose.com/bus-tickets/hampi-to-kollur",
                "http://www.nivalink.com/destination/kollur",
                "https://www.tripoto.com/places-to-visit/india/hampi",
                "https://www.tripoto.com/weekend-getaways/from-kollur",
                "http://www.nivalink.com/destination/hospet",
                "https://en.wikipedia.org/wiki/Hampi",
                "http://www.mapsofindia.com/karnataka/places-to-visit-in-hampi.html",
                "http://www.karnatakatourism.org/"
            ],
            "locType": "atm"
        },
        "bengal": {
            "closest_to": "",
            "address": "Bengal Lamps, Konadasapura, Bangalore Urban, Karnataka, 560066, India",
            "longitude": "77.7517038151245",
            "latitude": "13.0492646",
            "blogLinks": [
                "https://www.tripoto.com/places-to-visit/india/hampi"
            ],
            "locType": "industrial"
        },
        "japanese garden": {
            "closest_to": "",
            "address": "Hae Kum Gang (Korean/Japanese), 20, Castle Street, Shantala Nagar, Ashok Nagar, Bengaluru, Bangalore Urban, Karnataka, 560001, India",
            "longitude": "77.6055915",
            "latitude": "12.9655328",
            "blogLinks": [
                "https://www.tripoto.com/weekend-getaways/from-kollur"
            ],
            "locType": "restaurant"
        },
        "north kerala": {
            "closest_to": "",
            "address": "New Life Kerala Mess, Sai Baba Mandira Road, Mottappanapalaya, Indiranagar, Bengaluru, Bangalore Urban, Karnataka, 560001, India",
            "longitude": "77.6382683",
            "latitude": "12.9726449",
            "blogLinks": [
                "http://www.nivalink.com/destination/kollur"
            ],
            "locType": "restaurant"
        },
        "goa": {
            "closest_to": "",
            "address": "Carnival De Goa, Bhaskaran Road, Gupta Layout, Halasuru, Bengaluru, Bangalore Urban, Karnataka, 560001, India",
            "longitude": "77.6200027",
            "latitude": "12.9750047",
            "blogLinks": [
                "https://www.tripoto.com/weekend-getaways/from-kollur"
            ],
            "locType": "restaurant"
        },
        "north goa": {
            "closest_to": "",
            "address": "Carnival De Goa, Bhaskaran Road, Gupta Layout, Halasuru, Bengaluru, Bangalore Urban, Karnataka, 560001, India",
            "longitude": "77.6200027",
            "latitude": "12.9750047",
            "blogLinks": [
                "https://www.tripoto.com/weekend-getaways/from-kollur"
            ],
            "locType": "restaurant"
        },
        "vijaya vittala": {
            "closest_to": "",
            "address": "Vijaya Vittala School, 1st Cross Road, Sarasvatipuram, Mysuru, Mysuru taluk, Mysuru district, Karnataka, 570001, India",
            "longitude": "76.6245510778317",
            "latitude": "12.30122945",
            "blogLinks": [
                "http://www.holidayiq.com/Hampi-Sightseeing-370-p2.html"
            ],
            "locType": "yes"
        },
        "andhra pradesh": {
            "closest_to": "",
            "address": "Karnataka, West Mada Street, Srivari Temple, Tirumala, Chittoor, Andhra Pradesh, 517504, India",
            "longitude": "79.3452447",
            "latitude": "13.6841958",
            "blogLinks": [
                "https://www.tripoto.com/places-to-visit/india/hampi"
            ],
            "locType": "hotel"
        },
        "vittala": {
            "closest_to": "",
            "address": "Vijaya Vittala PU College, Sahukar Chennaiah Road, Sarasvatipuram, Mysuru, Mysuru taluk, Mysuru district, Karnataka, 570001, India",
            "longitude": "76.6237847175927",
            "latitude": "12.30129655",
            "blogLinks": [
                "http://travel.india.com/hampi/places-to-visit/",
                "http://www.holidayiq.com/Hampi-Sightseeing-370-p2.html",
                "https://www.tripoto.com/places-to-visit/india/hampi"
            ],
            "locType": "yes"
        },
        "baga": {
            "closest_to": "",
            "address": "Baga Hipparaga, Basavakalyana taluku, Bidar district, Karnataka, India",
            "longitude": "76.9300452",
            "latitude": "17.6148763",
            "blogLinks": [
                "https://www.tripoto.com/weekend-getaways/from-kollur"
            ],
            "locType": "village"
        },
        "pampa": {
            "closest_to": "",
            "address": "Pampa Mahakavi Road, Ranasingpet, Kalasipalya, Bengaluru, Bangalore Urban, Karnataka, 560001, India",
            "longitude": "77.5719518",
            "latitude": "12.9581179",
            "blogLinks": [
                "https://en.wikipedia.org/wiki/Hampi"
            ],
            "locType": "secondary"
        }
    }
}