{
    "hampi": {
        "place_id": "2384737",
        "osm_id": "345110048",
        "icon": "https://nominatim.openstreetmap.org/images/mapicons/poi_place_village.p.20.png",
        "osm_type": "node",
        "licence": "Data \u00a9 OpenStreetMap contributors, ODbL 1.0. http://www.openstreetmap.org/copyright",
        "display_name": "Hampe, Hosapete taluk, Bellary district, Karnataka, 583239, India",
        "type": "village",
        "lon": "76.4606199",
        "boundingbox": [
            "15.3159769",
            "15.3559769",
            "76.4406199",
            "76.4806199"
        ],
        "importance": 0.375,
        "lat": "15.3359769",
        "class": "place"
    },
    "mentions": {
        "coimbatore": {
            "closest_to": "",
            "address": "Gundlupet - Coimbatore Highway, Bandipur, Gundlupet taluk, Chamarajanagar district, Karnataka, India",
            "longitude": "76.6318246",
            "latitude": "11.6793976",
            "blogLinks": [
                "https://www.tripoto.com/weekend-getaways/from-hampi"
            ],
            "locType": "trunk"
        },
        "beijing": {
            "closest_to": "",
            "address": "Beijing bites, 407, Kammanahalli Main Road, GNR Gardens, Kalyan Nagar, Bengaluru, Bangalore Urban, Karnataka, 560043, India",
            "longitude": "77.637388",
            "latitude": "13.0245897",
            "blogLinks": [
                "https://en.wikipedia.org/wiki/Hampi"
            ],
            "locType": "restaurant"
        },
        "bengal": {
            "closest_to": "",
            "address": "Bengal Lamps, Konadasapura, Bangalore Urban, Karnataka, 560066, India",
            "longitude": "77.7517038151245",
            "latitude": "13.0492646",
            "blogLinks": [
                "https://www.tripoto.com/places-to-visit/india/hampi"
            ],
            "locType": "industrial"
        },
        "belgaum": {
            "closest_to": "",
            "address": "Belgaum, Belgaum district, Karnataka, India",
            "longitude": "74.75",
            "latitude": "16.333333",
            "blogLinks": [
                "http://hampi.in/how-to-reach-hampi"
            ],
            "locType": "county"
        },
        "maharashtra": {
            "closest_to": "",
            "address": "Bank of Maharashtra, 24th Main, K R Layout, Puttenahalli, Bengaluru, Bangalore Urban, Karnataka, 560001, India",
            "longitude": "77.5856013",
            "latitude": "12.9049455",
            "blogLinks": [
                "http://hampi.in/how-to-reach-hampi"
            ],
            "locType": "bank"
        },
        "gokul road": {
            "closest_to": "",
            "address": "Gokul, Hubballi taluku, Dharwad district, Karnataka, India",
            "longitude": "75.0813826",
            "latitude": "15.3496233",
            "blogLinks": [
                "http://www.travelhaathi.com/hampi-travel-guide/"
            ],
            "locType": "village"
        },
        "dharwar": {
            "closest_to": "",
            "address": "Dharawad, Dharwad district, Karnataka, India",
            "longitude": "75.333333",
            "latitude": "15.5",
            "blogLinks": [
                "https://www.tripadvisor.co.uk/ShowUserReviews-g319725-r21525135-Hampi_Karnataka.html"
            ],
            "locType": "county"
        },
        "domestic airport": {
            "closest_to": "",
            "address": "Mangalore Airport Old Terminal - Departure Domestic; Arrival and Departure International, SH67, Gandhinagar, Kenjar, Mangaluru taluk, Dakshina Kannada, Karnataka, 575015, India",
            "longitude": "74.8901343659439",
            "latitude": "12.96316115",
            "blogLinks": [
                "http://www.travelhaathi.com/hampi-travel-guide/"
            ],
            "locType": "terminal"
        },
        "japanese garden": {
            "closest_to": "",
            "address": "Hae Kum Gang (Korean/Japanese), 20, Castle Street, Shantala Nagar, Ashok Nagar, Bengaluru, Bangalore Urban, Karnataka, 560001, India",
            "longitude": "77.6055915",
            "latitude": "12.9655328",
            "blogLinks": [
                "https://www.tripoto.com/weekend-getaways/from-hampi"
            ],
            "locType": "restaurant"
        },
        "bangalore": {
            "closest_to": "",
            "address": "Bengaluru, Bangalore Urban, Karnataka, 560001, India",
            "longitude": "77.5912997",
            "latitude": "12.9791198",
            "blogLinks": [
                "http://hampi.in/hyderabad-to-hampi",
                "http://hampi.in/how-to-reach-hampi",
                "https://www.tripadvisor.co.uk/ShowUserReviews-g319725-r21525135-Hampi_Karnataka.html",
                "http://www.tourism-of-india.com/hampi/",
                "http://www.nivalink.com/destination/hospet",
                "http://wikitravel.org/en/Hampi",
                "https://en.wikipedia.org/wiki/Hampi",
                "https://www.tripoto.com/weekend-getaways/from-hampi",
                "http://www.travelhaathi.com/hampi-travel-guide/"
            ],
            "locType": "city"
        },
        "lakshmi": {
            "closest_to": "",
            "address": "Lakshmi, Tavarekere Main Road, Sadgunte Palya, Madivala, Bengaluru, Bangalore Urban, Karnataka, 560001, India",
            "longitude": "77.6075298044091",
            "latitude": "12.9251835",
            "blogLinks": [
                "https://www.tripoto.com/places-to-visit/india/hampi"
            ],
            "locType": "cinema"
        },
        "dharwad": {
            "closest_to": "",
            "address": "Dharwad, Dharawada taluku, Dharwad district, Karnataka, 580001, India",
            "longitude": "75.0066516",
            "latitude": "15.4540505",
            "blogLinks": [
                "http://www.travelhaathi.com/hampi-travel-guide/",
                "https://www.tripadvisor.co.uk/ShowUserReviews-g319725-r21525135-Hampi_Karnataka.html"
            ],
            "locType": "city"
        },
        "hyderabad": {
            "closest_to": "",
            "address": "Hyderabad Road, Old City, Bidar, Bidar taluku, Bidar district, Karnataka, 585400, India",
            "longitude": "77.5344002",
            "latitude": "17.9003114",
            "blogLinks": [
                "http://hampi.in/hyderabad-to-hampi",
                "http://hampi.in/how-to-reach-hampi",
                "https://www.tripadvisor.co.uk/ShowUserReviews-g319725-r21525135-Hampi_Karnataka.html",
                "https://www.tripadvisor.in/ShowTopic-g319725-i13486-k7056116-Hyderabad_to_Hampi_road_route-Hampi_Karnataka.html",
                "http://www.nivalink.com/destination/hospet",
                "http://wikitravel.org/en/Hampi",
                "http://www.travelhaathi.com/hampi-travel-guide/"
            ],
            "locType": "primary"
        },
        "vijayanagar": {
            "closest_to": "",
            "address": "Vijayanagar, Chord Road, Marenahalli, Vijaya Nagar, Binny Layout, Bangalore Urban, Karnataka, 560040, India",
            "longitude": "77.5375757",
            "latitude": "12.9713392",
            "blogLinks": [
                "https://www.tripadvisor.co.uk/ShowUserReviews-g319725-r21525135-Hampi_Karnataka.html",
                "http://wikitravel.org/en/Hampi"
            ],
            "locType": "station"
        },
        "yelahanka": {
            "closest_to": "",
            "address": "Yelahanka, Jakkur, Bangalore Urban, Karnataka, India",
            "longitude": "77.5963454",
            "latitude": "13.1006982",
            "blogLinks": [
                "http://hampi.in/how-to-reach-hampi"
            ],
            "locType": "suburb"
        },
        "veerabhadra temple": {
            "closest_to": "",
            "address": "Veerabhadra Temple, SH149, Taranalli, Chitapura taluku, Kalaburagi district, Karnataka, India",
            "longitude": "76.9293272",
            "latitude": "17.1417262",
            "blogLinks": [
                "http://www.holidayiq.com/Hampi-Sightseeing-370.html"
            ],
            "locType": "place_of_worship"
        },
        "south-west": {
            "closest_to": "",
            "address": "Karnataka, India",
            "longitude": "75.7223521",
            "latitude": "14.5203896",
            "blogLinks": [
                "https://www.thrillophilia.com/places-to-visit-in-hampi"
            ],
            "locType": "administrative"
        },
        "paris": {
            "closest_to": "",
            "address": "Paris Bakery, 6th Cross Road (Leela Palace Road), Babasaheb Colony, Kodihalli, Bengaluru, Bangalore Urban, Karnataka, 560001, India",
            "longitude": "77.6492",
            "latitude": "12.9654449",
            "blogLinks": [
                "https://en.wikipedia.org/wiki/Hampi"
            ],
            "locType": "bakery"
        },
        "golconda": {
            "closest_to": "",
            "address": "Golconda Chimney, Varthur Road, Vaikuntam Layout, AECS Layout, Siddapura, Bangalore Urban, Karnataka, 560066, India",
            "longitude": "77.7127571",
            "latitude": "12.9558467",
            "blogLinks": [
                "http://www.tourism-of-india.com/hampi/"
            ],
            "locType": "restaurant"
        },
        "vijaynagara": {
            "closest_to": "",
            "address": "Vijaynagara, Chord Road, Marenahalli, Vijaya Nagar, Binny Layout, Bangalore Urban, Karnataka, 560040, India",
            "longitude": "77.5383681",
            "latitude": "12.9726377",
            "blogLinks": [
                "https://www.thrillophilia.com/places-to-visit-in-hampi"
            ],
            "locType": "bus_stop"
        },
        "hubli airport": {
            "closest_to": "",
            "address": "Hubli Airport, \u0c97\u0ccb\u0c95\u0cc1\u0cb2 \u0cb0\u0ccb\u0ca1\u0ccd, Padmaraj Nagar, Gokul, Hubballi taluku, Dharwad district, Karnataka, 580030, India",
            "longitude": "75.0860974",
            "latitude": "15.3598315",
            "blogLinks": [
                "http://www.travelhaathi.com/hampi-travel-guide/"
            ],
            "locType": "aerodrome"
        },
        "lal bagh": {
            "closest_to": "",
            "address": "Lal Bagh Bus Stop, Mahatma Gandhi Road, Lalbagh, Ladyhill, Mangaluru, Mangaluru taluk, Dakshina Kannada, Karnataka, 575001, India",
            "longitude": "74.8386152",
            "latitude": "12.8859223",
            "blogLinks": [
                "https://www.tripoto.com/weekend-getaways/from-hampi"
            ],
            "locType": "bus_stop"
        },
        "kamat": {
            "closest_to": "",
            "address": "Kamat, National High School Road, Mavalli, VV Puram, Bengaluru, Bangalore Urban, Karnataka, 560001, India",
            "longitude": "77.5798273",
            "latitude": "12.9491655",
            "blogLinks": [
                "http://hampi.in/how-to-reach-hampi"
            ],
            "locType": "restaurant"
        },
        "north goa": {
            "closest_to": "",
            "address": "Carnival De Goa, Bhaskaran Road, Gupta Layout, Halasuru, Bengaluru, Bangalore Urban, Karnataka, 560001, India",
            "longitude": "77.6200027",
            "latitude": "12.9750047",
            "blogLinks": [
                "https://www.tripoto.com/weekend-getaways/from-hampi"
            ],
            "locType": "restaurant"
        },
        "kolkata": {
            "closest_to": "",
            "address": "Kolkata Biryani And Rolls, 1st Main Basaveshwaranagar, Rajajinagar 3rd Block, Dasarahalli, Bengaluru, Bangalore Urban, Karnataka, 560010, India",
            "longitude": "77.5478044",
            "latitude": "12.9845159",
            "blogLinks": [
                "http://hampi.in/how-to-reach-hampi"
            ],
            "locType": "restaurant"
        },
        "chennai": {
            "closest_to": "",
            "address": "Karnataka Bank, Postal Colony 2nd Street, Postal Colony, Ashok Nagar, Chennai City Corporation Limits, Chennai district, Tamil Nadu, 600033, India",
            "longitude": "80.2197941",
            "latitude": "13.0365141",
            "blogLinks": [
                "https://www.tripadvisor.co.uk/ShowUserReviews-g319725-r21525135-Hampi_Karnataka.html"
            ],
            "locType": "bank"
        },
        "venkateshwara": {
            "closest_to": "",
            "address": "Sri Venkateshwara Temple, 12th Cross Road, Rajajinagar 1st Block, Nandini Layout, Bengaluru, Bangalore Urban, Karnataka, 560001, India",
            "longitude": "77.5452768748626",
            "latitude": "13.00856755",
            "blogLinks": [
                "http://wikitravel.org/en/Hampi"
            ],
            "locType": "place_of_worship"
        },
        "palani": {
            "closest_to": "",
            "address": "Palani, Neelasandra Bazaar Street, Austin Town BDA Layout, Neelasandra, Bengaluru, Bangalore Urban, Karnataka, 560001, India",
            "longitude": "77.6168951",
            "latitude": "12.9537341",
            "blogLinks": [
                "https://www.tripoto.com/weekend-getaways/from-hampi"
            ],
            "locType": "recycling"
        },
        "vittal": {
            "closest_to": "",
            "address": "Vittal Nagar, ISRO Layout, Gubbalala, Bangalore Urban, Karnataka, 560086, India",
            "longitude": "77.5550809",
            "latitude": "12.9012176",
            "blogLinks": [
                "http://www.tourism-of-india.com/hampi/"
            ],
            "locType": "residential"
        },
        "baga": {
            "closest_to": "",
            "address": "Baga Hipparaga, Basavakalyana taluku, Bidar district, Karnataka, India",
            "longitude": "76.9300452",
            "latitude": "17.6148763",
            "blogLinks": [
                "https://www.tripoto.com/weekend-getaways/from-hampi"
            ],
            "locType": "village"
        },
        "karnataka state": {
            "closest_to": "",
            "address": "Karnataka State Open University, \u0cb9\u0cc1\u0ca3\u0cb8\u0cc2\u0cb0\u0cc1 \u0cb0\u0cb8\u0ccd\u0ca4\u0cc6, Gokulam, Mysuru, Mysuru taluk, Mysuru district, Karnataka, 570001, India",
            "longitude": "76.6236231",
            "latitude": "12.315382",
            "blogLinks": [
                "http://hampi.in/how-to-reach-hampi"
            ],
            "locType": "university"
        },
        "madurai": {
            "closest_to": "",
            "address": "Madurai Idly Shop, 5th Main Road, Teachers Colony, HSR Layout, Bengaluru, Bangalore Urban, Karnataka, 560001, India",
            "longitude": "77.6320535",
            "latitude": "12.9185419",
            "blogLinks": [
                "https://www.tripoto.com/weekend-getaways/from-hampi"
            ],
            "locType": "restaurant"
        },
        "pampa": {
            "closest_to": "",
            "address": "Pampa Mahakavi Road, Ranasingpet, Kalasipalya, Bengaluru, Bangalore Urban, Karnataka, 560001, India",
            "longitude": "77.5719518",
            "latitude": "12.9581179",
            "blogLinks": [
                "https://en.wikipedia.org/wiki/Hampi"
            ],
            "locType": "secondary"
        },
        "pune": {
            "closest_to": "",
            "address": "Pune - Machilipatnam Highway, Kaudiyala, Basavakalyana taluku, Bidar district, Karnataka, India",
            "longitude": "76.9479122",
            "latitude": "17.8199745",
            "blogLinks": [
                "https://www.tripadvisor.co.uk/ShowUserReviews-g319725-r21525135-Hampi_Karnataka.html"
            ],
            "locType": "trunk"
        },
        "kodandarama": {
            "closest_to": "",
            "address": "Kodandarama Temple, Bellandur Main Road, Green Glen Layout, Bellandur, Belure Ambedkar Nagar, Bangalore Urban, Karnataka, 560103, India",
            "longitude": "77.6763884",
            "latitude": "12.9265333",
            "blogLinks": [
                "http://www.tourism-of-india.com/hampi/"
            ],
            "locType": "place_of_worship"
        },
        "orissa": {
            "closest_to": "",
            "address": "Little Orissa, 18th Main Road, Babasaheb Colony, Kodihalli, Bengaluru, Bangalore Urban, Karnataka, 560001, India",
            "longitude": "77.6448007",
            "latitude": "12.9622425",
            "blogLinks": [
                "https://en.wikipedia.org/wiki/Hampi"
            ],
            "locType": "restaurant"
        },
        "andhra pradesh": {
            "closest_to": "",
            "address": "Karnataka, West Mada Street, Srivari Temple, Tirumala, Chittoor, Andhra Pradesh, 517504, India",
            "longitude": "79.3452447",
            "latitude": "13.6841958",
            "blogLinks": [
                "https://www.thrillophilia.com/places-to-visit-in-hampi",
                "https://www.tripoto.com/places-to-visit/india/hampi",
                "http://wikitravel.org/en/Hampi"
            ],
            "locType": "hotel"
        },
        "agra": {
            "closest_to": "",
            "address": "Agara, Geddalahalli, Bangalore Urban, Karnataka, India",
            "longitude": "77.6468085",
            "latitude": "13.0386734",
            "blogLinks": [
                "https://www.tripadvisor.co.uk/ShowUserReviews-g319725-r21525135-Hampi_Karnataka.html"
            ],
            "locType": "suburb"
        },
        "mumbai": {
            "closest_to": "",
            "address": "Mumbai Spice, 18/2, 10th Cross, Malleswaram, Vyalikaval, Malleswaram, Bengaluru, Bangalore Urban, Karnataka, 560003, India",
            "longitude": "77.5718472",
            "latitude": "13.0002869",
            "blogLinks": [
                "http://hampi.in/how-to-reach-hampi",
                "http://distancecalculator.globefeed.com/India_Distance_Calculator.asp?state=19",
                "http://wikitravel.org/en/Hampi"
            ],
            "locType": "restaurant"
        },
        "udayagiri": {
            "closest_to": "",
            "address": "Udayagiri, Mysuru, Mysuru taluk, Mysuru district, Karnataka, 570001, India",
            "longitude": "76.6751327",
            "latitude": "12.3250331",
            "blogLinks": [
                "https://www.thrillophilia.com/places-to-visit-in-hampi"
            ],
            "locType": "suburb"
        },
        "west of hubli": {
            "closest_to": "",
            "address": "Hubballi - \u0cb9\u0cc1\u0cac\u0ccd\u0cac\u0cb3\u0ccd\u0cb3\u0cbf, Hubballi taluku, Dharwad district, Karnataka, 580020, India",
            "longitude": "75.1379848",
            "latitude": "15.3518378",
            "blogLinks": [
                "http://www.travelhaathi.com/hampi-travel-guide/"
            ],
            "locType": "city"
        },
        "vijaynagar": {
            "closest_to": "",
            "address": "Vijaynagar, Chord Road, Marenahalli, Vijaya Nagar, Binny Layout, Bangalore Urban, Karnataka, 560040, India",
            "longitude": "77.5376657",
            "latitude": "12.9720356",
            "blogLinks": [
                "http://www.tourism-of-india.com/hampi/"
            ],
            "locType": "bus_stop"
        },
        "enfield": {
            "closest_to": "",
            "address": "Saleem Enfield Bullet Repair Shop, 4th Main Road, HAL 3rd Stage, Thippasandra, Bengaluru, Bangalore Urban, Karnataka, 560001, India",
            "longitude": "77.6504715",
            "latitude": "12.9711922",
            "blogLinks": [
                "https://www.makemytrip.com/blog/hampi-weekend-getaway"
            ],
            "locType": "motorcycle"
        },
        "ranganatha temple": {
            "closest_to": "",
            "address": "Ranganatha Temple, Kempapura Bangalore, Kariyammana Agrahara, Yemalur, Belure Ambedkar Nagar, Bangalore Urban, Karnataka, 560037, India",
            "longitude": "77.6803771",
            "latitude": "12.9464251",
            "blogLinks": [
                "http://www.tourism-of-india.com/raichur-tour/"
            ],
            "locType": "place_of_worship"
        },
        "panaji": {
            "closest_to": "",
            "address": "Belgaum - Panaji Highway, Londa, Khanapura taluku, Belgaum district, Karnataka, India",
            "longitude": "74.4876784",
            "latitude": "15.4422981",
            "blogLinks": [
                "https://www.tripoto.com/weekend-getaways/from-hampi"
            ],
            "locType": "trunk"
        },
        "anantapur": {
            "closest_to": "",
            "address": "RTO Karnataka, Srinagar - Kanyakumari Highway, Paragodu, Bagepalli taluk, Chikkaballapura district, Karnataka, 561207, India",
            "longitude": "77.7596024",
            "latitude": "13.7972948",
            "blogLinks": [
                "http://www.travelhaathi.com/hampi-travel-guide/"
            ],
            "locType": "yes"
        },
        "chandramouleshwara temple": {
            "closest_to": "",
            "address": "Chandramouleshwara Temple, Edapally - Panvel Highway, Kolnad, Karnad, Padu Panambur, Mangaluru taluk, Dakshina Kannada, Karnataka, 575025, India",
            "longitude": "74.8024264",
            "latitude": "13.0636768",
            "blogLinks": [
                "https://en.wikipedia.org/wiki/Hampi"
            ],
            "locType": "place_of_worship"
        },
        "new delhi": {
            "closest_to": "",
            "address": "Regional Institute of Education, Chaduranga Road, Jayalakshmipuram, Mysuru, Mysuru taluk, Mysuru district, Karnataka, 570001, India",
            "longitude": "76.6142178649055",
            "latitude": "12.30911465",
            "blogLinks": [
                "https://en.wikipedia.org/wiki/Hampi"
            ],
            "locType": "college"
        },
        "royal center": {
            "closest_to": "",
            "address": "Royal Legend Apartments, Bommanahalli, Bengaluru, Bangalore Urban, Karnataka, 560001, India",
            "longitude": "77.62083471365",
            "latitude": "12.8992404",
            "blogLinks": [
                "https://www.tripadvisor.co.uk/ShowUserReviews-g319725-r21525135-Hampi_Karnataka.html"
            ],
            "locType": "residential"
        },
        "vijayanagara": {
            "closest_to": "",
            "address": "Vijayanagara, Chikodi taluk, Belgaum district, Karnataka, India",
            "longitude": "74.7380455",
            "latitude": "16.3270486",
            "blogLinks": [
                "http://www.nivalink.com/destination/hospet",
                "https://en.wikipedia.org/wiki/Hampi"
            ],
            "locType": "village"
        },
        "balakrishna": {
            "closest_to": "",
            "address": "Balakrishna Rangamandira, Gokhale Road, Rajarajeshwari Nagar, Patanagere, Bangalore Urban, Karnataka, 560098, India",
            "longitude": "77.5200084",
            "latitude": "12.9176066",
            "blogLinks": [
                "http://www.holidayiq.com/Hampi-Sightseeing-370.html"
            ],
            "locType": "playground"
        },
        "bangalore city": {
            "closest_to": "",
            "address": "Bengaluru, Bangalore Urban, Karnataka, 560001, India",
            "longitude": "77.5912997",
            "latitude": "12.9791198",
            "blogLinks": [
                "http://www.tourism-of-india.com/raichur-tour/"
            ],
            "locType": "city"
        },
        "solapur road": {
            "closest_to": "",
            "address": "Solapur Road, J C Nagar, Kamaripet, Hubballi - \u0cb9\u0cc1\u0cac\u0ccd\u0cac\u0cb3\u0ccd\u0cb3\u0cbf, Hubballi taluku, Dharwad district, Karnataka, 580020, India",
            "longitude": "75.1402011",
            "latitude": "15.3532983",
            "blogLinks": [
                "https://www.tripadvisor.co.uk/ShowUserReviews-g319725-r21525135-Hampi_Karnataka.html"
            ],
            "locType": "trunk"
        },
        "margao": {
            "closest_to": "",
            "address": "Karnataka bank, NH66, Aquem, Fatorda, Margao, South Goa, Goa, 403600, India",
            "longitude": "73.9583411",
            "latitude": "15.2740083",
            "blogLinks": [
                "https://www.tripoto.com/weekend-getaways/from-hampi",
                "http://wikitravel.org/en/Hampi"
            ],
            "locType": "bank"
        },
        "karnataka": {
            "closest_to": "",
            "address": "Karnataka, Shalivahana Road, Nazarbad, Mysuru, Mysuru taluk, Mysuru district, Karnataka, 570001, India",
            "longitude": "76.6639936",
            "latitude": "12.3084901",
            "blogLinks": [
                "http://hampi.in/how-to-reach-hampi",
                "https://www.thrillophilia.com/places-to-visit-in-hampi",
                "http://www.tourism-of-india.com/hampi/",
                "http://distancecalculator.globefeed.com/India_Distance_Calculator.asp?state=19",
                "https://www.tripoto.com/places-to-visit/india/hampi",
                "http://www.tourism-of-india.com/raichur-tour/",
                "http://www.distancesfrom.com/in/travel-time-from-Hosapete-to-Raichur-via-Hampi/TravelTimeHistory/34870298.aspx",
                "http://www.nivalink.com/destination/hospet",
                "http://wikitravel.org/en/Hampi",
                "https://en.wikipedia.org/wiki/Hampi",
                "https://www.tripoto.com/weekend-getaways/from-hampi",
                "http://www.travelhaathi.com/hampi-travel-guide/"
            ],
            "locType": "atm"
        },
        "kannada": {
            "closest_to": "",
            "address": "Dakshina Kannada, Karnataka, India",
            "longitude": "75.1008028650794",
            "latitude": "12.8114089",
            "blogLinks": [
                "https://www.tripoto.com/places-to-visit/india/hampi",
                "https://en.wikipedia.org/wiki/Hampi"
            ],
            "locType": "administrative"
        },
        "hanuman temple": {
            "closest_to": "",
            "address": "Hanuman Temple, 1st Cross Road, MEI Colony, Peenya, Bengaluru, Bangalore Urban, Karnataka, 560001, India",
            "longitude": "77.5273276",
            "latitude": "13.0343487",
            "blogLinks": [
                "https://www.thrillophilia.com/places-to-visit-in-hampi",
                "https://www.tripoto.com/places-to-visit/india/hampi"
            ],
            "locType": "place_of_worship"
        },
        "kamalapur": {
            "closest_to": "",
            "address": "Kamalapur Nursing Home, Station Road, Kalyana nagar, Gandhinagar, Dharwad, Dharawada taluku, Dharwad district, Karnataka, 580001, India",
            "longitude": "75.003629911571",
            "latitude": "15.4456282",
            "blogLinks": [
                "http://www.travelhaathi.com/hampi-travel-guide/",
                "http://wikitravel.org/en/Hampi"
            ],
            "locType": "yes"
        },
        "krishna temple": {
            "closest_to": "",
            "address": "Krishna Temple, Sarjapur Road, Maruthi Nagar, Koramangala, Bengaluru, Bangalore Urban, Karnataka, 560001, India",
            "longitude": "77.6176324",
            "latitude": "12.9336342",
            "blogLinks": [
                "https://www.makemytrip.com/blog/hampi-weekend-getaway"
            ],
            "locType": "place_of_worship"
        },
        "goa": {
            "closest_to": "",
            "address": "Carnival De Goa, Bhaskaran Road, Gupta Layout, Halasuru, Bengaluru, Bangalore Urban, Karnataka, 560001, India",
            "longitude": "77.6200027",
            "latitude": "12.9750047",
            "blogLinks": [
                "http://hampi.in/how-to-reach-hampi",
                "https://www.tripoto.com/weekend-getaways/from-hampi",
                "http://www.travelhaathi.com/hampi-travel-guide/",
                "http://wikitravel.org/en/Hampi"
            ],
            "locType": "restaurant"
        },
        "royal centre": {
            "closest_to": "",
            "address": "Royal Legend Apartments, Bommanahalli, Bengaluru, Bangalore Urban, Karnataka, 560001, India",
            "longitude": "77.62083471365",
            "latitude": "12.8992404",
            "blogLinks": [
                "http://wikitravel.org/en/Hampi"
            ],
            "locType": "residential"
        },
        "hubli": {
            "closest_to": "",
            "address": "Hubballi - \u0cb9\u0cc1\u0cac\u0ccd\u0cac\u0cb3\u0ccd\u0cb3\u0cbf, Hubballi taluku, Dharwad district, Karnataka, 580020, India",
            "longitude": "75.1379848",
            "latitude": "15.3518378",
            "blogLinks": [
                "http://hampi.in/hyderabad-to-hampi",
                "http://hampi.in/how-to-reach-hampi",
                "https://www.tripadvisor.co.uk/ShowUserReviews-g319725-r21525135-Hampi_Karnataka.html",
                "http://www.nivalink.com/destination/hospet",
                "http://wikitravel.org/en/Hampi",
                "http://www.travelhaathi.com/hampi-travel-guide/"
            ],
            "locType": "city"
        },
        "india": {
            "closest_to": "",
            "address": "Karnataka, India",
            "longitude": "75.7223521",
            "latitude": "14.5203896",
            "blogLinks": [
                "http://hampi.in/hyderabad-to-hampi",
                "http://hampi.in/how-to-reach-hampi",
                "https://www.thrillophilia.com/places-to-visit-in-hampi",
                "https://www.tripadvisor.co.uk/ShowUserReviews-g319725-r21525135-Hampi_Karnataka.html",
                "http://www.tourism-of-india.com/hampi/",
                "http://distancecalculator.globefeed.com/India_Distance_Calculator.asp?state=19",
                "http://www.tourism-of-india.com/raichur-tour/",
                "http://www.distancesfrom.com/in/travel-time-from-Hosapete-to-Raichur-via-Hampi/TravelTimeHistory/34870298.aspx",
                "http://travel.india.com/hampi/places-to-visit/",
                "http://www.nivalink.com/destination/hospet",
                "http://wikitravel.org/en/Hampi",
                "https://www.makemytrip.com/blog/hampi-weekend-getaway",
                "https://www.tripoto.com/weekend-getaways/from-hampi",
                "https://en.wikipedia.org/wiki/Hampi",
                "http://www.travelhaathi.com/hampi-travel-guide/"
            ],
            "locType": "administrative"
        },
        "east": {
            "closest_to": "",
            "address": "East, 43, Velankani Drive, Electronics City Phase 1, Doddathoguru, Bangalore Urban, Karnataka, 560100, India",
            "longitude": "77.6601401",
            "latitude": "12.8504319",
            "blogLinks": [
                "https://en.wikipedia.org/wiki/Hampi"
            ],
            "locType": "restaurant"
        },
        "vittala": {
            "closest_to": "",
            "address": "Vijaya Vittala PU College, Sahukar Chennaiah Road, Sarasvatipuram, Mysuru, Mysuru taluk, Mysuru district, Karnataka, 570001, India",
            "longitude": "76.6237847175927",
            "latitude": "12.30129655",
            "blogLinks": [
                "https://www.tripoto.com/places-to-visit/india/hampi",
                "http://travel.india.com/hampi/places-to-visit/",
                "https://www.tripoto.com/weekend-getaways/from-hampi"
            ],
            "locType": "yes"
        },
        "bijapur": {
            "closest_to": "",
            "address": "Vijayapura, Vijayapura taluk, Bijapur district, Karnataka, 586101, India",
            "longitude": "75.7175387",
            "latitude": "16.8269911",
            "blogLinks": [
                "https://www.thrillophilia.com/places-to-visit-in-hampi"
            ],
            "locType": "city"
        },
        "tamil nadu": {
            "closest_to": "",
            "address": "KARNATAKA BANK, Diwan Bhadur Road, Five Corner, RS Puram, Coimbatore, Coimbatore district, Tamil Nadu, 641001, India",
            "longitude": "76.9514152",
            "latitude": "11.0025894",
            "blogLinks": [
                "https://www.tripoto.com/weekend-getaways/from-hampi"
            ],
            "locType": "bank"
        },
        "gokarna": {
            "closest_to": "",
            "address": "Gokarna, Kumata taluk, Uttara Kannada, Karnataka, 581326, India",
            "longitude": "74.3184418",
            "latitude": "14.5439629",
            "blogLinks": [
                "http://wikitravel.org/en/Hampi"
            ],
            "locType": "town"
        },
        "jaipur": {
            "closest_to": "",
            "address": "Karnataka Bank, Mirza Ismail Road, Hasanpura, Bani Park, Jaipur, Rajasthan, 302006, India",
            "longitude": "75.7985653",
            "latitude": "26.91869",
            "blogLinks": [
                "https://www.tripadvisor.co.uk/ShowUserReviews-g319725-r21525135-Hampi_Karnataka.html"
            ],
            "locType": "atm"
        },
        "garden city": {
            "closest_to": "",
            "address": "Karnataka Bank, Postal Colony 2nd Street, Postal Colony, Ashok Nagar, Chennai City Corporation Limits, Chennai district, Tamil Nadu, 600033, India",
            "longitude": "80.2197941",
            "latitude": "13.0365141",
            "blogLinks": [
                "https://www.tripoto.com/weekend-getaways/from-hampi"
            ],
            "locType": "bank"
        },
        "delhi": {
            "closest_to": "",
            "address": "Outer Ring Road, Green Glen Layout, Iblur, Bengaluru, Bangalore Urban, Karnataka, 560001, India",
            "longitude": "77.6666062",
            "latitude": "12.9212473",
            "blogLinks": [
                "http://hampi.in/how-to-reach-hampi",
                "https://www.tripadvisor.co.uk/ShowUserReviews-g319725-r21525135-Hampi_Karnataka.html"
            ],
            "locType": "trunk"
        }
    },
    "raichur": {
        "place_id": "1415432",
        "osm_id": "316417380",
        "icon": "https://nominatim.openstreetmap.org/images/mapicons/poi_boundary_administrative.p.20.png",
        "osm_type": "node",
        "licence": "Data \u00a9 OpenStreetMap contributors, ODbL 1.0. http://www.openstreetmap.org/copyright",
        "display_name": "Raichur, Raichur district, Karnataka, India",
        "type": "county",
        "lon": "77.166667",
        "boundingbox": [
            "15.443333",
            "16.723333",
            "76.526667",
            "77.806667"
        ],
        "importance": 0.65,
        "lat": "16.083333",
        "class": "place"
    }
}