{
    "kollur": {
        "place_id": "638186",
        "osm_id": "245625243",
        "icon": "https://nominatim.openstreetmap.org/images/mapicons/poi_place_village.p.20.png",
        "osm_type": "node",
        "licence": "Data \u00a9 OpenStreetMap contributors, ODbL 1.0. http://www.openstreetmap.org/copyright",
        "display_name": "Kollur, \u0c95\u0cc1\u0c82\u0ca6\u0cbe\u0caa\u0cc1\u0cb0 \u0ca4\u0cbe\u0cb2\u0cc2\u0c95\u0cc1, Udupi district, Karnataka, 576220, India",
        "type": "village",
        "lon": "74.8137959",
        "boundingbox": [
            "13.8434049",
            "13.8834049",
            "74.7937959",
            "74.8337959"
        ],
        "importance": 0.475,
        "lat": "13.8634049",
        "class": "place"
    },
    "mentions": {
        "tirthahalli": {
            "closest_to": "",
            "address": "Tirthahalli, Tirthahalli taluk, Shimoga district, Karnataka, 577432, India",
            "longitude": "75.2463699",
            "latitude": "13.6901992",
            "blogLinks": [
                "http://www.team-bhp.com/forum/route-travel-queries/88512-blr-shimoga-jog-falls-kollur-udipi-dsthala-blr.html"
            ],
            "locType": "town"
        },
        "kadri manjunatha temple": {
            "closest_to": "",
            "address": "Kadri Manjunatha Temple, Manjunatha Colony Road, Bikarnakatte, Nanthoor, Mangaluru, Mangaluru taluk, Dakshina Kannada, Karnataka, 575001, India",
            "longitude": "74.85560021854",
            "latitude": "12.88588535",
            "blogLinks": [
                "http://www.udipikrishnamutt.com/tour-packages/id/25"
            ],
            "locType": "place_of_worship"
        },
        "coastal karnataka": {
            "closest_to": "",
            "address": "Bharat Petroleum Mangalore Coastal Installation, Baikampady, Mangaluru taluk, Dakshina Kannada, Karnataka, 575014, India",
            "longitude": "74.8137275833157",
            "latitude": "12.96014675",
            "blogLinks": [
                "http://www.nivalink.com/destination/kollur",
                "http://www.nivalink.com/destination/jog-falls"
            ],
            "locType": "industrial"
        },
        "tiptur": {
            "closest_to": "",
            "address": "Tiptur, Tipaturu taluk, Tumkur district, Karnataka, 572200, India",
            "longitude": "76.4724264",
            "latitude": "13.2594418",
            "blogLinks": [
                "http://www.team-bhp.com/forum/route-travel-queries/88512-blr-shimoga-jog-falls-kollur-udipi-dsthala-blr.html"
            ],
            "locType": "town"
        },
        "bhadravathi": {
            "closest_to": "",
            "address": "Bhadravathi, Bhadravati taluk, Shimoga district, Karnataka, 577300, India",
            "longitude": "75.7030138",
            "latitude": "13.8474574",
            "blogLinks": [
                "http://wikitravel.org/en/Shimoga"
            ],
            "locType": "town"
        },
        "udipi": {
            "closest_to": "",
            "address": "Udipi Park, 2nd Cross Road, Muniyappa Layout, Murugeshpalaya, Belure Ambedkar Nagar, Bangalore Urban, Karnataka, 560067, India",
            "longitude": "77.652888",
            "latitude": "12.9530588",
            "blogLinks": [
                "http://www.nivalink.com/destination/kollur",
                "http://www.nivalink.com/destination/jog-falls"
            ],
            "locType": "restaurant"
        },
        "sonda": {
            "closest_to": "",
            "address": "Sonda, Shirasi taluk, Uttara Kannada, Karnataka, India",
            "longitude": "74.7786562",
            "latitude": "14.7335485",
            "blogLinks": [
                "http://myroutemyway.blogspot.com/"
            ],
            "locType": "village"
        },
        "yellapur": {
            "closest_to": "",
            "address": "Yellapura, Yallapura taluk, Uttara Kannada, Karnataka, 581359, India",
            "longitude": "74.7061458",
            "latitude": "14.9622518",
            "blogLinks": [
                "http://myroutemyway.blogspot.com/"
            ],
            "locType": "town"
        },
        "maharashtra": {
            "closest_to": "",
            "address": "Bank of Maharashtra, 24th Main, K R Layout, Puttenahalli, Bengaluru, Bangalore Urban, Karnataka, 560001, India",
            "longitude": "77.5856013",
            "latitude": "12.9049455",
            "blogLinks": [
                "http://myroutemyway.blogspot.com/"
            ],
            "locType": "bank"
        },
        "dharwar": {
            "closest_to": "",
            "address": "Dharawad, Dharwad district, Karnataka, India",
            "longitude": "75.333333",
            "latitude": "15.5",
            "blogLinks": [
                "http://myroutemyway.blogspot.com/"
            ],
            "locType": "county"
        },
        "thirthahalli": {
            "closest_to": "",
            "address": "Thirthahalli - Udupi Highway, Shivapura, Karkala taluk, Udupi district, Karnataka, India",
            "longitude": "74.9626368",
            "latitude": "13.4265327",
            "blogLinks": [
                "http://wikitravel.org/en/Shimoga"
            ],
            "locType": "trunk"
        },
        "dharmasthala": {
            "closest_to": "",
            "address": "Dharmasthala, Beltangadi taluk, Dakshina Kannada, Karnataka, 574216, India",
            "longitude": "75.3813122",
            "latitude": "12.9519571",
            "blogLinks": [
                "http://www.team-bhp.com/forum/route-travel-queries/88512-blr-shimoga-jog-falls-kollur-udipi-dsthala-blr.html",
                "http://myroutemyway.blogspot.com/"
            ],
            "locType": "village"
        },
        "south": {
            "closest_to": "",
            "address": "s, Vijayapura, Devanahalli taluk, Bangalore Rural, Karnataka, 562135, India",
            "longitude": "77.8040874",
            "latitude": "13.2942848",
            "blogLinks": [
                "http://www.nivalink.com/destination/jog-falls"
            ],
            "locType": "residential"
        },
        "bangalore": {
            "closest_to": "",
            "address": "Bengaluru, Bangalore Urban, Karnataka, 560001, India",
            "longitude": "77.5912997",
            "latitude": "12.9791198",
            "blogLinks": [
                "http://www.bangaloretrips.info/kodachadri",
                "http://www.team-bhp.com/forum/route-travel-queries/88512-blr-shimoga-jog-falls-kollur-udipi-dsthala-blr.html",
                "https://www.tripoto.com/trip/to-b-alone-on-a-trip-brings-together-a-lot-in-u-56c9f7afb89fe",
                "https://www.tripadvisor.in/Attraction_Review-g1156205-d1206548-Reviews-Jog_Falls-Shimoga_Karnataka.html",
                "http://wikitravel.org/en/Shimoga",
                "http://www.nivalink.com/destination/jog-falls",
                "http://www.nivalink.com/destination/kollur"
            ],
            "locType": "city"
        },
        "amboli": {
            "closest_to": "",
            "address": "Amboli, Khanapura taluku, Belgaum district, Karnataka, India",
            "longitude": "74.4340839",
            "latitude": "15.6456171",
            "blogLinks": [
                "http://pritskulkarni.blogspot.com/2016/09/beautiful-south-goa-and-gigantic-jog.html"
            ],
            "locType": "village"
        },
        "sarasvati": {
            "closest_to": "",
            "address": "Maharshi Dayananda Sarasvati Road, Kuvempunagara, Mysuru, Mysuru taluk, Mysuru district, Karnataka, 570001, India",
            "longitude": "76.6262348",
            "latitude": "12.2942096",
            "blogLinks": [
                "http://myroutemyway.blogspot.com/"
            ],
            "locType": "unclassified"
        },
        "hyderabad": {
            "closest_to": "",
            "address": "Hyderabad Road, Old City, Bidar, Bidar taluku, Bidar district, Karnataka, 585400, India",
            "longitude": "77.5344002",
            "latitude": "17.9003114",
            "blogLinks": [
                "http://pritskulkarni.blogspot.com/2016/09/beautiful-south-goa-and-gigantic-jog.html"
            ],
            "locType": "primary"
        },
        "kudalasangama": {
            "closest_to": "",
            "address": "Kudala Sangama, Hunagunda taluku, Bagalkote district, Karnataka, India",
            "longitude": "76.0604244",
            "latitude": "16.2033992",
            "blogLinks": [
                "http://wikitravel.org/en/Shimoga"
            ],
            "locType": "village"
        },
        "hoysala": {
            "closest_to": "",
            "address": "Hoysala Nagar, Bengaluru, Bangalore Urban, Karnataka, 560001, India",
            "longitude": "77.6375990817051",
            "latitude": "12.97813815",
            "blogLinks": [
                "http://www.nivalink.com/destination/jog-falls"
            ],
            "locType": "administrative"
        },
        "gendehalli": {
            "closest_to": "",
            "address": "Gendehalli, Beluru taluk, Hassan district, Karnataka, India",
            "longitude": "75.7577528",
            "latitude": "13.1839836",
            "blogLinks": [
                "http://www.team-bhp.com/forum/route-travel-queries/88512-blr-shimoga-jog-falls-kollur-udipi-dsthala-blr.html"
            ],
            "locType": "village"
        },
        "kapu": {
            "closest_to": "",
            "address": "Kapu, Udupi taluku, Udupi district, Karnataka, India",
            "longitude": "74.7470496",
            "latitude": "13.2309688",
            "blogLinks": [
                "http://www.nivalink.com/destination/jog-falls",
                "http://www.bangaloretrips.info/kodachadri"
            ],
            "locType": "village"
        },
        "horanadu": {
            "closest_to": "",
            "address": "Horanadu, Mudigere taluk, Chikkamagaluru district, Karnataka, 577181, India",
            "longitude": "75.3445161",
            "latitude": "13.2761199",
            "blogLinks": [
                "http://www.indiamike.com/india/karnataka-f38/udupi-agumbe-shringeri-murudeshwara-jog-falls-dharmasthala-t137208/"
            ],
            "locType": "town"
        },
        "sharadamba temple": {
            "closest_to": "",
            "address": "Sharadamba Temple, 7th Main Road, Yediyur, Thyagaraja Nagar, Bengaluru, Bangalore Urban, Karnataka, 560001, India",
            "longitude": "77.5656194",
            "latitude": "12.9321898",
            "blogLinks": [
                "http://www.udipikrishnamutt.com/tour-packages/id/25"
            ],
            "locType": "place_of_worship"
        },
        "mangaladevi temple": {
            "closest_to": "",
            "address": "Shri Mangaladevi Temple, Mangala Devi Temple Road, Mulihitlu, Bolar, Mangaluru, Mangaluru taluk, Dakshina Kannada, Karnataka, 575001, India",
            "longitude": "74.8452646984836",
            "latitude": "12.84923455",
            "blogLinks": [
                "http://www.udipikrishnamutt.com/tour-packages/id/25"
            ],
            "locType": "place_of_worship"
        },
        "banavasi": {
            "closest_to": "",
            "address": "Banavasi, Shirasi taluk, Uttara Kannada, Karnataka, India",
            "longitude": "75.0129845",
            "latitude": "14.5389738",
            "blogLinks": [
                "http://myroutemyway.blogspot.com/"
            ],
            "locType": "town"
        },
        "udupi": {
            "closest_to": "",
            "address": "Udupi, Udupi taluku, Udupi district, Karnataka, 576101, India",
            "longitude": "74.7473232",
            "latitude": "13.3419169",
            "blogLinks": [
                "http://www.team-bhp.com/forum/route-travel-queries/88512-blr-shimoga-jog-falls-kollur-udipi-dsthala-blr.html",
                "http://www.nivalink.com/destination/kollur"
            ],
            "locType": "city"
        },
        "south goa": {
            "closest_to": "",
            "address": "Karnataka bank, NH66, Aquem, Fatorda, Margao, South Goa, Goa, 403600, India",
            "longitude": "73.9583411",
            "latitude": "15.2740083",
            "blogLinks": [
                "http://pritskulkarni.blogspot.com/2016/09/beautiful-south-goa-and-gigantic-jog.html"
            ],
            "locType": "bank"
        },
        "kalaseshwara temple": {
            "closest_to": "",
            "address": "Kalaseshwara Temple, SH66, Kalasa, Mudigere taluk, Chikkamagaluru district, Karnataka, 577124, India",
            "longitude": "75.363446975",
            "latitude": "13.23228505",
            "blogLinks": [
                "http://www.nivalink.com/destination/kollur",
                "https://ravikumarv.wordpress.com/tag/jog-falls/"
            ],
            "locType": "place_of_worship"
        },
        "shivsagar": {
            "closest_to": "",
            "address": "Shivsagar Hotel, Kalidasa Road, Jayalakshmipuram, Mysuru, Mysuru taluk, Mysuru district, Karnataka, 570001, India",
            "longitude": "76.6173466",
            "latitude": "12.3263944",
            "blogLinks": [
                "http://pritskulkarni.blogspot.com/2016/09/beautiful-south-goa-and-gigantic-jog.html"
            ],
            "locType": "fast_food"
        },
        "north kerala": {
            "closest_to": "",
            "address": "New Life Kerala Mess, Sai Baba Mandira Road, Mottappanapalaya, Indiranagar, Bengaluru, Bangalore Urban, Karnataka, 560001, India",
            "longitude": "77.6382683",
            "latitude": "12.9726449",
            "blogLinks": [
                "http://www.nivalink.com/destination/kollur"
            ],
            "locType": "restaurant"
        },
        "north karnataka": {
            "closest_to": "",
            "address": "N, Chaithanya Samarpan, Kadugodi, Kannamangala, Bangalore Urban, Karnataka, 560066, India",
            "longitude": "77.7660547",
            "latitude": "13.0217151",
            "blogLinks": [
                "https://www.tripoto.com/trip/to-b-alone-on-a-trip-brings-together-a-lot-in-u-56c9f7afb89fe"
            ],
            "locType": "service"
        },
        "mumbai": {
            "closest_to": "",
            "address": "Mumbai Spice, 18/2, 10th Cross, Malleswaram, Vyalikaval, Malleswaram, Bengaluru, Bangalore Urban, Karnataka, 560003, India",
            "longitude": "77.5718472",
            "latitude": "13.0002869",
            "blogLinks": [
                "http://pritskulkarni.blogspot.com/2016/09/beautiful-south-goa-and-gigantic-jog.html"
            ],
            "locType": "restaurant"
        },
        "dharmastala": {
            "closest_to": "",
            "address": "Dharmasthala, Beltangadi taluk, Dakshina Kannada, Karnataka, 574216, India",
            "longitude": "75.3813122",
            "latitude": "12.9519571",
            "blogLinks": [
                "http://www.team-bhp.com/forum/route-travel-queries/88512-blr-shimoga-jog-falls-kollur-udipi-dsthala-blr.html"
            ],
            "locType": "village"
        },
        "chennai": {
            "closest_to": "",
            "address": "Karnataka Bank, Postal Colony 2nd Street, Postal Colony, Ashok Nagar, Chennai City Corporation Limits, Chennai district, Tamil Nadu, 600033, India",
            "longitude": "80.2197941",
            "latitude": "13.0365141",
            "blogLinks": [
                "http://www.indiamike.com/india/karnataka-f38/trip-udupi-mudreshwara-kollur-sringeri-and-dharwastala-t111825/"
            ],
            "locType": "bank"
        },
        "manjunatha temple": {
            "closest_to": "",
            "address": "Devagiri Manjunatha Swamy Temple, 30th Cross, Jayanagar 8th Block, Banashankari 2nd Stage, Bengaluru, Bangalore Urban, Karnataka, 560001, India",
            "longitude": "77.5640116772773",
            "latitude": "12.9211928",
            "blogLinks": [
                "http://www.udipikrishnamutt.com/tour-packages/id/25"
            ],
            "locType": "place_of_worship"
        },
        "river sharavathi": {
            "closest_to": "",
            "address": "Vrishabavathi, Bengaluru, Bangalore Urban, Karnataka, 560001, India",
            "longitude": "77.5476521",
            "latitude": "12.967526",
            "blogLinks": [
                "http://www.indiamike.com/india/karnataka-f38/udupi-agumbe-shringeri-murudeshwara-jog-falls-dharmasthala-t137208/"
            ],
            "locType": "river"
        },
        "mangalore airport": {
            "closest_to": "",
            "address": "Mangalore International Airport, Airport Entry Road, Gandhinagar, Kenjar, Mangaluru taluk, Dakshina Kannada, Karnataka, 575015, India",
            "longitude": "74.887492668144",
            "latitude": "12.95518575",
            "blogLinks": [
                "http://www.udipikrishnamutt.com/tour-packages/id/25"
            ],
            "locType": "aerodrome"
        },
        "margao": {
            "closest_to": "",
            "address": "Karnataka bank, NH66, Aquem, Fatorda, Margao, South Goa, Goa, 403600, India",
            "longitude": "73.9583411",
            "latitude": "15.2740083",
            "blogLinks": [
                "http://pritskulkarni.blogspot.com/2016/09/beautiful-south-goa-and-gigantic-jog.html"
            ],
            "locType": "bank"
        },
        "pune": {
            "closest_to": "",
            "address": "Pune - Machilipatnam Highway, Kaudiyala, Basavakalyana taluku, Bidar district, Karnataka, India",
            "longitude": "76.9479122",
            "latitude": "17.8199745",
            "blogLinks": [
                "http://www.indiamike.com/india/karnataka-f38/udupi-agumbe-shringeri-murudeshwara-jog-falls-dharmasthala-t137208/",
                "http://pritskulkarni.blogspot.com/2016/09/beautiful-south-goa-and-gigantic-jog.html",
                "http://www.team-bhp.com/forum/travelogues/129841-report-kochi-kollur-jog-falls-chikmagalur-mysore-3.html"
            ],
            "locType": "trunk"
        },
        "sringeri": {
            "closest_to": "",
            "address": "Sringeri, Sringeri taluku, Chikkamagaluru district, Karnataka, 577592, India",
            "longitude": "75.2553718",
            "latitude": "13.4261724",
            "blogLinks": [
                "http://myroutemyway.blogspot.com/"
            ],
            "locType": "town"
        },
        "mangalore railway station": {
            "closest_to": "",
            "address": "Hotels in Mangalore Near Railway Station  (Reiseb\u00fcro ), SH67, Gandhinagar, Kenjar, Mangaluru taluk, Dakshina Kannada, Karnataka, 575015, India",
            "longitude": "74.8680725",
            "latitude": "12.9519663",
            "blogLinks": [
                "http://www.udipikrishnamutt.com/tour-packages/id/25"
            ],
            "locType": "travel_agent"
        },
        "hebri": {
            "closest_to": "",
            "address": "Hebri, Karkala taluk, Udupi district, Karnataka, India",
            "longitude": "74.9911872",
            "latitude": "13.4586986",
            "blogLinks": [
                "http://www.team-bhp.com/forum/route-travel-queries/88512-blr-shimoga-jog-falls-kollur-udipi-dsthala-blr.html"
            ],
            "locType": "village"
        },
        "dhaba": {
            "closest_to": "",
            "address": "The Dhaba, Outer Ring Road, Ananda Nagara, Doddanekundi, Garudacharpalya, Bangalore Urban, Karnataka, 560001, India",
            "longitude": "77.7017287",
            "latitude": "12.965205",
            "blogLinks": [
                "http://pritskulkarni.blogspot.com/2016/09/beautiful-south-goa-and-gigantic-jog.html"
            ],
            "locType": "restaurant"
        },
        "annapoorneshwari temple": {
            "closest_to": "",
            "address": "Sri Ambika Annapoorneshwari Temple, SH101, Sunkadakatte, Mangaluru taluk, Dakshina Kannada, Karnataka, India",
            "longitude": "74.9006001",
            "latitude": "12.97910715",
            "blogLinks": [
                "http://www.udipikrishnamutt.com/tour-packages/id/25"
            ],
            "locType": "place_of_worship"
        },
        "annapurneshwari": {
            "closest_to": "",
            "address": "Annapurneshwari rice corner, 22, 1st Main Road, Lakshmipuram, Hoysala Nagar, Bengaluru, Bangalore Urban, Karnataka, 560001, India",
            "longitude": "77.6318947",
            "latitude": "12.9770585",
            "blogLinks": [
                "http://myroutemyway.blogspot.com/"
            ],
            "locType": "greengrocer"
        },
        "shringeri": {
            "closest_to": "",
            "address": "Shringeri, Hanagal taluk, Haveri district, Karnataka, India",
            "longitude": "75.0621168",
            "latitude": "14.7221214",
            "blogLinks": [
                "http://www.indiamike.com/india/karnataka-f38/udupi-agumbe-shringeri-murudeshwara-jog-falls-dharmasthala-t137208/"
            ],
            "locType": "village"
        },
        "harakere": {
            "closest_to": "",
            "address": "Harakere, Shivamogga taluku, Shimoga district, Karnataka, India",
            "longitude": "75.5619307",
            "latitude": "13.9014234",
            "blogLinks": [
                "http://wikitravel.org/en/Shimoga"
            ],
            "locType": "village"
        },
        "mayura": {
            "closest_to": "",
            "address": "Mayura, Jevargi taluku, Kalaburagi district, Karnataka, India",
            "longitude": "76.4982569",
            "latitude": "17.0307108",
            "blogLinks": [
                "http://pritskulkarni.blogspot.com/2016/09/beautiful-south-goa-and-gigantic-jog.html"
            ],
            "locType": "village"
        },
        "varada": {
            "closest_to": "",
            "address": "Varada, Savanura taluk, Haveri district, Karnataka, India",
            "longitude": "75.47206",
            "latitude": "14.8717792",
            "blogLinks": [
                "http://www.nivalink.com/destination/jog-falls"
            ],
            "locType": "river"
        },
        "kadamba": {
            "closest_to": "",
            "address": "Kadamba Avenue, R. Narayanapura, Brookefields, Dodsworth Enclave, Bangalore Urban, Karnataka, 560066, India",
            "longitude": "77.7436954",
            "latitude": "12.9703178",
            "blogLinks": [
                "http://myroutemyway.blogspot.com/"
            ],
            "locType": "residential"
        },
        "sirasi": {
            "closest_to": "",
            "address": "Sirasi Marikamba Temple, Sirsi Banavasi Road, Umbalekoppa, Shirasi taluk, Uttara Kannada, Karnataka, India",
            "longitude": "74.8395315",
            "latitude": "14.612194",
            "blogLinks": [
                "http://myroutemyway.blogspot.com/"
            ],
            "locType": "place_of_worship"
        },
        "sharavathi": {
            "closest_to": "",
            "address": "Sharavathi Block, National Games Village Road, Ambedkar Nagar, Ejipura, Bengaluru, Bangalore Urban, Karnataka, 560001, India",
            "longitude": "77.6216184337102",
            "latitude": "12.9464709",
            "blogLinks": [
                "http://wikitravel.org/en/Shimoga"
            ],
            "locType": "yes"
        },
        "shalmala": {
            "closest_to": "",
            "address": "Shalmala, Shirasi taluk, Uttara Kannada, Karnataka, India",
            "longitude": "74.800353",
            "latitude": "14.7028929",
            "blogLinks": [
                "http://myroutemyway.blogspot.com/"
            ],
            "locType": "river"
        },
        "varadahalli": {
            "closest_to": "",
            "address": "Varadahalli, Haveri taluku, Haveri district, Karnataka, India",
            "longitude": "75.3323142",
            "latitude": "14.8568018",
            "blogLinks": [
                "http://wikitravel.org/en/Shimoga"
            ],
            "locType": "village"
        },
        "hubli": {
            "closest_to": "",
            "address": "Hubballi - \u0cb9\u0cc1\u0cac\u0ccd\u0cac\u0cb3\u0ccd\u0cb3\u0cbf, Hubballi taluku, Dharwad district, Karnataka, 580020, India",
            "longitude": "75.1379848",
            "latitude": "15.3518378",
            "blogLinks": [
                "http://www.nivalink.com/destination/kollur",
                "http://www.nivalink.com/destination/jog-falls",
                "http://myroutemyway.blogspot.com/"
            ],
            "locType": "city"
        },
        "mangalore": {
            "closest_to": "",
            "address": "Mangaluru, Mangaluru taluk, Dakshina Kannada, Karnataka, 575001, India",
            "longitude": "74.8430082",
            "latitude": "12.8698101",
            "blogLinks": [
                "http://www.team-bhp.com/forum/route-travel-queries/88512-blr-shimoga-jog-falls-kollur-udipi-dsthala-blr.html",
                "https://www.tripadvisor.in/Attraction_Review-g1156205-d1206548-Reviews-Jog_Falls-Shimoga_Karnataka.html",
                "http://www.udipikrishnamutt.com/tour-packages/id/25",
                "http://myroutemyway.blogspot.com/",
                "https://www.tripoto.com/trip/to-b-alone-on-a-trip-brings-together-a-lot-in-u-56c9f7afb89fe"
            ],
            "locType": "city"
        },
        "vijayanagara": {
            "closest_to": "",
            "address": "Vijayanagara, Chikodi taluk, Belgaum district, Karnataka, India",
            "longitude": "74.7380455",
            "latitude": "16.3270486",
            "blogLinks": [
                "http://www.nivalink.com/destination/jog-falls"
            ],
            "locType": "village"
        },
        "ujire": {
            "closest_to": "",
            "address": "Ujire, Beltangadi taluk, Dakshina Kannada, Karnataka, India",
            "longitude": "75.3301061",
            "latitude": "12.9954619",
            "blogLinks": [
                "http://www.team-bhp.com/forum/route-travel-queries/88512-blr-shimoga-jog-falls-kollur-udipi-dsthala-blr.html"
            ],
            "locType": "village"
        },
        "belur": {
            "closest_to": "",
            "address": "Belur, Beluru taluk, Hassan district, Karnataka, 573115, India",
            "longitude": "75.8634851",
            "latitude": "13.1645671",
            "blogLinks": [
                "http://www.team-bhp.com/forum/route-travel-queries/88512-blr-shimoga-jog-falls-kollur-udipi-dsthala-blr.html"
            ],
            "locType": "town"
        },
        "karnataka": {
            "closest_to": "",
            "address": "Karnataka, Shalivahana Road, Nazarbad, Mysuru, Mysuru taluk, Mysuru district, Karnataka, 570001, India",
            "longitude": "76.6639936",
            "latitude": "12.3084901",
            "blogLinks": [
                "http://pritskulkarni.blogspot.com/2016/09/beautiful-south-goa-and-gigantic-jog.html",
                "http://travel.india.com/jog-falls/",
                "http://www.karnatakatourism.org/",
                "http://myroutemyway.blogspot.com/",
                "http://www.bangaloretrips.info/kodachadri",
                "https://www.tripadvisor.in/Attraction_Review-g1156205-d1206548-Reviews-Jog_Falls-Shimoga_Karnataka.html",
                "http://wikitravel.org/en/Shimoga",
                "http://www.nivalink.com/destination/jog-falls",
                "http://www.nivalink.com/destination/kollur",
                "https://ravikumarv.wordpress.com/tag/jog-falls/"
            ],
            "locType": "atm"
        },
        "thirthahalli road": {
            "closest_to": "",
            "address": "Malpe - Manipal Road, Indrali, Manipal, Udupi taluku, Udupi district, Karnataka, 576 104, India",
            "longitude": "74.7829657",
            "latitude": "13.3476314",
            "blogLinks": [
                "http://wikitravel.org/en/Shimoga"
            ],
            "locType": "trunk"
        },
        "kannur": {
            "closest_to": "",
            "address": "Netravati bridge - Kannur Bypass Road (Proposed), Padil, Bajal, Mangaluru taluk, Dakshina Kannada, Karnataka, 575007, India",
            "longitude": "74.8858161",
            "latitude": "12.8487602",
            "blogLinks": [
                "http://www.nivalink.com/destination/kollur"
            ],
            "locType": "construction"
        },
        "bengal": {
            "closest_to": "",
            "address": "Bengal Lamps, Konadasapura, Bangalore Urban, Karnataka, 560066, India",
            "longitude": "77.7517038151245",
            "latitude": "13.0492646",
            "blogLinks": [
                "https://www.tripoto.com/trip/to-b-alone-on-a-trip-brings-together-a-lot-in-u-56c9f7afb89fe"
            ],
            "locType": "industrial"
        },
        "madgaon": {
            "closest_to": "",
            "address": "Karnataka bank, NH66, Aquem, Fatorda, Margao, South Goa, Goa, 403600, India",
            "longitude": "73.9583411",
            "latitude": "15.2740083",
            "blogLinks": [
                "http://pritskulkarni.blogspot.com/2016/09/beautiful-south-goa-and-gigantic-jog.html"
            ],
            "locType": "bank"
        },
        "goa": {
            "closest_to": "",
            "address": "Carnival De Goa, Bhaskaran Road, Gupta Layout, Halasuru, Bengaluru, Bangalore Urban, Karnataka, 560001, India",
            "longitude": "77.6200027",
            "latitude": "12.9750047",
            "blogLinks": [
                "http://pritskulkarni.blogspot.com/2016/09/beautiful-south-goa-and-gigantic-jog.html"
            ],
            "locType": "restaurant"
        },
        "india": {
            "closest_to": "",
            "address": "Karnataka, India",
            "longitude": "75.7223521",
            "latitude": "14.5203896",
            "blogLinks": [
                "http://pritskulkarni.blogspot.com/2016/09/beautiful-south-goa-and-gigantic-jog.html",
                "http://travel.india.com/jog-falls/",
                "http://www.udipikrishnamutt.com/tour-packages/id/25",
                "https://www.tripoto.com/trip/to-b-alone-on-a-trip-brings-together-a-lot-in-u-56c9f7afb89fe",
                "https://www.tripadvisor.in/Attraction_Review-g1156205-d1206548-Reviews-Jog_Falls-Shimoga_Karnataka.html",
                "http://wikitravel.org/en/Shimoga",
                "http://www.nivalink.com/destination/jog-falls",
                "http://www.nivalink.com/destination/kollur"
            ],
            "locType": "administrative"
        },
        "maurya": {
            "closest_to": "",
            "address": "Hotel Maurya, 22/4, Devaraj Urs Road, Balepet, High Grounds, Bengaluru, Bangalore Urban, Karnataka, 560009, India",
            "longitude": "77.576491",
            "latitude": "12.980921",
            "blogLinks": [
                "http://www.indiamike.com/india/karnataka-f38/udupi-agumbe-shringeri-murudeshwara-jog-falls-dharmasthala-t137208/"
            ],
            "locType": "hotel"
        },
        "karnataka state": {
            "closest_to": "",
            "address": "Karnataka State Open University, \u0cb9\u0cc1\u0ca3\u0cb8\u0cc2\u0cb0\u0cc1 \u0cb0\u0cb8\u0ccd\u0ca4\u0cc6, Gokulam, Mysuru, Mysuru taluk, Mysuru district, Karnataka, 570001, India",
            "longitude": "76.6236231",
            "latitude": "12.315382",
            "blogLinks": [
                "http://wikitravel.org/en/Shimoga"
            ],
            "locType": "university"
        },
        "janardhana temple": {
            "closest_to": "",
            "address": "Sri Adi Janardhana Swamy Temple, SH70, Karnad, Padmannur, Mangaluru taluk, Dakshina Kannada, Karnataka, India",
            "longitude": "74.8127954",
            "latitude": "13.0875904",
            "blogLinks": [
                "http://www.udipikrishnamutt.com/tour-packages/id/25"
            ],
            "locType": "place_of_worship"
        },
        "sharavathi river": {
            "closest_to": "",
            "address": "Sharavathi Block, National Games Village Road, Ambedkar Nagar, Ejipura, Bengaluru, Bangalore Urban, Karnataka, 560001, India",
            "longitude": "77.6216184337102",
            "latitude": "12.9464709",
            "blogLinks": [
                "http://pritskulkarni.blogspot.com/2016/09/beautiful-south-goa-and-gigantic-jog.html",
                "http://www.nivalink.com/destination/jog-falls",
                "http://travel.india.com/jog-falls/"
            ],
            "locType": "yes"
        },
        "gokarna beach": {
            "closest_to": "",
            "address": "Gokarna Beach, Gokarna Road, Ganji Gadde, Kumata taluk, Uttara Kannada, Karnataka, 581326, India",
            "longitude": "74.3109489488919",
            "latitude": "14.5516537",
            "blogLinks": [
                "https://www.tripadvisor.in/Attraction_Review-g1156205-d1206548-Reviews-Jog_Falls-Shimoga_Karnataka.html"
            ],
            "locType": "beach"
        },
        "gokarna": {
            "closest_to": "",
            "address": "Gokarna, Kumata taluk, Uttara Kannada, Karnataka, 581326, India",
            "longitude": "74.3184418",
            "latitude": "14.5439629",
            "blogLinks": [
                "http://www.indiamike.com/india/karnataka-f38/udupi-agumbe-shringeri-murudeshwara-jog-falls-dharmasthala-t137208/"
            ],
            "locType": "town"
        },
        "nittur": {
            "closest_to": "",
            "address": "Malebennur Nittur Road, Nitturu, Harihara taluku, Davanagere district, Karnataka, 577530, India",
            "longitude": "75.7595937",
            "latitude": "14.3579814",
            "blogLinks": [
                "http://wikitravel.org/en/Shimoga"
            ],
            "locType": "tertiary"
        },
        "hotel sharon": {
            "closest_to": "",
            "address": "The Grand Serenity Apartment Hotel, 104, 5th Cross, Indiranagar 2nd Stage, Indiranagar, Bengaluru, Bangalore Urban, Karnataka, 560001, India",
            "longitude": "77.6387744989112",
            "latitude": "12.9748823",
            "blogLinks": [
                "http://www.team-bhp.com/forum/route-travel-queries/88512-blr-shimoga-jog-falls-kollur-udipi-dsthala-blr.html"
            ],
            "locType": "hotel"
        }
    },
    "jog falls": {
        "place_id": "12596177",
        "osm_id": "1191427856",
        "icon": "https://nominatim.openstreetmap.org/images/mapicons/poi_place_village.p.20.png",
        "osm_type": "node",
        "licence": "Data \u00a9 OpenStreetMap contributors, ODbL 1.0. http://www.openstreetmap.org/copyright",
        "display_name": "Jog Falls, Joga - Kargal, Sagara taluk, Shimoga district, Karnataka, India",
        "type": "locality",
        "lon": "74.8128715",
        "boundingbox": [
            "14.2176106",
            "14.2376106",
            "74.8028715",
            "74.8228715"
        ],
        "importance": 0.66590216462374,
        "lat": "14.2276106",
        "class": "place"
    }
}