{
    "mentions": {
        "sharavathi river": {
            "closest_to": "",
            "latitude": "12.9464709",
            "blogLinks": [
                "http://www.tourism-of-india.com/shimoga-tour/",
                "https://www.quora.com/What-are-the-places-to-visit-in-around-Shimoga-in-3-days"
            ],
            "address": "Sharavathi Block, National Games Village Road, Ambedkar Nagar, Ejipura, Bengaluru, Bangalore Urban, Karnataka, 560001, India",
            "locType": "yes",
            "longitude": "77.6216184337102"
        },
        "bidar": {
            "closest_to": "",
            "latitude": "18.083333",
            "blogLinks": [
                "https://www.quora.com/What-are-the-best-places-to-visit-on-a-3-day-trip-in-and-around-Karnataka"
            ],
            "address": "Bidar, Bidar district, Karnataka, India",
            "locType": "county",
            "longitude": "77.333333"
        },
        "varaha temple": {
            "closest_to": "",
            "latitude": "12.53332975",
            "blogLinks": [
                "https://www.tripoto.com/weekend-getaways/from-sirsi"
            ],
            "address": "Lakshmi Sameta Bhu Varaha Swami Temple, Varahanatha Kallahalli, Krishnarajapete taluk, Mandya district, Karnataka, India",
            "locType": "place_of_worship",
            "longitude": "76.4556184469002"
        },
        "markandeya river": {
            "closest_to": "",
            "latitude": "15.9707453",
            "blogLinks": [
                "https://www.quora.com/What-are-the-best-places-to-visit-on-a-3-day-trip-in-and-around-Karnataka"
            ],
            "address": "Markandeya, Belagavi taluku, Belgaum district, Karnataka, India",
            "locType": "river",
            "longitude": "74.5774895"
        },
        "mallikarjuna temple": {
            "closest_to": "",
            "latitude": "15.9321101",
            "blogLinks": [
                "https://en.wikipedia.org/wiki/Sagara,_Karnataka"
            ],
            "address": "Mallikarjuna Temple, SH135, Nelavagi, Badami taluku, Bagalkote district, Karnataka, India",
            "locType": "place_of_worship",
            "longitude": "75.7213492"
        },
        "bandipur national park": {
            "closest_to": "",
            "latitude": "11.76682425",
            "blogLinks": [
                "https://www.quora.com/What-are-the-best-places-to-visit-on-a-3-day-trip-in-and-around-Karnataka"
            ],
            "address": "Bandipur National Park, Kozhikode - Kollegal Highway, Gundlupet taluk, Chamarajanagar district, Karnataka, India",
            "locType": "national_park",
            "longitude": "76.4314968740264"
        },
        "tumkur": {
            "closest_to": "",
            "latitude": "13.4999406",
            "blogLinks": [
                "https://en.wikipedia.org/wiki/Sagara,_Karnataka"
            ],
            "address": "Tumakuru, Tumkur district, Karnataka, India",
            "locType": "county",
            "longitude": "77.0002445"
        },
        "golden temple": {
            "closest_to": "",
            "latitude": "12.430821",
            "blogLinks": [
                "https://www.quora.com/What-are-the-best-places-to-visit-on-a-3-day-trip-in-and-around-Karnataka"
            ],
            "address": "Padmasambhava Buddhist Vihara (Golden Temple), MDR21, Koppa, Piriyapattana taluk, Mysuru district, Karnataka, India",
            "locType": "place_of_worship",
            "longitude": "75.9674656"
        },
        "nilgiris": {
            "closest_to": "",
            "latitude": "12.9725052",
            "blogLinks": [
                "https://www.quora.com/What-are-the-best-places-to-visit-on-a-3-day-trip-in-and-around-Karnataka"
            ],
            "address": "Nilgiris, Brigade Road, Tasker Town, Ashok Nagar, Bengaluru, Bangalore Urban, Karnataka, 560001, India",
            "locType": "supermarket",
            "longitude": "77.6069792"
        },
        "hampi": {
            "closest_to": "",
            "latitude": "15.3359769",
            "blogLinks": [
                "https://www.quora.com/What-are-the-best-places-to-visit-on-a-3-day-trip-in-and-around-Karnataka"
            ],
            "address": "Hampe, Hosapete taluk, Bellary district, Karnataka, 583239, India",
            "locType": "village",
            "longitude": "76.4606199"
        },
        "gadag": {
            "closest_to": "",
            "latitude": "15.4263647",
            "blogLinks": [
                "http://www.mapsofindia.com/maps/karnataka/"
            ],
            "address": "Gadag, Gadag taluk, Gadag district, Karnataka, 582101, India",
            "locType": "town",
            "longitude": "75.6300786"
        },
        "kodagu": {
            "closest_to": "",
            "latitude": "12.38117345",
            "blogLinks": [
                "https://www.quora.com/What-are-the-best-places-to-visit-on-a-3-day-trip-in-and-around-Karnataka",
                "http://www.mapsofindia.com/maps/karnataka/"
            ],
            "address": "Kodagu, Karnataka, India",
            "locType": "administrative",
            "longitude": "75.6677235950852"
        },
        "maddur": {
            "closest_to": "",
            "latitude": "12.5851916",
            "blogLinks": [
                "https://www.quora.com/What-are-the-best-places-to-visit-on-a-3-day-trip-in-and-around-Karnataka"
            ],
            "address": "Maddur, Madduru taluk, Mandya district, Karnataka, 571428, India",
            "locType": "town",
            "longitude": "77.0456404"
        },
        "brahmagiri range": {
            "closest_to": "",
            "latitude": "14.8001586",
            "blogLinks": [
                "https://www.quora.com/What-are-the-best-places-to-visit-on-a-3-day-trip-in-and-around-Karnataka"
            ],
            "address": "Brahmagiri Betta, Molakalmuru taluku, Chitradurga district, Karnataka, India",
            "locType": "peak",
            "longitude": "76.8122474"
        },
        "mahabaleshwara": {
            "closest_to": "",
            "latitude": "12.96264945",
            "blogLinks": [
                "https://www.quora.com/What-are-the-best-places-to-visit-on-a-3-day-trip-in-and-around-Karnataka"
            ],
            "address": "Mahabaleshwara Temple, Mission Road (Kalinga Rao Road ), Sampangirama Nagar, Shanti Nagar, Bengaluru, Bangalore Urban, Karnataka, 560001, India",
            "locType": "place_of_worship",
            "longitude": "77.5899749843004"
        },
        "ksrtc": {
            "closest_to": "",
            "latitude": "12.97679135",
            "blogLinks": [
                "https://en.wikipedia.org/wiki/Sagara,_Karnataka"
            ],
            "address": "Kempegowda KSRTC Bus Station, Mofussil Bus Road, Balepet, Gandhinagar, Bengaluru, Bangalore Urban, Karnataka, 560001, India",
            "locType": "bus_station",
            "longitude": "77.5719146478929"
        },
        "karanji lake": {
            "closest_to": "",
            "latitude": "18.2681849",
            "blogLinks": [
                "https://www.quora.com/What-are-the-best-places-to-visit-on-a-3-day-trip-in-and-around-Karnataka"
            ],
            "address": "Karanji, Aurad taluku, Bidar district, Karnataka, India",
            "locType": "village",
            "longitude": "77.5474867"
        },
        "talakadu": {
            "closest_to": "",
            "latitude": "12.1919942",
            "blogLinks": [
                "https://www.quora.com/What-are-the-best-places-to-visit-on-a-3-day-trip-in-and-around-Karnataka"
            ],
            "address": "Talakadu, Tirumakudalu Narasipura taluk, Mysuru district, Karnataka, India",
            "locType": "village",
            "longitude": "77.0293979"
        },
        "gulbarga": {
            "closest_to": "",
            "latitude": "17.166667",
            "blogLinks": [
                "https://www.quora.com/What-are-the-best-places-to-visit-on-a-3-day-trip-in-and-around-Karnataka",
                "http://www.mapsofindia.com/maps/karnataka/"
            ],
            "address": "Kalaburgi, Kalaburagi district, Karnataka, India",
            "locType": "county",
            "longitude": "77.083333"
        },
        "pune": {
            "closest_to": "",
            "latitude": "17.8199745",
            "blogLinks": [
                "http://www.mapsofindia.com/maps/karnataka/"
            ],
            "address": "Pune - Machilipatnam Highway, Kaudiyala, Basavakalyana taluku, Bidar district, Karnataka, India",
            "locType": "trunk",
            "longitude": "76.9479122"
        },
        "kalyan": {
            "closest_to": "",
            "latitude": "13.0221416",
            "blogLinks": [
                "https://www.quora.com/What-are-the-best-places-to-visit-on-a-3-day-trip-in-and-around-Karnataka"
            ],
            "address": "Kalyan Nagar, Chelekere, Bangalore Urban, Karnataka, India",
            "locType": "suburb",
            "longitude": "77.6403368"
        },
        "channarayapatna": {
            "closest_to": "",
            "latitude": "13.2455918",
            "blogLinks": [
                "https://www.quora.com/What-are-the-places-to-visit-in-around-Shimoga-in-3-days"
            ],
            "address": "Channarayapatna, Devanahalli taluk, Bangalore Rural, Karnataka, India",
            "locType": "village",
            "longitude": "77.797084"
        },
        "jhansi": {
            "closest_to": "",
            "latitude": "12.3012549",
            "blogLinks": [
                "https://www.tripoto.com/weekend-getaways/from-sirsi"
            ],
            "address": "Jhansi Lakshmibai Road, Chamarajapuram, Mysuru, Mysuru taluk, Mysuru district, Karnataka, 570001, India",
            "locType": "primary",
            "longitude": "76.6430343"
        },
        "hubli road": {
            "closest_to": "",
            "latitude": "15.4223718",
            "blogLinks": [
                "https://en.wikipedia.org/wiki/Sirsi,_Karnataka"
            ],
            "address": "Hubli Road, Betageri, Gadag, Gadag taluk, Gadag district, Karnataka, 582102, India",
            "locType": "trunk",
            "longitude": "75.6212485"
        },
        "chamundi hill": {
            "closest_to": "",
            "latitude": "12.2724017",
            "blogLinks": [
                "https://www.quora.com/What-are-the-best-places-to-visit-on-a-3-day-trip-in-and-around-Karnataka"
            ],
            "address": "Chamundi Hill, Mysuru, Mysuru taluk, Mysuru district, Karnataka, 570001, India",
            "locType": "peak",
            "longitude": "76.6703937"
        },
        "bellary": {
            "closest_to": "",
            "latitude": "15.2485413",
            "blogLinks": [
                "http://www.mapsofindia.com/maps/karnataka/",
                "http://www.team-bhp.com/forum/route-travel-queries/94153-bangalore-sirsi-trip.html"
            ],
            "address": "Bellary, Bellary district, Karnataka, India",
            "locType": "county",
            "longitude": "76.8323648"
        },
        "india bengaluru": {
            "closest_to": "",
            "latitude": "12.977944",
            "blogLinks": [
                "https://www.quora.com/What-are-the-places-to-visit-in-around-Shimoga-in-3-days"
            ],
            "address": "Karnataka High Court, Dr B R Ambedkar Veedhi, Shantala Nagar, Gandhinagar, Bengaluru, Bangalore Urban, Karnataka, 560001, India",
            "locType": "courthouse",
            "longitude": "77.5925914"
        },
        "bahubali": {
            "closest_to": "",
            "latitude": "12.8540505",
            "blogLinks": [
                "https://www.quora.com/What-are-the-best-places-to-visit-on-a-3-day-trip-in-and-around-Karnataka"
            ],
            "address": "Bahubali Statue, SH8, Shravanabelagola, Channarayapattana taluk, Hassan district, Karnataka, 573135, India",
            "locType": "place_of_worship",
            "longitude": "76.4846128"
        },
        "mangalore": {
            "closest_to": "",
            "latitude": "12.8698101",
            "blogLinks": [
                "https://en.wikipedia.org/wiki/Sirsi,_Karnataka",
                "https://www.quora.com/What-are-the-best-places-to-visit-on-a-3-day-trip-in-and-around-Karnataka",
                "https://en.wikipedia.org/wiki/Sagara,_Karnataka"
            ],
            "address": "Mangaluru, Mangaluru taluk, Dakshina Kannada, Karnataka, 575001, India",
            "locType": "city",
            "longitude": "74.8430082"
        },
        "kadamba": {
            "closest_to": "",
            "latitude": "12.9703178",
            "blogLinks": [
                "https://www.quora.com/What-are-the-best-places-to-visit-on-a-3-day-trip-in-and-around-Karnataka"
            ],
            "address": "Kadamba Avenue, R. Narayanapura, Brookefields, Dodsworth Enclave, Bangalore Urban, Karnataka, 560066, India",
            "locType": "residential",
            "longitude": "77.7436954"
        },
        "south": {
            "closest_to": "",
            "latitude": "13.2942848",
            "blogLinks": [
                "https://www.quora.com/What-are-the-best-places-to-visit-on-a-3-day-trip-in-and-around-Karnataka"
            ],
            "address": "s, Vijayapura, Devanahalli taluk, Bangalore Rural, Karnataka, 562135, India",
            "locType": "residential",
            "longitude": "77.8040874"
        },
        "india karnataka": {
            "closest_to": "",
            "latitude": "12.3084901",
            "blogLinks": [
                "https://www.quora.com/What-are-the-best-places-to-visit-on-a-3-day-trip-in-and-around-Karnataka"
            ],
            "address": "Karnataka, Shalivahana Road, Nazarbad, Mysuru, Mysuru taluk, Mysuru district, Karnataka, 570001, India",
            "locType": "atm",
            "longitude": "76.6639936"
        },
        "hyderabad": {
            "closest_to": "",
            "latitude": "17.9003114",
            "blogLinks": [
                "https://www.quora.com/What-are-the-places-to-visit-in-around-Shimoga-in-3-days",
                "http://www.team-bhp.com/forum/route-travel-queries/94153-bangalore-sirsi-trip.html"
            ],
            "address": "Hyderabad Road, Old City, Bidar, Bidar taluku, Bidar district, Karnataka, 585400, India",
            "locType": "primary",
            "longitude": "77.5344002"
        },
        "bangkok": {
            "closest_to": "",
            "latitude": "12.9701967",
            "blogLinks": [
                "https://www.quora.com/What-are-the-best-places-to-visit-on-a-3-day-trip-in-and-around-Karnataka"
            ],
            "address": "One night in Bangkok, 12th Main Road, HAL 2nd Stage, Indiranagar, Bengaluru, Bangalore Urban, Karnataka, 560001, India",
            "locType": "bar",
            "longitude": "77.6382633"
        },
        "mahadeshwara hills": {
            "closest_to": "",
            "latitude": "12.932367",
            "blogLinks": [
                "https://www.quora.com/What-are-the-best-places-to-visit-on-a-3-day-trip-in-and-around-Karnataka"
            ],
            "address": "Sri Mahadeshwara Filling Station, Outer Ring Road, Seven Hills Layout, Kathriguppe, Bengaluru, Bangalore Urban, Karnataka, 560001, India",
            "locType": "fuel",
            "longitude": "77.5414216"
        },
        "udupi": {
            "closest_to": "",
            "latitude": "13.3419169",
            "blogLinks": [
                "https://en.wikipedia.org/wiki/Sirsi,_Karnataka",
                "https://en.wikipedia.org/wiki/Sagara,_Karnataka",
                "http://www.mapsofindia.com/maps/karnataka/"
            ],
            "address": "Udupi, Udupi taluku, Udupi district, Karnataka, 576101, India",
            "locType": "city",
            "longitude": "74.7473232"
        },
        "chhattisgarh": {
            "closest_to": "",
            "latitude": "22.0573049",
            "blogLinks": [
                "https://www.tripoto.com/weekend-getaways/from-sirsi"
            ],
            "address": "KARNATAKA ATM, Bilaspur Bypass, Bilaspur, Bil\u0101spur, Bilaspur, Chhattisgarh, 495004, India",
            "locType": "atm",
            "longitude": "82.1706554"
        },
        "hoysala": {
            "closest_to": "",
            "latitude": "12.97813815",
            "blogLinks": [
                "https://www.quora.com/What-are-the-best-places-to-visit-on-a-3-day-trip-in-and-around-Karnataka",
                "https://www.quora.com/What-are-the-places-to-visit-in-around-Shimoga-in-3-days",
                "https://en.wikipedia.org/wiki/Sagara,_Karnataka"
            ],
            "address": "Hoysala Nagar, Bengaluru, Bangalore Urban, Karnataka, 560001, India",
            "locType": "administrative",
            "longitude": "77.6375990817051"
        },
        "hanagal": {
            "closest_to": "",
            "latitude": "14.7383723",
            "blogLinks": [
                "https://en.wikipedia.org/wiki/Sagara,_Karnataka"
            ],
            "address": "Hanagal, Molakalmuru taluku, Chitradurga district, Karnataka, 577535, India",
            "locType": "village",
            "longitude": "76.7039857"
        },
        "coorg": {
            "closest_to": "",
            "latitude": "12.4204003",
            "blogLinks": [
                "https://www.quora.com/What-are-the-best-places-to-visit-on-a-3-day-trip-in-and-around-Karnataka"
            ],
            "address": "Madikeri, Madikeri taluku, Kodagu, Karnataka, India",
            "locType": "town",
            "longitude": "75.740031"
        },
        "jupiter": {
            "closest_to": "",
            "latitude": "12.9711385",
            "blogLinks": [
                "https://www.tripoto.com/weekend-getaways/from-sirsi"
            ],
            "address": "Jupiter Capital Pvt Ltd., 54, Richmond Road, Gowthampuram, Ashok Nagar, Bengaluru, Bangalore Urban, Karnataka, 560001, India",
            "locType": "company",
            "longitude": "77.6182367"
        },
        "daivajna": {
            "closest_to": "",
            "latitude": "12.2958536",
            "blogLinks": [
                "https://en.wikipedia.org/wiki/Sirsi,_Karnataka"
            ],
            "address": "Daivajna Bhavana, New Kantharaje Urs Road, Sarasvatipuram, Mysuru, Mysuru taluk, Mysuru district, Karnataka, 570023, India",
            "locType": "community_centre",
            "longitude": "76.6252066983597"
        },
        "kadamba nagara": {
            "closest_to": "",
            "latitude": "12.9545906",
            "blogLinks": [
                "https://en.wikipedia.org/wiki/Sagara,_Karnataka"
            ],
            "address": "Kadamba Veg, BTS Main Road, Mavalli, Shanti Nagar, Bengaluru, Bangalore Urban, Karnataka, 560001, India",
            "locType": "restaurant",
            "longitude": "77.5928828"
        },
        "tagore": {
            "closest_to": "",
            "latitude": "13.0227204",
            "blogLinks": [
                "https://www.quora.com/What-are-the-best-places-to-visit-on-a-3-day-trip-in-and-around-Karnataka"
            ],
            "address": "Rabindranath Tagore Nagar, Bengaluru, Bangalore Urban, Karnataka, 560001, India",
            "locType": "suburb",
            "longitude": "77.595715"
        },
        "north blr": {
            "closest_to": "",
            "latitude": "13.2042586",
            "blogLinks": [
                "http://www.team-bhp.com/forum/route-travel-queries/94153-bangalore-sirsi-trip.html"
            ],
            "address": "Kempegowda International Airport (KIA), Bengaluru, Restricted Lane, Anneshvara, Devanahalli taluk, Bangalore Rural, Karnataka, 560300, India",
            "locType": "aerodrome",
            "longitude": "77.7065674158539"
        },
        "sala": {
            "closest_to": "",
            "latitude": "12.9411061",
            "blogLinks": [
                "https://en.wikipedia.org/wiki/Sagara,_Karnataka"
            ],
            "address": "Kottakkal Arya Vaidya Sala, 4th Cross Road, Mavalli, Basavanagudi, Bengaluru, Bangalore Urban, Karnataka, 560001, India",
            "locType": "hospital",
            "longitude": "77.5850591"
        },
        "lord shiva": {
            "closest_to": "",
            "latitude": "12.916875",
            "blogLinks": [
                "https://www.quora.com/What-are-the-best-places-to-visit-on-a-3-day-trip-in-and-around-Karnataka"
            ],
            "address": "Lord Shiva Temple, Marenahalli Road (South End), MICO Layout, BTM Layout, Bengaluru, Bangalore Urban, Karnataka, 560001, India",
            "locType": "place_of_worship",
            "longitude": "77.6024995"
        },
        "goa": {
            "closest_to": "",
            "latitude": "12.9750047",
            "blogLinks": [
                "https://en.wikipedia.org/wiki/Sirsi,_Karnataka",
                "https://www.quora.com/What-are-the-best-places-to-visit-on-a-3-day-trip-in-and-around-Karnataka",
                "http://www.mapsofindia.com/maps/karnataka/"
            ],
            "address": "Carnival De Goa, Bhaskaran Road, Gupta Layout, Halasuru, Bengaluru, Bangalore Urban, Karnataka, 560001, India",
            "locType": "restaurant",
            "longitude": "77.6200027"
        },
        "rameshwara temple": {
            "closest_to": "",
            "latitude": "12.99365815",
            "blogLinks": [
                "https://www.quora.com/What-are-the-places-to-visit-in-around-Shimoga-in-3-days"
            ],
            "address": "Rameshwara Temple, Kranthikavi Sarvagnya Road, Rajajinagar 4th Block, Sriramapura, Bengaluru, Bangalore Urban, Karnataka, 560001, India",
            "locType": "place_of_worship",
            "longitude": "77.5678621969321"
        },
        "gokak": {
            "closest_to": "",
            "latitude": "16.1693033",
            "blogLinks": [
                "https://www.quora.com/What-are-the-best-places-to-visit-on-a-3-day-trip-in-and-around-Karnataka"
            ],
            "address": "Gokak, Gokak taluku, Belgaum district, Karnataka, 591307, India",
            "locType": "town",
            "longitude": "74.8224338"
        },
        "mandya": {
            "closest_to": "",
            "latitude": "12.5217836",
            "blogLinks": [
                "http://www.mapsofindia.com/maps/karnataka/"
            ],
            "address": "Mandya, Mandya taluk, Mandya district, Karnataka, 571401, India",
            "locType": "town",
            "longitude": "76.8937392"
        },
        "kokkare": {
            "closest_to": "",
            "latitude": "12.4269861",
            "blogLinks": [
                "https://www.quora.com/What-are-the-best-places-to-visit-on-a-3-day-trip-in-and-around-Karnataka"
            ],
            "address": "Kokkare Hosahalli, Kanakapura taluk, Ramanagara district, Karnataka, India",
            "locType": "village",
            "longitude": "77.4558142"
        },
        "kusha garden": {
            "closest_to": "",
            "latitude": "12.2905505",
            "blogLinks": [
                "https://www.quora.com/What-are-the-best-places-to-visit-on-a-3-day-trip-in-and-around-Karnataka"
            ],
            "address": "Lava Kusha Park, Lalitadri Road, Kuvempunagara, Mysuru, Mysuru taluk, Mysuru district, Karnataka, 570001, India",
            "locType": "park",
            "longitude": "76.6283545564802"
        },
        "sharadamba": {
            "closest_to": "",
            "latitude": "12.9321898",
            "blogLinks": [
                "https://www.quora.com/What-are-the-best-places-to-visit-on-a-3-day-trip-in-and-around-Karnataka"
            ],
            "address": "Sharadamba Temple, 7th Main Road, Yediyur, Thyagaraja Nagar, Bengaluru, Bangalore Urban, Karnataka, 560001, India",
            "locType": "place_of_worship",
            "longitude": "77.5656194"
        },
        "madhya": {
            "closest_to": "",
            "latitude": "13.4705705",
            "blogLinks": [
                "https://www.tripoto.com/weekend-getaways/from-sirsi"
            ],
            "address": "Madhya Venkatapura, Koratagere taluku, Tumkur district, Karnataka, India",
            "locType": "village",
            "longitude": "77.3205373"
        },
        "chikkaballapur": {
            "closest_to": "",
            "latitude": "13.4352549",
            "blogLinks": [
                "http://www.mapsofindia.com/maps/karnataka/"
            ],
            "address": "Chikkaballapura, Chikkaballapura taluk, Chikkaballapura district, Karnataka, 562101, India",
            "locType": "town",
            "longitude": "77.7306866"
        },
        "belgaum": {
            "closest_to": "",
            "latitude": "16.333333",
            "blogLinks": [
                "https://www.quora.com/What-are-the-best-places-to-visit-on-a-3-day-trip-in-and-around-Karnataka"
            ],
            "address": "Belgaum, Belgaum district, Karnataka, India",
            "locType": "county",
            "longitude": "74.75"
        },
        "kabini": {
            "closest_to": "",
            "latitude": "12.0140065",
            "blogLinks": [
                "https://www.quora.com/What-are-the-best-places-to-visit-on-a-3-day-trip-in-and-around-Karnataka"
            ],
            "address": "Kabini, Heggadadevanakote taluk, Mysuru district, Karnataka, India",
            "locType": "river",
            "longitude": "76.4152088"
        },
        "west bengal": {
            "closest_to": "",
            "latitude": "13.0492646",
            "blogLinks": [
                "https://www.tripoto.com/weekend-getaways/from-sirsi"
            ],
            "address": "Bengal Lamps, Konadasapura, Bangalore Urban, Karnataka, 560066, India",
            "locType": "industrial",
            "longitude": "77.7517038151245"
        },
        "ooty": {
            "closest_to": "",
            "latitude": "12.2774807",
            "blogLinks": [
                "https://www.quora.com/What-are-the-best-places-to-visit-on-a-3-day-trip-in-and-around-Karnataka"
            ],
            "address": "Ooty Road, Vidyaranyapuram, Mysuru, Mysuru taluk, Mysuru district, Karnataka, 570001, India",
            "locType": "primary",
            "longitude": "76.6586807"
        },
        "uttar pradesh": {
            "closest_to": "",
            "latitude": "27.2058869",
            "blogLinks": [
                "https://www.tripoto.com/weekend-getaways/from-sirsi"
            ],
            "address": "Karnataka Bank, Mahatma Gandhi Road, Shahganj, Agra, Uttar Pradesh, 282003, India",
            "locType": "bank",
            "longitude": "78.0042192"
        },
        "shani": {
            "closest_to": "",
            "latitude": "13.0192534",
            "blogLinks": [
                "https://en.wikipedia.org/wiki/Sagara,_Karnataka"
            ],
            "address": "Shani Mahatma Temple Road, Ramamurthy Nagar, Varanasi, Bangalore Urban, Karnataka, 600042, India",
            "locType": "tertiary",
            "longitude": "77.6823558"
        },
        "chamarajanagar": {
            "closest_to": "",
            "latitude": "11.9346624",
            "blogLinks": [
                "https://www.quora.com/What-are-the-best-places-to-visit-on-a-3-day-trip-in-and-around-Karnataka",
                "http://www.mapsofindia.com/maps/karnataka/"
            ],
            "address": "Chamarajanagar, Nanjangudu-Chamarajanagar Road, Kadahalli, Chamarajanagara taluk, Chamarajanagar district, Karnataka, 571313, India",
            "locType": "station",
            "longitude": "76.9331345"
        },
        "karnataka": {
            "closest_to": "",
            "latitude": "12.3084901",
            "blogLinks": [
                "http://www.mapsofindia.com/maps/karnataka/",
                "http://distancecalculator.globefeed.com/India_Distance_Calculator.asp?state=19",
                "https://en.wikipedia.org/wiki/Sagara,_Karnataka",
                "http://www.distancesfrom.com/in/flight-distance-from-Shivamogga-to-Sirsi/FlightHistory/34925183.aspx",
                "https://vtripindia2016.wordpress.com/tag/sirsi/",
                "https://en.wikipedia.org/wiki/Sirsi,_Karnataka",
                "https://www.quora.com/What-are-the-best-places-to-visit-on-a-3-day-trip-in-and-around-Karnataka",
                "https://www.quora.com/What-are-the-places-to-visit-in-around-Shimoga-in-3-days"
            ],
            "address": "Karnataka, Shalivahana Road, Nazarbad, Mysuru, Mysuru taluk, Mysuru district, Karnataka, 570001, India",
            "locType": "atm",
            "longitude": "76.6639936"
        },
        "bangalore": {
            "closest_to": "",
            "latitude": "12.9791198",
            "blogLinks": [
                "https://en.wikipedia.org/wiki/Sirsi,_Karnataka",
                "https://www.quora.com/What-are-the-best-places-to-visit-on-a-3-day-trip-in-and-around-Karnataka",
                "https://www.quora.com/What-are-the-places-to-visit-in-around-Shimoga-in-3-days",
                "https://en.wikipedia.org/wiki/Sagara,_Karnataka",
                "http://www.team-bhp.com/forum/route-travel-queries/94153-bangalore-sirsi-trip.html"
            ],
            "address": "Bengaluru, Bangalore Urban, Karnataka, 560001, India",
            "locType": "city",
            "longitude": "77.5912997"
        },
        "kaveri": {
            "closest_to": "",
            "latitude": "12.1687878",
            "blogLinks": [
                "https://www.quora.com/What-are-the-best-places-to-visit-on-a-3-day-trip-in-and-around-Karnataka"
            ],
            "address": "Kaveri, Kollegala taluk, Chamarajanagar district, Karnataka, India",
            "locType": "river",
            "longitude": "77.0635531"
        },
        "ocean": {
            "closest_to": "",
            "latitude": "12.95490595",
            "blogLinks": [
                "https://www.quora.com/What-are-the-best-places-to-visit-on-a-3-day-trip-in-and-around-Karnataka"
            ],
            "address": "Gayatri Ocean Blue Apartments, Thubarahalli, Siddapura, Bangalore Urban, Karnataka, 560066, India",
            "locType": "residential",
            "longitude": "77.7178261979437"
        },
        "varanasi": {
            "closest_to": "",
            "latitude": "13.0304962",
            "blogLinks": [
                "https://www.distancecalculator.net/from-shimoga-to-sirsi"
            ],
            "address": "Varanasi, Bangalore Urban, Karnataka, India",
            "locType": "village",
            "longitude": "77.6860657"
        },
        "yeshwantpur": {
            "closest_to": "",
            "latitude": "13.0236062",
            "blogLinks": [
                "http://www.team-bhp.com/forum/route-travel-queries/94153-bangalore-sirsi-trip.html"
            ],
            "address": "Yeshwantpur, Deewanarapalya, Bangalore Urban, Karnataka, India",
            "locType": "suburb",
            "longitude": "77.5566302"
        },
        "kodava": {
            "closest_to": "",
            "latitude": "12.9946227",
            "blogLinks": [
                "https://www.quora.com/What-are-the-best-places-to-visit-on-a-3-day-trip-in-and-around-Karnataka",
                "http://www.tourism-of-india.com/shimoga-tour/"
            ],
            "address": "Kodava Samaja, M V Jayaram Road, Jayamahal Extension, Vasantnagar, Bengaluru, Bangalore Urban, Karnataka, 560001, India",
            "locType": "community_centre",
            "longitude": "77.5947466457941"
        },
        "koppal": {
            "closest_to": "",
            "latitude": "15.3484144",
            "blogLinks": [
                "http://www.mapsofindia.com/maps/karnataka/"
            ],
            "address": "Koppala, Koppala taluku, Koppal district, Karnataka, 583231, India",
            "locType": "town",
            "longitude": "76.1547421"
        },
        "brindavan gardens": {
            "closest_to": "",
            "latitude": "12.4208084",
            "blogLinks": [
                "https://www.quora.com/What-are-the-best-places-to-visit-on-a-3-day-trip-in-and-around-Karnataka"
            ],
            "address": "Brindavan Gardens, Krishnaraja Sagara Road, Krushnarajasagara, Srirangapattana taluk, Mandya district, Karnataka, India",
            "locType": "garden",
            "longitude": "76.5741029405883"
        },
        "kargal": {
            "closest_to": "",
            "latitude": "12.627292",
            "blogLinks": [
                "https://en.wikipedia.org/wiki/Sagara,_Karnataka"
            ],
            "address": "Kargal, Arakalagudu taluk, Hassan district, Karnataka, India",
            "locType": "village",
            "longitude": "75.9613152"
        },
        "panambur - panambur beach": {
            "closest_to": "",
            "latitude": "12.93907195",
            "blogLinks": [
                "https://www.quora.com/What-are-the-best-places-to-visit-on-a-3-day-trip-in-and-around-Karnataka"
            ],
            "address": "Panambur Beach, Panambur Beach Road, Gandhinagar, Panambur, Mangaluru taluk, Dakshina Kannada, Karnataka, 575013, India",
            "locType": "beach",
            "longitude": "74.8034667207214"
        },
        "sakleshpur": {
            "closest_to": "",
            "latitude": "12.9434349",
            "blogLinks": [
                "https://www.quora.com/What-are-the-best-places-to-visit-on-a-3-day-trip-in-and-around-Karnataka"
            ],
            "address": "Sakaleshpura, Sakaleshapura taluk, Hassan district, Karnataka, 573134, India",
            "locType": "town",
            "longitude": "75.7862318"
        },
        "dakshina kannada": {
            "closest_to": "",
            "latitude": "12.8114089",
            "blogLinks": [
                "https://www.quora.com/What-are-the-best-places-to-visit-on-a-3-day-trip-in-and-around-Karnataka",
                "http://www.mapsofindia.com/maps/karnataka/"
            ],
            "address": "Dakshina Kannada, Karnataka, India",
            "locType": "administrative",
            "longitude": "75.1008028650794"
        },
        "mandovi": {
            "closest_to": "",
            "latitude": "12.9965335",
            "blogLinks": [
                "https://www.quora.com/What-are-the-best-places-to-visit-on-a-3-day-trip-in-and-around-Karnataka"
            ],
            "address": "Mandovi Motors, Wheeler Road Flyover, MSO Colony, Cox Town, Bengaluru, Bangalore Urban, Karnataka, 560001, India",
            "locType": "car",
            "longitude": "77.6190505"
        },
        "nandi hills": {
            "closest_to": "",
            "latitude": "13.268142",
            "blogLinks": [
                "https://www.quora.com/What-are-the-best-places-to-visit-on-a-3-day-trip-in-and-around-Karnataka"
            ],
            "address": "Nandi Upahara, Nandhi Hills Road, Kottige Thimmanahalli, Devanahalli taluk, Bangalore Rural, Karnataka, India",
            "locType": "hotel",
            "longitude": "77.7194741670394"
        },
        "bijapur district": {
            "closest_to": "",
            "latitude": "16.81105965",
            "blogLinks": [
                "https://www.quora.com/What-are-the-best-places-to-visit-on-a-3-day-trip-in-and-around-Karnataka"
            ],
            "address": "Bijapur district, Karnataka, India",
            "locType": "administrative",
            "longitude": "75.897147327785"
        },
        "north karnataka": {
            "closest_to": "",
            "latitude": "13.0217151",
            "blogLinks": [
                "https://www.quora.com/What-are-the-best-places-to-visit-on-a-3-day-trip-in-and-around-Karnataka"
            ],
            "address": "N, Chaithanya Samarpan, Kadugodi, Kannamangala, Bangalore Urban, Karnataka, 560066, India",
            "locType": "service",
            "longitude": "77.7660547"
        },
        "mandalpatti": {
            "closest_to": "",
            "latitude": "12.4486242",
            "blogLinks": [
                "https://www.quora.com/What-are-the-best-places-to-visit-on-a-3-day-trip-in-and-around-Karnataka"
            ],
            "address": "Mandalpatti road junction, Galibidu Road, Kalakeri Nidugane, Madikeri taluku, Kodagu, Karnataka, India",
            "locType": "attraction",
            "longitude": "75.7307012"
        },
        "amboli": {
            "closest_to": "",
            "latitude": "15.6456171",
            "blogLinks": [
                "https://www.quora.com/What-are-the-best-places-to-visit-on-a-3-day-trip-in-and-around-Karnataka"
            ],
            "address": "Amboli, Khanapura taluku, Belgaum district, Karnataka, India",
            "locType": "village",
            "longitude": "74.4340839"
        },
        "silent valley": {
            "closest_to": "",
            "latitude": "12.3459371",
            "blogLinks": [
                "https://www.quora.com/What-are-the-best-places-to-visit-on-a-3-day-trip-in-and-around-Karnataka"
            ],
            "address": "Silent Shores Resort, Krishnaraja Sagara Road, Kurgalli, Bastipura, Srirangapattana taluk, Mandya district, Karnataka, 570027, India",
            "locType": "hotel",
            "longitude": "76.5819054"
        },
        "sri krishna temple": {
            "closest_to": "",
            "latitude": "12.9791699",
            "blogLinks": [
                "https://www.quora.com/What-are-the-best-places-to-visit-on-a-3-day-trip-in-and-around-Karnataka"
            ],
            "address": "Sri Krishna Temple Road, Old Binnamangala, Hoysala Nagar, Bengaluru, Bangalore Urban, Karnataka, 560001, India",
            "locType": "unclassified",
            "longitude": "77.6437236"
        },
        "raichur": {
            "closest_to": "",
            "latitude": "16.083333",
            "blogLinks": [
                "http://www.mapsofindia.com/maps/karnataka/"
            ],
            "address": "Raichur, Raichur district, Karnataka, India",
            "locType": "county",
            "longitude": "77.166667"
        },
        "tumakuru": {
            "closest_to": "",
            "latitude": "13.4999406",
            "blogLinks": [
                "https://www.quora.com/What-are-the-places-to-visit-in-around-Shimoga-in-3-days"
            ],
            "address": "Tumakuru, Tumkur district, Karnataka, India",
            "locType": "county",
            "longitude": "77.0002445"
        },
        "maharashtra": {
            "closest_to": "",
            "latitude": "12.9049455",
            "blogLinks": [
                "https://en.wikipedia.org/wiki/Sirsi,_Karnataka",
                "http://www.mapsofindia.com/maps/karnataka/",
                "http://www.team-bhp.com/forum/route-travel-queries/94153-bangalore-sirsi-trip.html"
            ],
            "address": "Bank of Maharashtra, 24th Main, K R Layout, Puttenahalli, Bengaluru, Bangalore Urban, Karnataka, 560001, India",
            "locType": "bank",
            "longitude": "77.5856013"
        },
        "vijaya karnataka": {
            "closest_to": "",
            "latitude": "12.2982365",
            "blogLinks": [
                "https://en.wikipedia.org/wiki/Sirsi,_Karnataka"
            ],
            "address": "Vijaya Karnataka, 1st Cross Road, Chamarajapuram, Mysuru, Mysuru taluk, Mysuru district, Karnataka, 570001, India",
            "locType": "newspaper",
            "longitude": "76.6418941"
        },
        "mysore": {
            "closest_to": "",
            "latitude": "12.3051828",
            "blogLinks": [
                "https://www.quora.com/What-are-the-best-places-to-visit-on-a-3-day-trip-in-and-around-Karnataka"
            ],
            "address": "Mysuru, Mysuru taluk, Mysuru district, Karnataka, 570001, India",
            "locType": "city",
            "longitude": "76.6553609"
        },
        "kannada": {
            "closest_to": "",
            "latitude": "12.8114089",
            "blogLinks": [
                "https://en.wikipedia.org/wiki/Sirsi,_Karnataka",
                "https://www.quora.com/What-are-the-best-places-to-visit-on-a-3-day-trip-in-and-around-Karnataka",
                "https://en.wikipedia.org/wiki/Sagara,_Karnataka"
            ],
            "address": "Dakshina Kannada, Karnataka, India",
            "locType": "administrative",
            "longitude": "75.1008028650794"
        },
        "ananthapadmanabha": {
            "closest_to": "",
            "latitude": "12.9039019",
            "blogLinks": [
                "https://www.quora.com/What-are-the-best-places-to-visit-on-a-3-day-trip-in-and-around-Karnataka"
            ],
            "address": "Kudupu Ananthapadmanabha Temple, Solapur-Mangalore Highway, Shakthinagar, Kulashekara, Kudupu, Mangaluru taluk, Dakshina Kannada, Karnataka, 575007, India",
            "locType": "place_of_worship",
            "longitude": "74.8937899082456"
        },
        "nataraja": {
            "closest_to": "",
            "latitude": "12.9900332",
            "blogLinks": [
                "https://www.quora.com/What-are-the-best-places-to-visit-on-a-3-day-trip-in-and-around-Karnataka"
            ],
            "address": "Nataraja, Sirur Park Road, Vyalikaval, Seshadripuram, Bengaluru, Bangalore Urban, Karnataka, 560001, India",
            "locType": "cinema",
            "longitude": "77.5730381173154"
        },
        "tarikere": {
            "closest_to": "",
            "latitude": "12.7569125",
            "blogLinks": [
                "https://www.quora.com/What-are-the-best-places-to-visit-on-a-3-day-trip-in-and-around-Karnataka"
            ],
            "address": "Tarikere, Madduru taluk, Mandya district, Karnataka, India",
            "locType": "village",
            "longitude": "76.9606245"
        },
        "yamuna": {
            "closest_to": "",
            "latitude": "12.9857254",
            "blogLinks": [
                "https://www.tripoto.com/weekend-getaways/from-sirsi"
            ],
            "address": "Yamuna Bai Road, Balepet, High Grounds, Bengaluru, Bangalore Urban, Karnataka, 560001, India",
            "locType": "unclassified",
            "longitude": "77.5777875"
        },
        "durga temple": {
            "closest_to": "",
            "latitude": "12.9057731",
            "blogLinks": [
                "https://www.quora.com/What-are-the-best-places-to-visit-on-a-3-day-trip-in-and-around-Karnataka"
            ],
            "address": "Durga Temple, 29th Main, Mahadeshwara Nagara, BTM Layout, Bengaluru, Bangalore Urban, Karnataka, 560001, India",
            "locType": "place_of_worship",
            "longitude": "77.6125928"
        },
        "rajasthan": {
            "closest_to": "",
            "latitude": "26.91869",
            "blogLinks": [
                "https://www.tripoto.com/weekend-getaways/from-sirsi"
            ],
            "address": "Karnataka Bank, Mirza Ismail Road, Hasanpura, Bani Park, Jaipur, Rajasthan, 302006, India",
            "locType": "atm",
            "longitude": "75.7985653"
        },
        "hogenakkal falls": {
            "closest_to": "",
            "latitude": "12.1184195",
            "blogLinks": [
                "https://www.quora.com/What-are-the-best-places-to-visit-on-a-3-day-trip-in-and-around-Karnataka"
            ],
            "address": "Hogenakkal Falls, Kollegala taluk, Chamarajanagar district, Karnataka, India",
            "locType": "waterfall",
            "longitude": "77.7758632"
        },
        "salem": {
            "closest_to": "",
            "latitude": "12.9645529",
            "blogLinks": [
                "https://www.quora.com/What-are-the-best-places-to-visit-on-a-3-day-trip-in-and-around-Karnataka"
            ],
            "address": "Salem Kitchen, 1st Main Road, AECS Layout B Block, Brookefields, Siddapura, Bangalore Urban, Karnataka, 560066, India",
            "locType": "restaurant",
            "longitude": "77.717708"
        },
        "himavad gopalaswamy betta": {
            "closest_to": "",
            "latitude": "11.7206016",
            "blogLinks": [
                "https://www.quora.com/What-are-the-best-places-to-visit-on-a-3-day-trip-in-and-around-Karnataka"
            ],
            "address": "Gopalaswami Temple, Gopal Swami Betta road, Devarahalli, Gundlupet taluk, Chamarajanagar district, Karnataka, India",
            "locType": "place_of_worship",
            "longitude": "76.5804063"
        },
        "tamil nadu": {
            "closest_to": "",
            "latitude": "11.0025894",
            "blogLinks": [
                "https://www.quora.com/What-are-the-best-places-to-visit-on-a-3-day-trip-in-and-around-Karnataka",
                "http://www.mapsofindia.com/maps/karnataka/"
            ],
            "address": "KARNATAKA BANK, Diwan Bhadur Road, Five Corner, RS Puram, Coimbatore, Coimbatore district, Tamil Nadu, 641001, India",
            "locType": "bank",
            "longitude": "76.9514152"
        },
        "kerala": {
            "closest_to": "",
            "latitude": "12.9726449",
            "blogLinks": [
                "https://en.wikipedia.org/wiki/Sirsi,_Karnataka",
                "https://www.quora.com/What-are-the-best-places-to-visit-on-a-3-day-trip-in-and-around-Karnataka",
                "http://www.mapsofindia.com/maps/karnataka/"
            ],
            "address": "New Life Kerala Mess, Sai Baba Mandira Road, Mottappanapalaya, Indiranagar, Bengaluru, Bangalore Urban, Karnataka, 560001, India",
            "locType": "restaurant",
            "longitude": "77.6382683"
        },
        "badami": {
            "closest_to": "",
            "latitude": "15.9203874",
            "blogLinks": [
                "https://www.quora.com/What-are-the-best-places-to-visit-on-a-3-day-trip-in-and-around-Karnataka"
            ],
            "address": "Badami, Badami taluku, Bagalkote district, Karnataka, 587200, India",
            "locType": "town",
            "longitude": "75.6807865"
        },
        "daria daulat gardens": {
            "closest_to": "",
            "latitude": "12.4200182",
            "blogLinks": [
                "https://www.quora.com/What-are-the-best-places-to-visit-on-a-3-day-trip-in-and-around-Karnataka"
            ],
            "address": "Daria Daulat Bagh Museum, Bangalore-Mysore Road, Srirangapatna, Srirangapattana taluk, Mandya district, Karnataka, 571438, India",
            "locType": "museum",
            "longitude": "76.6969039957315"
        },
        "river sharavathi": {
            "closest_to": "",
            "latitude": "12.967526",
            "blogLinks": [
                "https://www.quora.com/What-are-the-best-places-to-visit-on-a-3-day-trip-in-and-around-Karnataka",
                "http://distancecalculator.globefeed.com/India_Distance_Calculator.asp?state=19"
            ],
            "address": "Vrishabavathi, Bengaluru, Bangalore Urban, Karnataka, 560001, India",
            "locType": "river",
            "longitude": "77.5476521"
        },
        "andhra pradesh": {
            "closest_to": "",
            "latitude": "13.6841958",
            "blogLinks": [
                "http://www.mapsofindia.com/maps/karnataka/"
            ],
            "address": "Karnataka, West Mada Street, Srivari Temple, Tirumala, Chittoor, Andhra Pradesh, 517504, India",
            "locType": "hotel",
            "longitude": "79.3452447"
        },
        "mumbai": {
            "closest_to": "",
            "latitude": "13.0002869",
            "blogLinks": [
                "https://en.wikipedia.org/wiki/Sirsi,_Karnataka"
            ],
            "address": "Mumbai Spice, 18/2, 10th Cross, Malleswaram, Vyalikaval, Malleswaram, Bengaluru, Bangalore Urban, Karnataka, 560003, India",
            "locType": "restaurant",
            "longitude": "77.5718472"
        },
        "kuvempu": {
            "closest_to": "",
            "latitude": "12.9560369",
            "blogLinks": [
                "https://www.quora.com/What-are-the-best-places-to-visit-on-a-3-day-trip-in-and-around-Karnataka"
            ],
            "address": "Kuvempu, Kengeri Main Road, ITI Layout, Jnana Bharathi, Nagadevanahalli, Bangalore Urban, Karnataka, 560056, India",
            "locType": "artwork",
            "longitude": "77.5064032"
        },
        "parvati": {
            "closest_to": "",
            "latitude": "16.0395701",
            "blogLinks": [
                "https://www.quora.com/What-are-the-best-places-to-visit-on-a-3-day-trip-in-and-around-Karnataka"
            ],
            "address": "Parvati, Badami taluku, Bagalkote district, Karnataka, India",
            "locType": "village",
            "longitude": "75.7898501"
        },
        "earth": {
            "closest_to": "",
            "latitude": "12.9740596",
            "blogLinks": [
                "https://www.tripoto.com/weekend-getaways/from-sirsi"
            ],
            "address": "Bharat Earth Movers Limited - BEML, GM Palya, Bengaluru, Bangalore Urban, Karnataka, 560001, India",
            "locType": "industrial",
            "longitude": "77.659986649248"
        },
        "bandipur": {
            "closest_to": "",
            "latitude": "11.6662708",
            "blogLinks": [
                "https://www.quora.com/What-are-the-best-places-to-visit-on-a-3-day-trip-in-and-around-Karnataka"
            ],
            "address": "Bandipur, Gundlupet taluk, Chamarajanagar district, Karnataka, India",
            "locType": "village",
            "longitude": "76.6285739"
        },
        "mahadeshwara": {
            "closest_to": "",
            "latitude": "12.9076689",
            "blogLinks": [
                "https://www.quora.com/What-are-the-best-places-to-visit-on-a-3-day-trip-in-and-around-Karnataka"
            ],
            "address": "Mahadeshwara Nagara, BTM Layout, Bengaluru, Bangalore Urban, Karnataka, 560001, India",
            "locType": "neighbourhood",
            "longitude": "77.6123722"
        },
        "malpe": {
            "closest_to": "",
            "latitude": "13.3507423",
            "blogLinks": [
                "https://www.quora.com/What-are-the-best-places-to-visit-on-a-3-day-trip-in-and-around-Karnataka"
            ],
            "address": "Malpe, Udupi taluku, Udupi district, Karnataka, India",
            "locType": "village",
            "longitude": "74.7036914"
        },
        "chennai": {
            "closest_to": "",
            "latitude": "13.0365141",
            "blogLinks": [
                "https://en.wikipedia.org/wiki/Sirsi,_Karnataka"
            ],
            "address": "Karnataka Bank, Postal Colony 2nd Street, Postal Colony, Ashok Nagar, Chennai City Corporation Limits, Chennai district, Tamil Nadu, 600033, India",
            "locType": "bank",
            "longitude": "80.2197941"
        }
    },
    "shimoga": {
        "lat": "13.9311723",
        "importance": 0.55,
        "osm_type": "node",
        "class": "place",
        "boundingbox": [
            "13.7711723",
            "14.0911723",
            "75.409737",
            "75.729737"
        ],
        "icon": "https://nominatim.openstreetmap.org/images/mapicons/poi_place_city.p.20.png",
        "osm_id": "245625473",
        "licence": "Data \u00a9 OpenStreetMap contributors, ODbL 1.0. http://www.openstreetmap.org/copyright",
        "lon": "75.569737",
        "place_id": "639702",
        "display_name": "Shivamogga, Shivamogga taluku, Shimoga district, Karnataka, 577200, India",
        "type": "city"
    },
    "sirsi": {
        "lat": "14.6192362",
        "importance": 0.5,
        "osm_type": "node",
        "class": "place",
        "boundingbox": [
            "14.5792362",
            "14.6592362",
            "74.7988611",
            "74.8788611"
        ],
        "icon": "https://nominatim.openstreetmap.org/images/mapicons/poi_place_town.p.20.png",
        "osm_id": "245628312",
        "licence": "Data \u00a9 OpenStreetMap contributors, ODbL 1.0. http://www.openstreetmap.org/copyright",
        "lon": "74.8388611",
        "place_id": "630058",
        "display_name": "Sirsi, Shirasi taluk, Uttara Kannada, Karnataka, 581400, India",
        "type": "town"
    }
}