{
    "dandeli": {
        "place_id": "5820025",
        "osm_id": "612546262",
        "icon": "https://nominatim.openstreetmap.org/images/mapicons/poi_place_town.p.20.png",
        "osm_type": "node",
        "licence": "Data \u00a9 OpenStreetMap contributors, ODbL 1.0. http://www.openstreetmap.org/copyright",
        "display_name": "Dandeli, Haliyala taluku, Uttara Kannada, Karnataka, 581325, India",
        "type": "town",
        "lon": "74.6236037",
        "boundingbox": [
            "15.2090284",
            "15.2890284",
            "74.5836037",
            "74.6636037"
        ],
        "importance": 0.5,
        "lat": "15.2490284",
        "class": "place"
    },
    "mentions": {
        "badami": {
            "closest_to": "dandeli",
            "address": "Badami, Badami taluku, Bagalkote district, Karnataka, 587200, India",
            "longitude": "75.6807865",
            "latitude": "15.9203874",
            "blogLinks": [
                "https://en.wikipedia.org/wiki/Tourism_in_Karnataka",
                "https://www.quora.com/What-are-the-best-places-to-visit-on-a-3-day-trip-in-and-around-Karnataka"
            ],
            "locType": "town"
        },
        "mastikatte": {
            "closest_to": "dandeli",
            "address": "Mastikatte, Ankola taluk, Uttara Kannada, Karnataka, India",
            "longitude": "74.4604101",
            "latitude": "14.6857168",
            "blogLinks": [
                "https://en.wikipedia.org/wiki/Tourism_in_Karnataka"
            ],
            "locType": "village"
        },
        "district bagalkot": {
            "closest_to": "dandeli",
            "address": "District Commissioner's Office, Bagalkot, Navanagara, Bagalakote, Bagalakote taluk, Bagalkote district, Karnataka, India",
            "longitude": "75.6736388363024",
            "latitude": "16.16028195",
            "blogLinks": [
                "https://en.wikipedia.org/wiki/Tourism_in_Karnataka"
            ],
            "locType": "commercial"
        },
        "u.k.": {
            "closest_to": "dandeli",
            "address": "Karnataka, India",
            "longitude": "75.7223521",
            "latitude": "14.5203896",
            "blogLinks": [
                "https://en.wikipedia.org/wiki/Agumbe"
            ],
            "locType": "administrative"
        },
        "dattatreya": {
            "closest_to": "agumbe",
            "address": "Inam Dattatreya Pitha, Chikkamagaluru taluku, Chikkamagaluru district, Karnataka, India",
            "longitude": "75.7539724",
            "latitude": "13.4315216",
            "blogLinks": [
                "https://en.wikipedia.org/wiki/Tourism_in_Karnataka"
            ],
            "locType": "hamlet"
        },
        "belgaum": {
            "closest_to": "dandeli",
            "address": "Belgaum, Belgaum district, Karnataka, India",
            "longitude": "74.75",
            "latitude": "16.333333",
            "blogLinks": [
                "https://en.wikipedia.org/wiki/Tourism_in_Karnataka",
                "https://www.quora.com/What-are-the-best-places-to-visit-on-a-3-day-trip-in-and-around-Karnataka"
            ],
            "locType": "county"
        },
        "chikmagalur": {
            "closest_to": "agumbe",
            "address": "Chikmagalur, Chikkamagaluru district, Karnataka, India",
            "longitude": "75.5",
            "latitude": "13.5",
            "blogLinks": [
                "https://www.quora.com/What-are-the-best-places-to-visit-in-Karnataka-during-the-summer"
            ],
            "locType": "county"
        },
        "thirthahalli": {
            "closest_to": "agumbe",
            "address": "Thirthahalli - Udupi Highway, Shivapura, Karkala taluk, Udupi district, Karnataka, India",
            "longitude": "74.9626368",
            "latitude": "13.4265327",
            "blogLinks": [
                "http://www.nivalink.com/destination/thirthahalli",
                "https://www.quora.com/What-are-the-best-places-to-visit-in-Karnataka-during-the-summer",
                "https://en.wikipedia.org/wiki/Agumbe"
            ],
            "locType": "trunk"
        },
        "anshi national park": {
            "closest_to": "dandeli",
            "address": "Anshi National Park, SH46, Bidoli, Joida taluk, Uttara Kannada, Karnataka, India",
            "longitude": "74.3934408094182",
            "latitude": "14.9994424",
            "blogLinks": [
                "https://en.wikipedia.org/wiki/Tourism_in_Karnataka",
                "http://www.holidayiq.com/Dandeli-Sightseeing-345.html",
                "http://travel.paintedstork.com/blog/2005/12/amazing-dandeli-world-of-wilderness.html"
            ],
            "locType": "national_park"
        },
        "panambur - panambur beach": {
            "closest_to": "agumbe",
            "address": "Panambur Beach, Panambur Beach Road, Gandhinagar, Panambur, Mangaluru taluk, Dakshina Kannada, Karnataka, 575013, India",
            "longitude": "74.8034667207214",
            "latitude": "12.93907195",
            "blogLinks": [
                "https://www.quora.com/What-are-the-best-places-to-visit-on-a-3-day-trip-in-and-around-Karnataka"
            ],
            "locType": "beach"
        },
        "amboli": {
            "closest_to": "dandeli",
            "address": "Amboli, Khanapura taluku, Belgaum district, Karnataka, India",
            "longitude": "74.4340839",
            "latitude": "15.6456171",
            "blogLinks": [
                "https://www.quora.com/What-are-the-best-places-to-visit-on-a-3-day-trip-in-and-around-Karnataka"
            ],
            "locType": "village"
        },
        "river nagajhari": {
            "closest_to": "dandeli",
            "address": "Nagajhari School, Belgaum - Panaji Highway, Cantonment, Belagavi, Belagavi taluku, Belgaum district, Karnataka, 590001, India",
            "longitude": "74.5013412",
            "latitude": "15.8351706",
            "blogLinks": [
                "http://travel.india.com/dandeli/"
            ],
            "locType": "school"
        },
        "coastal karnataka": {
            "closest_to": "agumbe",
            "address": "Bharat Petroleum Mangalore Coastal Installation, Baikampady, Mangaluru taluk, Dakshina Kannada, Karnataka, 575014, India",
            "longitude": "74.8137275833157",
            "latitude": "12.96014675",
            "blogLinks": [
                "https://en.wikipedia.org/wiki/Tourism_in_Karnataka"
            ],
            "locType": "industrial"
        },
        "kudalasangama": {
            "closest_to": "dandeli",
            "address": "Kudala Sangama, Hunagunda taluku, Bagalkote district, Karnataka, India",
            "longitude": "76.0604244",
            "latitude": "16.2033992",
            "blogLinks": [
                "https://en.wikipedia.org/wiki/Tourism_in_Karnataka"
            ],
            "locType": "village"
        },
        "kedareswara": {
            "closest_to": "agumbe",
            "address": "Kedareswara Temple, SH21, Halebidu, Beluru taluk, Hassan district, Karnataka, 573121, India",
            "longitude": "75.9986303",
            "latitude": "13.209021",
            "blogLinks": [
                "https://www.wheelstreet.in/blog/8-offbeat-places-to-visit-in-karnataka-for-your-next-tourist-free-holiday/"
            ],
            "locType": "place_of_worship"
        },
        "hassan district": {
            "closest_to": "agumbe",
            "address": "Hassan district, Karnataka, India",
            "longitude": "76.1745460751981",
            "latitude": "13.0315068",
            "blogLinks": [
                "https://en.wikipedia.org/wiki/Tourism_in_Karnataka"
            ],
            "locType": "administrative"
        },
        "bagalkot district": {
            "closest_to": "dandeli",
            "address": "Bagalakote, Bagalakote taluk, Bagalkote district, Karnataka, India",
            "longitude": "75.6967919",
            "latitude": "16.1853166",
            "blogLinks": [
                "https://en.wikipedia.org/wiki/Tourism_in_Karnataka"
            ],
            "locType": "city"
        },
        "bijadi": {
            "closest_to": "dandeli",
            "address": "Bijadi, \u0c95\u0cc1\u0c82\u0ca6\u0cbe\u0caa\u0cc1\u0cb0 \u0ca4\u0cbe\u0cb2\u0cc2\u0c95\u0cc1, Udupi district, Karnataka, India",
            "longitude": "74.6927643",
            "latitude": "13.5773932",
            "blogLinks": [
                "http://www.indianholiday.com/blog/offbeat-places-karnataka/"
            ],
            "locType": "village"
        },
        "kalaseshwara temple": {
            "closest_to": "agumbe",
            "address": "Kalaseshwara Temple, SH66, Kalasa, Mudigere taluk, Chikkamagaluru district, Karnataka, 577124, India",
            "longitude": "75.363446975",
            "latitude": "13.23228505",
            "blogLinks": [
                "http://www.nivalink.com/destination/thirthahalli"
            ],
            "locType": "place_of_worship"
        },
        "uttara kannada": {
            "closest_to": "dandeli",
            "address": "Uttara Kannada, Karnataka, India",
            "longitude": "74.4729163045979",
            "latitude": "14.6726379",
            "blogLinks": [
                "https://en.wikipedia.org/wiki/Tourism_in_Karnataka",
                "http://www.indianholiday.com/blog/offbeat-places-karnataka/",
                "https://www.quora.com/What-are-the-best-places-to-visit-on-a-3-day-trip-in-and-around-Karnataka",
                "http://travel.paintedstork.com/blog/2005/12/amazing-dandeli-world-of-wilderness.html"
            ],
            "locType": "administrative"
        },
        "mullayanagiri": {
            "closest_to": "agumbe",
            "address": "Mullayyanagiri, Chikkamagaluru, Chikkamagaluru taluku, Chikkamagaluru district, Karnataka, 577101, India",
            "longitude": "75.7214034",
            "latitude": "13.3909217",
            "blogLinks": [
                "https://www.quora.com/What-are-the-best-places-to-visit-on-a-3-day-trip-in-and-around-Karnataka"
            ],
            "locType": "peak"
        },
        "gokul garden": {
            "closest_to": "dandeli",
            "address": "Gokul Garden, Gokul Road / Airport Road, Renuka Nagar, Padmaraj Nagar, Gokul, Hubballi taluku, Dharwad district, Karnataka, 580030, India",
            "longitude": "75.1141861403246",
            "latitude": "15.35009745",
            "blogLinks": [
                "https://www.quora.com/What-are-the-best-places-to-visit-on-a-3-day-trip-in-and-around-Karnataka"
            ],
            "locType": "recreation_ground"
        },
        "malaprabha": {
            "closest_to": "dandeli",
            "address": "Malaprabha, Ramadurga taluku, Belgaum district, Karnataka, India",
            "longitude": "75.1982668",
            "latitude": "15.8914192",
            "blogLinks": [
                "https://en.wikipedia.org/wiki/Tourism_in_Karnataka"
            ],
            "locType": "river"
        },
        "rock garden": {
            "closest_to": "agumbe",
            "address": "Waterfalls by the Rock site, Madikeri taluku, Kodagu, Karnataka, India",
            "longitude": "75.6142269",
            "latitude": "12.2248591",
            "blogLinks": [
                "https://en.wikipedia.org/wiki/Tourism_in_Karnataka"
            ],
            "locType": "waterfall"
        },
        "haliyal": {
            "closest_to": "dandeli",
            "address": "Haliyal, Haliyala taluku, Uttara Kannada, Karnataka, 581329, India",
            "longitude": "74.7646665",
            "latitude": "15.3299733",
            "blogLinks": [
                "http://www.holidayiq.com/Dandeli-Sightseeing-345.html"
            ],
            "locType": "town"
        },
        "gudavi": {
            "closest_to": "dandeli",
            "address": "Gudavi, Soraba taluk, Shimoga district, Karnataka, India",
            "longitude": "75.009649",
            "latitude": "14.4400296",
            "blogLinks": [
                "https://en.wikipedia.org/wiki/Tourism_in_Karnataka"
            ],
            "locType": "village"
        },
        "sri mallikarjuna temple": {
            "closest_to": "agumbe",
            "address": "Sri Mallikarjuna Temple, Parking, Sringeri, Sringeri taluku, Chikkamagaluru district, Karnataka, 577592, India",
            "longitude": "75.2508225556439",
            "latitude": "13.4188371",
            "blogLinks": [
                "http://www.holidayiq.com/Dandeli-Sightseeing-345.html"
            ],
            "locType": "place_of_worship"
        },
        "hampi": {
            "closest_to": "dandeli",
            "address": "Hampe, Hosapete taluk, Bellary district, Karnataka, 583239, India",
            "longitude": "76.4606199",
            "latitude": "15.3359769",
            "blogLinks": [
                "https://en.wikipedia.org/wiki/Tourism_in_Karnataka",
                "http://www.nivalink.com/destination/dandeli",
                "https://www.quora.com/What-are-the-best-places-to-visit-on-a-3-day-trip-in-and-around-Karnataka"
            ],
            "locType": "village"
        },
        "netrani island of uttara kannada": {
            "closest_to": "dandeli",
            "address": "Netrani, Uttara Kannada, Karnataka, India",
            "longitude": "74.3272086675849",
            "latitude": "14.0174924",
            "blogLinks": [
                "https://en.wikipedia.org/wiki/Tourism_in_Karnataka"
            ],
            "locType": "island"
        },
        "halebidu": {
            "closest_to": "agumbe",
            "address": "Halebidu, Hunasuru taluk, Mysuru district, Karnataka, India",
            "longitude": "76.4607075",
            "latitude": "12.359893",
            "blogLinks": [
                "https://en.wikipedia.org/wiki/Tourism_in_Karnataka"
            ],
            "locType": "village"
        },
        "sunset point": {
            "closest_to": "dandeli",
            "address": "Sunset Point, Hampi Kamalapura Road, Hampe, Hosapete taluk, Bellary district, Karnataka, 583239, India",
            "longitude": "76.4594093",
            "latitude": "15.3326761",
            "blogLinks": [
                "https://www.wheelstreet.in/blog/8-offbeat-places-to-visit-in-karnataka-for-your-next-tourist-free-holiday/",
                "https://www.quora.com/What-are-the-best-places-to-visit-on-a-3-day-trip-in-and-around-Karnataka",
                "https://www.tripoto.com/weekend-getaways/from-agumbe"
            ],
            "locType": "viewpoint"
        },
        "malpe": {
            "closest_to": "agumbe",
            "address": "Malpe, Udupi taluku, Udupi district, Karnataka, India",
            "longitude": "74.7036914",
            "latitude": "13.3507423",
            "blogLinks": [
                "https://www.wheelstreet.in/blog/8-offbeat-places-to-visit-in-karnataka-for-your-next-tourist-free-holiday/",
                "https://en.wikipedia.org/wiki/Tourism_in_Karnataka"
            ],
            "locType": "village"
        },
        "koppal district": {
            "closest_to": "dandeli",
            "address": "Koppal district, Karnataka, India",
            "longitude": "76.310639117029",
            "latitude": "15.57825725",
            "blogLinks": [
                "https://en.wikipedia.org/wiki/Tourism_in_Karnataka"
            ],
            "locType": "administrative"
        },
        "panaji": {
            "closest_to": "dandeli",
            "address": "Belgaum - Panaji Highway, Londa, Khanapura taluku, Belgaum district, Karnataka, India",
            "longitude": "74.4876784",
            "latitude": "15.4422981",
            "blogLinks": [
                "https://www.tripoto.com/weekend-getaways/from-agumbe"
            ],
            "locType": "trunk"
        },
        "sahyadri range": {
            "closest_to": "dandeli",
            "address": "Sahyadri Polytechnic, SH1, Seebinakere, Sankadahole, Tirthahalli taluk, Shimoga district, Karnataka, 577432, India",
            "longitude": "75.2317987800043",
            "latitude": "13.6983273",
            "blogLinks": [
                "http://www.holidayiq.com/Dandeli-Sightseeing-345.html"
            ],
            "locType": "school"
        },
        "kollur": {
            "closest_to": "dandeli",
            "address": "Kollur, \u0c95\u0cc1\u0c82\u0ca6\u0cbe\u0caa\u0cc1\u0cb0 \u0ca4\u0cbe\u0cb2\u0cc2\u0c95\u0cc1, Udupi district, Karnataka, 576220, India",
            "longitude": "74.8137959",
            "latitude": "13.8634049",
            "blogLinks": [
                "https://www.wheelstreet.in/blog/8-offbeat-places-to-visit-in-karnataka-for-your-next-tourist-free-holiday/"
            ],
            "locType": "village"
        },
        "bhatkal": {
            "closest_to": "dandeli",
            "address": "Bhatkal, Bhatkala taluk, Uttara Kannada, Karnataka, 581320, India",
            "longitude": "74.5485295",
            "latitude": "13.9952114",
            "blogLinks": [
                "https://en.wikipedia.org/wiki/Tourism_in_Karnataka"
            ],
            "locType": "town"
        },
        "tirthahalli": {
            "closest_to": "dandeli",
            "address": "Tirthahalli, Tirthahalli taluk, Shimoga district, Karnataka, 577432, India",
            "longitude": "75.2463699",
            "latitude": "13.6901992",
            "blogLinks": [
                "http://www.nivalink.com/destination/thirthahalli"
            ],
            "locType": "town"
        },
        "kudala sangama": {
            "closest_to": "dandeli",
            "address": "Kudala Sangama, Hunagunda taluku, Bagalkote district, Karnataka, India",
            "longitude": "76.0604244",
            "latitude": "16.2033992",
            "blogLinks": [
                "https://en.wikipedia.org/wiki/Tourism_in_Karnataka"
            ],
            "locType": "village"
        },
        "mundgod": {
            "closest_to": "dandeli",
            "address": "Mundgod, Mundagoda taluk, Uttara Kannada, Karnataka, 581349, India",
            "longitude": "75.0371451",
            "latitude": "14.9705105",
            "blogLinks": [
                "http://www.nivalink.com/destination/dandeli"
            ],
            "locType": "village"
        },
        "unchalli falls": {
            "closest_to": "dandeli",
            "address": "\u0c89\u0c82\u0c9a\u0cb3\u0ccd\u0cb3\u0cbf \u0c9c\u0cb2\u0caa\u0cbe\u0ca4, Siddapura taluk, Uttara Kannada, Karnataka, India",
            "longitude": "74.7477592",
            "latitude": "14.4097755",
            "blogLinks": [
                "https://en.wikipedia.org/wiki/Tourism_in_Karnataka"
            ],
            "locType": "waterfall"
        },
        "kannur": {
            "closest_to": "agumbe",
            "address": "Netravati bridge - Kannur Bypass Road (Proposed), Padil, Bajal, Mangaluru taluk, Dakshina Kannada, Karnataka, 575007, India",
            "longitude": "74.8858161",
            "latitude": "12.8487602",
            "blogLinks": [
                "http://www.nivalink.com/destination/thirthahalli"
            ],
            "locType": "construction"
        },
        "banavasi": {
            "closest_to": "dandeli",
            "address": "Banavasi, Shirasi taluk, Uttara Kannada, Karnataka, India",
            "longitude": "75.0129845",
            "latitude": "14.5389738",
            "blogLinks": [
                "https://en.wikipedia.org/wiki/Tourism_in_Karnataka",
                "https://www.quora.com/What-are-the-best-places-to-visit-on-a-3-day-trip-in-and-around-Karnataka"
            ],
            "locType": "town"
        },
        "mirjan fort": {
            "closest_to": "dandeli",
            "address": "Mirjana Fort, Edapally- Panvel Highway, Kimani, Kumata taluk, Uttara Kannada, Karnataka, 581344, India",
            "longitude": "74.4174838158512",
            "latitude": "14.48905715",
            "blogLinks": [
                "https://www.quora.com/What-are-the-best-places-to-visit-on-a-3-day-trip-in-and-around-Karnataka"
            ],
            "locType": "attraction"
        },
        "gadag": {
            "closest_to": "dandeli",
            "address": "Gadag, Gadag taluk, Gadag district, Karnataka, 582101, India",
            "longitude": "75.6300786",
            "latitude": "15.4263647",
            "blogLinks": [
                "https://en.wikipedia.org/wiki/Tourism_in_Karnataka"
            ],
            "locType": "town"
        },
        "uttara kannada district": {
            "closest_to": "dandeli",
            "address": "Uttara Kannada, Karnataka, India",
            "longitude": "74.583333",
            "latitude": "14.883333",
            "blogLinks": [
                "http://www.holidayiq.com/Dandeli-Sightseeing-345.html"
            ],
            "locType": "county"
        },
        "sagara taluk": {
            "closest_to": "dandeli",
            "address": "Sagara taluk, Shimoga district, Karnataka, India",
            "longitude": "74.9610874491152",
            "latitude": "14.09993045",
            "blogLinks": [
                "https://en.wikipedia.org/wiki/Tourism_in_Karnataka"
            ],
            "locType": "administrative"
        },
        "mercara": {
            "closest_to": "agumbe",
            "address": "Madikeri, Madikeri taluku, Kodagu, Karnataka, India",
            "longitude": "75.740031",
            "latitude": "12.4204003",
            "blogLinks": [
                "https://en.wikipedia.org/wiki/Tourism_in_Karnataka"
            ],
            "locType": "town"
        },
        "' river varahi": {
            "closest_to": "dandeli",
            "address": "Varahi, \u0c95\u0cc1\u0c82\u0ca6\u0cbe\u0caa\u0cc1\u0cb0 \u0ca4\u0cbe\u0cb2\u0cc2\u0c95\u0cc1, Udupi district, Karnataka, India",
            "longitude": "74.9489117",
            "latitude": "13.6582668",
            "blogLinks": [
                "https://en.wikipedia.org/wiki/Tourism_in_Karnataka"
            ],
            "locType": "river"
        },
        "sagara": {
            "closest_to": "dandeli",
            "address": "Sagara, Sagara taluk, Shimoga district, Karnataka, 577400, India",
            "longitude": "75.0262551",
            "latitude": "14.1666594",
            "blogLinks": [
                "https://en.wikipedia.org/wiki/Tourism_in_Karnataka"
            ],
            "locType": "town"
        },
        "udupi city": {
            "closest_to": "agumbe",
            "address": "Udupi, Udupi taluku, Udupi district, Karnataka, 576101, India",
            "longitude": "74.7473232",
            "latitude": "13.3419169",
            "blogLinks": [
                "https://en.wikipedia.org/wiki/Agumbe"
            ],
            "locType": "city"
        },
        "madhukeshwara": {
            "closest_to": "dandeli",
            "address": "Madhukeshwara Temple, Kattinakere Road, Kattinakere Bus Stand, Soraba taluk, Shimoga district, Karnataka, India",
            "longitude": "75.1480027",
            "latitude": "14.3058996",
            "blogLinks": [
                "https://www.quora.com/What-are-the-best-places-to-visit-on-a-3-day-trip-in-and-around-Karnataka"
            ],
            "locType": "place_of_worship"
        },
        "iruppu falls": {
            "closest_to": "agumbe",
            "address": "Iruppu Falls, SH89, Taila, Virajpet taluk, Kodagu, Karnataka, 571217, India",
            "longitude": "75.9839484",
            "latitude": "11.9667954",
            "blogLinks": [
                "https://www.quora.com/What-are-the-best-places-to-visit-on-a-3-day-trip-in-and-around-Karnataka"
            ],
            "locType": "attraction"
        },
        "sirigere": {
            "closest_to": "agumbe",
            "address": "Sirigere, Chitradurga taluku, Chitradurga district, Karnataka, India",
            "longitude": "76.2051907",
            "latitude": "14.2840739",
            "blogLinks": [
                "https://en.wikipedia.org/wiki/Tourism_in_Karnataka"
            ],
            "locType": "village"
        },
        "itagi": {
            "closest_to": "dandeli",
            "address": "Itagi, Ranebennuru taluk, Haveri district, Karnataka, India",
            "longitude": "75.6701043",
            "latitude": "14.550374",
            "blogLinks": [
                "https://en.wikipedia.org/wiki/Tourism_in_Karnataka"
            ],
            "locType": "village"
        },
        "parvati": {
            "closest_to": "dandeli",
            "address": "Parvati, Badami taluku, Bagalkote district, Karnataka, India",
            "longitude": "75.7898501",
            "latitude": "16.0395701",
            "blogLinks": [
                "https://www.quora.com/What-are-the-best-places-to-visit-on-a-3-day-trip-in-and-around-Karnataka"
            ],
            "locType": "village"
        },
        "ghataprabha river": {
            "closest_to": "dandeli",
            "address": "Ghataprabha, Gokak taluku, Belgaum district, Karnataka, India",
            "longitude": "74.9165235",
            "latitude": "16.2124344",
            "blogLinks": [
                "https://en.wikipedia.org/wiki/Tourism_in_Karnataka"
            ],
            "locType": "river"
        },
        "belgaum fort": {
            "closest_to": "dandeli",
            "address": "Belgaum Fort, Belagavi, Belagavi taluku, Belgaum district, Karnataka, 590001, India",
            "longitude": "74.5255651",
            "latitude": "15.8581696",
            "blogLinks": [
                "https://en.wikipedia.org/wiki/Tourism_in_Karnataka"
            ],
            "locType": "locality"
        },
        "dharwad": {
            "closest_to": "dandeli",
            "address": "Dharwad, Dharawada taluku, Dharwad district, Karnataka, 580001, India",
            "longitude": "75.0066516",
            "latitude": "15.4540505",
            "blogLinks": [
                "https://en.wikipedia.org/wiki/Tourism_in_Karnataka",
                "http://travel.paintedstork.com/blog/2005/12/amazing-dandeli-world-of-wilderness.html"
            ],
            "locType": "city"
        },
        "gadag district": {
            "closest_to": "dandeli",
            "address": "Gadag district, Karnataka, India",
            "longitude": "75.6807542794645",
            "latitude": "15.416337",
            "blogLinks": [
                "https://en.wikipedia.org/wiki/Tourism_in_Karnataka"
            ],
            "locType": "administrative"
        },
        "kodasalli": {
            "closest_to": "dandeli",
            "address": "Kodasalli Dam, Yallapura taluk, Uttara Kannada, Karnataka, India",
            "longitude": "74.5353892832085",
            "latitude": "14.91893295",
            "blogLinks": [
                "http://travel.paintedstork.com/blog/2005/12/amazing-dandeli-world-of-wilderness.html"
            ],
            "locType": "dam"
        },
        "nethrani island": {
            "closest_to": "dandeli",
            "address": "Netrani, Uttara Kannada, Karnataka, India",
            "longitude": "74.3272086675849",
            "latitude": "14.0174924",
            "blogLinks": [
                "https://en.wikipedia.org/wiki/Tourism_in_Karnataka"
            ],
            "locType": "island"
        },
        "udupi": {
            "closest_to": "agumbe",
            "address": "Udupi, Udupi taluku, Udupi district, Karnataka, 576101, India",
            "longitude": "74.7473232",
            "latitude": "13.3419169",
            "blogLinks": [
                "https://www.wheelstreet.in/blog/8-offbeat-places-to-visit-in-karnataka-for-your-next-tourist-free-holiday/",
                "https://en.wikipedia.org/wiki/Tourism_in_Karnataka"
            ],
            "locType": "city"
        },
        "gokak": {
            "closest_to": "dandeli",
            "address": "Gokak, Gokak taluku, Belgaum district, Karnataka, 591307, India",
            "longitude": "74.8224338",
            "latitude": "16.1693033",
            "blogLinks": [
                "https://en.wikipedia.org/wiki/Tourism_in_Karnataka",
                "https://www.quora.com/What-are-the-best-places-to-visit-on-a-3-day-trip-in-and-around-Karnataka"
            ],
            "locType": "town"
        },
        "hassan": {
            "closest_to": "agumbe",
            "address": "Hassan, Hasana taluk, Hassan district, Karnataka, 573201, India",
            "longitude": "76.0992703",
            "latitude": "13.0070817",
            "blogLinks": [
                "https://en.wikipedia.org/wiki/Tourism_in_Karnataka"
            ],
            "locType": "town"
        },
        "lakya": {
            "closest_to": "agumbe",
            "address": "Lakya, Chikkamagaluru taluku, Chikkamagaluru district, Karnataka, India",
            "longitude": "75.8708319",
            "latitude": "13.3464482",
            "blogLinks": [
                "http://www.indianholiday.com/blog/offbeat-places-karnataka/"
            ],
            "locType": "village"
        },
        "aihole": {
            "closest_to": "dandeli",
            "address": "Aihole, Hunagunda taluku, Bagalkote district, Karnataka, India",
            "longitude": "75.8819129",
            "latitude": "16.0192298",
            "blogLinks": [
                "https://en.wikipedia.org/wiki/Tourism_in_Karnataka"
            ],
            "locType": "village"
        },
        "nagajhari river": {
            "closest_to": "dandeli",
            "address": "Nagajhari School, Belgaum - Panaji Highway, Cantonment, Belagavi, Belagavi taluku, Belgaum district, Karnataka, 590001, India",
            "longitude": "74.5013412",
            "latitude": "15.8351706",
            "blogLinks": [
                "http://www.holidayiq.com/Dandeli-Sightseeing-345.html"
            ],
            "locType": "school"
        },
        "agumbe": {
            "closest_to": "agumbe",
            "address": "Agumbe, Tirthahalli taluk, Shimoga district, Karnataka, 577411, India",
            "longitude": "75.0965525",
            "latitude": "13.5094998",
            "blogLinks": [
                "https://www.tripoto.com/weekend-getaways/from-agumbe",
                "https://www.tripoto.com/places-to-visit/india/agumbe"
            ],
            "locType": "village"
        },
        "chennakeshava": {
            "closest_to": "agumbe",
            "address": "Chennakeshava Temple, NH73, Arakere, Arasikere taluku, Hassan district, Karnataka, 573112, India",
            "longitude": "76.1294164",
            "latitude": "13.3748908",
            "blogLinks": [
                "https://www.quora.com/What-are-the-best-places-to-visit-on-a-3-day-trip-in-and-around-Karnataka",
                "http://distancecalculator.globefeed.com/India_Distance_Calculator.asp?state=19"
            ],
            "locType": "place_of_worship"
        },
        "haveri district": {
            "closest_to": "dandeli",
            "address": "Haveri district, Karnataka, India",
            "longitude": "75.3845674304742",
            "latitude": "14.714635",
            "blogLinks": [
                "https://en.wikipedia.org/wiki/Tourism_in_Karnataka"
            ],
            "locType": "administrative"
        },
        "gurupura": {
            "closest_to": "agumbe",
            "address": "Gurupura, Tarikere taluku, Chikkamagaluru district, Karnataka, India",
            "longitude": "75.7161587",
            "latitude": "13.6686411",
            "blogLinks": [
                "https://www.quora.com/What-are-the-best-places-to-visit-on-a-3-day-trip-in-and-around-Karnataka"
            ],
            "locType": "village"
        },
        "shringeri": {
            "closest_to": "dandeli",
            "address": "Shringeri, Hanagal taluk, Haveri district, Karnataka, India",
            "longitude": "75.0621168",
            "latitude": "14.7221214",
            "blogLinks": [
                "https://en.wikipedia.org/wiki/Agumbe"
            ],
            "locType": "village"
        },
        "malnad": {
            "closest_to": "agumbe",
            "address": "Malnad Hospital, Mudigere-Kadur Road, Chikkamagaluru, Chikkamagaluru taluku, Chikkamagaluru district, Karnataka, 577101, India",
            "longitude": "75.7715495",
            "latitude": "13.3160351",
            "blogLinks": [
                "http://www.nivalink.com/destination/thirthahalli"
            ],
            "locType": "hospital"
        },
        "narasimha swamy temple": {
            "closest_to": "agumbe",
            "address": "Narasimha Swamy Temple, Attavara Mudigere Road, Attavara, Hasana taluk, Hassan district, Karnataka, India",
            "longitude": "76.2427318",
            "latitude": "13.0943931",
            "blogLinks": [
                "https://en.wikipedia.org/wiki/Tourism_in_Karnataka"
            ],
            "locType": "place_of_worship"
        },
        "kaneri": {
            "closest_to": "dandeli",
            "address": "Kaneri, Joida taluk, Uttara Kannada, Karnataka, India",
            "longitude": "74.4834864",
            "latitude": "15.0680686",
            "blogLinks": [
                "http://www.nivalink.com/destination/dandeli",
                "http://dandelitrip.com/dandeli-tourist-places/"
            ],
            "locType": "river"
        },
        "mookambika": {
            "closest_to": "dandeli",
            "address": "Mukambika Devasthana, NH766C;SH26, Halkal, \u0c95\u0cc1\u0c82\u0ca6\u0cbe\u0caa\u0cc1\u0cb0 \u0ca4\u0cbe\u0cb2\u0cc2\u0c95\u0cc1, Udupi district, Karnataka, 576220, India",
            "longitude": "74.8145296",
            "latitude": "13.8638043",
            "blogLinks": [
                "https://en.wikipedia.org/wiki/Tourism_in_Karnataka"
            ],
            "locType": "place_of_worship"
        },
        "lakshmeshwar": {
            "closest_to": "dandeli",
            "address": "Lakshmeshwar KSRTC Bus stand, SH6, Bastibana, Lakshmeshvara, Shirahatti taluku, Gadag district, Karnataka, 582116, India",
            "longitude": "75.4741167",
            "latitude": "15.12373",
            "blogLinks": [
                "https://en.wikipedia.org/wiki/Tourism_in_Karnataka"
            ],
            "locType": "bus_station"
        },
        "hubli": {
            "closest_to": "dandeli",
            "address": "Hubballi - \u0cb9\u0cc1\u0cac\u0ccd\u0cac\u0cb3\u0ccd\u0cb3\u0cbf, Hubballi taluku, Dharwad district, Karnataka, 580020, India",
            "longitude": "75.1379848",
            "latitude": "15.3518378",
            "blogLinks": [
                "http://www.nivalink.com/destination/thirthahalli",
                "https://en.wikipedia.org/wiki/Tourism_in_Karnataka",
                "http://www.nivalink.com/destination/dandeli"
            ],
            "locType": "city"
        },
        "maravanthe": {
            "closest_to": "dandeli",
            "address": "Nethaji Subhash Chandra Bose Government High School, Maravanthe, NH66, Navunda, \u0c95\u0cc1\u0c82\u0ca6\u0cbe\u0caa\u0cc1\u0cb0 \u0ca4\u0cbe\u0cb2\u0cc2\u0c95\u0cc1, Udupi district, Karnataka, 576224, India",
            "longitude": "74.6480358",
            "latitude": "13.7316626",
            "blogLinks": [
                "https://www.wheelstreet.in/blog/8-offbeat-places-to-visit-in-karnataka-for-your-next-tourist-free-holiday/",
                "http://www.indianholiday.com/blog/offbeat-places-karnataka/"
            ],
            "locType": "school"
        },
        "arabhavi": {
            "closest_to": "dandeli",
            "address": "Arabhavi, Gokak taluku, Belgaum district, Karnataka, India",
            "longitude": "74.8213227",
            "latitude": "16.2193552",
            "blogLinks": [
                "https://en.wikipedia.org/wiki/Tourism_in_Karnataka"
            ],
            "locType": "village"
        },
        "karkala": {
            "closest_to": "agumbe",
            "address": "Karkala, Karkala taluk, Udupi district, Karnataka, 574104, India",
            "longitude": "74.9959586",
            "latitude": "13.2112826",
            "blogLinks": [
                "https://en.wikipedia.org/wiki/Tourism_in_Karnataka",
                "https://www.quora.com/What-are-the-best-places-to-visit-on-a-3-day-trip-in-and-around-Karnataka"
            ],
            "locType": "town"
        },
        "souparnika river": {
            "closest_to": "dandeli",
            "address": "Souparnika Bathing Ghat Road, Kollur, \u0c95\u0cc1\u0c82\u0ca6\u0cbe\u0caa\u0cc1\u0cb0 \u0ca4\u0cbe\u0cb2\u0cc2\u0c95\u0cc1, Udupi district, Karnataka, 576220, India",
            "longitude": "74.8095156",
            "latitude": "13.8642453",
            "blogLinks": [
                "https://www.wheelstreet.in/blog/8-offbeat-places-to-visit-in-karnataka-for-your-next-tourist-free-holiday/"
            ],
            "locType": "unclassified"
        },
        "margao": {
            "closest_to": "dandeli",
            "address": "Karnataka bank, NH66, Aquem, Fatorda, Margao, South Goa, Goa, 403600, India",
            "longitude": "73.9583411",
            "latitude": "15.2740083",
            "blogLinks": [
                "https://www.tripoto.com/weekend-getaways/from-agumbe"
            ],
            "locType": "bank"
        },
        "kannada": {
            "closest_to": "agumbe",
            "address": "Dakshina Kannada, Karnataka, India",
            "longitude": "75.1008028650794",
            "latitude": "12.8114089",
            "blogLinks": [
                "https://www.quora.com/What-are-the-best-places-to-visit-on-a-3-day-trip-in-and-around-Karnataka"
            ],
            "locType": "administrative"
        },
        "ananthapadmanabha": {
            "closest_to": "agumbe",
            "address": "Kudupu Ananthapadmanabha Temple, Solapur-Mangalore Highway, Shakthinagar, Kulashekara, Kudupu, Mangaluru taluk, Dakshina Kannada, Karnataka, 575007, India",
            "longitude": "74.8937899082456",
            "latitude": "12.9039019",
            "blogLinks": [
                "https://www.quora.com/What-are-the-best-places-to-visit-on-a-3-day-trip-in-and-around-Karnataka"
            ],
            "locType": "place_of_worship"
        },
        "mullayanagiri range": {
            "closest_to": "agumbe",
            "address": "Mullayyanagiri, Chikkamagaluru, Chikkamagaluru taluku, Chikkamagaluru district, Karnataka, 577101, India",
            "longitude": "75.7214034",
            "latitude": "13.3909217",
            "blogLinks": [
                "https://www.quora.com/What-are-the-best-places-to-visit-on-a-3-day-trip-in-and-around-Karnataka"
            ],
            "locType": "peak"
        },
        "kalasa": {
            "closest_to": "agumbe",
            "address": "Kalasa, Mudigere taluk, Chikkamagaluru district, Karnataka, 577124, India",
            "longitude": "75.3582366",
            "latitude": "13.2322235",
            "blogLinks": [
                "https://en.wikipedia.org/wiki/Tourism_in_Karnataka"
            ],
            "locType": "town"
        },
        "arasikere": {
            "closest_to": "agumbe",
            "address": "Arasikere, Arasikere taluku, Hassan district, Karnataka, 573103, India",
            "longitude": "76.2568436",
            "latitude": "13.3159809",
            "blogLinks": [
                "https://en.wikipedia.org/wiki/Tourism_in_Karnataka"
            ],
            "locType": "town"
        },
        "kuppali": {
            "closest_to": "dandeli",
            "address": "Kuppali Road, Kuppalli, Tirthahalli taluk, Shimoga district, Karnataka, India",
            "longitude": "75.3158067",
            "latitude": "13.5998255",
            "blogLinks": [
                "https://www.quora.com/What-are-the-best-places-to-visit-on-a-3-day-trip-in-and-around-Karnataka"
            ],
            "locType": "tertiary"
        },
        "gokarna": {
            "closest_to": "dandeli",
            "address": "Gokarna, Kumata taluk, Uttara Kannada, Karnataka, 581326, India",
            "longitude": "74.3184418",
            "latitude": "14.5439629",
            "blogLinks": [
                "https://en.wikipedia.org/wiki/Tourism_in_Karnataka",
                "http://www.distancesfrom.com/in/flight-time-from-Bangalore-to-Gokarna-via-Jog-Falls-Dandeli-Agumbe/FlightTimeHistory/31248958.aspx"
            ],
            "locType": "town"
        },
        "bankapura": {
            "closest_to": "dandeli",
            "address": "Bankapura, Shiggaon taluk, Haveri district, Karnataka, 581202, India",
            "longitude": "75.2639298",
            "latitude": "14.9217443",
            "blogLinks": [
                "https://en.wikipedia.org/wiki/Tourism_in_Karnataka"
            ],
            "locType": "town"
        },
        "india": {
            "closest_to": "dandeli",
            "address": "Karnataka, India",
            "longitude": "75.7223521",
            "latitude": "14.5203896",
            "blogLinks": [
                "http://distancecalculator.globefeed.com/India_Distance_Calculator.asp?state=19",
                "http://travel.paintedstork.com/blog/2005/12/amazing-dandeli-world-of-wilderness.html",
                "https://www.wheelstreet.in/blog/8-offbeat-places-to-visit-in-karnataka-for-your-next-tourist-free-holiday/",
                "http://www.nivalink.com/destination/dandeli",
                "http://www.holidayiq.com/Dandeli-Sightseeing-345.html",
                "https://www.quora.com/What-are-the-best-places-to-visit-on-a-3-day-trip-in-and-around-Karnataka",
                "http://www.distancesfrom.com/in/flight-time-from-Bangalore-to-Gokarna-via-Jog-Falls-Dandeli-Agumbe/FlightTimeHistory/31248958.aspx",
                "http://travel.india.com/dandeli/",
                "https://en.wikipedia.org/wiki/Tourism_in_Karnataka",
                "http://www.indianholiday.com/blog/offbeat-places-karnataka/",
                "https://www.tripoto.com/weekend-getaways/from-agumbe",
                "https://www.quora.com/What-are-the-best-places-to-visit-in-Karnataka-during-the-summer",
                "https://en.wikipedia.org/wiki/Agumbe"
            ],
            "locType": "administrative"
        },
        "golden temple": {
            "closest_to": "agumbe",
            "address": "Padmasambhava Buddhist Vihara (Golden Temple), MDR21, Koppa, Piriyapattana taluk, Mysuru district, Karnataka, India",
            "longitude": "75.9674656",
            "latitude": "12.430821",
            "blogLinks": [
                "https://www.quora.com/What-are-the-best-places-to-visit-on-a-3-day-trip-in-and-around-Karnataka"
            ],
            "locType": "place_of_worship"
        },
        "ratnagiri highway": {
            "closest_to": "agumbe",
            "address": "Ratnagiri Road, Basavannahalli, Chikkamagaluru, Chikkamagaluru taluku, Chikkamagaluru district, Karnataka, 577101, India",
            "longitude": "75.7727724",
            "latitude": "13.3292344",
            "blogLinks": [
                "http://www.nivalink.com/destination/dandeli"
            ],
            "locType": "secondary"
        },
        "manipal": {
            "closest_to": "agumbe",
            "address": "Manipal, Udupi taluku, Udupi district, Karnataka, India",
            "longitude": "74.7870308",
            "latitude": "13.3519723",
            "blogLinks": [
                "https://en.wikipedia.org/wiki/Tourism_in_Karnataka"
            ],
            "locType": "town"
        },
        "veera narayana temple": {
            "closest_to": "agumbe",
            "address": "Veera Narayana Temple, Chikmagalur Javagal Road, Narasipura, Chikkamagaluru taluku, Chikkamagaluru district, Karnataka, India",
            "longitude": "75.9953525",
            "latitude": "13.2821212",
            "blogLinks": [
                "https://www.quora.com/What-are-the-best-places-to-visit-on-a-3-day-trip-in-and-around-Karnataka"
            ],
            "locType": "place_of_worship"
        },
        "barapole river": {
            "closest_to": "agumbe",
            "address": "Barapole, Virajpet taluk, Kodagu, Karnataka, India",
            "longitude": "75.8218551",
            "latitude": "12.0738308",
            "blogLinks": [
                "https://www.quora.com/What-are-the-best-places-to-visit-in-Karnataka-during-the-summer"
            ],
            "locType": "river"
        },
        "u.s.": {
            "closest_to": "dandeli",
            "address": "Karnataka, India",
            "longitude": "75.7223521",
            "latitude": "14.5203896",
            "blogLinks": [
                "https://www.quora.com/What-are-the-best-places-to-visit-in-Karnataka-during-the-summer"
            ],
            "locType": "administrative"
        },
        "venur": {
            "closest_to": "agumbe",
            "address": "Venoor, Beltangadi taluk, Dakshina Kannada, Karnataka, 574242, India",
            "longitude": "75.1443252",
            "latitude": "13.0122097",
            "blogLinks": [
                "https://en.wikipedia.org/wiki/Tourism_in_Karnataka"
            ],
            "locType": "village"
        },
        "koppal": {
            "closest_to": "dandeli",
            "address": "Koppala, Koppala taluku, Koppal district, Karnataka, 583231, India",
            "longitude": "76.1547421",
            "latitude": "15.3484144",
            "blogLinks": [
                "https://en.wikipedia.org/wiki/Tourism_in_Karnataka"
            ],
            "locType": "town"
        },
        "chikmagalur district": {
            "closest_to": "agumbe",
            "address": "Chikmagalur, Chikkamagaluru district, Karnataka, India",
            "longitude": "75.5",
            "latitude": "13.5",
            "blogLinks": [
                "https://en.wikipedia.org/wiki/Tourism_in_Karnataka"
            ],
            "locType": "county"
        },
        "river kaneri": {
            "closest_to": "dandeli",
            "address": "Kaneri, Joida taluk, Uttara Kannada, Karnataka, India",
            "longitude": "74.4834864",
            "latitude": "15.0680686",
            "blogLinks": [
                "http://travel.india.com/dandeli/",
                "http://www.holidayiq.com/Dandeli-Sightseeing-345.html"
            ],
            "locType": "river"
        },
        "sirsi": {
            "closest_to": "dandeli",
            "address": "Sirsi, Shirasi taluk, Uttara Kannada, Karnataka, 581400, India",
            "longitude": "74.8388611",
            "latitude": "14.6192362",
            "blogLinks": [
                "https://www.quora.com/What-are-the-best-places-to-visit-on-a-3-day-trip-in-and-around-Karnataka"
            ],
            "locType": "town"
        },
        "kali": {
            "closest_to": "dandeli",
            "address": "Kali, Joida taluk, Uttara Kannada, Karnataka, India",
            "longitude": "74.5802901",
            "latitude": "15.0145378",
            "blogLinks": [
                "http://www.nivalink.com/destination/dandeli",
                "https://www.quora.com/What-are-the-best-places-to-visit-on-a-3-day-trip-in-and-around-Karnataka",
                "http://travel.paintedstork.com/blog/2005/12/amazing-dandeli-world-of-wilderness.html"
            ],
            "locType": "river"
        },
        "kali river": {
            "closest_to": "dandeli",
            "address": "Kali, Joida taluk, Uttara Kannada, Karnataka, India",
            "longitude": "74.5802901",
            "latitude": "15.0145378",
            "blogLinks": [
                "https://www.quora.com/What-are-the-best-places-to-visit-on-a-3-day-trip-in-and-around-Karnataka"
            ],
            "locType": "river"
        },
        "markandeya river": {
            "closest_to": "dandeli",
            "address": "Markandeya, Belagavi taluku, Belgaum district, Karnataka, India",
            "longitude": "74.5774895",
            "latitude": "15.9707453",
            "blogLinks": [
                "https://www.quora.com/What-are-the-best-places-to-visit-on-a-3-day-trip-in-and-around-Karnataka"
            ],
            "locType": "river"
        },
        "anshi": {
            "closest_to": "dandeli",
            "address": "Anshi, Joida taluk, Uttara Kannada, Karnataka, India",
            "longitude": "74.3708809",
            "latitude": "14.9925559",
            "blogLinks": [
                "http://www.nivalink.com/destination/dandeli",
                "http://travel.paintedstork.com/blog/2005/12/amazing-dandeli-world-of-wilderness.html"
            ],
            "locType": "village"
        },
        "netravati": {
            "closest_to": "agumbe",
            "address": "Netravati, Bantwal taluk, Dakshina Kannada, Karnataka, India",
            "longitude": "75.1562182",
            "latitude": "12.8537655",
            "blogLinks": [
                "https://en.wikipedia.org/wiki/Tourism_in_Karnataka"
            ],
            "locType": "river"
        },
        "chitradurga": {
            "closest_to": "agumbe",
            "address": "Chitradurga, Chitradurga taluku, Chitradurga district, Karnataka, 577500, India",
            "longitude": "76.4005122",
            "latitude": "14.2266443",
            "blogLinks": [
                "https://en.wikipedia.org/wiki/Tourism_in_Karnataka"
            ],
            "locType": "town"
        },
        "shirali": {
            "closest_to": "dandeli",
            "address": "Shirali, Bhatkala taluk, Uttara Kannada, Karnataka, 581354, India",
            "longitude": "74.5286591",
            "latitude": "14.0280925",
            "blogLinks": [
                "https://en.wikipedia.org/wiki/Tourism_in_Karnataka"
            ],
            "locType": "village"
        },
        "kumta": {
            "closest_to": "dandeli",
            "address": "Kumta, Kumata taluk, Uttara Kannada, Karnataka, India",
            "longitude": "74.4107617",
            "latitude": "14.4261647",
            "blogLinks": [
                "https://en.wikipedia.org/wiki/Tourism_in_Karnataka"
            ],
            "locType": "town"
        },
        "tunga": {
            "closest_to": "dandeli",
            "address": "Tunga, Tirthahalli taluk, Shimoga district, Karnataka, India",
            "longitude": "75.3221835",
            "latitude": "13.6632221",
            "blogLinks": [
                "https://www.quora.com/What-are-the-best-places-to-visit-on-a-3-day-trip-in-and-around-Karnataka"
            ],
            "locType": "river"
        },
        "nagarhole national park": {
            "closest_to": "agumbe",
            "address": "Nagarahole National Park, Virajpet taluk, Kodagu, Karnataka, India",
            "longitude": "76.1537073415874",
            "latitude": "12.0600362",
            "blogLinks": [
                "https://en.wikipedia.org/wiki/Tourism_in_Karnataka",
                "https://www.quora.com/What-are-the-best-places-to-visit-on-a-3-day-trip-in-and-around-Karnataka",
                "https://www.quora.com/What-are-the-best-places-to-visit-in-Karnataka-during-the-summer"
            ],
            "locType": "national_park"
        },
        "shravanabelagola": {
            "closest_to": "agumbe",
            "address": "Shravanabelagola, Channarayapattana taluk, Hassan district, Karnataka, 573135, India",
            "longitude": "76.4869997",
            "latitude": "12.8581305",
            "blogLinks": [
                "https://en.wikipedia.org/wiki/Tourism_in_Karnataka"
            ],
            "locType": "town"
        },
        "sringeri": {
            "closest_to": "agumbe",
            "address": "Sringeri, Sringeri taluku, Chikkamagaluru district, Karnataka, 577592, India",
            "longitude": "75.2553718",
            "latitude": "13.4261724",
            "blogLinks": [
                "http://www.nivalink.com/destination/thirthahalli"
            ],
            "locType": "town"
        },
        "kudley": {
            "closest_to": "dandeli",
            "address": "Kudle Beach, Om beach road, Gokarna, Kumata taluk, Uttara Kannada, Karnataka, 581326, India",
            "longitude": "74.3156783937192",
            "latitude": "14.5281015",
            "blogLinks": [
                "http://www.indianholiday.com/blog/offbeat-places-karnataka/"
            ],
            "locType": "beach"
        },
        "coorg": {
            "closest_to": "agumbe",
            "address": "Madikeri, Madikeri taluku, Kodagu, Karnataka, India",
            "longitude": "75.740031",
            "latitude": "12.4204003",
            "blogLinks": [
                "https://www.quora.com/What-are-the-best-places-to-visit-on-a-3-day-trip-in-and-around-Karnataka",
                "https://www.quora.com/What-are-the-best-places-to-visit-in-Karnataka-during-the-summer"
            ],
            "locType": "town"
        },
        "shimoga district": {
            "closest_to": "dandeli",
            "address": "Shimoga district, Karnataka, India",
            "longitude": "75.1312533993886",
            "latitude": "14.0558284",
            "blogLinks": [
                "https://en.wikipedia.org/wiki/Tourism_in_Karnataka"
            ],
            "locType": "administrative"
        },
        "ganeshgudi": {
            "closest_to": "dandeli",
            "address": "Ganeshagudi, Joida taluk, Uttara Kannada, Karnataka, India",
            "longitude": "74.5335693",
            "latitude": "15.2815822",
            "blogLinks": [
                "http://www.nivalink.com/destination/dandeli",
                "https://www.quora.com/What-are-the-best-places-to-visit-on-a-3-day-trip-in-and-around-Karnataka"
            ],
            "locType": "village"
        },
        "mangalore": {
            "closest_to": "agumbe",
            "address": "Mangaluru, Mangaluru taluk, Dakshina Kannada, Karnataka, 575001, India",
            "longitude": "74.8430082",
            "latitude": "12.8698101",
            "blogLinks": [
                "http://www.dandelichalet.com/category/blog/",
                "https://www.wheelstreet.in/blog/8-offbeat-places-to-visit-in-karnataka-for-your-next-tourist-free-holiday/",
                "https://en.wikipedia.org/wiki/Tourism_in_Karnataka",
                "https://www.quora.com/What-are-the-best-places-to-visit-on-a-3-day-trip-in-and-around-Karnataka",
                "https://en.wikipedia.org/wiki/Agumbe"
            ],
            "locType": "city"
        },
        "vijayanagara": {
            "closest_to": "dandeli",
            "address": "Vijayanagara, Chikodi taluk, Belgaum district, Karnataka, India",
            "longitude": "74.7380455",
            "latitude": "16.3270486",
            "blogLinks": [
                "https://en.wikipedia.org/wiki/Tourism_in_Karnataka"
            ],
            "locType": "village"
        },
        "irupu falls": {
            "closest_to": "agumbe",
            "address": "Iruppu Falls, SH89, Taila, Virajpet taluk, Kodagu, Karnataka, 571217, India",
            "longitude": "75.9839484",
            "latitude": "11.9667954",
            "blogLinks": [
                "https://en.wikipedia.org/wiki/Tourism_in_Karnataka"
            ],
            "locType": "attraction"
        },
        "sagar": {
            "closest_to": "dandeli",
            "address": "Sagara, Sagara taluk, Shimoga district, Karnataka, 577400, India",
            "longitude": "75.0262551",
            "latitude": "14.1666594",
            "blogLinks": [
                "http://travel.paintedstork.com/blog/2005/12/amazing-dandeli-world-of-wilderness.html"
            ],
            "locType": "town"
        },
        "gotagodi village": {
            "closest_to": "dandeli",
            "address": "Gotagodi, Hanagal taluk, Haveri district, Karnataka, India",
            "longitude": "75.0452834",
            "latitude": "14.7634556",
            "blogLinks": [
                "https://en.wikipedia.org/wiki/Tourism_in_Karnataka"
            ],
            "locType": "village"
        },
        "varaha": {
            "closest_to": "dandeli",
            "address": "Varaha, Hirekeruru taluk, Haveri district, Karnataka, India",
            "longitude": "75.3718812",
            "latitude": "14.390777",
            "blogLinks": [
                "https://en.wikipedia.org/wiki/Tourism_in_Karnataka"
            ],
            "locType": "village"
        },
        "lal bagh": {
            "closest_to": "agumbe",
            "address": "Lal Bagh Bus Stop, Mahatma Gandhi Road, Lalbagh, Ladyhill, Mangaluru, Mangaluru taluk, Dakshina Kannada, Karnataka, 575001, India",
            "longitude": "74.8386152",
            "latitude": "12.8859223",
            "blogLinks": [
                "https://www.tripoto.com/weekend-getaways/from-agumbe"
            ],
            "locType": "bus_stop"
        },
        "syntheri rock": {
            "closest_to": "dandeli",
            "address": "Syntheri Rock, SH46, Kaneri, Joida taluk, Uttara Kannada, Karnataka, India",
            "longitude": "74.5242505",
            "latitude": "15.0846142",
            "blogLinks": [
                "http://dandelitrip.com/dandeli-tourist-places/",
                "http://www.holidayiq.com/Dandeli-Sightseeing-345.html"
            ],
            "locType": "attraction"
        },
        "bagalkote": {
            "closest_to": "dandeli",
            "address": "Bagalkote district, Karnataka, India",
            "longitude": "75.5825586777167",
            "latitude": "16.28998085",
            "blogLinks": [
                "https://en.wikipedia.org/wiki/Tourism_in_Karnataka"
            ],
            "locType": "administrative"
        },
        "karwar": {
            "closest_to": "dandeli",
            "address": "Karwar, Karavara taluk, Uttara Kannada, Karnataka, 581300, India",
            "longitude": "74.1319229",
            "latitude": "14.8120931",
            "blogLinks": [
                "https://en.wikipedia.org/wiki/Tourism_in_Karnataka",
                "https://www.quora.com/What-are-the-best-places-to-visit-in-Karnataka-during-the-summer"
            ],
            "locType": "town"
        },
        "bahubali": {
            "closest_to": "agumbe",
            "address": "Bahubali Statue, SH8, Shravanabelagola, Channarayapattana taluk, Hassan district, Karnataka, 573135, India",
            "longitude": "76.4846128",
            "latitude": "12.8540505",
            "blogLinks": [
                "https://en.wikipedia.org/wiki/Tourism_in_Karnataka",
                "https://www.quora.com/What-are-the-best-places-to-visit-on-a-3-day-trip-in-and-around-Karnataka"
            ],
            "locType": "place_of_worship"
        },
        "udupi-agumbe road": {
            "closest_to": "dandeli",
            "address": "Agumbe Road, Soppugudde, Tirthahalli, Tirthahalli taluk, Shimoga district, Karnataka, 577432, India",
            "longitude": "75.2422204",
            "latitude": "13.6914356",
            "blogLinks": [
                "https://en.wikipedia.org/wiki/Agumbe"
            ],
            "locType": "trunk"
        },
        "belavadi": {
            "closest_to": "agumbe",
            "address": "Belavadi, Koppa taluk, Chikkamagaluru district, Karnataka, India",
            "longitude": "75.3760773",
            "latitude": "13.5284899",
            "blogLinks": [
                "https://en.wikipedia.org/wiki/Tourism_in_Karnataka"
            ],
            "locType": "village"
        },
        "kagal": {
            "closest_to": "dandeli",
            "address": "Kagal Fort, Birkodi Village, Kumata taluk, Uttara Kannada, Karnataka, India",
            "longitude": "74.3575302591262",
            "latitude": "14.5055819",
            "blogLinks": [
                "https://en.wikipedia.org/wiki/Tourism_in_Karnataka"
            ],
            "locType": "grass"
        },
        "nippani": {
            "closest_to": "dandeli",
            "address": "Nippani, Chikodi taluk, Belgaum district, Karnataka, 591237, India",
            "longitude": "74.3842372",
            "latitude": "16.4020402",
            "blogLinks": [
                "https://en.wikipedia.org/wiki/Tourism_in_Karnataka"
            ],
            "locType": "town"
        },
        "nagarahole national park": {
            "closest_to": "agumbe",
            "address": "Nagarahole National Park, Virajpet taluk, Kodagu, Karnataka, India",
            "longitude": "76.1537073415874",
            "latitude": "12.0600362",
            "blogLinks": [
                "https://en.wikipedia.org/wiki/Tourism_in_Karnataka",
                "https://www.quora.com/What-are-the-best-places-to-visit-in-Karnataka-during-the-summer"
            ],
            "locType": "national_park"
        },
        "bankpur fort": {
            "closest_to": "dandeli",
            "address": "Bankapura Fort, SH137, Guddada Channapura, Shiggaon taluk, Haveri district, Karnataka, 581202, India",
            "longitude": "75.2512090188504",
            "latitude": "14.9231815",
            "blogLinks": [
                "https://en.wikipedia.org/wiki/Tourism_in_Karnataka"
            ],
            "locType": "archaeological_site"
        },
        "narayana": {
            "closest_to": "agumbe",
            "address": "Narayana Gondanahalli, Holalkere taluk, Chitradurga district, Karnataka, India",
            "longitude": "76.201037",
            "latitude": "13.9181889",
            "blogLinks": [
                "https://en.wikipedia.org/wiki/Tourism_in_Karnataka"
            ],
            "locType": "village"
        },
        "yellapur": {
            "closest_to": "dandeli",
            "address": "Yellapura, Yallapura taluk, Uttara Kannada, Karnataka, 581359, India",
            "longitude": "74.7061458",
            "latitude": "14.9622518",
            "blogLinks": [
                "https://www.quora.com/What-are-the-best-places-to-visit-on-a-3-day-trip-in-and-around-Karnataka",
                "http://travel.paintedstork.com/blog/2005/12/amazing-dandeli-world-of-wilderness.html"
            ],
            "locType": "town"
        },
        "pattadakal": {
            "closest_to": "dandeli",
            "address": "Pattadakal Temples, SH14, \u0cac\u0cbe\u0c9a\u0cbf\u0ca8\u0c97\u0cc1\u0ca1\u0ccd\u0ca1, Badami taluku, Bagalkote district, Karnataka, 587211, India",
            "longitude": "75.815884048161",
            "latitude": "15.9506349",
            "blogLinks": [
                "https://en.wikipedia.org/wiki/Tourism_in_Karnataka"
            ],
            "locType": "attraction"
        },
        "kodachadri": {
            "closest_to": "dandeli",
            "address": "Kodachadri, \u0c95\u0cc1\u0c82\u0ca6\u0cbe\u0caa\u0cc1\u0cb0 \u0ca4\u0cbe\u0cb2\u0cc2\u0c95\u0cc1, Udupi district, Karnataka, India",
            "longitude": "74.8705395",
            "latitude": "13.8565758",
            "blogLinks": [
                "https://en.wikipedia.org/wiki/Tourism_in_Karnataka",
                "https://www.quora.com/What-are-the-best-places-to-visit-on-a-3-day-trip-in-and-around-Karnataka"
            ],
            "locType": "peak"
        },
        "sangameshwara": {
            "closest_to": "dandeli",
            "address": "Sangameshwara, Kalaghatagi taluku, Dharwad district, Karnataka, India",
            "longitude": "74.87651",
            "latitude": "15.184341",
            "blogLinks": [
                "https://en.wikipedia.org/wiki/Tourism_in_Karnataka",
                "https://www.quora.com/What-are-the-best-places-to-visit-on-a-3-day-trip-in-and-around-Karnataka"
            ],
            "locType": "village"
        },
        "siddapur": {
            "closest_to": "dandeli",
            "address": "Siddapur, \u0c95\u0cc1\u0c82\u0ca6\u0cbe\u0caa\u0cc1\u0cb0 \u0ca4\u0cbe\u0cb2\u0cc2\u0c95\u0cc1, Udupi district, Karnataka, 576229, India",
            "longitude": "74.911019",
            "latitude": "13.6626885",
            "blogLinks": [
                "http://travel.paintedstork.com/blog/2005/12/amazing-dandeli-world-of-wilderness.html"
            ],
            "locType": "village"
        },
        "virupaksha temple": {
            "closest_to": "dandeli",
            "address": "Virupaksha Temple, Hampi Bazaar, Hampe, Hosapete taluk, Bellary district, Karnataka, 583239, India",
            "longitude": "76.4587777156223",
            "latitude": "15.3351754",
            "blogLinks": [
                "https://en.wikipedia.org/wiki/Tourism_in_Karnataka"
            ],
            "locType": "place_of_worship"
        },
        "halebid": {
            "closest_to": "agumbe",
            "address": "Halebidu, Beluru taluk, Hassan district, Karnataka, 573121, India",
            "longitude": "75.9918793",
            "latitude": "13.2167959",
            "blogLinks": [
                "https://www.wheelstreet.in/blog/8-offbeat-places-to-visit-in-karnataka-for-your-next-tourist-free-holiday/"
            ],
            "locType": "village"
        },
        "jog falls": {
            "closest_to": "dandeli",
            "address": "Jog Falls, Joga - Kargal, Sagara taluk, Shimoga district, Karnataka, India",
            "longitude": "74.8128715",
            "latitude": "14.2276106",
            "blogLinks": [
                "http://travel.india.com/dandeli/",
                "http://www.distancesfrom.com/in/flight-time-from-Bangalore-to-Gokarna-via-Jog-Falls-Dandeli-Agumbe/FlightTimeHistory/31248958.aspx"
            ],
            "locType": "locality"
        },
        "beluru": {
            "closest_to": "agumbe",
            "address": "Belur, Beluru taluk, Hassan district, Karnataka, 573115, India",
            "longitude": "75.8634851",
            "latitude": "13.1645671",
            "blogLinks": [
                "https://en.wikipedia.org/wiki/Tourism_in_Karnataka"
            ],
            "locType": "town"
        },
        "kudremukh": {
            "closest_to": "agumbe",
            "address": "Kudremukha, Mudigere taluk, Chikkamagaluru district, Karnataka, India",
            "longitude": "75.2523304",
            "latitude": "13.2144007",
            "blogLinks": [
                "http://www.indianholiday.com/blog/offbeat-places-karnataka/"
            ],
            "locType": "village"
        },
        "sri kollur mookambika temple": {
            "closest_to": "dandeli",
            "address": "Sri Mookambika Temple Compound, NH766C;SH26, Halkal, \u0c95\u0cc1\u0c82\u0ca6\u0cbe\u0caa\u0cc1\u0cb0 \u0ca4\u0cbe\u0cb2\u0cc2\u0c95\u0cc1, Udupi district, Karnataka, 576220, India",
            "longitude": "74.8145494565837",
            "latitude": "13.8637235",
            "blogLinks": [
                "https://www.wheelstreet.in/blog/8-offbeat-places-to-visit-in-karnataka-for-your-next-tourist-free-holiday/"
            ],
            "locType": "place_of_worship"
        },
        "varur": {
            "closest_to": "dandeli",
            "address": "Varur, Hubballi taluku, Dharwad district, Karnataka, India",
            "longitude": "75.1387568",
            "latitude": "15.2077105",
            "blogLinks": [
                "https://en.wikipedia.org/wiki/Tourism_in_Karnataka"
            ],
            "locType": "village"
        },
        "kanaganahalli": {
            "closest_to": "agumbe",
            "address": "Kanaganahalli, Pandavapura taluk, Mandya district, Karnataka, India",
            "longitude": "76.5876958",
            "latitude": "12.5588444",
            "blogLinks": [
                "https://en.wikipedia.org/wiki/Tourism_in_Karnataka"
            ],
            "locType": "village"
        },
        "bhadra river": {
            "closest_to": "agumbe",
            "address": "Bhadra, Chikkamagaluru taluku, Chikkamagaluru district, Karnataka, India",
            "longitude": "75.527118",
            "latitude": "13.4888356",
            "blogLinks": [
                "https://www.quora.com/What-are-the-best-places-to-visit-in-Karnataka-during-the-summer"
            ],
            "locType": "river"
        },
        "dandeli wildlife sanctuary": {
            "closest_to": "dandeli",
            "address": "Dandeli Wildlife Sanctuary, SH146, Terali, Joida taluk, Uttara Kannada, Karnataka, India",
            "longitude": "74.3665654142884",
            "latitude": "15.1654776",
            "blogLinks": [
                "http://www.holidayiq.com/Dandeli-Sightseeing-345.html",
                "http://travel.paintedstork.com/blog/2005/12/amazing-dandeli-world-of-wilderness.html"
            ],
            "locType": "national_park"
        },
        "kuknur": {
            "closest_to": "dandeli",
            "address": "Kukanura, Yelaburga taluku, Koppal district, Karnataka, 583232, India",
            "longitude": "75.9934934",
            "latitude": "15.4902753",
            "blogLinks": [
                "https://en.wikipedia.org/wiki/Tourism_in_Karnataka"
            ],
            "locType": "village"
        },
        "dubare": {
            "closest_to": "agumbe",
            "address": "Dubare Elephant Camp, SH91, Dodda Bettageri, Somawarpet taluk, Kodagu, Karnataka, India",
            "longitude": "75.9066719",
            "latitude": "12.3716865",
            "blogLinks": [
                "https://www.quora.com/What-are-the-best-places-to-visit-in-Karnataka-during-the-summer"
            ],
            "locType": "attraction"
        },
        "agumbe rainforest research station": {
            "closest_to": "dandeli",
            "address": "Agumbe Rainforest Research Station (ARRS), Agumbe Road, Guddekeri, Tirthahalli taluk, Shimoga district, Karnataka, 577411, India",
            "longitude": "75.088690168594",
            "latitude": "13.51811715",
            "blogLinks": [
                "https://www.tripoto.com/weekend-getaways/from-agumbe",
                "https://www.tripoto.com/places-to-visit/india/agumbe"
            ],
            "locType": "Research"
        },
        "kudremukh national park": {
            "closest_to": "agumbe",
            "address": "Kudremukh National Park, SH66, Sringeri taluku, Chikkamagaluru district, Karnataka, India",
            "longitude": "75.1828713712862",
            "latitude": "13.25397485",
            "blogLinks": [
                "https://www.wheelstreet.in/blog/8-offbeat-places-to-visit-in-karnataka-for-your-next-tourist-free-holiday/",
                "https://en.wikipedia.org/wiki/Tourism_in_Karnataka",
                "https://www.quora.com/What-are-the-best-places-to-visit-on-a-3-day-trip-in-and-around-Karnataka",
                "https://en.wikipedia.org/wiki/Agumbe"
            ],
            "locType": "national_park"
        },
        "sakleshpur": {
            "closest_to": "agumbe",
            "address": "Sakaleshpura, Sakaleshapura taluk, Hassan district, Karnataka, 573134, India",
            "longitude": "75.7862318",
            "latitude": "12.9434349",
            "blogLinks": [
                "https://www.quora.com/What-are-the-best-places-to-visit-on-a-3-day-trip-in-and-around-Karnataka"
            ],
            "locType": "town"
        },
        "gujarat": {
            "closest_to": "dandeli",
            "address": "Gujarat Bhavan, Casualty and Emergency, Ashok Nagar, Vidyanagar, Hubballi - \u0cb9\u0cc1\u0cac\u0ccd\u0cac\u0cb3\u0ccd\u0cb3\u0cbf, Hubballi taluku, Dharwad district, Karnataka, 580020, India",
            "longitude": "75.1370469",
            "latitude": "15.3595169",
            "blogLinks": [
                "https://www.quora.com/What-are-the-best-places-to-visit-in-Karnataka-during-the-summer"
            ],
            "locType": "yes"
        },
        "naganur": {
            "closest_to": "dandeli",
            "address": "Naganur, Hukkeri taluku, Belgaum district, Karnataka, India",
            "longitude": "74.4824431",
            "latitude": "16.073351",
            "blogLinks": [
                "https://en.wikipedia.org/wiki/Tourism_in_Karnataka"
            ],
            "locType": "village"
        },
        "bagamandala": {
            "closest_to": "agumbe",
            "address": "Madikeri - Bagamandala ,Tala Kaveri Road, Mekeri, Madikeri taluku, Kodagu, Karnataka, India",
            "longitude": "75.748408",
            "latitude": "12.388062",
            "blogLinks": [
                "https://en.wikipedia.org/wiki/Tourism_in_Karnataka"
            ],
            "locType": "primary"
        },
        "dandeli": {
            "closest_to": "dandeli",
            "address": "Dandeli, Haliyala taluku, Uttara Kannada, Karnataka, 581325, India",
            "longitude": "74.6236037",
            "latitude": "15.2490284",
            "blogLinks": [
                "http://travel.paintedstork.com/blog/2005/12/amazing-dandeli-world-of-wilderness.html",
                "https://www.wheelstreet.in/blog/8-offbeat-places-to-visit-in-karnataka-for-your-next-tourist-free-holiday/",
                "http://www.nivalink.com/destination/dandeli",
                "http://www.holidayiq.com/Dandeli-Sightseeing-345.html",
                "http://www.nivalink.com/destination/thirthahalli",
                "http://travel.india.com/dandeli/",
                "http://dandelitrip.com/dandeli-tourist-places/",
                "http://www.karnatakatourism.org/",
                "https://www.quora.com/What-are-the-best-places-to-visit-in-Karnataka-during-the-summer"
            ],
            "locType": "town"
        },
        "varada": {
            "closest_to": "dandeli",
            "address": "Varada, Savanura taluk, Haveri district, Karnataka, India",
            "longitude": "75.47206",
            "latitude": "14.8717792",
            "blogLinks": [
                "https://en.wikipedia.org/wiki/Tourism_in_Karnataka"
            ],
            "locType": "river"
        },
        "belgaum railway station": {
            "closest_to": "dandeli",
            "address": "Belgaum, Belgaum - Panaji Highway, Cantonment, Belagavi, Belagavi taluku, Belgaum district, Karnataka, 590001, India",
            "longitude": "74.509065",
            "latitude": "15.8489677",
            "blogLinks": [
                "http://www.nivalink.com/destination/dandeli"
            ],
            "locType": "station"
        },
        "tagore beach": {
            "closest_to": "dandeli",
            "address": "Rabindranath Tagore Beach, NH66, Kodibag, Karwar, Karavara taluk, Uttara Kannada, Karnataka, 581300, India",
            "longitude": "74.126114099183",
            "latitude": "14.81741155",
            "blogLinks": [
                "https://www.quora.com/What-are-the-best-places-to-visit-on-a-3-day-trip-in-and-around-Karnataka"
            ],
            "locType": "beach"
        },
        "kemmangundi": {
            "closest_to": "agumbe",
            "address": "Kemmannagundi, Tarikere taluku, Chikkamagaluru district, Karnataka, India",
            "longitude": "75.7520082",
            "latitude": "13.5463048",
            "blogLinks": [
                "https://en.wikipedia.org/wiki/Tourism_in_Karnataka",
                "http://www.indianholiday.com/blog/offbeat-places-karnataka/"
            ],
            "locType": "village"
        },
        "marikamba temple": {
            "closest_to": "dandeli",
            "address": "Marikamba Temple, NH766C;SH26, Halkal, \u0c95\u0cc1\u0c82\u0ca6\u0cbe\u0caa\u0cc1\u0cb0 \u0ca4\u0cbe\u0cb2\u0cc2\u0c95\u0cc1, Udupi district, Karnataka, 576220, India",
            "longitude": "74.8103631279317",
            "latitude": "13.8626958",
            "blogLinks": [
                "https://www.quora.com/What-are-the-best-places-to-visit-on-a-3-day-trip-in-and-around-Karnataka"
            ],
            "locType": "place_of_worship"
        },
        "chola": {
            "closest_to": "agumbe",
            "address": "Chola Gold Loan, Bengaluru - Mangaluru Road, Ravindra Nagar, Santhe Pete, Hassan, Hasana taluk, Hassan district, Karnataka, 573201, India",
            "longitude": "76.098782",
            "latitude": "13.0023906",
            "blogLinks": [
                "https://en.wikipedia.org/wiki/Tourism_in_Karnataka"
            ],
            "locType": "yes"
        },
        "kudremukh peak": {
            "closest_to": "agumbe",
            "address": "Kudremukha, Mudigere taluk, Chikkamagaluru district, Karnataka, India",
            "longitude": "75.2748196",
            "latitude": "13.1255691",
            "blogLinks": [
                "http://www.indianholiday.com/blog/offbeat-places-karnataka/"
            ],
            "locType": "peak"
        },
        "shiggaon taluk": {
            "closest_to": "dandeli",
            "address": "Shiggaon taluk, Haveri district, Karnataka, India",
            "longitude": "75.1756764988777",
            "latitude": "15.0138079",
            "blogLinks": [
                "https://en.wikipedia.org/wiki/Tourism_in_Karnataka"
            ],
            "locType": "administrative"
        },
        "hebbe falls": {
            "closest_to": "agumbe",
            "address": "Hebbe falls, Kemmannagundi Road, Attigundi, Chikkamagaluru taluku, Chikkamagaluru district, Karnataka, India",
            "longitude": "75.7253701",
            "latitude": "13.5414025",
            "blogLinks": [
                "https://en.wikipedia.org/wiki/Tourism_in_Karnataka"
            ],
            "locType": "attraction"
        },
        "kodagu": {
            "closest_to": "agumbe",
            "address": "Kodagu, Karnataka, India",
            "longitude": "75.6677235950852",
            "latitude": "12.38117345",
            "blogLinks": [
                "https://en.wikipedia.org/wiki/Tourism_in_Karnataka",
                "https://www.quora.com/What-are-the-best-places-to-visit-on-a-3-day-trip-in-and-around-Karnataka",
                "https://www.quora.com/What-are-the-best-places-to-visit-in-Karnataka-during-the-summer"
            ],
            "locType": "administrative"
        },
        "river kali": {
            "closest_to": "dandeli",
            "address": "Kali, Joida taluk, Uttara Kannada, Karnataka, India",
            "longitude": "74.5802901",
            "latitude": "15.0145378",
            "blogLinks": [
                "https://www.wheelstreet.in/blog/8-offbeat-places-to-visit-in-karnataka-for-your-next-tourist-free-holiday/",
                "http://www.nivalink.com/destination/dandeli",
                "http://www.holidayiq.com/Dandeli-Sightseeing-345.html",
                "http://travel.india.com/dandeli/",
                "http://www.indianholiday.com/blog/offbeat-places-karnataka/",
                "https://www.quora.com/What-are-the-best-places-to-visit-in-Karnataka-during-the-summer"
            ],
            "locType": "river"
        },
        "lushington falls": {
            "closest_to": "dandeli",
            "address": "\u0c89\u0c82\u0c9a\u0cb3\u0ccd\u0cb3\u0cbf \u0c9c\u0cb2\u0caa\u0cbe\u0ca4, Siddapura taluk, Uttara Kannada, Karnataka, India",
            "longitude": "74.7477592",
            "latitude": "14.4097755",
            "blogLinks": [
                "https://en.wikipedia.org/wiki/Tourism_in_Karnataka"
            ],
            "locType": "waterfall"
        },
        "lokapura": {
            "closest_to": "dandeli",
            "address": "Lokapura, Mudhola taluku, Bagalkote district, Karnataka, 587122, India",
            "longitude": "75.3685939",
            "latitude": "16.1627427",
            "blogLinks": [
                "https://en.wikipedia.org/wiki/Tourism_in_Karnataka"
            ],
            "locType": "town"
        },
        "mandalpatti": {
            "closest_to": "agumbe",
            "address": "Mandalpatti road junction, Galibidu Road, Kalakeri Nidugane, Madikeri taluku, Kodagu, Karnataka, India",
            "longitude": "75.7307012",
            "latitude": "12.4486242",
            "blogLinks": [
                "https://www.quora.com/What-are-the-best-places-to-visit-on-a-3-day-trip-in-and-around-Karnataka"
            ],
            "locType": "attraction"
        },
        "humcha": {
            "closest_to": "dandeli",
            "address": "Humcha Main Road, Huncha, Hosanagara taluk, Shimoga district, Karnataka, India",
            "longitude": "75.2098487",
            "latitude": "13.862013",
            "blogLinks": [
                "http://www.nivalink.com/destination/thirthahalli"
            ],
            "locType": "secondary"
        },
        "dakshina kannada": {
            "closest_to": "agumbe",
            "address": "Dakshina Kannada, Karnataka, India",
            "longitude": "75.1008028650794",
            "latitude": "12.8114089",
            "blogLinks": [
                "https://en.wikipedia.org/wiki/Tourism_in_Karnataka",
                "https://www.quora.com/What-are-the-best-places-to-visit-on-a-3-day-trip-in-and-around-Karnataka"
            ],
            "locType": "administrative"
        },
        "kundapura": {
            "closest_to": "dandeli",
            "address": "Kundapura, \u0c95\u0cc1\u0c82\u0ca6\u0cbe\u0caa\u0cc1\u0cb0 \u0ca4\u0cbe\u0cb2\u0cc2\u0c95\u0cc1, Udupi district, Karnataka, 576200, India",
            "longitude": "74.6915722",
            "latitude": "13.6250993",
            "blogLinks": [
                "http://www.nivalink.com/destination/thirthahalli",
                "http://www.nivalink.com/destination/dandeli"
            ],
            "locType": "town"
        },
        "shimoga": {
            "closest_to": "dandeli",
            "address": "Shivamogga, Shivamogga taluku, Shimoga district, Karnataka, 577200, India",
            "longitude": "75.569737",
            "latitude": "13.9311723",
            "blogLinks": [
                "https://en.wikipedia.org/wiki/Tourism_in_Karnataka",
                "https://www.quora.com/What-are-the-best-places-to-visit-in-Karnataka-during-the-summer",
                "https://en.wikipedia.org/wiki/Agumbe"
            ],
            "locType": "city"
        },
        "haveri": {
            "closest_to": "dandeli",
            "address": "Haveri, Haveri taluku, Haveri district, Karnataka, 581110, India",
            "longitude": "75.3996731",
            "latitude": "14.7874825",
            "blogLinks": [
                "https://en.wikipedia.org/wiki/Tourism_in_Karnataka"
            ],
            "locType": "town"
        },
        "sharavati": {
            "closest_to": "dandeli",
            "address": "Sharavati, Sagara taluk, Shimoga district, Karnataka, India",
            "longitude": "74.7647294",
            "latitude": "14.2360979",
            "blogLinks": [
                "https://en.wikipedia.org/wiki/Tourism_in_Karnataka",
                "https://www.quora.com/What-are-the-best-places-to-visit-on-a-3-day-trip-in-and-around-Karnataka"
            ],
            "locType": "river"
        }
    },
    "agumbe": {
        "place_id": "8561493",
        "osm_id": "910403408",
        "icon": "https://nominatim.openstreetmap.org/images/mapicons/poi_place_village.p.20.png",
        "osm_type": "node",
        "licence": "Data \u00a9 OpenStreetMap contributors, ODbL 1.0. http://www.openstreetmap.org/copyright",
        "display_name": "Agumbe, Tirthahalli taluk, Shimoga district, Karnataka, 577411, India",
        "type": "village",
        "lon": "75.0965525",
        "boundingbox": [
            "13.4894998",
            "13.5294998",
            "75.0765525",
            "75.1165525"
        ],
        "importance": 0.475,
        "lat": "13.5094998",
        "class": "place"
    }
}