{
    "mentions": {
        "bhatkal": {
            "blogLinks": [
                "https://en.wikipedia.org/wiki/Tourism_in_Karnataka"
            ],
            "locType": "town",
            "longitude": "74.5485295",
            "latitude": "13.9952114",
            "address": "Bhatkal, Bhatkala taluk, Uttara Kannada, Karnataka, 581320, India",
            "closest_to": "yana"
        },
        "kundapur": {
            "blogLinks": [
                "http://travel.india.com/agumbe/"
            ],
            "locType": "school",
            "longitude": "74.6906749",
            "latitude": "13.6343509",
            "address": "United Basel mission church Higher Primary School, Kundapur, Chikkansal Road, Vaderahobali, Kundapura, \u0c95\u0cc1\u0c82\u0ca6\u0cbe\u0caa\u0cc1\u0cb0 \u0ca4\u0cbe\u0cb2\u0cc2\u0c95\u0cc1, Udupi district, Karnataka, 576200, India",
            "closest_to": "yana"
        },
        "chikmagalur district": {
            "blogLinks": [
                "https://en.wikipedia.org/wiki/Tourism_in_Karnataka"
            ],
            "locType": "county",
            "longitude": "75.5",
            "latitude": "13.5",
            "address": "Chikmagalur, Chikkamagaluru district, Karnataka, India",
            "closest_to": "agumbe"
        },
        "hosanagara": {
            "blogLinks": [
                "http://travel.india.com/agumbe/"
            ],
            "locType": "town",
            "longitude": "75.0657952",
            "latitude": "13.916789",
            "address": "Hosanagara, Hosanagara taluk, Shimoga district, Karnataka, 577418, India",
            "closest_to": "yana"
        },
        "dakshin kannada of karnataka": {
            "blogLinks": [
                "http://www.onefivenine.com/india/Travel/Place/Agumbe"
            ],
            "locType": "restaurant",
            "longitude": "75.0309089",
            "latitude": "12.8827367",
            "address": "Dakshin Court, NH73, Kaikunje, Bantwal Cross Road, Bantwal taluk, Dakshina Kannada, Karnataka, India",
            "closest_to": "agumbe"
        },
        "kundadri": {
            "blogLinks": [
                "http://www.onefivenine.com/india/Travel/Place/Agumbe",
                "http://69kph.blogspot.com/2010/11/agumbe-trek-barkana-falls.html"
            ],
            "locType": "peak",
            "longitude": "75.1689994",
            "latitude": "13.5580148",
            "address": "Kundadri, Tirthahalli taluk, Shimoga district, Karnataka, India",
            "closest_to": "yana"
        },
        "itagi": {
            "blogLinks": [
                "https://en.wikipedia.org/wiki/Tourism_in_Karnataka"
            ],
            "locType": "village",
            "longitude": "75.6701043",
            "latitude": "14.550374",
            "address": "Itagi, Ranebennuru taluk, Haveri district, Karnataka, India",
            "closest_to": "yana"
        },
        "mookambika": {
            "blogLinks": [
                "https://en.wikipedia.org/wiki/Tourism_in_Karnataka"
            ],
            "locType": "place_of_worship",
            "longitude": "74.8145296",
            "latitude": "13.8638043",
            "address": "Mukambika Devasthana, NH766C;SH26, Halkal, \u0c95\u0cc1\u0c82\u0ca6\u0cbe\u0caa\u0cc1\u0cb0 \u0ca4\u0cbe\u0cb2\u0cc2\u0c95\u0cc1, Udupi district, Karnataka, 576220, India",
            "closest_to": "yana"
        },
        "chola": {
            "blogLinks": [
                "https://en.wikipedia.org/wiki/Tourism_in_Karnataka"
            ],
            "locType": "yes",
            "longitude": "76.098782",
            "latitude": "13.0023906",
            "address": "Chola Gold Loan, Bengaluru - Mangaluru Road, Ravindra Nagar, Santhe Pete, Hassan, Hasana taluk, Hassan district, Karnataka, 573201, India",
            "closest_to": "agumbe"
        },
        "uttara kannada district": {
            "blogLinks": [
                "http://69kph.blogspot.com/2011/04/sigandur-yana-unchalli-falls-in-bikes.html"
            ],
            "locType": "county",
            "longitude": "74.583333",
            "latitude": "14.883333",
            "address": "Uttara Kannada, Karnataka, India",
            "closest_to": "yana"
        },
        "dharwad": {
            "blogLinks": [
                "https://en.wikipedia.org/wiki/Tourism_in_Karnataka"
            ],
            "locType": "city",
            "longitude": "75.0066516",
            "latitude": "15.4540505",
            "address": "Dharwad, Dharawada taluku, Dharwad district, Karnataka, 580001, India",
            "closest_to": "yana"
        },
        "karwar": {
            "blogLinks": [
                "https://en.wikipedia.org/wiki/Tourism_in_Karnataka",
                "http://69kph.blogspot.com/2011/04/sigandur-yana-unchalli-falls-in-bikes.html"
            ],
            "locType": "town",
            "longitude": "74.1319229",
            "latitude": "14.8120931",
            "address": "Karwar, Karavara taluk, Uttara Kannada, Karnataka, 581300, India",
            "closest_to": "yana"
        },
        "shringeri": {
            "blogLinks": [
                "http://www.indiamike.com/india/karnataka-f38/udupi-agumbe-shringeri-murudeshwara-jog-falls-dharmasthala-t137208/"
            ],
            "locType": "village",
            "longitude": "75.0621168",
            "latitude": "14.7221214",
            "address": "Shringeri, Hanagal taluk, Haveri district, Karnataka, India",
            "closest_to": "yana"
        },
        "kundapura": {
            "blogLinks": [
                "http://www.nivalink.com/destination/gokarna",
                "http://ashokkoul.blogspot.com/2016/10/15-places-to-visit-in-karnataka-during.html"
            ],
            "locType": "town",
            "longitude": "74.6915722",
            "latitude": "13.6250993",
            "address": "Kundapura, \u0c95\u0cc1\u0c82\u0ca6\u0cbe\u0caa\u0cc1\u0cb0 \u0ca4\u0cbe\u0cb2\u0cc2\u0c95\u0cc1, Udupi district, Karnataka, 576200, India",
            "closest_to": "yana"
        },
        "unchalli": {
            "blogLinks": [
                "http://69kph.blogspot.com/2011/04/sigandur-yana-unchalli-falls-in-bikes.html"
            ],
            "locType": "waterfall",
            "longitude": "74.7477592",
            "latitude": "14.4097755",
            "address": "\u0c89\u0c82\u0c9a\u0cb3\u0ccd\u0cb3\u0cbf \u0c9c\u0cb2\u0caa\u0cbe\u0ca4, Siddapura taluk, Uttara Kannada, Karnataka, India",
            "closest_to": "yana"
        },
        "' river varahi": {
            "blogLinks": [
                "https://en.wikipedia.org/wiki/Tourism_in_Karnataka"
            ],
            "locType": "river",
            "longitude": "74.9489117",
            "latitude": "13.6582668",
            "address": "Varahi, \u0c95\u0cc1\u0c82\u0ca6\u0cbe\u0caa\u0cc1\u0cb0 \u0ca4\u0cbe\u0cb2\u0cc2\u0c95\u0cc1, Udupi district, Karnataka, India",
            "closest_to": "yana"
        },
        "shankaranarayana": {
            "blogLinks": [
                "http://travel.india.com/agumbe/"
            ],
            "locType": "village",
            "longitude": "74.8600862",
            "latitude": "13.6058955",
            "address": "Shankaranarayana, \u0c95\u0cc1\u0c82\u0ca6\u0cbe\u0caa\u0cc1\u0cb0 \u0ca4\u0cbe\u0cb2\u0cc2\u0c95\u0cc1, Udupi district, Karnataka, 576227, India",
            "closest_to": "yana"
        },
        "belavadi": {
            "blogLinks": [
                "https://en.wikipedia.org/wiki/Tourism_in_Karnataka"
            ],
            "locType": "village",
            "longitude": "75.3760773",
            "latitude": "13.5284899",
            "address": "Belavadi, Koppa taluk, Chikkamagaluru district, Karnataka, India",
            "closest_to": "agumbe"
        },
        "gotagodi village": {
            "blogLinks": [
                "https://en.wikipedia.org/wiki/Tourism_in_Karnataka"
            ],
            "locType": "village",
            "longitude": "75.0452834",
            "latitude": "14.7634556",
            "address": "Gotagodi, Hanagal taluk, Haveri district, Karnataka, India",
            "closest_to": "yana"
        },
        "kalasa": {
            "blogLinks": [
                "https://en.wikipedia.org/wiki/Tourism_in_Karnataka"
            ],
            "locType": "town",
            "longitude": "75.3582366",
            "latitude": "13.2322235",
            "address": "Kalasa, Mudigere taluk, Chikkamagaluru district, Karnataka, 577124, India",
            "closest_to": "agumbe"
        },
        "beluru": {
            "blogLinks": [
                "https://en.wikipedia.org/wiki/Tourism_in_Karnataka"
            ],
            "locType": "town",
            "longitude": "75.8634851",
            "latitude": "13.1645671",
            "address": "Belur, Beluru taluk, Hassan district, Karnataka, 573115, India",
            "closest_to": "agumbe"
        },
        "karkala": {
            "blogLinks": [
                "https://en.wikipedia.org/wiki/Tourism_in_Karnataka"
            ],
            "locType": "town",
            "longitude": "74.9959586",
            "latitude": "13.2112826",
            "address": "Karkala, Karkala taluk, Udupi district, Karnataka, 574104, India",
            "closest_to": "agumbe"
        },
        "gudavi": {
            "blogLinks": [
                "https://en.wikipedia.org/wiki/Tourism_in_Karnataka"
            ],
            "locType": "village",
            "longitude": "75.009649",
            "latitude": "14.4400296",
            "address": "Gudavi, Soraba taluk, Shimoga district, Karnataka, India",
            "closest_to": "yana"
        },
        "hubli": {
            "blogLinks": [
                "https://en.wikipedia.org/wiki/Tourism_in_Karnataka",
                "http://www.nivalink.com/destination/gokarna"
            ],
            "locType": "city",
            "longitude": "75.1379848",
            "latitude": "15.3518378",
            "address": "Hubballi - \u0cb9\u0cc1\u0cac\u0ccd\u0cac\u0cb3\u0ccd\u0cb3\u0cbf, Hubballi taluku, Dharwad district, Karnataka, 580020, India",
            "closest_to": "yana"
        },
        "shimoga district": {
            "blogLinks": [
                "https://en.wikipedia.org/wiki/Tourism_in_Karnataka"
            ],
            "locType": "administrative",
            "longitude": "75.1312533993886",
            "latitude": "14.0558284",
            "address": "Shimoga district, Karnataka, India",
            "closest_to": "yana"
        },
        "uttara kannada": {
            "blogLinks": [
                "https://en.wikipedia.org/wiki/Tourism_in_Karnataka",
                "http://ashokkoul.blogspot.com/2016/10/15-places-to-visit-in-karnataka-during.html",
                "http://69kph.blogspot.com/2011/04/sigandur-yana-unchalli-falls-in-bikes.html"
            ],
            "locType": "administrative",
            "longitude": "74.4729163045979",
            "latitude": "14.6726379",
            "address": "Uttara Kannada, Karnataka, India",
            "closest_to": "yana"
        },
        "malpe": {
            "blogLinks": [
                "https://en.wikipedia.org/wiki/Tourism_in_Karnataka"
            ],
            "locType": "village",
            "longitude": "74.7036914",
            "latitude": "13.3507423",
            "address": "Malpe, Udupi taluku, Udupi district, Karnataka, India",
            "closest_to": "agumbe"
        },
        "india": {
            "blogLinks": [
                "http://ashokkoul.blogspot.com/2016/10/15-places-to-visit-in-karnataka-during.html",
                "http://www.distancesfrom.com/in/Trip-Cost-from-Bengaluru-to-Bengaluru-via-Chickmagaluru-Agumbe-Yana-Gokarna/TripCostHistory/33082937.aspx",
                "http://travel.india.com/agumbe/",
                "http://www.onefivenine.com/india/Travel/Place/Agumbe",
                "http://69kph.blogspot.com/2010/11/agumbe-trek-barkana-falls.html",
                "https://en.wikipedia.org/wiki/Tourism_in_Karnataka",
                "http://69kph.blogspot.com/2011/04/sigandur-yana-unchalli-falls-in-bikes.html"
            ],
            "locType": "administrative",
            "longitude": "75.7223521",
            "latitude": "14.5203896",
            "address": "Karnataka, India",
            "closest_to": "yana"
        },
        "agumbe": {
            "blogLinks": [
                "https://www.tripadvisor.in/Hotel_Review-g2370709-d2368366-Reviews-Dodda_Mane-Agumbe_Karnataka.html",
                "http://69kph.blogspot.com/2010/11/agumbe-trek-barkana-falls.html"
            ],
            "locType": "village",
            "longitude": "75.0965525",
            "latitude": "13.5094998",
            "address": "Agumbe, Tirthahalli taluk, Shimoga district, Karnataka, 577411, India",
            "closest_to": "yana"
        },
        "kapu": {
            "blogLinks": [
                "http://69kph.blogspot.com/2011/04/sigandur-yana-unchalli-falls-in-bikes.html"
            ],
            "locType": "village",
            "longitude": "74.7470496",
            "latitude": "13.2309688",
            "address": "Kapu, Udupi taluku, Udupi district, Karnataka, India",
            "closest_to": "agumbe"
        },
        "arasikere": {
            "blogLinks": [
                "https://en.wikipedia.org/wiki/Tourism_in_Karnataka"
            ],
            "locType": "town",
            "longitude": "76.2568436",
            "latitude": "13.3159809",
            "address": "Arasikere, Arasikere taluku, Hassan district, Karnataka, 573103, India",
            "closest_to": "agumbe"
        },
        "sringeri": {
            "blogLinks": [
                "https://www.tripoto.com/trip/karnataka-one-state-many-worlds-2-565ed43147a04",
                "http://69kph.blogspot.com/2010/11/agumbe-trek-barkana-falls.html"
            ],
            "locType": "town",
            "longitude": "75.2553718",
            "latitude": "13.4261724",
            "address": "Sringeri, Sringeri taluku, Chikkamagaluru district, Karnataka, 577592, India",
            "closest_to": "agumbe"
        },
        "udupi": {
            "blogLinks": [
                "https://en.wikipedia.org/wiki/Tourism_in_Karnataka"
            ],
            "locType": "city",
            "longitude": "74.7473232",
            "latitude": "13.3419169",
            "address": "Udupi, Udupi taluku, Udupi district, Karnataka, 576101, India",
            "closest_to": "agumbe"
        },
        "bankapura": {
            "blogLinks": [
                "https://en.wikipedia.org/wiki/Tourism_in_Karnataka"
            ],
            "locType": "town",
            "longitude": "75.2639298",
            "latitude": "14.9217443",
            "address": "Bankapura, Shiggaon taluk, Haveri district, Karnataka, 581202, India",
            "closest_to": "yana"
        },
        "swaswara": {
            "blogLinks": [
                "http://www.nivalink.com/destination/gokarna"
            ],
            "locType": "hotel",
            "longitude": "74.3201237772373",
            "latitude": "14.5212941",
            "address": "Swaswara, Om beach road, Gokarna, Kumata taluk, Uttara Kannada, Karnataka, 581326, India",
            "closest_to": "yana"
        },
        "om beach": {
            "blogLinks": [
                "http://www.nivalink.com/destination/gokarna"
            ],
            "locType": "beach",
            "longitude": "74.3254331800289",
            "latitude": "14.5190376",
            "address": "Om Beach, Om beach road, Gokarna, Kumata taluk, Uttara Kannada, Karnataka, 581326, India",
            "closest_to": "yana"
        },
        "venur": {
            "blogLinks": [
                "https://en.wikipedia.org/wiki/Tourism_in_Karnataka"
            ],
            "locType": "village",
            "longitude": "75.1443252",
            "latitude": "13.0122097",
            "address": "Venoor, Beltangadi taluk, Dakshina Kannada, Karnataka, 574242, India",
            "closest_to": "agumbe"
        },
        "hebbe falls": {
            "blogLinks": [
                "https://en.wikipedia.org/wiki/Tourism_in_Karnataka"
            ],
            "locType": "attraction",
            "longitude": "75.7253701",
            "latitude": "13.5414025",
            "address": "Hebbe falls, Kemmannagundi Road, Attigundi, Chikkamagaluru taluku, Chikkamagaluru district, Karnataka, India",
            "closest_to": "agumbe"
        },
        "haveri": {
            "blogLinks": [
                "https://en.wikipedia.org/wiki/Tourism_in_Karnataka"
            ],
            "locType": "town",
            "longitude": "75.3996731",
            "latitude": "14.7874825",
            "address": "Haveri, Haveri taluku, Haveri district, Karnataka, 581110, India",
            "closest_to": "yana"
        },
        "coastal karnataka": {
            "blogLinks": [
                "https://en.wikipedia.org/wiki/Tourism_in_Karnataka",
                "http://www.nivalink.com/destination/gokarna",
                "http://ashokkoul.blogspot.com/2016/10/15-places-to-visit-in-karnataka-during.html"
            ],
            "locType": "industrial",
            "longitude": "74.8137275833157",
            "latitude": "12.96014675",
            "address": "Bharat Petroleum Mangalore Coastal Installation, Baikampady, Mangaluru taluk, Dakshina Kannada, Karnataka, 575014, India",
            "closest_to": "agumbe"
        },
        "dattatreya": {
            "blogLinks": [
                "https://en.wikipedia.org/wiki/Tourism_in_Karnataka"
            ],
            "locType": "hamlet",
            "longitude": "75.7539724",
            "latitude": "13.4315216",
            "address": "Inam Dattatreya Pitha, Chikkamagaluru taluku, Chikkamagaluru district, Karnataka, India",
            "closest_to": "agumbe"
        },
        "sangameshwara": {
            "blogLinks": [
                "https://en.wikipedia.org/wiki/Tourism_in_Karnataka"
            ],
            "locType": "village",
            "longitude": "74.87651",
            "latitude": "15.184341",
            "address": "Sangameshwara, Kalaghatagi taluku, Dharwad district, Karnataka, India",
            "closest_to": "yana"
        },
        "varur": {
            "blogLinks": [
                "https://en.wikipedia.org/wiki/Tourism_in_Karnataka"
            ],
            "locType": "village",
            "longitude": "75.1387568",
            "latitude": "15.2077105",
            "address": "Varur, Hubballi taluku, Dharwad district, Karnataka, India",
            "closest_to": "yana"
        },
        "dharmastala": {
            "blogLinks": [
                "https://en.wikipedia.org/wiki/Tourism_in_Karnataka"
            ],
            "locType": "village",
            "longitude": "75.3813122",
            "latitude": "12.9519571",
            "address": "Dharmasthala, Beltangadi taluk, Dakshina Kannada, Karnataka, 574216, India",
            "closest_to": "agumbe"
        },
        "hassan district": {
            "blogLinks": [
                "https://en.wikipedia.org/wiki/Tourism_in_Karnataka"
            ],
            "locType": "administrative",
            "longitude": "76.1745460751981",
            "latitude": "13.0315068",
            "address": "Hassan district, Karnataka, India",
            "closest_to": "agumbe"
        },
        "shimoga": {
            "blogLinks": [
                "https://en.wikipedia.org/wiki/Tourism_in_Karnataka"
            ],
            "locType": "city",
            "longitude": "75.569737",
            "latitude": "13.9311723",
            "address": "Shivamogga, Shivamogga taluku, Shimoga district, Karnataka, 577200, India",
            "closest_to": "yana"
        },
        "shiggaon taluk": {
            "blogLinks": [
                "https://en.wikipedia.org/wiki/Tourism_in_Karnataka"
            ],
            "locType": "administrative",
            "longitude": "75.1756764988777",
            "latitude": "15.0138079",
            "address": "Shiggaon taluk, Haveri district, Karnataka, India",
            "closest_to": "yana"
        },
        "haveri district": {
            "blogLinks": [
                "https://en.wikipedia.org/wiki/Tourism_in_Karnataka"
            ],
            "locType": "administrative",
            "longitude": "75.3845674304742",
            "latitude": "14.714635",
            "address": "Haveri district, Karnataka, India",
            "closest_to": "yana"
        },
        "sagara taluk": {
            "blogLinks": [
                "https://en.wikipedia.org/wiki/Tourism_in_Karnataka"
            ],
            "locType": "administrative",
            "longitude": "74.9610874491152",
            "latitude": "14.09993045",
            "address": "Sagara taluk, Shimoga district, Karnataka, India",
            "closest_to": "yana"
        },
        "hassan": {
            "blogLinks": [
                "https://en.wikipedia.org/wiki/Tourism_in_Karnataka"
            ],
            "locType": "town",
            "longitude": "76.0992703",
            "latitude": "13.0070817",
            "address": "Hassan, Hasana taluk, Hassan district, Karnataka, 573201, India",
            "closest_to": "agumbe"
        },
        "narayana": {
            "blogLinks": [
                "https://en.wikipedia.org/wiki/Tourism_in_Karnataka"
            ],
            "locType": "village",
            "longitude": "76.201037",
            "latitude": "13.9181889",
            "address": "Narayana Gondanahalli, Holalkere taluk, Chitradurga district, Karnataka, India",
            "closest_to": "agumbe"
        },
        "gokarna": {
            "blogLinks": [
                "https://en.wikipedia.org/wiki/Tourism_in_Karnataka",
                "http://www.indiamike.com/india/karnataka-f38/udupi-agumbe-shringeri-murudeshwara-jog-falls-dharmasthala-t137208/",
                "http://www.nivalink.com/destination/gokarna"
            ],
            "locType": "town",
            "longitude": "74.3184418",
            "latitude": "14.5439629",
            "address": "Gokarna, Kumata taluk, Uttara Kannada, Karnataka, 581326, India",
            "closest_to": "yana"
        },
        "sharavati": {
            "blogLinks": [
                "https://en.wikipedia.org/wiki/Tourism_in_Karnataka",
                "http://ashokkoul.blogspot.com/2016/10/15-places-to-visit-in-karnataka-during.html"
            ],
            "locType": "river",
            "longitude": "74.7647294",
            "latitude": "14.2360979",
            "address": "Sharavati, Sagara taluk, Shimoga district, Karnataka, India",
            "closest_to": "yana"
        },
        "sagar": {
            "blogLinks": [
                "http://69kph.blogspot.com/2011/04/sigandur-yana-unchalli-falls-in-bikes.html"
            ],
            "locType": "town",
            "longitude": "75.0262551",
            "latitude": "14.1666594",
            "address": "Sagara, Sagara taluk, Shimoga district, Karnataka, 577400, India",
            "closest_to": "yana"
        },
        "horanadu": {
            "blogLinks": [
                "http://www.indiamike.com/india/karnataka-f38/udupi-agumbe-shringeri-murudeshwara-jog-falls-dharmasthala-t137208/"
            ],
            "locType": "town",
            "longitude": "75.3445161",
            "latitude": "13.2761199",
            "address": "Horanadu, Mudigere taluk, Chikkamagaluru district, Karnataka, 577181, India",
            "closest_to": "agumbe"
        },
        "manipal": {
            "blogLinks": [
                "https://en.wikipedia.org/wiki/Tourism_in_Karnataka"
            ],
            "locType": "town",
            "longitude": "74.7870308",
            "latitude": "13.3519723",
            "address": "Manipal, Udupi taluku, Udupi district, Karnataka, India",
            "closest_to": "agumbe"
        },
        "manjusha museum": {
            "blogLinks": [
                "https://en.wikipedia.org/wiki/Tourism_in_Karnataka"
            ],
            "locType": "museum",
            "longitude": "75.3821342838196",
            "latitude": "12.95116975",
            "address": "Manjusha Museum, SH37, Dharmasthala, Beltangadi taluk, Dakshina Kannada, Karnataka, 574216, India",
            "closest_to": "agumbe"
        },
        "banavasi": {
            "blogLinks": [
                "https://en.wikipedia.org/wiki/Tourism_in_Karnataka",
                "http://69kph.blogspot.com/2011/04/sigandur-yana-unchalli-falls-in-bikes.html"
            ],
            "locType": "town",
            "longitude": "75.0129845",
            "latitude": "14.5389738",
            "address": "Banavasi, Shirasi taluk, Uttara Kannada, Karnataka, India",
            "closest_to": "yana"
        },
        "mastikatte": {
            "blogLinks": [
                "https://en.wikipedia.org/wiki/Tourism_in_Karnataka"
            ],
            "locType": "village",
            "longitude": "74.4604101",
            "latitude": "14.6857168",
            "address": "Mastikatte, Ankola taluk, Uttara Kannada, Karnataka, India",
            "closest_to": "yana"
        },
        "mullayyanagiri": {
            "blogLinks": [
                "http://travel.india.com/agumbe/"
            ],
            "locType": "peak",
            "longitude": "75.7214034",
            "latitude": "13.3909217",
            "address": "Mullayyanagiri, Chikkamagaluru, Chikkamagaluru taluku, Chikkamagaluru district, Karnataka, 577101, India",
            "closest_to": "agumbe"
        },
        "dakshina kannada": {
            "blogLinks": [
                "https://en.wikipedia.org/wiki/Tourism_in_Karnataka"
            ],
            "locType": "administrative",
            "longitude": "75.1008028650794",
            "latitude": "12.8114089",
            "address": "Dakshina Kannada, Karnataka, India",
            "closest_to": "agumbe"
        },
        "kemmangundi": {
            "blogLinks": [
                "https://en.wikipedia.org/wiki/Tourism_in_Karnataka"
            ],
            "locType": "village",
            "longitude": "75.7520082",
            "latitude": "13.5463048",
            "address": "Kemmannagundi, Tarikere taluku, Chikkamagaluru district, Karnataka, India",
            "closest_to": "agumbe"
        },
        "mangalore city": {
            "blogLinks": [
                "http://traveltriangle.com/blog/top-hill-stations-in-karnataka/"
            ],
            "locType": "city",
            "longitude": "74.8430082",
            "latitude": "12.8698101",
            "address": "Mangaluru, Mangaluru taluk, Dakshina Kannada, Karnataka, 575001, India",
            "closest_to": "agumbe"
        },
        "kodachadri": {
            "blogLinks": [
                "https://en.wikipedia.org/wiki/Tourism_in_Karnataka",
                "http://69kph.blogspot.com/2011/04/sigandur-yana-unchalli-falls-in-bikes.html"
            ],
            "locType": "peak",
            "longitude": "74.8705395",
            "latitude": "13.8565758",
            "address": "Kodachadri, \u0c95\u0cc1\u0c82\u0ca6\u0cbe\u0caa\u0cc1\u0cb0 \u0ca4\u0cbe\u0cb2\u0cc2\u0c95\u0cc1, Udupi district, Karnataka, India",
            "closest_to": "yana"
        },
        "lakshmeshwar": {
            "blogLinks": [
                "https://en.wikipedia.org/wiki/Tourism_in_Karnataka"
            ],
            "locType": "bus_station",
            "longitude": "75.4741167",
            "latitude": "15.12373",
            "address": "Lakshmeshwar KSRTC Bus stand, SH6, Bastibana, Lakshmeshvara, Shirahatti taluku, Gadag district, Karnataka, 582116, India",
            "closest_to": "yana"
        },
        "mangalore": {
            "blogLinks": [
                "https://en.wikipedia.org/wiki/Tourism_in_Karnataka",
                "http://www.nivalink.com/destination/gokarna",
                "http://www.onefivenine.com/india/Travel/Place/Agumbe",
                "http://traveltriangle.com/blog/top-hill-stations-in-karnataka/"
            ],
            "locType": "city",
            "longitude": "74.8430082",
            "latitude": "12.8698101",
            "address": "Mangaluru, Mangaluru taluk, Dakshina Kannada, Karnataka, 575001, India",
            "closest_to": "agumbe"
        },
        "anshi national park": {
            "blogLinks": [
                "https://en.wikipedia.org/wiki/Tourism_in_Karnataka"
            ],
            "locType": "national_park",
            "longitude": "74.3934408094182",
            "latitude": "14.9994424",
            "address": "Anshi National Park, SH46, Bidoli, Joida taluk, Uttara Kannada, Karnataka, India",
            "closest_to": "yana"
        },
        "varada": {
            "blogLinks": [
                "https://en.wikipedia.org/wiki/Tourism_in_Karnataka"
            ],
            "locType": "river",
            "longitude": "75.47206",
            "latitude": "14.8717792",
            "address": "Varada, Savanura taluk, Haveri district, Karnataka, India",
            "closest_to": "yana"
        },
        "bhadra river": {
            "blogLinks": [
                "https://en.wikipedia.org/wiki/Tourism_in_Karnataka"
            ],
            "locType": "river",
            "longitude": "75.527118",
            "latitude": "13.4888356",
            "address": "Bhadra, Chikkamagaluru taluku, Chikkamagaluru district, Karnataka, India",
            "closest_to": "agumbe"
        },
        "sagara": {
            "blogLinks": [
                "https://en.wikipedia.org/wiki/Tourism_in_Karnataka",
                "http://ashokkoul.blogspot.com/2016/10/15-places-to-visit-in-karnataka-during.html"
            ],
            "locType": "town",
            "longitude": "75.0262551",
            "latitude": "14.1666594",
            "address": "Sagara, Sagara taluk, Shimoga district, Karnataka, 577400, India",
            "closest_to": "yana"
        },
        "nethrani island": {
            "blogLinks": [
                "https://en.wikipedia.org/wiki/Tourism_in_Karnataka"
            ],
            "locType": "island",
            "longitude": "74.3272086675849",
            "latitude": "14.0174924",
            "address": "Netrani, Uttara Kannada, Karnataka, India",
            "closest_to": "yana"
        },
        "bankpur fort": {
            "blogLinks": [
                "https://en.wikipedia.org/wiki/Tourism_in_Karnataka"
            ],
            "locType": "archaeological_site",
            "longitude": "75.2512090188504",
            "latitude": "14.9231815",
            "address": "Bankapura Fort, SH137, Guddada Channapura, Shiggaon taluk, Haveri district, Karnataka, 581202, India",
            "closest_to": "yana"
        },
        "mullayanagiri range": {
            "blogLinks": [
                "http://traveltriangle.com/blog/top-hill-stations-in-karnataka/"
            ],
            "locType": "peak",
            "longitude": "75.7214034",
            "latitude": "13.3909217",
            "address": "Mullayyanagiri, Chikkamagaluru, Chikkamagaluru taluku, Chikkamagaluru district, Karnataka, 577101, India",
            "closest_to": "agumbe"
        },
        "sauparnika": {
            "blogLinks": [
                "http://ashokkoul.blogspot.com/2016/10/15-places-to-visit-in-karnataka-during.html"
            ],
            "locType": "river",
            "longitude": "74.739988",
            "latitude": "13.771549",
            "address": "Sauparnika, \u0c95\u0cc1\u0c82\u0ca6\u0cbe\u0caa\u0cc1\u0cb0 \u0ca4\u0cbe\u0cb2\u0cc2\u0c95\u0cc1, Udupi district, Karnataka, India",
            "closest_to": "yana"
        },
        "river varahi": {
            "blogLinks": [
                "http://www.onefivenine.com/india/Travel/Place/Agumbe"
            ],
            "locType": "river",
            "longitude": "74.9489117",
            "latitude": "13.6582668",
            "address": "Varahi, \u0c95\u0cc1\u0c82\u0ca6\u0cbe\u0caa\u0cc1\u0cb0 \u0ca4\u0cbe\u0cb2\u0cc2\u0c95\u0cc1, Udupi district, Karnataka, India",
            "closest_to": "yana"
        },
        "lushington falls": {
            "blogLinks": [
                "https://en.wikipedia.org/wiki/Tourism_in_Karnataka",
                "http://69kph.blogspot.com/2011/04/sigandur-yana-unchalli-falls-in-bikes.html"
            ],
            "locType": "waterfall",
            "longitude": "74.7477592",
            "latitude": "14.4097755",
            "address": "\u0c89\u0c82\u0c9a\u0cb3\u0ccd\u0cb3\u0cbf \u0c9c\u0cb2\u0caa\u0cbe\u0ca4, Siddapura taluk, Uttara Kannada, Karnataka, India",
            "closest_to": "yana"
        },
        "kudremukh national park": {
            "blogLinks": [
                "https://en.wikipedia.org/wiki/Tourism_in_Karnataka"
            ],
            "locType": "national_park",
            "longitude": "75.1828713712862",
            "latitude": "13.25397485",
            "address": "Kudremukh National Park, SH66, Sringeri taluku, Chikkamagaluru district, Karnataka, India",
            "closest_to": "agumbe"
        },
        "shirali": {
            "blogLinks": [
                "https://en.wikipedia.org/wiki/Tourism_in_Karnataka"
            ],
            "locType": "village",
            "longitude": "74.5286591",
            "latitude": "14.0280925",
            "address": "Shirali, Bhatkala taluk, Uttara Kannada, Karnataka, 581354, India",
            "closest_to": "yana"
        },
        "varaha": {
            "blogLinks": [
                "https://en.wikipedia.org/wiki/Tourism_in_Karnataka"
            ],
            "locType": "village",
            "longitude": "75.3718812",
            "latitude": "14.390777",
            "address": "Varaha, Hirekeruru taluk, Haveri district, Karnataka, India",
            "closest_to": "yana"
        },
        "kalaseshwara temple": {
            "blogLinks": [
                "http://www.nivalink.com/destination/gokarna"
            ],
            "locType": "place_of_worship",
            "longitude": "75.363446975",
            "latitude": "13.23228505",
            "address": "Kalaseshwara Temple, SH66, Kalasa, Mudigere taluk, Chikkamagaluru district, Karnataka, 577124, India",
            "closest_to": "agumbe"
        },
        "chikmagalur": {
            "blogLinks": [
                "http://ashokkoul.blogspot.com/2016/10/15-places-to-visit-in-karnataka-during.html",
                "https://www.tripoto.com/trip/karnataka-one-state-many-worlds-2-565ed43147a04"
            ],
            "locType": "county",
            "longitude": "75.5",
            "latitude": "13.5",
            "address": "Chikmagalur, Chikkamagaluru district, Karnataka, India",
            "closest_to": "agumbe"
        },
        "sahyadri": {
            "blogLinks": [
                "http://69kph.blogspot.com/2011/04/sigandur-yana-unchalli-falls-in-bikes.html"
            ],
            "locType": "school",
            "longitude": "75.2317987800043",
            "latitude": "13.6983273",
            "address": "Sahyadri Polytechnic, SH1, Seebinakere, Sankadahole, Tirthahalli taluk, Shimoga district, Karnataka, 577432, India",
            "closest_to": "yana"
        },
        "kumta": {
            "blogLinks": [
                "https://en.wikipedia.org/wiki/Tourism_in_Karnataka",
                "http://69kph.blogspot.com/2011/04/sigandur-yana-unchalli-falls-in-bikes.html",
                "http://traveltriangle.com/blog/top-hill-stations-in-karnataka/"
            ],
            "locType": "town",
            "longitude": "74.4107617",
            "latitude": "14.4261647",
            "address": "Kumta, Kumata taluk, Uttara Kannada, Karnataka, India",
            "closest_to": "yana"
        },
        "netrani island of uttara kannada": {
            "blogLinks": [
                "https://en.wikipedia.org/wiki/Tourism_in_Karnataka"
            ],
            "locType": "island",
            "longitude": "74.3272086675849",
            "latitude": "14.0174924",
            "address": "Netrani, Uttara Kannada, Karnataka, India",
            "closest_to": "yana"
        },
        "kagal": {
            "blogLinks": [
                "https://en.wikipedia.org/wiki/Tourism_in_Karnataka"
            ],
            "locType": "grass",
            "longitude": "74.3575302591262",
            "latitude": "14.5055819",
            "address": "Kagal Fort, Birkodi Village, Kumata taluk, Uttara Kannada, Karnataka, India",
            "closest_to": "yana"
        },
        "unchalli falls": {
            "blogLinks": [
                "https://en.wikipedia.org/wiki/Tourism_in_Karnataka",
                "http://69kph.blogspot.com/2011/04/sigandur-yana-unchalli-falls-in-bikes.html"
            ],
            "locType": "waterfall",
            "longitude": "74.7477592",
            "latitude": "14.4097755",
            "address": "\u0c89\u0c82\u0c9a\u0cb3\u0ccd\u0cb3\u0cbf \u0c9c\u0cb2\u0caa\u0cbe\u0ca4, Siddapura taluk, Uttara Kannada, Karnataka, India",
            "closest_to": "yana"
        }
    },
    "yana": {
        "icon": "https://nominatim.openstreetmap.org/images/mapicons/poi_place_village.p.20.png",
        "osm_type": "node",
        "boundingbox": [
            "14.5586094",
            "14.5986094",
            "74.5398169",
            "74.5798169"
        ],
        "display_name": "Yana, Kumata taluk, Uttara Kannada, Karnataka, India",
        "class": "place",
        "osm_id": "1890842669",
        "type": "village",
        "licence": "Data \u00a9 OpenStreetMap contributors, ODbL 1.0. http://www.openstreetmap.org/copyright",
        "lon": "74.5598169",
        "lat": "14.5786094",
        "place_id": "196766914",
        "importance": 0.475
    },
    "agumbe": {
        "icon": "https://nominatim.openstreetmap.org/images/mapicons/poi_place_village.p.20.png",
        "osm_type": "node",
        "boundingbox": [
            "13.4894998",
            "13.5294998",
            "75.0765525",
            "75.1165525"
        ],
        "display_name": "Agumbe, Tirthahalli taluk, Shimoga district, Karnataka, 577411, India",
        "class": "place",
        "osm_id": "910403408",
        "type": "village",
        "licence": "Data \u00a9 OpenStreetMap contributors, ODbL 1.0. http://www.openstreetmap.org/copyright",
        "lon": "75.0965525",
        "lat": "13.5094998",
        "place_id": "8561493",
        "importance": 0.475
    }
}