{
    "sirsi": {
        "icon": "https://nominatim.openstreetmap.org/images/mapicons/poi_place_town.p.20.png",
        "osm_type": "node",
        "boundingbox": [
            "14.5792362",
            "14.6592362",
            "74.7988611",
            "74.8788611"
        ],
        "display_name": "Sirsi, Shirasi taluk, Uttara Kannada, Karnataka, 581400, India",
        "class": "place",
        "osm_id": "245628312",
        "type": "town",
        "licence": "Data \u00a9 OpenStreetMap contributors, ODbL 1.0. http://www.openstreetmap.org/copyright",
        "lon": "74.8388611",
        "lat": "14.6192362",
        "place_id": "630058",
        "importance": 0.5
    },
    "mentions": {
        "bhatkal": {
            "blogLinks": [
                "https://en.wikipedia.org/wiki/Tourism_in_Karnataka"
            ],
            "locType": "town",
            "longitude": "74.5485295",
            "latitude": "13.9952114",
            "address": "Bhatkal, Bhatkala taluk, Uttara Kannada, Karnataka, 581320, India",
            "closest_to": "sirsi"
        },
        "kundapur": {
            "blogLinks": [
                "http://travel.india.com/agumbe/"
            ],
            "locType": "school",
            "longitude": "74.6906749",
            "latitude": "13.6343509",
            "address": "United Basel mission church Higher Primary School, Kundapur, Chikkansal Road, Vaderahobali, Kundapura, \u0c95\u0cc1\u0c82\u0ca6\u0cbe\u0caa\u0cc1\u0cb0 \u0ca4\u0cbe\u0cb2\u0cc2\u0c95\u0cc1, Udupi district, Karnataka, 576200, India",
            "closest_to": "sirsi"
        },
        "samse": {
            "blogLinks": [
                "https://www.quora.com/What-are-the-best-weekend-road-trips-from-Bangalore"
            ],
            "locType": "village",
            "longitude": "75.3332678",
            "latitude": "13.1894244",
            "address": "Samse, Mudigere taluk, Chikkamagaluru district, Karnataka, India",
            "closest_to": "agumbe"
        },
        "charmadi": {
            "blogLinks": [
                "https://www.quora.com/What-are-the-best-weekend-road-trips-from-Bangalore"
            ],
            "locType": "village",
            "longitude": "75.3967377",
            "latitude": "13.0365436",
            "address": "Charmadi, Beltangadi taluk, Dakshina Kannada, Karnataka, 574290, India",
            "closest_to": "agumbe"
        },
        "hosanagara": {
            "blogLinks": [
                "http://travel.india.com/agumbe/"
            ],
            "locType": "town",
            "longitude": "75.0657952",
            "latitude": "13.916789",
            "address": "Hosanagara, Hosanagara taluk, Shimoga district, Karnataka, 577418, India",
            "closest_to": "sirsi"
        },
        "dakshin kannada of karnataka": {
            "blogLinks": [
                "http://www.onefivenine.com/india/Travel/Place/Agumbe"
            ],
            "locType": "restaurant",
            "longitude": "75.0309089",
            "latitude": "12.8827367",
            "address": "Dakshin Court, NH73, Kaikunje, Bantwal Cross Road, Bantwal taluk, Dakshina Kannada, Karnataka, India",
            "closest_to": "agumbe"
        },
        "sangameshwara": {
            "blogLinks": [
                "https://en.wikipedia.org/wiki/Tourism_in_Karnataka",
                "https://www.quora.com/What-are-the-best-places-to-visit-on-a-3-day-trip-in-and-around-Karnataka"
            ],
            "locType": "village",
            "longitude": "74.87651",
            "latitude": "15.184341",
            "address": "Sangameshwara, Kalaghatagi taluku, Dharwad district, Karnataka, India",
            "closest_to": "sirsi"
        },
        "sakleshpur": {
            "blogLinks": [
                "https://www.quora.com/What-are-the-best-places-to-visit-on-a-3-day-trip-in-and-around-Karnataka",
                "https://www.quora.com/What-are-the-best-weekend-road-trips-from-Bangalore"
            ],
            "locType": "town",
            "longitude": "75.7862318",
            "latitude": "12.9434349",
            "address": "Sakaleshpura, Sakaleshapura taluk, Hassan district, Karnataka, 573134, India",
            "closest_to": "agumbe"
        },
        "upper lake": {
            "blogLinks": [
                "https://www.tripoto.com/weekend-getaways/from-sirsi"
            ],
            "locType": "dam",
            "longitude": "74.3576168",
            "latitude": "15.1102228",
            "address": "Upper Kaneri Dam, Joida taluk, Uttara Kannada, Karnataka, India",
            "closest_to": "sirsi"
        },
        "mookambika": {
            "blogLinks": [
                "https://en.wikipedia.org/wiki/Tourism_in_Karnataka"
            ],
            "locType": "place_of_worship",
            "longitude": "74.8145296",
            "latitude": "13.8638043",
            "address": "Mukambika Devasthana, NH766C;SH26, Halkal, \u0c95\u0cc1\u0c82\u0ca6\u0cbe\u0caa\u0cc1\u0cb0 \u0ca4\u0cbe\u0cb2\u0cc2\u0c95\u0cc1, Udupi district, Karnataka, 576220, India",
            "closest_to": "sirsi"
        },
        "chola": {
            "blogLinks": [
                "https://en.wikipedia.org/wiki/Tourism_in_Karnataka"
            ],
            "locType": "yes",
            "longitude": "76.098782",
            "latitude": "13.0023906",
            "address": "Chola Gold Loan, Bengaluru - Mangaluru Road, Ravindra Nagar, Santhe Pete, Hassan, Hasana taluk, Hassan district, Karnataka, 573201, India",
            "closest_to": "agumbe"
        },
        "uttara kannada district": {
            "blogLinks": [
                "https://www.quora.com/What-are-the-best-weekend-road-trips-from-Bangalore"
            ],
            "locType": "county",
            "longitude": "74.583333",
            "latitude": "14.883333",
            "address": "Uttara Kannada, Karnataka, India",
            "closest_to": "sirsi"
        },
        "dharwad": {
            "blogLinks": [
                "https://en.wikipedia.org/wiki/Sirsi,_Karnataka",
                "https://en.wikipedia.org/wiki/Tourism_in_Karnataka"
            ],
            "locType": "city",
            "longitude": "75.0066516",
            "latitude": "15.4540505",
            "address": "Dharwad, Dharawada taluku, Dharwad district, Karnataka, 580001, India",
            "closest_to": "sirsi"
        },
        "bandaje falls": {
            "blogLinks": [
                "https://www.quora.com/What-are-the-best-weekend-road-trips-from-Bangalore"
            ],
            "locType": "track",
            "longitude": "75.3809448",
            "latitude": "13.0801279",
            "address": "Bandaje to Bandaje falls, Bangadi, Beltangadi taluk, Dakshina Kannada, Karnataka, 574290, India",
            "closest_to": "agumbe"
        },
        "tagore beach": {
            "blogLinks": [
                "https://www.quora.com/What-are-the-best-places-to-visit-on-a-3-day-trip-in-and-around-Karnataka"
            ],
            "locType": "beach",
            "longitude": "74.126114099183",
            "latitude": "14.81741155",
            "address": "Rabindranath Tagore Beach, NH66, Kodibag, Karwar, Karavara taluk, Uttara Kannada, Karnataka, 581300, India",
            "closest_to": "sirsi"
        },
        "chennakeshava": {
            "blogLinks": [
                "https://www.quora.com/What-are-the-best-places-to-visit-on-a-3-day-trip-in-and-around-Karnataka"
            ],
            "locType": "place_of_worship",
            "longitude": "76.1294164",
            "latitude": "13.3748908",
            "address": "Chennakeshava Temple, NH73, Arakere, Arasikere taluku, Hassan district, Karnataka, 573112, India",
            "closest_to": "agumbe"
        },
        "us": {
            "blogLinks": [
                "http://travel.india.com/agumbe/"
            ],
            "locType": "administrative",
            "longitude": "75.7223521",
            "latitude": "14.5203896",
            "address": "Karnataka, India",
            "closest_to": "sirsi"
        },
        "panambur - panambur beach": {
            "blogLinks": [
                "https://www.quora.com/What-are-the-best-places-to-visit-on-a-3-day-trip-in-and-around-Karnataka"
            ],
            "locType": "beach",
            "longitude": "74.8034667207214",
            "latitude": "12.93907195",
            "address": "Panambur Beach, Panambur Beach Road, Gandhinagar, Panambur, Mangaluru taluk, Dakshina Kannada, Karnataka, 575013, India",
            "closest_to": "agumbe"
        },
        "' river varahi": {
            "blogLinks": [
                "https://en.wikipedia.org/wiki/Tourism_in_Karnataka"
            ],
            "locType": "river",
            "longitude": "74.9489117",
            "latitude": "13.6582668",
            "address": "Varahi, \u0c95\u0cc1\u0c82\u0ca6\u0cbe\u0caa\u0cc1\u0cb0 \u0ca4\u0cbe\u0cb2\u0cc2\u0c95\u0cc1, Udupi district, Karnataka, India",
            "closest_to": "sirsi"
        },
        "shiggaon taluk": {
            "blogLinks": [
                "https://en.wikipedia.org/wiki/Tourism_in_Karnataka"
            ],
            "locType": "administrative",
            "longitude": "75.1756764988777",
            "latitude": "15.0138079",
            "address": "Shiggaon taluk, Haveri district, Karnataka, India",
            "closest_to": "sirsi"
        },
        "panaji": {
            "blogLinks": [
                "https://www.tripoto.com/weekend-getaways/from-agumbe"
            ],
            "locType": "trunk",
            "longitude": "74.4876784",
            "latitude": "15.4422981",
            "address": "Belgaum - Panaji Highway, Londa, Khanapura taluku, Belgaum district, Karnataka, India",
            "closest_to": "sirsi"
        },
        "mirjan fort": {
            "blogLinks": [
                "https://www.quora.com/What-are-the-best-places-to-visit-on-a-3-day-trip-in-and-around-Karnataka"
            ],
            "locType": "attraction",
            "longitude": "74.4174838158512",
            "latitude": "14.48905715",
            "address": "Mirjana Fort, Edapally- Panvel Highway, Kimani, Kumata taluk, Uttara Kannada, Karnataka, 581344, India",
            "closest_to": "sirsi"
        },
        "unchalli falls": {
            "blogLinks": [
                "https://en.wikipedia.org/wiki/Sirsi,_Karnataka",
                "https://en.wikipedia.org/wiki/Tourism_in_Karnataka"
            ],
            "locType": "waterfall",
            "longitude": "74.7477592",
            "latitude": "14.4097755",
            "address": "\u0c89\u0c82\u0c9a\u0cb3\u0ccd\u0cb3\u0cbf \u0c9c\u0cb2\u0caa\u0cbe\u0ca4, Siddapura taluk, Uttara Kannada, Karnataka, India",
            "closest_to": "sirsi"
        },
        "maarikamba temple": {
            "blogLinks": [
                "https://www.quora.com/What-are-the-places-to-visit-in-around-Shimoga-in-3-days"
            ],
            "locType": "place_of_worship",
            "longitude": "75.2431772",
            "latitude": "13.6915448",
            "address": "Maarikamba Temple, Azad Road, Soppugudde, Tirthahalli, Tirthahalli taluk, Shimoga district, Karnataka, 577432, India",
            "closest_to": "sirsi"
        },
        "karwar": {
            "blogLinks": [
                "https://en.wikipedia.org/wiki/Sirsi,_Karnataka",
                "https://en.wikipedia.org/wiki/Tourism_in_Karnataka"
            ],
            "locType": "town",
            "longitude": "74.1319229",
            "latitude": "14.8120931",
            "address": "Karwar, Karavara taluk, Uttara Kannada, Karnataka, 581300, India",
            "closest_to": "sirsi"
        },
        "ujire": {
            "blogLinks": [
                "https://www.quora.com/What-are-the-best-weekend-road-trips-from-Bangalore"
            ],
            "locType": "village",
            "longitude": "75.3301061",
            "latitude": "12.9954619",
            "address": "Ujire, Beltangadi taluk, Dakshina Kannada, Karnataka, India",
            "closest_to": "agumbe"
        },
        "shankaranarayana": {
            "blogLinks": [
                "http://travel.india.com/agumbe/"
            ],
            "locType": "village",
            "longitude": "74.8600862",
            "latitude": "13.6058955",
            "address": "Shankaranarayana, \u0c95\u0cc1\u0c82\u0ca6\u0cbe\u0caa\u0cc1\u0cb0 \u0ca4\u0cbe\u0cb2\u0cc2\u0c95\u0cc1, Udupi district, Karnataka, 576227, India",
            "closest_to": "sirsi"
        },
        "gurupura": {
            "blogLinks": [
                "https://www.quora.com/What-are-the-best-places-to-visit-on-a-3-day-trip-in-and-around-Karnataka"
            ],
            "locType": "village",
            "longitude": "75.7161587",
            "latitude": "13.6686411",
            "address": "Gurupura, Tarikere taluku, Chikkamagaluru district, Karnataka, India",
            "closest_to": "agumbe"
        },
        "belavadi": {
            "blogLinks": [
                "https://en.wikipedia.org/wiki/Tourism_in_Karnataka"
            ],
            "locType": "village",
            "longitude": "75.3760773",
            "latitude": "13.5284899",
            "address": "Belavadi, Koppa taluk, Chikkamagaluru district, Karnataka, India",
            "closest_to": "agumbe"
        },
        "mullayanagiri": {
            "blogLinks": [
                "https://www.quora.com/What-are-the-best-places-to-visit-on-a-3-day-trip-in-and-around-Karnataka"
            ],
            "locType": "peak",
            "longitude": "75.7214034",
            "latitude": "13.3909217",
            "address": "Mullayyanagiri, Chikkamagaluru, Chikkamagaluru taluku, Chikkamagaluru district, Karnataka, 577101, India",
            "closest_to": "agumbe"
        },
        "gotagodi village": {
            "blogLinks": [
                "https://en.wikipedia.org/wiki/Tourism_in_Karnataka"
            ],
            "locType": "village",
            "longitude": "75.0452834",
            "latitude": "14.7634556",
            "address": "Gotagodi, Hanagal taluk, Haveri district, Karnataka, India",
            "closest_to": "sirsi"
        },
        "yellapur": {
            "blogLinks": [
                "https://www.quora.com/What-are-the-best-places-to-visit-on-a-3-day-trip-in-and-around-Karnataka"
            ],
            "locType": "town",
            "longitude": "74.7061458",
            "latitude": "14.9622518",
            "address": "Yellapura, Yallapura taluk, Uttara Kannada, Karnataka, 581359, India",
            "closest_to": "sirsi"
        },
        "varaha": {
            "blogLinks": [
                "https://en.wikipedia.org/wiki/Tourism_in_Karnataka"
            ],
            "locType": "village",
            "longitude": "75.3718812",
            "latitude": "14.390777",
            "address": "Varaha, Hirekeruru taluk, Haveri district, Karnataka, India",
            "closest_to": "sirsi"
        },
        "belthangady": {
            "blogLinks": [
                "https://www.quora.com/What-are-the-best-weekend-road-trips-from-Bangalore"
            ],
            "locType": "school",
            "longitude": "75.2789924801603",
            "latitude": "12.9899316",
            "address": "Government Model Primary School Belthangady, NH73, Guruvayankere, Beltangadi taluk, Dakshina Kannada, Karnataka, India",
            "closest_to": "agumbe"
        },
        "keladi": {
            "blogLinks": [
                "https://www.quora.com/What-are-the-places-to-visit-in-around-Shimoga-in-3-days"
            ],
            "locType": "village",
            "longitude": "75.0165753",
            "latitude": "14.2214761",
            "address": "Keladi, Sagara taluk, Shimoga district, Karnataka, India",
            "closest_to": "sirsi"
        },
        "kalasa": {
            "blogLinks": [
                "https://en.wikipedia.org/wiki/Tourism_in_Karnataka",
                "https://www.quora.com/What-are-the-best-weekend-road-trips-from-Bangalore"
            ],
            "locType": "town",
            "longitude": "75.3582366",
            "latitude": "13.2322235",
            "address": "Kalasa, Mudigere taluk, Chikkamagaluru district, Karnataka, 577124, India",
            "closest_to": "agumbe"
        },
        "kali": {
            "blogLinks": [
                "https://www.quora.com/What-are-the-best-places-to-visit-on-a-3-day-trip-in-and-around-Karnataka"
            ],
            "locType": "river",
            "longitude": "74.5802901",
            "latitude": "15.0145378",
            "address": "Kali, Joida taluk, Uttara Kannada, Karnataka, India",
            "closest_to": "sirsi"
        },
        "sirsi": {
            "blogLinks": [
                "https://www.quora.com/What-are-the-best-places-to-visit-on-a-3-day-trip-in-and-around-Karnataka"
            ],
            "locType": "town",
            "longitude": "74.8388611",
            "latitude": "14.6192362",
            "address": "Sirsi, Shirasi taluk, Uttara Kannada, Karnataka, 581400, India",
            "closest_to": "sirsi"
        },
        "dandeli": {
            "blogLinks": [
                "https://en.wikipedia.org/wiki/Tourism_in_Karnataka",
                "https://www.quora.com/What-are-the-best-weekend-road-trips-from-Bangalore"
            ],
            "locType": "town",
            "longitude": "74.6236037",
            "latitude": "15.2490284",
            "address": "Dandeli, Haliyala taluku, Uttara Kannada, Karnataka, 581325, India",
            "closest_to": "sirsi"
        },
        "shimoga town": {
            "blogLinks": [
                "https://www.quora.com/What-are-the-places-to-visit-in-around-Shimoga-in-3-days"
            ],
            "locType": "station",
            "longitude": "75.5832804",
            "latitude": "13.9434953",
            "address": "Shimoga Town, 100 ft Ring Road, Basavana Gudi, Shivamogga, Shivamogga taluku, Shimoga district, Karnataka, 577200, India",
            "closest_to": "sirsi"
        },
        "chikkamagaluru": {
            "blogLinks": [
                "https://www.quora.com/What-are-the-best-places-to-visit-on-a-3-day-trip-in-and-around-Karnataka"
            ],
            "locType": "city",
            "longitude": "75.7738743",
            "latitude": "13.318014",
            "address": "Chikkamagaluru, Chikkamagaluru taluku, Chikkamagaluru district, Karnataka, 577101, India",
            "closest_to": "agumbe"
        },
        "amboli": {
            "blogLinks": [
                "https://www.quora.com/What-are-the-best-places-to-visit-on-a-3-day-trip-in-and-around-Karnataka"
            ],
            "locType": "village",
            "longitude": "74.4340839",
            "latitude": "15.6456171",
            "address": "Amboli, Khanapura taluku, Belgaum district, Karnataka, India",
            "closest_to": "sirsi"
        },
        "hubli road": {
            "blogLinks": [
                "https://en.wikipedia.org/wiki/Sirsi,_Karnataka"
            ],
            "locType": "trunk",
            "longitude": "75.6212485",
            "latitude": "15.4223718",
            "address": "Hubli Road, Betageri, Gadag, Gadag taluk, Gadag district, Karnataka, 582102, India",
            "closest_to": "sirsi"
        },
        "karkala": {
            "blogLinks": [
                "https://en.wikipedia.org/wiki/Tourism_in_Karnataka",
                "https://www.quora.com/What-are-the-best-places-to-visit-on-a-3-day-trip-in-and-around-Karnataka",
                "https://www.quora.com/What-are-the-best-weekend-road-trips-from-Bangalore",
                "http://manipal.edu/mu/about-us/international-collaborations/area-of-attractions-nearby.html"
            ],
            "locType": "town",
            "longitude": "74.9959586",
            "latitude": "13.2112826",
            "address": "Karkala, Karkala taluk, Udupi district, Karnataka, 574104, India",
            "closest_to": "agumbe"
        },
        "gudavi": {
            "blogLinks": [
                "https://en.wikipedia.org/wiki/Tourism_in_Karnataka",
                "https://www.quora.com/What-are-the-places-to-visit-in-around-Shimoga-in-3-days"
            ],
            "locType": "village",
            "longitude": "75.009649",
            "latitude": "14.4400296",
            "address": "Gudavi, Soraba taluk, Shimoga district, Karnataka, India",
            "closest_to": "sirsi"
        },
        "anshi national park": {
            "blogLinks": [
                "https://en.wikipedia.org/wiki/Tourism_in_Karnataka"
            ],
            "locType": "national_park",
            "longitude": "74.3934408094182",
            "latitude": "14.9994424",
            "address": "Anshi National Park, SH46, Bidoli, Joida taluk, Uttara Kannada, Karnataka, India",
            "closest_to": "sirsi"
        },
        "hubli": {
            "blogLinks": [
                "https://en.wikipedia.org/wiki/Sirsi,_Karnataka",
                "https://en.wikipedia.org/wiki/Tourism_in_Karnataka"
            ],
            "locType": "city",
            "longitude": "75.1379848",
            "latitude": "15.3518378",
            "address": "Hubballi - \u0cb9\u0cc1\u0cac\u0ccd\u0cac\u0cb3\u0ccd\u0cb3\u0cbf, Hubballi taluku, Dharwad district, Karnataka, 580020, India",
            "closest_to": "sirsi"
        },
        "kadur": {
            "blogLinks": [
                "https://www.quora.com/What-are-the-places-to-visit-in-around-Shimoga-in-3-days"
            ],
            "locType": "trunk",
            "longitude": "75.7820095",
            "latitude": "13.3283654",
            "address": "Mudigere-Kadur Road, Basavannahalli, Chikkamagaluru, Chikkamagaluru taluku, Chikkamagaluru district, Karnataka, 577101, India",
            "closest_to": "agumbe"
        },
        "kundadri hill": {
            "blogLinks": [
                "https://www.quora.com/What-are-the-places-to-visit-in-around-Shimoga-in-3-days"
            ],
            "locType": "peak",
            "longitude": "75.1689994",
            "latitude": "13.5580148",
            "address": "Kundadri, Tirthahalli taluk, Shimoga district, Karnataka, India",
            "closest_to": "sirsi"
        },
        "kali river": {
            "blogLinks": [
                "https://www.quora.com/What-are-the-best-places-to-visit-on-a-3-day-trip-in-and-around-Karnataka"
            ],
            "locType": "river",
            "longitude": "74.5802901",
            "latitude": "15.0145378",
            "address": "Kali, Joida taluk, Uttara Kannada, Karnataka, India",
            "closest_to": "sirsi"
        },
        "uttara kannada": {
            "blogLinks": [
                "https://en.wikipedia.org/wiki/Sirsi,_Karnataka",
                "https://en.wikipedia.org/wiki/Tourism_in_Karnataka",
                "https://www.quora.com/What-are-the-best-places-to-visit-on-a-3-day-trip-in-and-around-Karnataka"
            ],
            "locType": "administrative",
            "longitude": "74.4729163045979",
            "latitude": "14.6726379",
            "address": "Uttara Kannada, Karnataka, India",
            "closest_to": "sirsi"
        },
        "shivamogga": {
            "blogLinks": [
                "https://www.quora.com/What-are-the-places-to-visit-in-around-Shimoga-in-3-days"
            ],
            "locType": "city",
            "longitude": "75.569737",
            "latitude": "13.9311723",
            "address": "Shivamogga, Shivamogga taluku, Shimoga district, Karnataka, 577200, India",
            "closest_to": "sirsi"
        },
        "india": {
            "blogLinks": [
                "https://en.wikipedia.org/wiki/Tourism_in_Karnataka",
                "http://www.distancesfrom.com/travel-from-Sirsi-to-Marikamba-Temple-Sirsi/TravelFromHistory/215037.aspx",
                "http://www.onefivenine.com/india/Travel/Place/Agumbe",
                "https://www.quora.com/What-are-the-best-weekend-road-trips-from-Bangalore",
                "http://travel.india.com/agumbe/",
                "https://www.tripoto.com/weekend-getaways/from-agumbe",
                "https://en.wikipedia.org/wiki/Sirsi,_Karnataka",
                "https://www.quora.com/What-are-the-best-places-to-visit-on-a-3-day-trip-in-and-around-Karnataka",
                "http://manipal.edu/mu/about-us/international-collaborations/area-of-attractions-nearby.html",
                "https://www.quora.com/What-are-the-places-to-visit-in-around-Shimoga-in-3-days",
                "https://www.tripoto.com/weekend-getaways/from-sirsi"
            ],
            "locType": "administrative",
            "longitude": "75.7223521",
            "latitude": "14.5203896",
            "address": "Karnataka, India",
            "closest_to": "sirsi"
        },
        "agumbe": {
            "blogLinks": [
                "https://www.tripoto.com/weekend-getaways/from-agumbe"
            ],
            "locType": "village",
            "longitude": "75.0965525",
            "latitude": "13.5094998",
            "address": "Agumbe, Tirthahalli taluk, Shimoga district, Karnataka, 577411, India",
            "closest_to": "sirsi"
        },
        "malnad": {
            "blogLinks": [
                "https://www.quora.com/What-are-the-best-weekend-road-trips-from-Bangalore"
            ],
            "locType": "hospital",
            "longitude": "75.7715495",
            "latitude": "13.3160351",
            "address": "Malnad Hospital, Mudigere-Kadur Road, Chikkamagaluru, Chikkamagaluru taluku, Chikkamagaluru district, Karnataka, 577101, India",
            "closest_to": "agumbe"
        },
        "itagi": {
            "blogLinks": [
                "https://en.wikipedia.org/wiki/Tourism_in_Karnataka"
            ],
            "locType": "village",
            "longitude": "75.6701043",
            "latitude": "14.550374",
            "address": "Itagi, Ranebennuru taluk, Haveri district, Karnataka, India",
            "closest_to": "sirsi"
        },
        "parkala": {
            "blogLinks": [
                "http://manipal.edu/mu/about-us/international-collaborations/area-of-attractions-nearby.html"
            ],
            "locType": "village",
            "longitude": "74.8063643",
            "latitude": "13.3549129",
            "address": "Parkala, Udupi taluku, Udupi district, Karnataka, India",
            "closest_to": "agumbe"
        },
        "london": {
            "blogLinks": [
                "https://www.quora.com/What-are-the-places-to-visit-in-around-Shimoga-in-3-days"
            ],
            "locType": "administrative",
            "longitude": "75.7223521",
            "latitude": "14.5203896",
            "address": "Karnataka, India",
            "closest_to": "sirsi"
        },
        "ananthapadmanabha": {
            "blogLinks": [
                "https://www.quora.com/What-are-the-best-places-to-visit-on-a-3-day-trip-in-and-around-Karnataka"
            ],
            "locType": "place_of_worship",
            "longitude": "74.8937899082456",
            "latitude": "12.9039019",
            "address": "Kudupu Ananthapadmanabha Temple, Solapur-Mangalore Highway, Shakthinagar, Kulashekara, Kudupu, Mangaluru taluk, Dakshina Kannada, Karnataka, 575007, India",
            "closest_to": "agumbe"
        },
        "shirali": {
            "blogLinks": [
                "https://en.wikipedia.org/wiki/Tourism_in_Karnataka"
            ],
            "locType": "village",
            "longitude": "74.5286591",
            "latitude": "14.0280925",
            "address": "Shirali, Bhatkala taluk, Uttara Kannada, Karnataka, 581354, India",
            "closest_to": "sirsi"
        },
        "sringeri": {
            "blogLinks": [
                "https://www.quora.com/What-are-the-best-weekend-road-trips-from-Bangalore"
            ],
            "locType": "town",
            "longitude": "75.2553718",
            "latitude": "13.4261724",
            "address": "Sringeri, Sringeri taluku, Chikkamagaluru district, Karnataka, 577592, India",
            "closest_to": "agumbe"
        },
        "marikamba": {
            "blogLinks": [
                "https://en.wikipedia.org/wiki/Sirsi,_Karnataka"
            ],
            "locType": "place_of_worship",
            "longitude": "74.8103631279317",
            "latitude": "13.8626958",
            "address": "Marikamba Temple, NH766C;SH26, Halkal, \u0c95\u0cc1\u0c82\u0ca6\u0cbe\u0caa\u0cc1\u0cb0 \u0ca4\u0cbe\u0cb2\u0cc2\u0c95\u0cc1, Udupi district, Karnataka, 576220, India",
            "closest_to": "sirsi"
        },
        "udupi": {
            "blogLinks": [
                "https://en.wikipedia.org/wiki/Sirsi,_Karnataka",
                "https://en.wikipedia.org/wiki/Tourism_in_Karnataka"
            ],
            "locType": "city",
            "longitude": "74.7473232",
            "latitude": "13.3419169",
            "address": "Udupi, Udupi taluku, Udupi district, Karnataka, 576101, India",
            "closest_to": "agumbe"
        },
        "bankapura": {
            "blogLinks": [
                "https://en.wikipedia.org/wiki/Tourism_in_Karnataka"
            ],
            "locType": "town",
            "longitude": "75.2639298",
            "latitude": "14.9217443",
            "address": "Bankapura, Shiggaon taluk, Haveri district, Karnataka, 581202, India",
            "closest_to": "sirsi"
        },
        "kudle": {
            "blogLinks": [
                "https://www.quora.com/What-are-the-places-to-visit-in-around-Shimoga-in-3-days"
            ],
            "locType": "hotel",
            "longitude": "74.3178853",
            "latitude": "14.5290707",
            "address": "Kudle Ocean Front resort, Om beach road, Gokarna, Kumata taluk, Uttara Kannada, Karnataka, 581326, India",
            "closest_to": "sirsi"
        },
        "om beach": {
            "blogLinks": [
                "https://www.quora.com/What-are-the-places-to-visit-in-around-Shimoga-in-3-days"
            ],
            "locType": "beach",
            "longitude": "74.3254331800289",
            "latitude": "14.5190376",
            "address": "Om Beach, Om beach road, Gokarna, Kumata taluk, Uttara Kannada, Karnataka, 581326, India",
            "closest_to": "sirsi"
        },
        "venur": {
            "blogLinks": [
                "https://en.wikipedia.org/wiki/Tourism_in_Karnataka"
            ],
            "locType": "village",
            "longitude": "75.1443252",
            "latitude": "13.0122097",
            "address": "Venoor, Beltangadi taluk, Dakshina Kannada, Karnataka, 574242, India",
            "closest_to": "agumbe"
        },
        "sagara": {
            "blogLinks": [
                "https://en.wikipedia.org/wiki/Tourism_in_Karnataka"
            ],
            "locType": "town",
            "longitude": "75.0262551",
            "latitude": "14.1666594",
            "address": "Sagara, Sagara taluk, Shimoga district, Karnataka, 577400, India",
            "closest_to": "sirsi"
        },
        "veera narayana temple": {
            "blogLinks": [
                "https://www.quora.com/What-are-the-best-places-to-visit-on-a-3-day-trip-in-and-around-Karnataka"
            ],
            "locType": "place_of_worship",
            "longitude": "75.9953525",
            "latitude": "13.2821212",
            "address": "Veera Narayana Temple, Chikmagalur Javagal Road, Narasipura, Chikkamagaluru taluku, Chikkamagaluru district, Karnataka, India",
            "closest_to": "agumbe"
        },
        "haveri": {
            "blogLinks": [
                "https://en.wikipedia.org/wiki/Tourism_in_Karnataka"
            ],
            "locType": "town",
            "longitude": "75.3996731",
            "latitude": "14.7874825",
            "address": "Haveri, Haveri taluku, Haveri district, Karnataka, 581110, India",
            "closest_to": "sirsi"
        },
        "coastal karnataka": {
            "blogLinks": [
                "https://en.wikipedia.org/wiki/Tourism_in_Karnataka"
            ],
            "locType": "industrial",
            "longitude": "74.8137275833157",
            "latitude": "12.96014675",
            "address": "Bharat Petroleum Mangalore Coastal Installation, Baikampady, Mangaluru taluk, Dakshina Kannada, Karnataka, 575014, India",
            "closest_to": "agumbe"
        },
        "netrani island of uttara kannada": {
            "blogLinks": [
                "https://en.wikipedia.org/wiki/Tourism_in_Karnataka"
            ],
            "locType": "island",
            "longitude": "74.3272086675849",
            "latitude": "14.0174924",
            "address": "Netrani, Uttara Kannada, Karnataka, India",
            "closest_to": "sirsi"
        },
        "varur": {
            "blogLinks": [
                "https://en.wikipedia.org/wiki/Tourism_in_Karnataka"
            ],
            "locType": "village",
            "longitude": "75.1387568",
            "latitude": "15.2077105",
            "address": "Varur, Hubballi taluku, Dharwad district, Karnataka, India",
            "closest_to": "sirsi"
        },
        "kagal": {
            "blogLinks": [
                "https://en.wikipedia.org/wiki/Tourism_in_Karnataka"
            ],
            "locType": "grass",
            "longitude": "74.3575302591262",
            "latitude": "14.5055819",
            "address": "Kagal Fort, Birkodi Village, Kumata taluk, Uttara Kannada, Karnataka, India",
            "closest_to": "sirsi"
        },
        "urdu": {
            "blogLinks": [
                "https://en.wikipedia.org/wiki/Sirsi,_Karnataka"
            ],
            "locType": "recreation_ground",
            "longitude": "75.636575371858",
            "latitude": "14.6180369",
            "address": "Urdu Ground, Ranebennur, Ranebennuru taluk, Haveri district, Karnataka, 581115, India",
            "closest_to": "sirsi"
        },
        "shimoga": {
            "blogLinks": [
                "https://en.wikipedia.org/wiki/Tourism_in_Karnataka"
            ],
            "locType": "city",
            "longitude": "75.569737",
            "latitude": "13.9311723",
            "address": "Shivamogga, Shivamogga taluku, Shimoga district, Karnataka, 577200, India",
            "closest_to": "sirsi"
        },
        "netravati": {
            "blogLinks": [
                "https://en.wikipedia.org/wiki/Tourism_in_Karnataka"
            ],
            "locType": "river",
            "longitude": "75.1562182",
            "latitude": "12.8537655",
            "address": "Netravati, Bantwal taluk, Dakshina Kannada, Karnataka, India",
            "closest_to": "agumbe"
        },
        "beluru": {
            "blogLinks": [
                "https://en.wikipedia.org/wiki/Tourism_in_Karnataka"
            ],
            "locType": "town",
            "longitude": "75.8634851",
            "latitude": "13.1645671",
            "address": "Belur, Beluru taluk, Hassan district, Karnataka, 573115, India",
            "closest_to": "agumbe"
        },
        "gadag": {
            "blogLinks": [
                "https://en.wikipedia.org/wiki/Tourism_in_Karnataka"
            ],
            "locType": "town",
            "longitude": "75.6300786",
            "latitude": "15.4263647",
            "address": "Gadag, Gadag taluk, Gadag district, Karnataka, 582101, India",
            "closest_to": "sirsi"
        },
        "haveri district": {
            "blogLinks": [
                "https://en.wikipedia.org/wiki/Tourism_in_Karnataka"
            ],
            "locType": "administrative",
            "longitude": "75.3845674304742",
            "latitude": "14.714635",
            "address": "Haveri district, Karnataka, India",
            "closest_to": "sirsi"
        },
        "sagara taluk": {
            "blogLinks": [
                "https://en.wikipedia.org/wiki/Tourism_in_Karnataka"
            ],
            "locType": "administrative",
            "longitude": "74.9610874491152",
            "latitude": "14.09993045",
            "address": "Sagara taluk, Shimoga district, Karnataka, India",
            "closest_to": "sirsi"
        },
        "hassan": {
            "blogLinks": [
                "https://en.wikipedia.org/wiki/Tourism_in_Karnataka",
                "https://www.quora.com/What-are-the-best-weekend-road-trips-from-Bangalore"
            ],
            "locType": "town",
            "longitude": "76.0992703",
            "latitude": "13.0070817",
            "address": "Hassan, Hasana taluk, Hassan district, Karnataka, 573201, India",
            "closest_to": "agumbe"
        },
        "gokarna": {
            "blogLinks": [
                "https://en.wikipedia.org/wiki/Tourism_in_Karnataka",
                "http://manipal.edu/mu/about-us/international-collaborations/area-of-attractions-nearby.html"
            ],
            "locType": "town",
            "longitude": "74.3184418",
            "latitude": "14.5439629",
            "address": "Gokarna, Kumata taluk, Uttara Kannada, Karnataka, 581326, India",
            "closest_to": "sirsi"
        },
        "tunga": {
            "blogLinks": [
                "https://www.quora.com/What-are-the-best-places-to-visit-on-a-3-day-trip-in-and-around-Karnataka",
                "https://www.quora.com/What-are-the-places-to-visit-in-around-Shimoga-in-3-days"
            ],
            "locType": "river",
            "longitude": "75.3221835",
            "latitude": "13.6632221",
            "address": "Tunga, Tirthahalli taluk, Shimoga district, Karnataka, India",
            "closest_to": "sirsi"
        },
        "nandi": {
            "blogLinks": [
                "https://www.quora.com/What-are-the-best-weekend-road-trips-from-Bangalore"
            ],
            "locType": "village",
            "longitude": "75.8556266",
            "latitude": "13.6434094",
            "address": "Nandi, Tarikere taluku, Chikkamagaluru district, Karnataka, India",
            "closest_to": "agumbe"
        },
        "sharavati": {
            "blogLinks": [
                "https://en.wikipedia.org/wiki/Tourism_in_Karnataka",
                "https://www.quora.com/What-are-the-best-places-to-visit-on-a-3-day-trip-in-and-around-Karnataka",
                "http://manipal.edu/mu/about-us/international-collaborations/area-of-attractions-nearby.html",
                "https://www.quora.com/What-are-the-places-to-visit-in-around-Shimoga-in-3-days"
            ],
            "locType": "river",
            "longitude": "74.7647294",
            "latitude": "14.2360979",
            "address": "Sharavati, Sagara taluk, Shimoga district, Karnataka, India",
            "closest_to": "sirsi"
        },
        "shimoga district": {
            "blogLinks": [
                "https://en.wikipedia.org/wiki/Tourism_in_Karnataka"
            ],
            "locType": "administrative",
            "longitude": "75.1312533993886",
            "latitude": "14.0558284",
            "address": "Shimoga district, Karnataka, India",
            "closest_to": "sirsi"
        },
        "manipal": {
            "blogLinks": [
                "https://en.wikipedia.org/wiki/Tourism_in_Karnataka"
            ],
            "locType": "town",
            "longitude": "74.7870308",
            "latitude": "13.3519723",
            "address": "Manipal, Udupi taluku, Udupi district, Karnataka, India",
            "closest_to": "agumbe"
        },
        "kudremukh": {
            "blogLinks": [
                "https://en.wikipedia.org/wiki/Tourism_in_Karnataka",
                "https://www.quora.com/What-are-the-best-weekend-road-trips-from-Bangalore",
                "http://manipal.edu/mu/about-us/international-collaborations/area-of-attractions-nearby.html"
            ],
            "locType": "village",
            "longitude": "75.2523304",
            "latitude": "13.2144007",
            "address": "Kudremukha, Mudigere taluk, Chikkamagaluru district, Karnataka, India",
            "closest_to": "agumbe"
        },
        "manjusha museum": {
            "blogLinks": [
                "https://en.wikipedia.org/wiki/Tourism_in_Karnataka"
            ],
            "locType": "museum",
            "longitude": "75.3821342838196",
            "latitude": "12.95116975",
            "address": "Manjusha Museum, SH37, Dharmasthala, Beltangadi taluk, Dakshina Kannada, Karnataka, 574216, India",
            "closest_to": "agumbe"
        },
        "marikamba temple": {
            "blogLinks": [
                "https://www.quora.com/What-are-the-best-places-to-visit-on-a-3-day-trip-in-and-around-Karnataka",
                "http://www.distancesfrom.com/travel-from-Sirsi-to-Marikamba-Temple-Sirsi/TravelFromHistory/215037.aspx"
            ],
            "locType": "place_of_worship",
            "longitude": "74.8103631279317",
            "latitude": "13.8626958",
            "address": "Marikamba Temple, NH766C;SH26, Halkal, \u0c95\u0cc1\u0c82\u0ca6\u0cbe\u0caa\u0cc1\u0cb0 \u0ca4\u0cbe\u0cb2\u0cc2\u0c95\u0cc1, Udupi district, Karnataka, 576220, India",
            "closest_to": "sirsi"
        },
        "banavasi road": {
            "blogLinks": [
                "https://www.quora.com/What-are-the-places-to-visit-in-around-Shimoga-in-3-days"
            ],
            "locType": "town",
            "longitude": "75.0129845",
            "latitude": "14.5389738",
            "address": "Banavasi, Shirasi taluk, Uttara Kannada, Karnataka, India",
            "closest_to": "sirsi"
        },
        "banavasi": {
            "blogLinks": [
                "https://en.wikipedia.org/wiki/Sirsi,_Karnataka",
                "https://en.wikipedia.org/wiki/Tourism_in_Karnataka",
                "https://www.quora.com/What-are-the-best-places-to-visit-on-a-3-day-trip-in-and-around-Karnataka"
            ],
            "locType": "town",
            "longitude": "75.0129845",
            "latitude": "14.5389738",
            "address": "Banavasi, Shirasi taluk, Uttara Kannada, Karnataka, India",
            "closest_to": "sirsi"
        },
        "mastikatte": {
            "blogLinks": [
                "https://en.wikipedia.org/wiki/Tourism_in_Karnataka"
            ],
            "locType": "village",
            "longitude": "74.4604101",
            "latitude": "14.6857168",
            "address": "Mastikatte, Ankola taluk, Uttara Kannada, Karnataka, India",
            "closest_to": "sirsi"
        },
        "kuppali": {
            "blogLinks": [
                "https://www.quora.com/What-are-the-best-places-to-visit-on-a-3-day-trip-in-and-around-Karnataka"
            ],
            "locType": "tertiary",
            "longitude": "75.3158067",
            "latitude": "13.5998255",
            "address": "Kuppali Road, Kuppalli, Tirthahalli taluk, Shimoga district, Karnataka, India",
            "closest_to": "sirsi"
        },
        "gujarat": {
            "blogLinks": [
                "https://www.tripoto.com/weekend-getaways/from-sirsi"
            ],
            "locType": "yes",
            "longitude": "75.1370469",
            "latitude": "15.3595169",
            "address": "Gujarat Bhavan, Casualty and Emergency, Ashok Nagar, Vidyanagar, Hubballi - \u0cb9\u0cc1\u0cac\u0ccd\u0cac\u0cb3\u0ccd\u0cb3\u0cbf, Hubballi taluku, Dharwad district, Karnataka, 580020, India",
            "closest_to": "sirsi"
        },
        "dakshina kannada": {
            "blogLinks": [
                "https://en.wikipedia.org/wiki/Tourism_in_Karnataka",
                "https://www.quora.com/What-are-the-best-places-to-visit-on-a-3-day-trip-in-and-around-Karnataka",
                "https://www.quora.com/What-are-the-best-weekend-road-trips-from-Bangalore"
            ],
            "locType": "administrative",
            "longitude": "75.1008028650794",
            "latitude": "12.8114089",
            "address": "Dakshina Kannada, Karnataka, India",
            "closest_to": "agumbe"
        },
        "lal bagh": {
            "blogLinks": [
                "https://www.tripoto.com/weekend-getaways/from-agumbe"
            ],
            "locType": "bus_stop",
            "longitude": "74.8386152",
            "latitude": "12.8859223",
            "address": "Lal Bagh Bus Stop, Mahatma Gandhi Road, Lalbagh, Ladyhill, Mangaluru, Mangaluru taluk, Dakshina Kannada, Karnataka, 575001, India",
            "closest_to": "agumbe"
        },
        "river sowparnika": {
            "blogLinks": [
                "http://manipal.edu/mu/about-us/international-collaborations/area-of-attractions-nearby.html"
            ],
            "locType": "river",
            "longitude": "74.8185883",
            "latitude": "13.8592257",
            "address": "Mavinakaru, \u0c95\u0cc1\u0c82\u0ca6\u0cbe\u0caa\u0cc1\u0cb0 \u0ca4\u0cbe\u0cb2\u0cc2\u0c95\u0cc1, Udupi district, Karnataka, India",
            "closest_to": "sirsi"
        },
        "gokul garden": {
            "blogLinks": [
                "https://www.quora.com/What-are-the-best-places-to-visit-on-a-3-day-trip-in-and-around-Karnataka"
            ],
            "locType": "recreation_ground",
            "longitude": "75.1141861403246",
            "latitude": "15.35009745",
            "address": "Gokul Garden, Gokul Road / Airport Road, Renuka Nagar, Padmaraj Nagar, Gokul, Hubballi taluku, Dharwad district, Karnataka, 580030, India",
            "closest_to": "sirsi"
        },
        "margao": {
            "blogLinks": [
                "https://www.tripoto.com/weekend-getaways/from-agumbe"
            ],
            "locType": "bank",
            "longitude": "73.9583411",
            "latitude": "15.2740083",
            "address": "Karnataka bank, NH66, Aquem, Fatorda, Margao, South Goa, Goa, 403600, India",
            "closest_to": "sirsi"
        },
        "kemmangundi": {
            "blogLinks": [
                "https://en.wikipedia.org/wiki/Tourism_in_Karnataka"
            ],
            "locType": "village",
            "longitude": "75.7520082",
            "latitude": "13.5463048",
            "address": "Kemmannagundi, Tarikere taluku, Chikkamagaluru district, Karnataka, India",
            "closest_to": "agumbe"
        },
        "kodachadri": {
            "blogLinks": [
                "https://en.wikipedia.org/wiki/Tourism_in_Karnataka",
                "https://www.quora.com/What-are-the-best-places-to-visit-on-a-3-day-trip-in-and-around-Karnataka"
            ],
            "locType": "peak",
            "longitude": "74.8705395",
            "latitude": "13.8565758",
            "address": "Kodachadri, \u0c95\u0cc1\u0c82\u0ca6\u0cbe\u0caa\u0cc1\u0cb0 \u0ca4\u0cbe\u0cb2\u0cc2\u0c95\u0cc1, Udupi district, Karnataka, India",
            "closest_to": "sirsi"
        },
        "lakshmeshwar": {
            "blogLinks": [
                "https://en.wikipedia.org/wiki/Tourism_in_Karnataka"
            ],
            "locType": "bus_station",
            "longitude": "75.4741167",
            "latitude": "15.12373",
            "address": "Lakshmeshwar KSRTC Bus stand, SH6, Bastibana, Lakshmeshvara, Shirahatti taluku, Gadag district, Karnataka, 582116, India",
            "closest_to": "sirsi"
        },
        "ganeshgudi": {
            "blogLinks": [
                "https://www.quora.com/What-are-the-best-places-to-visit-on-a-3-day-trip-in-and-around-Karnataka"
            ],
            "locType": "village",
            "longitude": "74.5335693",
            "latitude": "15.2815822",
            "address": "Ganeshagudi, Joida taluk, Uttara Kannada, Karnataka, India",
            "closest_to": "sirsi"
        },
        "mangalore": {
            "blogLinks": [
                "https://en.wikipedia.org/wiki/Sirsi,_Karnataka",
                "https://en.wikipedia.org/wiki/Tourism_in_Karnataka",
                "https://www.quora.com/What-are-the-best-places-to-visit-on-a-3-day-trip-in-and-around-Karnataka",
                "http://manipal.edu/mu/about-us/international-collaborations/area-of-attractions-nearby.html",
                "http://www.onefivenine.com/india/Travel/Place/Agumbe"
            ],
            "locType": "city",
            "longitude": "74.8430082",
            "latitude": "12.8698101",
            "address": "Mangaluru, Mangaluru taluk, Dakshina Kannada, Karnataka, 575001, India",
            "closest_to": "agumbe"
        },
        "annapoorneshwari temple": {
            "blogLinks": [
                "https://www.quora.com/What-are-the-best-weekend-road-trips-from-Bangalore"
            ],
            "locType": "place_of_worship",
            "longitude": "74.9006001",
            "latitude": "12.97910715",
            "address": "Sri Ambika Annapoorneshwari Temple, SH101, Sunkadakatte, Mangaluru taluk, Dakshina Kannada, Karnataka, India",
            "closest_to": "agumbe"
        },
        "marikamba temple sirsi": {
            "blogLinks": [
                "http://www.distancesfrom.com/travel-from-Sirsi-to-Marikamba-Temple-Sirsi/TravelFromHistory/215037.aspx"
            ],
            "locType": "place_of_worship",
            "longitude": "74.8395315",
            "latitude": "14.612194",
            "address": "Sirasi Marikamba Temple, Sirsi Banavasi Road, Umbalekoppa, Shirasi taluk, Uttara Kannada, Karnataka, India",
            "closest_to": "sirsi"
        },
        "varada": {
            "blogLinks": [
                "https://en.wikipedia.org/wiki/Tourism_in_Karnataka"
            ],
            "locType": "river",
            "longitude": "75.47206",
            "latitude": "14.8717792",
            "address": "Varada, Savanura taluk, Haveri district, Karnataka, India",
            "closest_to": "sirsi"
        },
        "udupi district": {
            "blogLinks": [
                "http://manipal.edu/mu/about-us/international-collaborations/area-of-attractions-nearby.html"
            ],
            "locType": "administrative",
            "longitude": "74.7469037178649",
            "latitude": "13.49007305",
            "address": "Udupi district, Karnataka, India",
            "closest_to": "sirsi"
        },
        "bhadra river": {
            "blogLinks": [
                "https://en.wikipedia.org/wiki/Tourism_in_Karnataka"
            ],
            "locType": "river",
            "longitude": "75.527118",
            "latitude": "13.4888356",
            "address": "Bhadra, Chikkamagaluru taluku, Chikkamagaluru district, Karnataka, India",
            "closest_to": "agumbe"
        },
        "hebbe falls": {
            "blogLinks": [
                "https://en.wikipedia.org/wiki/Tourism_in_Karnataka"
            ],
            "locType": "attraction",
            "longitude": "75.7253701",
            "latitude": "13.5414025",
            "address": "Hebbe falls, Kemmannagundi Road, Attigundi, Chikkamagaluru taluku, Chikkamagaluru district, Karnataka, India",
            "closest_to": "agumbe"
        },
        "nethrani island": {
            "blogLinks": [
                "https://en.wikipedia.org/wiki/Tourism_in_Karnataka"
            ],
            "locType": "island",
            "longitude": "74.3272086675849",
            "latitude": "14.0174924",
            "address": "Netrani, Uttara Kannada, Karnataka, India",
            "closest_to": "sirsi"
        },
        "kudremukh peak": {
            "blogLinks": [
                "https://www.quora.com/What-are-the-best-places-to-visit-on-a-3-day-trip-in-and-around-Karnataka"
            ],
            "locType": "peak",
            "longitude": "75.2748196",
            "latitude": "13.1255691",
            "address": "Kudremukha, Mudigere taluk, Chikkamagaluru district, Karnataka, India",
            "closest_to": "agumbe"
        },
        "bankpur fort": {
            "blogLinks": [
                "https://en.wikipedia.org/wiki/Tourism_in_Karnataka"
            ],
            "locType": "archaeological_site",
            "longitude": "75.2512090188504",
            "latitude": "14.9231815",
            "address": "Bankapura Fort, SH137, Guddada Channapura, Shiggaon taluk, Haveri district, Karnataka, 581202, India",
            "closest_to": "sirsi"
        },
        "mullayanagiri range": {
            "blogLinks": [
                "https://www.quora.com/What-are-the-best-places-to-visit-on-a-3-day-trip-in-and-around-Karnataka"
            ],
            "locType": "peak",
            "longitude": "75.7214034",
            "latitude": "13.3909217",
            "address": "Mullayyanagiri, Chikkamagaluru, Chikkamagaluru taluku, Chikkamagaluru district, Karnataka, 577101, India",
            "closest_to": "agumbe"
        },
        "agumbe rainforest research station": {
            "blogLinks": [
                "https://www.tripoto.com/weekend-getaways/from-agumbe"
            ],
            "locType": "Research",
            "longitude": "75.088690168594",
            "latitude": "13.51811715",
            "address": "Agumbe Rainforest Research Station (ARRS), Agumbe Road, Guddekeri, Tirthahalli taluk, Shimoga district, Karnataka, 577411, India",
            "closest_to": "sirsi"
        },
        "nagara fort": {
            "blogLinks": [
                "https://www.quora.com/What-are-the-places-to-visit-in-around-Shimoga-in-3-days"
            ],
            "locType": "attraction",
            "longitude": "75.0337537",
            "latitude": "13.8208516",
            "address": "Nagara Fort, NH766C;SH26, Nagara, Hosanagara taluk, Shimoga district, Karnataka, India",
            "closest_to": "sirsi"
        },
        "lushington falls": {
            "blogLinks": [
                "https://en.wikipedia.org/wiki/Tourism_in_Karnataka"
            ],
            "locType": "waterfall",
            "longitude": "74.7477592",
            "latitude": "14.4097755",
            "address": "\u0c89\u0c82\u0c9a\u0cb3\u0ccd\u0cb3\u0cbf \u0c9c\u0cb2\u0caa\u0cbe\u0ca4, Siddapura taluk, Uttara Kannada, Karnataka, India",
            "closest_to": "sirsi"
        },
        "river varahi": {
            "blogLinks": [
                "http://www.onefivenine.com/india/Travel/Place/Agumbe"
            ],
            "locType": "river",
            "longitude": "74.9489117",
            "latitude": "13.6582668",
            "address": "Varahi, \u0c95\u0cc1\u0c82\u0ca6\u0cbe\u0caa\u0cc1\u0cb0 \u0ca4\u0cbe\u0cb2\u0cc2\u0c95\u0cc1, Udupi district, Karnataka, India",
            "closest_to": "sirsi"
        },
        "malpe": {
            "blogLinks": [
                "https://en.wikipedia.org/wiki/Tourism_in_Karnataka",
                "https://www.quora.com/What-are-the-best-places-to-visit-on-a-3-day-trip-in-and-around-Karnataka",
                "http://manipal.edu/mu/about-us/international-collaborations/area-of-attractions-nearby.html"
            ],
            "locType": "village",
            "longitude": "74.7036914",
            "latitude": "13.3507423",
            "address": "Malpe, Udupi taluku, Udupi district, Karnataka, India",
            "closest_to": "agumbe"
        },
        "kudremukh national park": {
            "blogLinks": [
                "https://en.wikipedia.org/wiki/Tourism_in_Karnataka",
                "https://www.quora.com/What-are-the-best-places-to-visit-on-a-3-day-trip-in-and-around-Karnataka"
            ],
            "locType": "national_park",
            "longitude": "75.1828713712862",
            "latitude": "13.25397485",
            "address": "Kudremukh National Park, SH66, Sringeri taluku, Chikkamagaluru district, Karnataka, India",
            "closest_to": "agumbe"
        },
        "mirjan": {
            "blogLinks": [
                "https://www.quora.com/What-are-the-places-to-visit-in-around-Shimoga-in-3-days"
            ],
            "locType": "village",
            "longitude": "74.4249588",
            "latitude": "14.4910008",
            "address": "Mirjana, Kumata taluk, Uttara Kannada, Karnataka, 581440, India",
            "closest_to": "sirsi"
        },
        "river sharavati": {
            "blogLinks": [
                "http://manipal.edu/mu/about-us/international-collaborations/area-of-attractions-nearby.html"
            ],
            "locType": "river",
            "longitude": "74.7647294",
            "latitude": "14.2360979",
            "address": "Sharavati, Sagara taluk, Shimoga district, Karnataka, India",
            "closest_to": "sirsi"
        },
        "honnavar": {
            "blogLinks": [
                "http://manipal.edu/mu/about-us/international-collaborations/area-of-attractions-nearby.html"
            ],
            "locType": "town",
            "longitude": "74.4446716",
            "latitude": "14.2810827",
            "address": "Honnavar, Honnavara taluku, Uttara Kannada, Karnataka, 581334, India",
            "closest_to": "sirsi"
        },
        "madhukeshwara": {
            "blogLinks": [
                "https://www.quora.com/What-are-the-best-places-to-visit-on-a-3-day-trip-in-and-around-Karnataka"
            ],
            "locType": "place_of_worship",
            "longitude": "75.1480027",
            "latitude": "14.3058996",
            "address": "Madhukeshwara Temple, Kattinakere Road, Kattinakere Bus Stand, Soraba taluk, Shimoga district, Karnataka, India",
            "closest_to": "sirsi"
        },
        "chikmagalur district": {
            "blogLinks": [
                "https://en.wikipedia.org/wiki/Tourism_in_Karnataka"
            ],
            "locType": "county",
            "longitude": "75.5",
            "latitude": "13.5",
            "address": "Chikmagalur, Chikkamagaluru district, Karnataka, India",
            "closest_to": "agumbe"
        },
        "kodasalli dam": {
            "blogLinks": [
                "https://www.quora.com/What-are-the-best-weekend-road-trips-from-Bangalore"
            ],
            "locType": "dam",
            "longitude": "74.5353892832085",
            "latitude": "14.91893295",
            "address": "Kodasalli Dam, Yallapura taluk, Uttara Kannada, Karnataka, India",
            "closest_to": "sirsi"
        },
        "chikmagalur": {
            "blogLinks": [
                "https://www.quora.com/What-are-the-best-places-to-visit-on-a-3-day-trip-in-and-around-Karnataka",
                "https://www.quora.com/What-are-the-best-weekend-road-trips-from-Bangalore"
            ],
            "locType": "county",
            "longitude": "75.5",
            "latitude": "13.5",
            "address": "Chikmagalur, Chikkamagaluru district, Karnataka, India",
            "closest_to": "agumbe"
        },
        "sahyadri": {
            "blogLinks": [
                "https://en.wikipedia.org/wiki/Sirsi,_Karnataka"
            ],
            "locType": "school",
            "longitude": "75.2317987800043",
            "latitude": "13.6983273",
            "address": "Sahyadri Polytechnic, SH1, Seebinakere, Sankadahole, Tirthahalli taluk, Shimoga district, Karnataka, 577432, India",
            "closest_to": "sirsi"
        },
        "kumta": {
            "blogLinks": [
                "https://en.wikipedia.org/wiki/Sirsi,_Karnataka",
                "https://en.wikipedia.org/wiki/Tourism_in_Karnataka",
                "https://www.quora.com/What-are-the-places-to-visit-in-around-Shimoga-in-3-days"
            ],
            "locType": "town",
            "longitude": "74.4107617",
            "latitude": "14.4261647",
            "address": "Kumta, Kumata taluk, Uttara Kannada, Karnataka, India",
            "closest_to": "sirsi"
        },
        "dattatreya": {
            "blogLinks": [
                "https://en.wikipedia.org/wiki/Tourism_in_Karnataka"
            ],
            "locType": "hamlet",
            "longitude": "75.7539724",
            "latitude": "13.4315216",
            "address": "Inam Dattatreya Pitha, Chikkamagaluru taluku, Chikkamagaluru district, Karnataka, India",
            "closest_to": "agumbe"
        },
        "kannada": {
            "blogLinks": [
                "https://www.quora.com/What-are-the-best-places-to-visit-on-a-3-day-trip-in-and-around-Karnataka",
                "https://www.quora.com/What-are-the-best-weekend-road-trips-from-Bangalore"
            ],
            "locType": "administrative",
            "longitude": "75.1008028650794",
            "latitude": "12.8114089",
            "address": "Dakshina Kannada, Karnataka, India",
            "closest_to": "agumbe"
        },
        "sharavati river": {
            "blogLinks": [
                "https://www.quora.com/What-are-the-places-to-visit-in-around-Shimoga-in-3-days"
            ],
            "locType": "river",
            "longitude": "74.7647294",
            "latitude": "14.2360979",
            "address": "Sharavati, Sagara taluk, Shimoga district, Karnataka, India",
            "closest_to": "sirsi"
        }
    },
    "agumbe": {
        "icon": "https://nominatim.openstreetmap.org/images/mapicons/poi_place_village.p.20.png",
        "osm_type": "node",
        "boundingbox": [
            "13.4894998",
            "13.5294998",
            "75.0765525",
            "75.1165525"
        ],
        "display_name": "Agumbe, Tirthahalli taluk, Shimoga district, Karnataka, 577411, India",
        "class": "place",
        "osm_id": "910403408",
        "type": "village",
        "licence": "Data \u00a9 OpenStreetMap contributors, ODbL 1.0. http://www.openstreetmap.org/copyright",
        "lon": "75.0965525",
        "lat": "13.5094998",
        "place_id": "8561493",
        "importance": 0.475
    }
}