{
    "mangalore": {
        "place_id": "637002",
        "osm_id": "245612641",
        "icon": "https://nominatim.openstreetmap.org/images/mapicons/poi_place_city.p.20.png",
        "osm_type": "node",
        "licence": "Data \u00a9 OpenStreetMap contributors, ODbL 1.0. http://www.openstreetmap.org/copyright",
        "display_name": "Mangaluru, Mangaluru taluk, Dakshina Kannada, Karnataka, 575001, India",
        "type": "city",
        "lon": "74.8430082",
        "boundingbox": [
            "12.7098101",
            "13.0298101",
            "74.6830082",
            "75.0030082"
        ],
        "importance": 0.45,
        "lat": "12.8698101",
        "class": "place"
    },
    "mentions": {
        "suratkal": {
            "closest_to": "mangalore",
            "address": "Suratkal, Mangaluru taluk, Dakshina Kannada, Karnataka, 575014, India",
            "longitude": "74.8046595",
            "latitude": "12.9830998",
            "blogLinks": [
                "https://en.wikipedia.org/wiki/Kodachadri"
            ],
            "locType": "town"
        },
        "kundapur": {
            "closest_to": "agumbe",
            "address": "United Basel mission church Higher Primary School, Kundapur, Chikkansal Road, Vaderahobali, Kundapura, \u0c95\u0cc1\u0c82\u0ca6\u0cbe\u0caa\u0cc1\u0cb0 \u0ca4\u0cbe\u0cb2\u0cc2\u0c95\u0cc1, Udupi district, Karnataka, 576200, India",
            "longitude": "74.6906749",
            "latitude": "13.6343509",
            "blogLinks": [
                "http://travel.india.com/agumbe/",
                "https://www.tripoto.com/trip/agumbe-rainforest-karnataka-the-hidden-malgudi-house-in-india-itinerary-57e2744100417"
            ],
            "locType": "school"
        },
        "agumbe": {
            "closest_to": "mangalore",
            "address": "Agumbe, Tirthahalli taluk, Shimoga district, Karnataka, 577411, India",
            "longitude": "75.0965525",
            "latitude": "13.5094998",
            "blogLinks": [
                "http://wikitravel.org/en/Agumbe"
            ],
            "locType": "village"
        },
        "kudremukh national park": {
            "closest_to": "mangalore",
            "address": "Kudremukh National Park, SH66, Sringeri taluku, Chikkamagaluru district, Karnataka, India",
            "longitude": "75.1828713712862",
            "latitude": "13.25397485",
            "blogLinks": [
                "https://en.wikipedia.org/wiki/Agumbe"
            ],
            "locType": "national_park"
        },
        "kudremukh": {
            "closest_to": "mangalore",
            "address": "Kudremukha, Mudigere taluk, Chikkamagaluru district, Karnataka, India",
            "longitude": "75.2523304",
            "latitude": "13.2144007",
            "blogLinks": [
                "http://wikitravel.org/en/Chikmagalur"
            ],
            "locType": "village"
        },
        "chikmagalur": {
            "closest_to": "agumbe",
            "address": "Chikmagalur, Chikkamagaluru district, Karnataka, India",
            "longitude": "75.5",
            "latitude": "13.5",
            "blogLinks": [
                "http://wikitravel.org/en/Chikmagalur"
            ],
            "locType": "county"
        },
        "sringeri": {
            "closest_to": "agumbe",
            "address": "Sringeri, Sringeri taluku, Chikkamagaluru district, Karnataka, 577592, India",
            "longitude": "75.2553718",
            "latitude": "13.4261724",
            "blogLinks": [
                "http://www.distancesfrom.com/travel-from-Mangalore-Central-to-Mangaluru-via-Sringeri-Annapurneswari-Layout-Agumbe/TravelFromHistory/34008431.aspx",
                "https://en.wikipedia.org/wiki/Kodachadri"
            ],
            "locType": "town"
        },
        "shivamogga": {
            "closest_to": "agumbe",
            "address": "Shivamogga, Shivamogga taluku, Shimoga district, Karnataka, 577200, India",
            "longitude": "75.569737",
            "latitude": "13.9311723",
            "blogLinks": [
                "https://en.wikipedia.org/wiki/Kodachadri"
            ],
            "locType": "city"
        },
        "kodachadri": {
            "closest_to": "agumbe",
            "address": "Kodachadri, \u0c95\u0cc1\u0c82\u0ca6\u0cbe\u0caa\u0cc1\u0cb0 \u0ca4\u0cbe\u0cb2\u0cc2\u0c95\u0cc1, Udupi district, Karnataka, India",
            "longitude": "74.8705395",
            "latitude": "13.8565758",
            "blogLinks": [
                "https://en.wikipedia.org/wiki/Kodachadri"
            ],
            "locType": "peak"
        },
        "mudur": {
            "closest_to": "agumbe",
            "address": "Shree Matha Higher Primary School, Mudur, Muduru, \u0c95\u0cc1\u0c82\u0ca6\u0cbe\u0caa\u0cc1\u0cb0 \u0ca4\u0cbe\u0cb2\u0cc2\u0c95\u0cc1, Udupi district, Karnataka, India",
            "longitude": "74.8714931",
            "latitude": "13.8073521",
            "blogLinks": [
                "https://en.wikipedia.org/wiki/Kodachadri"
            ],
            "locType": "school"
        },
        "attavar": {
            "closest_to": "mangalore",
            "address": "Attavar, Mangaluru, Mangaluru taluk, Dakshina Kannada, Karnataka, 575001, India",
            "longitude": "74.8480626",
            "latitude": "12.860548",
            "blogLinks": [
                "http://www.distancesfrom.com/travel-from-Mangalore-Central-to-Mangaluru-via-Sringeri-Annapurneswari-Layout-Agumbe/TravelFromHistory/34008431.aspx"
            ],
            "locType": "suburb"
        },
        "hosanagara": {
            "closest_to": "agumbe",
            "address": "Hosanagara, Hosanagara taluk, Shimoga district, Karnataka, 577418, India",
            "longitude": "75.0657952",
            "latitude": "13.916789",
            "blogLinks": [
                "https://en.wikipedia.org/wiki/Kodachadri"
            ],
            "locType": "town"
        },
        "thirthahalli": {
            "closest_to": "mangalore",
            "address": "Thirthahalli - Udupi Highway, Shivapura, Karkala taluk, Udupi district, Karnataka, India",
            "longitude": "74.9626368",
            "latitude": "13.4265327",
            "blogLinks": [
                "https://en.wikipedia.org/wiki/Agumbe"
            ],
            "locType": "trunk"
        },
        "manikyadhara": {
            "closest_to": "agumbe",
            "address": "Manikyadhara, Bababudangiri Road, Inam Dattatreya Pitha, Chikkamagaluru taluku, Chikkamagaluru district, Karnataka, India",
            "longitude": "75.7701434",
            "latitude": "13.4220248",
            "blogLinks": [
                "http://wikitravel.org/en/Chikmagalur"
            ],
            "locType": "attraction"
        },
        "kollur": {
            "closest_to": "agumbe",
            "address": "Kollur, \u0c95\u0cc1\u0c82\u0ca6\u0cbe\u0caa\u0cc1\u0cb0 \u0ca4\u0cbe\u0cb2\u0cc2\u0c95\u0cc1, Udupi district, Karnataka, 576220, India",
            "longitude": "74.8137959",
            "latitude": "13.8634049",
            "blogLinks": [
                "https://en.wikipedia.org/wiki/Kodachadri"
            ],
            "locType": "village"
        },
        "nagodi": {
            "closest_to": "agumbe",
            "address": "Nagodi, Hosanagara taluk, Shimoga district, Karnataka, India",
            "longitude": "74.8606716",
            "latitude": "13.9124489",
            "blogLinks": [
                "https://en.wikipedia.org/wiki/Kodachadri"
            ],
            "locType": "village"
        },
        "mookambika": {
            "closest_to": "agumbe",
            "address": "Mukambika Devasthana, NH766C;SH26, Halkal, \u0c95\u0cc1\u0c82\u0ca6\u0cbe\u0caa\u0cc1\u0cb0 \u0ca4\u0cbe\u0cb2\u0cc2\u0c95\u0cc1, Udupi district, Karnataka, 576220, India",
            "longitude": "74.8145296",
            "latitude": "13.8638043",
            "blogLinks": [
                "https://en.wikipedia.org/wiki/Kodachadri"
            ],
            "locType": "place_of_worship"
        },
        "hebbe": {
            "closest_to": "agumbe",
            "address": "Hebbe falls, Kemmannagundi Road, Attigundi, Chikkamagaluru taluku, Chikkamagaluru district, Karnataka, India",
            "longitude": "75.7253701",
            "latitude": "13.5414025",
            "blogLinks": [
                "http://wikitravel.org/en/Chikmagalur"
            ],
            "locType": "attraction"
        },
        "mangalore": {
            "closest_to": "mangalore",
            "address": "Mangaluru, Mangaluru taluk, Dakshina Kannada, Karnataka, 575001, India",
            "longitude": "74.8430082",
            "latitude": "12.8698101",
            "blogLinks": [
                "http://wikitravel.org/en/Chikmagalur",
                "http://www.distancesfrom.com/distance-from-Mangalore-to-Agumbe/DistanceHistory/97398.aspx",
                "http://www.onefivenine.com/india/Travel/Place/Agumbe",
                "https://www.ixigo.com/by-car-taxi/mangalore-to-agumbe-by-car-fast",
                "https://www.ixigo.com/by-car-taxi/mangalore-to-agumbe-by-car",
                "https://en.wikipedia.org/wiki/Kodachadri",
                "https://en.wikipedia.org/wiki/Agumbe",
                "http://wikitravel.org/en/Agumbe"
            ],
            "locType": "city"
        },
        "bababudangiri": {
            "closest_to": "agumbe",
            "address": "Bababudangiri Road, Inam Dattatreya Pitha, Chikkamagaluru taluku, Chikkamagaluru district, Karnataka, India",
            "longitude": "75.7486618",
            "latitude": "13.4297401",
            "blogLinks": [
                "http://wikitravel.org/en/Chikmagalur"
            ],
            "locType": "tertiary"
        },
        "shimoga district of karnataka": {
            "closest_to": "agumbe",
            "address": "Shimoga district, Karnataka, India",
            "longitude": "75.1312533993886",
            "latitude": "14.0558284",
            "blogLinks": [
                "https://www.tripoto.com/trip/agumbe-rainforest-karnataka-the-hidden-malgudi-house-in-india-itinerary-57e2744100417"
            ],
            "locType": "administrative"
        },
        "dakshin kannada of karnataka": {
            "closest_to": "mangalore",
            "address": "Dakshin Court, NH73, Kaikunje, Bantwal Cross Road, Bantwal taluk, Dakshina Kannada, Karnataka, India",
            "longitude": "75.0309089",
            "latitude": "12.8827367",
            "blogLinks": [
                "http://www.onefivenine.com/india/Travel/Place/Agumbe"
            ],
            "locType": "restaurant"
        },
        "jadkal": {
            "closest_to": "agumbe",
            "address": "Jadkal, \u0c95\u0cc1\u0c82\u0ca6\u0cbe\u0caa\u0cc1\u0cb0 \u0ca4\u0cbe\u0cb2\u0cc2\u0c95\u0cc1, Udupi district, Karnataka, India",
            "longitude": "74.8145521",
            "latitude": "13.7984524",
            "blogLinks": [
                "https://en.wikipedia.org/wiki/Kodachadri"
            ],
            "locType": "village"
        },
        "udupi": {
            "closest_to": "mangalore",
            "address": "Udupi, Udupi taluku, Udupi district, Karnataka, 576101, India",
            "longitude": "74.7473232",
            "latitude": "13.3419169",
            "blogLinks": [
                "https://en.wikipedia.org/wiki/Kodachadri"
            ],
            "locType": "city"
        },
        "udupi-agumbe road": {
            "closest_to": "agumbe",
            "address": "Agumbe Road, Soppugudde, Tirthahalli, Tirthahalli taluk, Shimoga district, Karnataka, 577432, India",
            "longitude": "75.2422204",
            "latitude": "13.6914356",
            "blogLinks": [
                "https://en.wikipedia.org/wiki/Agumbe"
            ],
            "locType": "trunk"
        },
        "kemmannagundi": {
            "closest_to": "agumbe",
            "address": "Kemmannagundi, Tarikere taluku, Chikkamagaluru district, Karnataka, India",
            "longitude": "75.7520082",
            "latitude": "13.5463048",
            "blogLinks": [
                "http://wikitravel.org/en/Chikmagalur"
            ],
            "locType": "village"
        },
        "mangalore central": {
            "closest_to": "mangalore",
            "address": "Mangalore Central, Railway Station Road, Pandeshwar, Attavar, Mangaluru, Mangaluru taluk, Dakshina Kannada, Karnataka, 575001, India",
            "longitude": "74.8432387",
            "latitude": "12.8634037",
            "blogLinks": [
                "http://www.distancesfrom.com/travel-from-Mangalore-Central-to-Mangaluru-via-Sringeri-Annapurneswari-Layout-Agumbe/TravelFromHistory/34008431.aspx"
            ],
            "locType": "station"
        },
        "shankaranarayana": {
            "closest_to": "agumbe",
            "address": "Shankaranarayana, \u0c95\u0cc1\u0c82\u0ca6\u0cbe\u0caa\u0cc1\u0cb0 \u0ca4\u0cbe\u0cb2\u0cc2\u0c95\u0cc1, Udupi district, Karnataka, 576227, India",
            "longitude": "74.8600862",
            "latitude": "13.6058955",
            "blogLinks": [
                "http://travel.india.com/agumbe/"
            ],
            "locType": "village"
        },
        "nagara": {
            "closest_to": "agumbe",
            "address": "Nagara, Hosanagara taluk, Shimoga district, Karnataka, India",
            "longitude": "75.0328554",
            "latitude": "13.8236828",
            "blogLinks": [
                "https://en.wikipedia.org/wiki/Kodachadri"
            ],
            "locType": "village"
        },
        "river varahi": {
            "closest_to": "agumbe",
            "address": "Varahi, \u0c95\u0cc1\u0c82\u0ca6\u0cbe\u0caa\u0cc1\u0cb0 \u0ca4\u0cbe\u0cb2\u0cc2\u0c95\u0cc1, Udupi district, Karnataka, India",
            "longitude": "74.9489117",
            "latitude": "13.6582668",
            "blogLinks": [
                "http://www.onefivenine.com/india/Travel/Place/Agumbe"
            ],
            "locType": "river"
        },
        "udupi city": {
            "closest_to": "mangalore",
            "address": "Udupi, Udupi taluku, Udupi district, Karnataka, 576101, India",
            "longitude": "74.7473232",
            "latitude": "13.3419169",
            "blogLinks": [
                "https://en.wikipedia.org/wiki/Agumbe"
            ],
            "locType": "city"
        },
        "gowdahalli": {
            "closest_to": "agumbe",
            "address": "Gowdahalli, Mudigere taluk, Chikkamagaluru district, Karnataka, India",
            "longitude": "75.5981999",
            "latitude": "13.0422415",
            "blogLinks": [
                "http://wikitravel.org/en/Chikmagalur"
            ],
            "locType": "village"
        },
        "kundapura": {
            "closest_to": "agumbe",
            "address": "Kundapura, \u0c95\u0cc1\u0c82\u0ca6\u0cbe\u0caa\u0cc1\u0cb0 \u0ca4\u0cbe\u0cb2\u0cc2\u0c95\u0cc1, Udupi district, Karnataka, 576200, India",
            "longitude": "74.6915722",
            "latitude": "13.6250993",
            "blogLinks": [
                "https://en.wikipedia.org/wiki/Kodachadri"
            ],
            "locType": "town"
        },
        "shimoga": {
            "closest_to": "agumbe",
            "address": "Shivamogga, Shivamogga taluku, Shimoga district, Karnataka, 577200, India",
            "longitude": "75.569737",
            "latitude": "13.9311723",
            "blogLinks": [
                "https://en.wikipedia.org/wiki/Agumbe"
            ],
            "locType": "city"
        },
        "udupi district": {
            "closest_to": "mangalore",
            "address": "Udupi district, Karnataka, India",
            "longitude": "74.7469037178649",
            "latitude": "13.49007305",
            "blogLinks": [
                "https://en.wikipedia.org/wiki/Kodachadri"
            ],
            "locType": "administrative"
        },
        "kannada": {
            "closest_to": "mangalore",
            "address": "Dakshina Kannada, Karnataka, India",
            "longitude": "75.1008028650794",
            "latitude": "12.8114089",
            "blogLinks": [
                "https://www.tripoto.com/trip/agumbe-rainforest-karnataka-the-hidden-malgudi-house-in-india-itinerary-57e2744100417",
                "http://wikitravel.org/en/Agumbe"
            ],
            "locType": "administrative"
        },
        "kaimara": {
            "closest_to": "agumbe",
            "address": "Kaimara, Chikkamagaluru taluku, Chikkamagaluru district, Karnataka, India",
            "longitude": "75.7448654",
            "latitude": "13.3713857",
            "blogLinks": [
                "http://wikitravel.org/en/Chikmagalur"
            ],
            "locType": "village"
        }
    },
    "agumbe": {
        "place_id": "8561493",
        "osm_id": "910403408",
        "icon": "https://nominatim.openstreetmap.org/images/mapicons/poi_place_village.p.20.png",
        "osm_type": "node",
        "licence": "Data \u00a9 OpenStreetMap contributors, ODbL 1.0. http://www.openstreetmap.org/copyright",
        "display_name": "Agumbe, Tirthahalli taluk, Shimoga district, Karnataka, 577411, India",
        "type": "village",
        "lon": "75.0965525",
        "boundingbox": [
            "13.4894998",
            "13.5294998",
            "75.0765525",
            "75.1165525"
        ],
        "importance": 0.475,
        "lat": "13.5094998",
        "class": "place"
    }
}