{
    "udupi": {
        "icon": "https://nominatim.openstreetmap.org/images/mapicons/poi_place_city.p.20.png",
        "osm_type": "node",
        "boundingbox": [
            "13.1819169",
            "13.5019169",
            "74.5873232",
            "74.9073232"
        ],
        "display_name": "Udupi, Udupi taluku, Udupi district, Karnataka, 576101, India",
        "class": "place",
        "osm_id": "245620117",
        "type": "city",
        "licence": "Data \u00a9 OpenStreetMap contributors, ODbL 1.0. http://www.openstreetmap.org/copyright",
        "lon": "74.7473232",
        "lat": "13.3419169",
        "place_id": "634423",
        "importance": 0.55
    },
    "mentions": {
        "thirthahalli taluk of shimoga": {
            "blogLinks": [
                "https://en.wikipedia.org/wiki/Thirthahalli"
            ],
            "locType": "trunk",
            "longitude": "75.1326104",
            "latitude": "13.5865156",
            "address": "Agumbe Road, Nalur, Tirthahalli taluk, Shimoga district, Karnataka, India",
            "closest_to": "agumbe"
        },
        "kundapur": {
            "blogLinks": [
                "http://travel.india.com/agumbe/"
            ],
            "locType": "school",
            "longitude": "74.6906749",
            "latitude": "13.6343509",
            "address": "United Basel mission church Higher Primary School, Kundapur, Chikkansal Road, Vaderahobali, Kundapura, \u0c95\u0cc1\u0c82\u0ca6\u0cbe\u0caa\u0cc1\u0cb0 \u0ca4\u0cbe\u0cb2\u0cc2\u0c95\u0cc1, Udupi district, Karnataka, 576200, India",
            "closest_to": "udupi"
        },
        "kavaledurga": {
            "blogLinks": [
                "https://en.wikipedia.org/wiki/Thirthahalli"
            ],
            "locType": "village",
            "longitude": "75.1269652",
            "latitude": "13.7177176",
            "address": "Kavaledurga, Tirthahalli taluk, Shimoga district, Karnataka, India",
            "closest_to": "agumbe"
        },
        "north udupi": {
            "blogLinks": [
                "https://en.wikipedia.org/wiki/Thirthahalli"
            ],
            "locType": "city",
            "longitude": "74.7473232",
            "latitude": "13.3419169",
            "address": "Udupi, Udupi taluku, Udupi district, Karnataka, 576101, India",
            "closest_to": "udupi"
        },
        "kuppalli": {
            "blogLinks": [
                "https://en.wikipedia.org/wiki/Thirthahalli"
            ],
            "locType": "village",
            "longitude": "75.3161341",
            "latitude": "13.5981399",
            "address": "Kuppalli, Tirthahalli taluk, Shimoga district, Karnataka, India",
            "closest_to": "agumbe"
        },
        "karkala": {
            "blogLinks": [
                "http://conference.manipal.edu/mathdays/Places_to_visit.aspx"
            ],
            "locType": "town",
            "longitude": "74.9959586",
            "latitude": "13.2112826",
            "address": "Karkala, Karkala taluk, Udupi district, Karnataka, 574104, India",
            "closest_to": "udupi"
        },
        "udupi-agumbe road": {
            "blogLinks": [
                "https://en.wikipedia.org/wiki/Agumbe"
            ],
            "locType": "trunk",
            "longitude": "75.2422204",
            "latitude": "13.6914356",
            "address": "Agumbe Road, Soppugudde, Tirthahalli, Tirthahalli taluk, Shimoga district, Karnataka, 577432, India",
            "closest_to": "agumbe"
        },
        "agumbe": {
            "blogLinks": [
                "https://www.tripoto.com/weekend-getaways/from-agumbe"
            ],
            "locType": "village",
            "longitude": "75.0965525",
            "latitude": "13.5094998",
            "address": "Agumbe, Tirthahalli taluk, Shimoga district, Karnataka, 577411, India",
            "closest_to": "agumbe"
        },
        "jain": {
            "blogLinks": [
                "https://en.wikipedia.org/wiki/Thirthahalli"
            ],
            "locType": "town",
            "longitude": "74.9977469",
            "latitude": "13.0699218",
            "address": "Moodabidri, Mangaluru taluk, Dakshina Kannada, Karnataka, 574227, India",
            "closest_to": "udupi"
        },
        "tunga bridge": {
            "blogLinks": [
                "https://en.wikipedia.org/wiki/Thirthahalli"
            ],
            "locType": "trunk",
            "longitude": "75.2485174",
            "latitude": "13.6855315",
            "address": "Tunga Bridge, Kuruvalli, Tirthahalli, Tirthahalli taluk, Shimoga district, Karnataka, 577432, India",
            "closest_to": "agumbe"
        },
        "river varahi": {
            "blogLinks": [
                "https://www.onefivenine.com/india/Travel/Place/Agumbe"
            ],
            "locType": "river",
            "longitude": "74.9489117",
            "latitude": "13.6582668",
            "address": "Varahi, \u0c95\u0cc1\u0c82\u0ca6\u0cbe\u0caa\u0cc1\u0cb0 \u0ca4\u0cbe\u0cb2\u0cc2\u0c95\u0cc1, Udupi district, Karnataka, India",
            "closest_to": "udupi"
        },
        "udupi city": {
            "blogLinks": [
                "https://en.wikipedia.org/wiki/Agumbe"
            ],
            "locType": "city",
            "longitude": "74.7473232",
            "latitude": "13.3419169",
            "address": "Udupi, Udupi taluku, Udupi district, Karnataka, 576101, India",
            "closest_to": "udupi"
        },
        "kundadri": {
            "blogLinks": [
                "https://www.onefivenine.com/india/Travel/Place/Agumbe"
            ],
            "locType": "peak",
            "longitude": "75.1689994",
            "latitude": "13.5580148",
            "address": "Kundadri, Tirthahalli taluk, Shimoga district, Karnataka, India",
            "closest_to": "agumbe"
        },
        "horanadu": {
            "blogLinks": [
                "http://www.indiamike.com/india/karnataka-f38/udupi-agumbe-shringeri-murudeshwara-jog-falls-dharmasthala-t137208/"
            ],
            "locType": "town",
            "longitude": "75.3445161",
            "latitude": "13.2761199",
            "address": "Horanadu, Mudigere taluk, Chikkamagaluru district, Karnataka, 577181, India",
            "closest_to": "agumbe"
        },
        "manipal": {
            "blogLinks": [
                "https://www.tripoto.com/travel-guide/manipal"
            ],
            "locType": "town",
            "longitude": "74.7870308",
            "latitude": "13.3519723",
            "address": "Manipal, Udupi taluku, Udupi district, Karnataka, India",
            "closest_to": "udupi"
        },
        "anandagiri gudda": {
            "blogLinks": [
                "https://en.wikipedia.org/wiki/Thirthahalli"
            ],
            "locType": "peak",
            "longitude": "75.2582823",
            "latitude": "13.6995117",
            "address": "Anandagiri Gudda, Tirthahalli taluk, Shimoga district, Karnataka, India",
            "closest_to": "agumbe"
        },
        "malpe": {
            "blogLinks": [
                "https://www.tripoto.com/travel-guide/manipal"
            ],
            "locType": "village",
            "longitude": "74.7036914",
            "latitude": "13.3507423",
            "address": "Malpe, Udupi taluku, Udupi district, Karnataka, India",
            "closest_to": "udupi"
        },
        "kudremukh national park": {
            "blogLinks": [
                "https://en.wikipedia.org/wiki/Agumbe"
            ],
            "locType": "national_park",
            "longitude": "75.1828713712862",
            "latitude": "13.25397485",
            "address": "Kudremukh National Park, SH66, Sringeri taluku, Chikkamagaluru district, Karnataka, India",
            "closest_to": "agumbe"
        },
        "tunga river": {
            "blogLinks": [
                "https://en.wikipedia.org/wiki/Thirthahalli"
            ],
            "locType": "river",
            "longitude": "75.3221835",
            "latitude": "13.6632221",
            "address": "Tunga, Tirthahalli taluk, Shimoga district, Karnataka, India",
            "closest_to": "agumbe"
        },
        "kapu": {
            "blogLinks": [
                "https://www.tripoto.com/weekend-getaways/from-agumbe"
            ],
            "locType": "village",
            "longitude": "74.7470496",
            "latitude": "13.2309688",
            "address": "Kapu, Udupi taluku, Udupi district, Karnataka, India",
            "closest_to": "udupi"
        },
        "thirthahalli": {
            "blogLinks": [
                "https://en.wikipedia.org/wiki/Thirthahalli",
                "https://en.wikipedia.org/wiki/Agumbe"
            ],
            "locType": "trunk",
            "longitude": "74.9626368",
            "latitude": "13.4265327",
            "address": "Thirthahalli - Udupi Highway, Shivapura, Karkala taluk, Udupi district, Karnataka, India",
            "closest_to": "udupi"
        },
        "koppa": {
            "blogLinks": [
                "https://en.wikipedia.org/wiki/Thirthahalli"
            ],
            "locType": "town",
            "longitude": "75.3633986",
            "latitude": "13.533207",
            "address": "Koppa, Koppa taluk, Chikkamagaluru district, Karnataka, India",
            "closest_to": "agumbe"
        },
        "shankaranarayana": {
            "blogLinks": [
                "http://travel.india.com/agumbe/"
            ],
            "locType": "village",
            "longitude": "74.8600862",
            "latitude": "13.6058955",
            "address": "Shankaranarayana, \u0c95\u0cc1\u0c82\u0ca6\u0cbe\u0caa\u0cc1\u0cb0 \u0ca4\u0cbe\u0cb2\u0cc2\u0c95\u0cc1, Udupi district, Karnataka, 576227, India",
            "closest_to": "udupi"
        },
        "udupi": {
            "blogLinks": [
                "http://travel.india.com/agumbe/how-to-reach/",
                "https://en.wikipedia.org/wiki/Thirthahalli",
                "https://www.triphobo.com/tripplans/chikmagalur-agumbe-udupi-itinerary-from-bangalore-5673d3a49bd33e502100153a"
            ],
            "locType": "city",
            "longitude": "74.7473232",
            "latitude": "13.3419169",
            "address": "Udupi, Udupi taluku, Udupi district, Karnataka, 576101, India",
            "closest_to": "udupi"
        },
        "agumbe road": {
            "blogLinks": [
                "https://en.wikipedia.org/wiki/Thirthahalli"
            ],
            "locType": "trunk",
            "longitude": "75.2422204",
            "latitude": "13.6914356",
            "address": "Agumbe Road, Soppugudde, Tirthahalli, Tirthahalli taluk, Shimoga district, Karnataka, 577432, India",
            "closest_to": "agumbe"
        },
        "kundapura": {
            "blogLinks": [
                "https://en.wikipedia.org/wiki/Thirthahalli"
            ],
            "locType": "town",
            "longitude": "74.6915722",
            "latitude": "13.6250993",
            "address": "Kundapura, \u0c95\u0cc1\u0c82\u0ca6\u0cbe\u0caa\u0cc1\u0cb0 \u0ca4\u0cbe\u0cb2\u0cc2\u0c95\u0cc1, Udupi district, Karnataka, 576200, India",
            "closest_to": "udupi"
        },
        "agumbe rainforest research station": {
            "blogLinks": [
                "https://www.tripoto.com/weekend-getaways/from-agumbe"
            ],
            "locType": "Research",
            "longitude": "75.088690168594",
            "latitude": "13.51811715",
            "address": "Agumbe Rainforest Research Station (ARRS), Agumbe Road, Guddekeri, Tirthahalli taluk, Shimoga district, Karnataka, 577411, India",
            "closest_to": "udupi"
        },
        "thirthahalli taluk": {
            "blogLinks": [
                "https://en.wikipedia.org/wiki/Thirthahalli"
            ],
            "locType": "trunk",
            "longitude": "75.0382054",
            "latitude": "13.4738839",
            "address": "Thirthahalli - Udupi Highway, Someshwara, Karkala taluk, Udupi district, Karnataka, 576129, India",
            "closest_to": "udupi"
        },
        "end point road": {
            "blogLinks": [
                "https://www.onefivenine.com/india/Travel/Place/Agumbe",
                "http://travel.manoramaonline.com/travel/readers-discovery/agumbe-rainforest-misty-cherappunji-of-south-karnataka.html"
            ],
            "locType": "suburb",
            "longitude": "74.7848287",
            "latitude": "13.3700386",
            "address": "End Point, Udupi, Udupi taluku, Udupi district, Karnataka, 576101, India",
            "closest_to": "udupi"
        }
    },
    "agumbe": {
        "icon": "https://nominatim.openstreetmap.org/images/mapicons/poi_place_village.p.20.png",
        "osm_type": "node",
        "boundingbox": [
            "13.4894998",
            "13.5294998",
            "75.0765525",
            "75.1165525"
        ],
        "display_name": "Agumbe, Tirthahalli taluk, Shimoga district, Karnataka, 577411, India",
        "class": "place",
        "osm_id": "910403408",
        "type": "village",
        "licence": "Data \u00a9 OpenStreetMap contributors, ODbL 1.0. http://www.openstreetmap.org/copyright",
        "lon": "75.0965525",
        "lat": "13.5094998",
        "place_id": "8561493",
        "importance": 0.475
    }
}