{
    "tumkur": {
        "icon": "https://nominatim.openstreetmap.org/images/mapicons/poi_boundary_administrative.p.20.png",
        "osm_type": "node",
        "boundingbox": [
            "12.8599406",
            "14.1399406",
            "76.3602445",
            "77.6402445"
        ],
        "display_name": "Tumakuru, Tumkur district, Karnataka, India",
        "class": "place",
        "osm_id": "316417304",
        "type": "county",
        "licence": "Data \u00a9 OpenStreetMap contributors, ODbL 1.0. http://www.openstreetmap.org/copyright",
        "lon": "77.0002445",
        "lat": "13.4999406",
        "place_id": "1397122",
        "importance": 0.65
    },
    "mentions": {
        "bhatkal": {
            "blogLinks": [
                "https://en.wikipedia.org/wiki/Tourism_in_Karnataka"
            ],
            "locType": "town",
            "longitude": "74.5485295",
            "latitude": "13.9952114",
            "address": "Bhatkal, Bhatkala taluk, Uttara Kannada, Karnataka, 581320, India",
            "closest_to": "agumbe"
        },
        "kukke-subrahmanya": {
            "blogLinks": [
                "http://www.holidayiq.com/Kukke-Subrahmanya-Sightseeing-972.html",
                "https://www.tripadvisor.in/ShowTopic-g2370709-i26348-k5737423-Tourist_attractions_in_Agumbe-Agumbe_Karnataka.html"
            ],
            "locType": "village",
            "longitude": "75.6131771",
            "latitude": "12.6677868",
            "address": "Kukke Subrahmanya, Sulya taluk, Dakshina Kannada, Karnataka, 574238, India",
            "closest_to": "tumkur"
        },
        "kukke subrahmanya": {
            "blogLinks": [
                "http://www.holidayiq.com/Kukke-Subrahmanya-Sightseeing-972.html"
            ],
            "locType": "village",
            "longitude": "75.6131771",
            "latitude": "12.6677868",
            "address": "Kukke Subrahmanya, Sulya taluk, Dakshina Kannada, Karnataka, 574238, India",
            "closest_to": "tumkur"
        },
        "malgudi": {
            "blogLinks": [
                "https://www.tripadvisor.in/Hotel_Review-g2370709-d2368366-Reviews-Dodda_Mane-Agumbe_Karnataka.html",
                "http://rakeshholla.blogspot.com/2012/09/shivaganga-hills-tumkur.html"
            ],
            "locType": "restaurant",
            "longitude": "77.7017267",
            "latitude": "12.9651193",
            "address": "Malgudi Southern Cuisine, 3, Outer Ring Road, Ananda Nagara, Doddanekundi, Garudacharpalya, Bangalore Urban, Karnataka, 560037, India",
            "closest_to": "tumkur"
        },
        "chikmagalur district": {
            "blogLinks": [
                "https://en.wikipedia.org/wiki/Tourism_in_Karnataka"
            ],
            "locType": "county",
            "longitude": "75.5",
            "latitude": "13.5",
            "address": "Chikmagalur, Chikkamagaluru district, Karnataka, India",
            "closest_to": "tumkur"
        },
        "hindupur": {
            "blogLinks": [
                "https://www.quora.com/What-are-the-best-weekend-road-trips-from-Bangalore"
            ],
            "locType": "primary",
            "longitude": "77.5237128",
            "latitude": "13.3580171",
            "address": "Hindupur ByPass Road, Bachchahalli, Doddaballapura taluk, Bangalore Rural, Karnataka, India",
            "closest_to": "tumkur"
        },
        "tumkur": {
            "blogLinks": [
                "http://www.sutthonabanni.com/2011/07/tumkur-district.html",
                "http://69kph.blogspot.com/2010/11/agumbe-trek-barkana-falls.html",
                "https://en.wikipedia.org/wiki/Tourism_in_Karnataka",
                "http://www.holidayiq.com/Kukke-Subrahmanya-Sightseeing-972.html",
                "http://www.team-bhp.com/forum/route-travel-queries/42482-bangalore-shimoga-route-queries-2.html",
                "http://rakeshholla.blogspot.com/2012/09/shivaganga-hills-tumkur.html",
                "http://wikitravel.org/en/Chikmagalur",
                "http://www.holidayiq.com/Tumkur-Places-of-Worship-A-975-4.html"
            ],
            "locType": "county",
            "longitude": "77.0002445",
            "latitude": "13.4999406",
            "address": "Tumakuru, Tumkur district, Karnataka, India",
            "closest_to": "tumkur"
        },
        "kambadahalli": {
            "blogLinks": [
                "https://en.wikipedia.org/wiki/Tourism_in_Karnataka"
            ],
            "locType": "village",
            "longitude": "77.1671918",
            "latitude": "13.6843692",
            "address": "Kambadahalli, Madhugiri taluk, Tumkur district, Karnataka, India",
            "closest_to": "tumkur"
        },
        "kundadri": {
            "blogLinks": [
                "http://69kph.blogspot.com/2010/11/agumbe-trek-barkana-falls.html"
            ],
            "locType": "peak",
            "longitude": "75.1689994",
            "latitude": "13.5580148",
            "address": "Kundadri, Tirthahalli taluk, Shimoga district, Karnataka, India",
            "closest_to": "tumkur"
        },
        "udupi city": {
            "blogLinks": [
                "https://en.wikipedia.org/wiki/Agumbe"
            ],
            "locType": "city",
            "longitude": "74.7473232",
            "latitude": "13.3419169",
            "address": "Udupi, Udupi taluku, Udupi district, Karnataka, 576101, India",
            "closest_to": "agumbe"
        },
        "chalukya": {
            "blogLinks": [
                "https://en.wikipedia.org/wiki/Tourism_in_Karnataka"
            ],
            "locType": "residential",
            "longitude": "77.5192989605445",
            "latitude": "12.9617207",
            "address": "Chalukya Nagar, Chandra Layout, GKW Layout, Bangalore Urban, Karnataka, 560072, India",
            "closest_to": "tumkur"
        },
        "kalleshwara": {
            "blogLinks": [
                "http://www.holidayiq.com/Tumkur-Places-of-Worship-A-975-4.html"
            ],
            "locType": "place_of_worship",
            "longitude": "75.8978344",
            "latitude": "14.4406997",
            "address": "Kalleshwara Temple, \u0c9c\u0cb0\u0cc0\u0c95\u0c9f\u0ccd\u0c9f\u0cc6 \u0cb0\u0cb8\u0ccd\u0ca4\u0cc6, Vinobanagara, Davanagere, Davanagere taluku, Davanagere district, Karnataka, 577000, India",
            "closest_to": "tumkur"
        },
        "kamala": {
            "blogLinks": [
                "https://en.wikipedia.org/wiki/Tourism_in_Karnataka"
            ],
            "locType": "school",
            "longitude": "77.5664867",
            "latitude": "12.9339482",
            "address": "Kamala Nehru Patashala (Emmanual English School), 5th A Cross Road, Yediyur, Thyagaraja Nagar, Bengaluru, Bangalore Urban, Karnataka, 560001, India",
            "closest_to": "tumkur"
        },
        "delhi": {
            "blogLinks": [
                "https://www.quora.com/What-are-the-best-weekend-road-trips-from-Bangalore",
                "http://www.onefivenine.com/india/Travel/Place/Agumbe"
            ],
            "locType": "trunk",
            "longitude": "77.6666062",
            "latitude": "12.9212473",
            "address": "Outer Ring Road, Green Glen Layout, Iblur, Bengaluru, Bangalore Urban, Karnataka, 560001, India",
            "closest_to": "tumkur"
        },
        "dakshina kannada": {
            "blogLinks": [
                "https://en.wikipedia.org/wiki/Tourism_in_Karnataka",
                "https://www.quora.com/What-are-the-best-weekend-road-trips-from-Bangalore"
            ],
            "locType": "administrative",
            "longitude": "75.1008028650794",
            "latitude": "12.8114089",
            "address": "Dakshina Kannada, Karnataka, India",
            "closest_to": "agumbe"
        },
        "banashankari temple": {
            "blogLinks": [
                "https://en.wikipedia.org/wiki/Tourism_in_Karnataka"
            ],
            "locType": "place_of_worship",
            "longitude": "77.5731752886765",
            "latitude": "12.91568785",
            "address": "Banashankari Temple, Kanakapura Road, JP Nagar 1st Phase, Kaderenahalli, Bengaluru, Bangalore Urban, Karnataka, 560001, India",
            "closest_to": "tumkur"
        },
        "sagar town": {
            "blogLinks": [
                "http://wikitravel.org/en/Shimoga"
            ],
            "locType": "town",
            "longitude": "75.0262551",
            "latitude": "14.1666594",
            "address": "Sagara, Sagara taluk, Shimoga district, Karnataka, 577400, India",
            "closest_to": "agumbe"
        },
        "bangalore": {
            "blogLinks": [
                "http://www.sutthonabanni.com/2011/07/tumkur-district.html",
                "http://69kph.blogspot.com/2010/11/agumbe-trek-barkana-falls.html",
                "https://en.wikipedia.org/wiki/Tourism_in_Karnataka",
                "https://www.quora.com/What-are-the-best-weekend-road-trips-from-Bangalore",
                "https://en.wikipedia.org/wiki/Agumbe",
                "http://www.team-bhp.com/forum/route-travel-queries/42482-bangalore-shimoga-route-queries-2.html",
                "http://wikitravel.org/en/Chikmagalur",
                "https://www.tripoto.com/weekend-getaways/from-agumbe",
                "http://wikitravel.org/en/Shimoga",
                "http://www.onefivenine.com/india/Travel/Place/Agumbe"
            ],
            "locType": "city",
            "longitude": "77.5912997",
            "latitude": "12.9791198",
            "address": "Bengaluru, Bangalore Urban, Karnataka, 560001, India",
            "closest_to": "tumkur"
        },
        "belur": {
            "blogLinks": [
                "http://wikitravel.org/en/Chikmagalur"
            ],
            "locType": "town",
            "longitude": "75.8634851",
            "latitude": "13.1645671",
            "address": "Belur, Beluru taluk, Hassan district, Karnataka, 573115, India",
            "closest_to": "tumkur"
        },
        "talguppa": {
            "blogLinks": [
                "http://wikitravel.org/en/Shimoga"
            ],
            "locType": "station",
            "longitude": "74.9144728",
            "latitude": "14.2140954",
            "address": "Talguppa, NH69, Kanle, Sagara taluk, Shimoga district, Karnataka, 577430, India",
            "closest_to": "agumbe"
        },
        "irupu falls": {
            "blogLinks": [
                "https://en.wikipedia.org/wiki/Tourism_in_Karnataka"
            ],
            "locType": "attraction",
            "longitude": "75.9839484",
            "latitude": "11.9667954",
            "address": "Iruppu Falls, SH89, Taila, Virajpet taluk, Kodagu, Karnataka, 571217, India",
            "closest_to": "tumkur"
        },
        "amrutapura": {
            "blogLinks": [
                "http://wikitravel.org/en/Chikmagalur"
            ],
            "locType": "village",
            "longitude": "75.8535015",
            "latitude": "13.7425193",
            "address": "Amrutapura, Tarikere taluku, Chikkamagaluru district, Karnataka, India",
            "closest_to": "tumkur"
        },
        "bhadravathi": {
            "blogLinks": [
                "http://www.team-bhp.com/forum/route-travel-queries/42482-bangalore-shimoga-route-queries-2.html",
                "http://wikitravel.org/en/Shimoga"
            ],
            "locType": "town",
            "longitude": "75.7030138",
            "latitude": "13.8474574",
            "address": "Bhadravathi, Bhadravati taluk, Shimoga district, Karnataka, 577300, India",
            "closest_to": "tumkur"
        },
        "nagarahole national park": {
            "blogLinks": [
                "https://en.wikipedia.org/wiki/Tourism_in_Karnataka"
            ],
            "locType": "national_park",
            "longitude": "76.1537073415874",
            "latitude": "12.0600362",
            "address": "Nagarahole National Park, Virajpet taluk, Kodagu, Karnataka, India",
            "closest_to": "tumkur"
        },
        "hebbe": {
            "blogLinks": [
                "http://wikitravel.org/en/Chikmagalur"
            ],
            "locType": "attraction",
            "longitude": "75.7253701",
            "latitude": "13.5414025",
            "address": "Hebbe falls, Kemmannagundi Road, Attigundi, Chikkamagaluru taluku, Chikkamagaluru district, Karnataka, India",
            "closest_to": "tumkur"
        },
        "gotagodi village": {
            "blogLinks": [
                "https://en.wikipedia.org/wiki/Tourism_in_Karnataka"
            ],
            "locType": "village",
            "longitude": "75.0452834",
            "latitude": "14.7634556",
            "address": "Gotagodi, Hanagal taluk, Haveri district, Karnataka, India",
            "closest_to": "agumbe"
        },
        "keladi": {
            "blogLinks": [
                "http://wikitravel.org/en/Shimoga"
            ],
            "locType": "village",
            "longitude": "75.0165753",
            "latitude": "14.2214761",
            "address": "Keladi, Sagara taluk, Shimoga district, Karnataka, India",
            "closest_to": "agumbe"
        },
        "mudigere": {
            "blogLinks": [
                "http://www.team-bhp.com/forum/route-travel-queries/42482-bangalore-shimoga-route-queries-2.html"
            ],
            "locType": "village",
            "longitude": "76.0185988",
            "latitude": "13.0093567",
            "address": "Mudigere, Aluru taluk, Hassan district, Karnataka, India",
            "closest_to": "tumkur"
        },
        "sirsi": {
            "blogLinks": [
                "https://www.quora.com/What-are-the-best-weekend-road-trips-from-Bangalore"
            ],
            "locType": "town",
            "longitude": "74.8388611",
            "latitude": "14.6192362",
            "address": "Sirsi, Shirasi taluk, Uttara Kannada, Karnataka, 581400, India",
            "closest_to": "agumbe"
        },
        "srirangapatna": {
            "blogLinks": [
                "https://en.wikipedia.org/wiki/Tourism_in_Karnataka",
                "https://www.quora.com/What-are-the-best-weekend-road-trips-from-Bangalore"
            ],
            "locType": "town",
            "longitude": "76.6850743",
            "latitude": "12.4225604",
            "address": "Srirangapatna, Srirangapattana taluk, Mandya district, Karnataka, 571438, India",
            "closest_to": "tumkur"
        },
        "u.k.": {
            "blogLinks": [
                "https://en.wikipedia.org/wiki/Agumbe"
            ],
            "locType": "administrative",
            "longitude": "75.7223521",
            "latitude": "14.5203896",
            "address": "Karnataka, India",
            "closest_to": "tumkur"
        },
        "maharashtra": {
            "blogLinks": [
                "https://en.wikipedia.org/wiki/Tourism_in_Karnataka"
            ],
            "locType": "bank",
            "longitude": "77.5856013",
            "latitude": "12.9049455",
            "address": "Bank of Maharashtra, 24th Main, K R Layout, Puttenahalli, Bengaluru, Bangalore Urban, Karnataka, 560001, India",
            "closest_to": "tumkur"
        },
        "channarayapatna": {
            "blogLinks": [
                "http://www.team-bhp.com/forum/route-travel-queries/42482-bangalore-shimoga-route-queries-2.html"
            ],
            "locType": "village",
            "longitude": "77.797084",
            "latitude": "13.2455918",
            "address": "Channarayapatna, Devanahalli taluk, Bangalore Rural, Karnataka, India",
            "closest_to": "tumkur"
        },
        "palani": {
            "blogLinks": [
                "https://www.tripoto.com/weekend-getaways/from-agumbe"
            ],
            "locType": "recycling",
            "longitude": "77.6168951",
            "latitude": "12.9537341",
            "address": "Palani, Neelasandra Bazaar Street, Austin Town BDA Layout, Neelasandra, Bengaluru, Bangalore Urban, Karnataka, 560001, India",
            "closest_to": "tumkur"
        },
        "bangalore-mangalore highway": {
            "blogLinks": [
                "https://www.quora.com/What-are-the-best-weekend-road-trips-from-Bangalore"
            ],
            "locType": "trunk",
            "longitude": "76.7990601",
            "latitude": "12.9699132",
            "address": "Bangalore Mangalore Highway, Irubanahalli, Nagamangala taluk, Mandya district, Karnataka, India",
            "closest_to": "tumkur"
        },
        "anantapur district": {
            "blogLinks": [
                "https://www.quora.com/What-are-the-best-weekend-road-trips-from-Bangalore"
            ],
            "locType": "yes",
            "longitude": "77.7596024",
            "latitude": "13.7972948",
            "address": "RTO Karnataka, Srinagar - Kanyakumari Highway, Paragodu, Bagepalli taluk, Chikkaballapura district, Karnataka, 561207, India",
            "closest_to": "tumkur"
        },
        "narasimha swamy temple": {
            "blogLinks": [
                "https://en.wikipedia.org/wiki/Tourism_in_Karnataka"
            ],
            "locType": "place_of_worship",
            "longitude": "76.2427318",
            "latitude": "13.0943931",
            "address": "Narasimha Swamy Temple, Attavara Mudigere Road, Attavara, Hasana taluk, Hassan district, Karnataka, India",
            "closest_to": "tumkur"
        },
        "vidyashankara": {
            "blogLinks": [
                "http://www.holidayiq.com/Kukke-Subrahmanya-Sightseeing-972.html"
            ],
            "locType": "place_of_worship",
            "longitude": "75.2514472909836",
            "latitude": "13.41567005",
            "address": "Sri Vidyashankara Swamy Temple, Sri Vidyateertha Setu, Sringeri, Sringeri taluku, Chikkamagaluru district, Karnataka, 577592, India",
            "closest_to": "tumkur"
        },
        "kaimara": {
            "blogLinks": [
                "http://wikitravel.org/en/Chikmagalur"
            ],
            "locType": "village",
            "longitude": "75.7448654",
            "latitude": "13.3713857",
            "address": "Kaimara, Chikkamagaluru taluku, Chikkamagaluru district, Karnataka, India",
            "closest_to": "tumkur"
        },
        "bababudangiri": {
            "blogLinks": [
                "http://wikitravel.org/en/Chikmagalur"
            ],
            "locType": "tertiary",
            "longitude": "75.7486618",
            "latitude": "13.4297401",
            "address": "Bababudangiri Road, Inam Dattatreya Pitha, Chikkamagaluru taluku, Chikkamagaluru district, Karnataka, India",
            "closest_to": "tumkur"
        },
        "agumbe": {
            "blogLinks": [
                "https://www.tripadvisor.in/Hotel_Review-g2370709-d2368366-Reviews-Dodda_Mane-Agumbe_Karnataka.html",
                "https://www.tripoto.com/weekend-getaways/from-agumbe",
                "http://69kph.blogspot.com/2010/11/agumbe-trek-barkana-falls.html"
            ],
            "locType": "village",
            "longitude": "75.0965525",
            "latitude": "13.5094998",
            "address": "Agumbe, Tirthahalli taluk, Shimoga district, Karnataka, 577411, India",
            "closest_to": "tumkur"
        },
        "malnad": {
            "blogLinks": [
                "https://www.quora.com/What-are-the-best-weekend-road-trips-from-Bangalore"
            ],
            "locType": "hospital",
            "longitude": "75.7715495",
            "latitude": "13.3160351",
            "address": "Malnad Hospital, Mudigere-Kadur Road, Chikkamagaluru, Chikkamagaluru taluku, Chikkamagaluru district, Karnataka, 577101, India",
            "closest_to": "tumkur"
        },
        "kemmannagundi": {
            "blogLinks": [
                "http://wikitravel.org/en/Chikmagalur"
            ],
            "locType": "village",
            "longitude": "75.7520082",
            "latitude": "13.5463048",
            "address": "Kemmannagundi, Tarikere taluku, Chikkamagaluru district, Karnataka, India",
            "closest_to": "tumkur"
        },
        "bellary": {
            "blogLinks": [
                "https://en.wikipedia.org/wiki/Tourism_in_Karnataka",
                "https://www.quora.com/What-are-the-best-weekend-road-trips-from-Bangalore"
            ],
            "locType": "county",
            "longitude": "76.8323648",
            "latitude": "15.2485413",
            "address": "Bellary, Bellary district, Karnataka, India",
            "closest_to": "tumkur"
        },
        "national park": {
            "blogLinks": [
                "https://www.quora.com/What-are-the-best-weekend-road-trips-from-Bangalore"
            ],
            "locType": "national_park",
            "longitude": "77.5722783830694",
            "latitude": "12.77900335",
            "address": "Bannerghatta National Park, Anekal Road, Begihalli, Bangalore Urban, Karnataka, 560076, India",
            "closest_to": "tumkur"
        },
        "matsya": {
            "blogLinks": [
                "http://www.holidayiq.com/Kukke-Subrahmanya-Sightseeing-972.html"
            ],
            "locType": "restaurant",
            "longitude": "77.6031908",
            "latitude": "12.9755458",
            "address": "Matsya, Church Street, Tasker Town, Ashok Nagar, Bengaluru, Bangalore Urban, Karnataka, 560001, India",
            "closest_to": "tumkur"
        },
        "mercara": {
            "blogLinks": [
                "https://en.wikipedia.org/wiki/Tourism_in_Karnataka"
            ],
            "locType": "town",
            "longitude": "75.740031",
            "latitude": "12.4204003",
            "address": "Madikeri, Madikeri taluku, Kodagu, Karnataka, India",
            "closest_to": "tumkur"
        },
        "bantwal": {
            "blogLinks": [
                "https://www.quora.com/What-are-the-best-weekend-road-trips-from-Bangalore"
            ],
            "locType": "town",
            "longitude": "75.0408618",
            "latitude": "12.8953789",
            "address": "Bantwal, Bantwal taluk, Dakshina Kannada, Karnataka, India",
            "closest_to": "agumbe"
        },
        "itagi": {
            "blogLinks": [
                "https://en.wikipedia.org/wiki/Tourism_in_Karnataka"
            ],
            "locType": "village",
            "longitude": "75.6701043",
            "latitude": "14.550374",
            "address": "Itagi, Ranebennuru taluk, Haveri district, Karnataka, India",
            "closest_to": "tumkur"
        },
        "arasikere": {
            "blogLinks": [
                "https://en.wikipedia.org/wiki/Tourism_in_Karnataka"
            ],
            "locType": "town",
            "longitude": "76.2568436",
            "latitude": "13.3159809",
            "address": "Arasikere, Arasikere taluku, Hassan district, Karnataka, 573103, India",
            "closest_to": "tumkur"
        },
        "yediyur": {
            "blogLinks": [
                "http://www.holidayiq.com/Tumkur-Places-of-Worship-A-975-4.html"
            ],
            "locType": "village",
            "longitude": "77.6957681",
            "latitude": "13.1312237",
            "address": "Yediyur, Bangalore Urban, Karnataka, India",
            "closest_to": "tumkur"
        },
        "bahubali": {
            "blogLinks": [
                "https://en.wikipedia.org/wiki/Tourism_in_Karnataka"
            ],
            "locType": "place_of_worship",
            "longitude": "76.4846128",
            "latitude": "12.8540505",
            "address": "Bahubali Statue, SH8, Shravanabelagola, Channarayapattana taluk, Hassan district, Karnataka, 573135, India",
            "closest_to": "tumkur"
        },
        "tumkur district": {
            "blogLinks": [
                "http://www.holidayiq.com/Tumkur-Places-of-Worship-A-975-4.html"
            ],
            "locType": "administrative",
            "longitude": "76.8817530420764",
            "latitude": "13.4176169",
            "address": "Tumkur district, Karnataka, India",
            "closest_to": "tumkur"
        },
        "veerabhadreshwara": {
            "blogLinks": [
                "http://www.holidayiq.com/Tumkur-Places-of-Worship-A-975-4.html"
            ],
            "locType": "place_of_worship",
            "longitude": "77.5667309",
            "latitude": "13.0719157",
            "address": "Sri Veerabhadreshwara Temple, 4th Cross, BEL Colony, Thindlu, Bengaluru, Bangalore Urban, Karnataka, 560001, India",
            "closest_to": "tumkur"
        },
        "nagara": {
            "blogLinks": [
                "http://wikitravel.org/en/Shimoga"
            ],
            "locType": "village",
            "longitude": "75.0328554",
            "latitude": "13.8236828",
            "address": "Nagara, Hosanagara taluk, Shimoga district, Karnataka, India",
            "closest_to": "agumbe"
        },
        "venur": {
            "blogLinks": [
                "https://en.wikipedia.org/wiki/Tourism_in_Karnataka"
            ],
            "locType": "village",
            "longitude": "75.1443252",
            "latitude": "13.0122097",
            "address": "Venoor, Beltangadi taluk, Dakshina Kannada, Karnataka, 574242, India",
            "closest_to": "agumbe"
        },
        "hebbe falls": {
            "blogLinks": [
                "https://en.wikipedia.org/wiki/Tourism_in_Karnataka"
            ],
            "locType": "attraction",
            "longitude": "75.7253701",
            "latitude": "13.5414025",
            "address": "Hebbe falls, Kemmannagundi Road, Attigundi, Chikkamagaluru taluku, Chikkamagaluru district, Karnataka, India",
            "closest_to": "tumkur"
        },
        "lakkavalli": {
            "blogLinks": [
                "http://wikitravel.org/en/Chikmagalur"
            ],
            "locType": "village",
            "longitude": "75.1078097",
            "latitude": "14.5841018",
            "address": "Lakkavalli, Soraba taluk, Shimoga district, Karnataka, India",
            "closest_to": "agumbe"
        },
        "kemmangundi": {
            "blogLinks": [
                "https://en.wikipedia.org/wiki/Tourism_in_Karnataka"
            ],
            "locType": "village",
            "longitude": "75.7520082",
            "latitude": "13.5463048",
            "address": "Kemmannagundi, Tarikere taluku, Chikkamagaluru district, Karnataka, India",
            "closest_to": "tumkur"
        },
        "kumara parvatha": {
            "blogLinks": [
                "http://www.holidayiq.com/Kukke-Subrahmanya-Sightseeing-972.html"
            ],
            "locType": "peak",
            "longitude": "75.6865652",
            "latitude": "12.6623315",
            "address": "Kumara Parvatha, Somawarpet taluk, Kodagu, Karnataka, India",
            "closest_to": "tumkur"
        },
        "varadahalli": {
            "blogLinks": [
                "http://wikitravel.org/en/Shimoga"
            ],
            "locType": "village",
            "longitude": "75.3323142",
            "latitude": "14.8568018",
            "address": "Varadahalli, Haveri taluku, Haveri district, Karnataka, India",
            "closest_to": "agumbe"
        },
        "tiptur": {
            "blogLinks": [
                "http://wikitravel.org/en/Chikmagalur"
            ],
            "locType": "town",
            "longitude": "76.4724264",
            "latitude": "13.2594418",
            "address": "Tiptur, Tipaturu taluk, Tumkur district, Karnataka, 572200, India",
            "closest_to": "tumkur"
        },
        "north karnataka": {
            "blogLinks": [
                "https://en.wikipedia.org/wiki/Tourism_in_Karnataka"
            ],
            "locType": "service",
            "longitude": "77.7660547",
            "latitude": "13.0217151",
            "address": "N, Chaithanya Samarpan, Kadugodi, Kannamangala, Bangalore Urban, Karnataka, 560066, India",
            "closest_to": "tumkur"
        },
        "varur": {
            "blogLinks": [
                "https://en.wikipedia.org/wiki/Tourism_in_Karnataka"
            ],
            "locType": "village",
            "longitude": "75.1387568",
            "latitude": "15.2077105",
            "address": "Varur, Hubballi taluku, Dharwad district, Karnataka, India",
            "closest_to": "agumbe"
        },
        "hoysala": {
            "blogLinks": [
                "https://en.wikipedia.org/wiki/Tourism_in_Karnataka"
            ],
            "locType": "administrative",
            "longitude": "77.6375990817051",
            "latitude": "12.97813815",
            "address": "Hoysala Nagar, Bengaluru, Bangalore Urban, Karnataka, 560001, India",
            "closest_to": "tumkur"
        },
        "hassan district": {
            "blogLinks": [
                "https://en.wikipedia.org/wiki/Tourism_in_Karnataka"
            ],
            "locType": "administrative",
            "longitude": "76.1745460751981",
            "latitude": "13.0315068",
            "address": "Hassan district, Karnataka, India",
            "closest_to": "tumkur"
        },
        "kasturi": {
            "blogLinks": [
                "https://www.tripadvisor.in/Hotel_Review-g2370709-d2368366-Reviews-Dodda_Mane-Agumbe_Karnataka.html"
            ],
            "locType": "village",
            "longitude": "76.7116916",
            "latitude": "13.8810883",
            "address": "Kasturi Rangappanahalli, Hiriyuru taluk, Chitradurga district, Karnataka, India",
            "closest_to": "tumkur"
        },
        "netravati": {
            "blogLinks": [
                "https://en.wikipedia.org/wiki/Tourism_in_Karnataka"
            ],
            "locType": "river",
            "longitude": "75.1562182",
            "latitude": "12.8537655",
            "address": "Netravati, Bantwal taluk, Dakshina Kannada, Karnataka, India",
            "closest_to": "agumbe"
        },
        "chikkamagaluru": {
            "blogLinks": [
                "http://wikitravel.org/en/Chikmagalur"
            ],
            "locType": "city",
            "longitude": "75.7738743",
            "latitude": "13.318014",
            "address": "Chikkamagaluru, Chikkamagaluru taluku, Chikkamagaluru district, Karnataka, 577101, India",
            "closest_to": "tumkur"
        },
        "sagara taluk": {
            "blogLinks": [
                "https://en.wikipedia.org/wiki/Tourism_in_Karnataka",
                "http://wikitravel.org/en/Shimoga"
            ],
            "locType": "administrative",
            "longitude": "74.9610874491152",
            "latitude": "14.09993045",
            "address": "Sagara taluk, Shimoga district, Karnataka, India",
            "closest_to": "agumbe"
        },
        "subrahmanya": {
            "blogLinks": [
                "http://www.holidayiq.com/Kukke-Subrahmanya-Sightseeing-972.html"
            ],
            "locType": "village",
            "longitude": "75.6131771",
            "latitude": "12.6677868",
            "address": "Kukke Subrahmanya, Sulya taluk, Dakshina Kannada, Karnataka, 574238, India",
            "closest_to": "tumkur"
        },
        "sringeri": {
            "blogLinks": [
                "https://www.quora.com/What-are-the-best-weekend-road-trips-from-Bangalore",
                "http://69kph.blogspot.com/2010/11/agumbe-trek-barkana-falls.html"
            ],
            "locType": "town",
            "longitude": "75.2553718",
            "latitude": "13.4261724",
            "address": "Sringeri, Sringeri taluku, Chikkamagaluru district, Karnataka, 577592, India",
            "closest_to": "tumkur"
        },
        "narayana": {
            "blogLinks": [
                "https://en.wikipedia.org/wiki/Tourism_in_Karnataka"
            ],
            "locType": "village",
            "longitude": "76.201037",
            "latitude": "13.9181889",
            "address": "Narayana Gondanahalli, Holalkere taluk, Chitradurga district, Karnataka, India",
            "closest_to": "tumkur"
        },
        "ujire": {
            "blogLinks": [
                "https://www.quora.com/What-are-the-best-weekend-road-trips-from-Bangalore"
            ],
            "locType": "village",
            "longitude": "75.3301061",
            "latitude": "12.9954619",
            "address": "Ujire, Beltangadi taluk, Dakshina Kannada, Karnataka, India",
            "closest_to": "tumkur"
        },
        "kumaradhara river": {
            "blogLinks": [
                "http://www.holidayiq.com/Kukke-Subrahmanya-Sightseeing-972.html"
            ],
            "locType": "river",
            "longitude": "75.4390597",
            "latitude": "12.7370168",
            "address": "Kumaradhara, Putturu taluk, Dakshina Kannada, Karnataka, India",
            "closest_to": "tumkur"
        },
        "bengaluru": {
            "blogLinks": [
                "https://www.quora.com/What-are-the-best-weekend-road-trips-from-Bangalore",
                "https://www.tripoto.com/weekend-getaways/from-agumbe"
            ],
            "locType": "city",
            "longitude": "77.5912997",
            "latitude": "12.9791198",
            "address": "Bengaluru, Bangalore Urban, Karnataka, 560001, India",
            "closest_to": "tumkur"
        },
        "siddheshwara": {
            "blogLinks": [
                "https://en.wikipedia.org/wiki/Tourism_in_Karnataka"
            ],
            "locType": "pharmacy",
            "longitude": "77.5876527",
            "latitude": "13.0797146",
            "address": "Siddheshwara Medicals, Judicial Layout, Allalasandra, Bangalore, 7th Main Road, Judicial Layout, Bengaluru, Bangalore Urban, Karnataka, 560001, India",
            "closest_to": "tumkur"
        },
        "manipal": {
            "blogLinks": [
                "https://en.wikipedia.org/wiki/Tourism_in_Karnataka"
            ],
            "locType": "town",
            "longitude": "74.7870308",
            "latitude": "13.3519723",
            "address": "Manipal, Udupi taluku, Udupi district, Karnataka, India",
            "closest_to": "agumbe"
        },
        "kudremukh": {
            "blogLinks": [
                "http://www.team-bhp.com/forum/route-travel-queries/42482-bangalore-shimoga-route-queries-2.html",
                "http://wikitravel.org/en/Chikmagalur"
            ],
            "locType": "village",
            "longitude": "75.2523304",
            "latitude": "13.2144007",
            "address": "Kudremukha, Mudigere taluk, Chikkamagaluru district, Karnataka, India",
            "closest_to": "tumkur"
        },
        "bandaje falls": {
            "blogLinks": [
                "https://www.quora.com/What-are-the-best-weekend-road-trips-from-Bangalore"
            ],
            "locType": "track",
            "longitude": "75.3809448",
            "latitude": "13.0801279",
            "address": "Bandaje to Bandaje falls, Bangadi, Beltangadi taluk, Dakshina Kannada, Karnataka, 574290, India",
            "closest_to": "tumkur"
        },
        "karnataka state": {
            "blogLinks": [
                "http://wikitravel.org/en/Shimoga"
            ],
            "locType": "university",
            "longitude": "76.6236231",
            "latitude": "12.315382",
            "address": "Karnataka State Open University, \u0cb9\u0cc1\u0ca3\u0cb8\u0cc2\u0cb0\u0cc1 \u0cb0\u0cb8\u0ccd\u0ca4\u0cc6, Gokulam, Mysuru, Mysuru taluk, Mysuru district, Karnataka, 570001, India",
            "closest_to": "tumkur"
        },
        "chandramoulishwara": {
            "blogLinks": [
                "https://en.wikipedia.org/wiki/Tourism_in_Karnataka"
            ],
            "locType": "place_of_worship",
            "longitude": "76.6290267",
            "latitude": "12.3225663",
            "address": "Chandramoulishwara Temple, Adipampa Road, Gokulam, Mysuru, Mysuru taluk, Mysuru district, Karnataka, 570001, India",
            "closest_to": "tumkur"
        },
        "tirupati": {
            "blogLinks": [
                "https://www.quora.com/What-are-the-best-weekend-road-trips-from-Bangalore"
            ],
            "locType": "village",
            "longitude": "76.2727455",
            "latitude": "13.3289007",
            "address": "Malekallu Tirupathi, Arasikere taluku, Hassan district, Karnataka, India",
            "closest_to": "tumkur"
        },
        "gangadhareshwara": {
            "blogLinks": [
                "http://rakeshholla.blogspot.com/2012/09/shivaganga-hills-tumkur.html"
            ],
            "locType": "place_of_worship",
            "longitude": "77.5628973",
            "latitude": "12.9481567",
            "address": "Gavi Gangadhareshwara Temple, 3rd Main Road, Yediyur, Hanumantha Nagar, Bengaluru, Bangalore Urban, Karnataka, 560001, India",
            "closest_to": "tumkur"
        },
        "east": {
            "blogLinks": [
                "https://en.wikipedia.org/wiki/Tourism_in_Karnataka"
            ],
            "locType": "restaurant",
            "longitude": "77.6601401",
            "latitude": "12.8504319",
            "address": "East, 43, Velankani Drive, Electronics City Phase 1, Doddathoguru, Bangalore Urban, Karnataka, 560100, India",
            "closest_to": "tumkur"
        },
        "karnataka": {
            "blogLinks": [
                "http://www.sutthonabanni.com/2011/07/tumkur-district.html",
                "http://distancecalculator.globefeed.com/India_Distance_Calculator.asp?state=19",
                "http://69kph.blogspot.com/2010/11/agumbe-trek-barkana-falls.html",
                "https://en.wikipedia.org/wiki/Tourism_in_Karnataka",
                "https://www.quora.com/What-are-the-best-weekend-road-trips-from-Bangalore",
                "https://en.wikipedia.org/wiki/Agumbe",
                "http://wikitravel.org/en/Chikmagalur",
                "http://rakeshholla.blogspot.com/2012/09/shivaganga-hills-tumkur.html",
                "https://www.tripoto.com/weekend-getaways/from-agumbe",
                "http://wikitravel.org/en/Shimoga",
                "http://www.onefivenine.com/india/Travel/Place/Agumbe",
                "http://www.holidayiq.com/Tumkur-Places-of-Worship-A-975-4.html"
            ],
            "locType": "atm",
            "longitude": "76.6639936",
            "latitude": "12.3084901",
            "address": "Karnataka, Shalivahana Road, Nazarbad, Mysuru, Mysuru taluk, Mysuru district, Karnataka, 570001, India",
            "closest_to": "tumkur"
        },
        "bellary road": {
            "blogLinks": [
                "https://www.quora.com/What-are-the-best-weekend-road-trips-from-Bangalore"
            ],
            "locType": "trunk",
            "longitude": "77.5915237",
            "latitude": "13.0465345",
            "address": "Bellary Road, Kanaka Nagar, Hebbal, Bengaluru, Bangalore Urban, Karnataka, 560001, India",
            "closest_to": "tumkur"
        },
        "china valley": {
            "blogLinks": [
                "http://www.team-bhp.com/forum/travelogues/51461-my-tour-western-karnataka-lots-pics.html",
                "https://www.tripoto.com/weekend-getaways/from-agumbe"
            ],
            "locType": "restaurant",
            "longitude": "77.6074274",
            "latitude": "12.9708868",
            "address": "Highland China, Magrath Road, Tasker Town, Ashok Nagar, Bengaluru, Bangalore Urban, Karnataka, 560001, India",
            "closest_to": "tumkur"
        },
        "kanakapura taluk": {
            "blogLinks": [
                "https://www.quora.com/What-are-the-best-weekend-road-trips-from-Bangalore"
            ],
            "locType": "administrative",
            "longitude": "77.4224204245398",
            "latitude": "12.5199223",
            "address": "Kanakapura taluk, Ramanagara district, Karnataka, India",
            "closest_to": "tumkur"
        },
        "gavi": {
            "blogLinks": [
                "http://rakeshholla.blogspot.com/2012/09/shivaganga-hills-tumkur.html"
            ],
            "locType": "place_of_worship",
            "longitude": "77.5628973",
            "latitude": "12.9481567",
            "address": "Gavi Gangadhareshwara Temple, 3rd Main Road, Yediyur, Hanumantha Nagar, Bengaluru, Bangalore Urban, Karnataka, 560001, India",
            "closest_to": "tumkur"
        },
        "sagar taluk": {
            "blogLinks": [
                "http://wikitravel.org/en/Shimoga"
            ],
            "locType": "town",
            "longitude": "75.0262551",
            "latitude": "14.1666594",
            "address": "Sagara, Sagara taluk, Shimoga district, Karnataka, 577400, India",
            "closest_to": "agumbe"
        },
        "kalyani": {
            "blogLinks": [
                "https://en.wikipedia.org/wiki/Tourism_in_Karnataka"
            ],
            "locType": "water",
            "longitude": "77.6286090192686",
            "latitude": "12.8406466",
            "address": "Kalyani, Neeladri Road, Electronics City Phase 1, Bettadasana Pura, Bangalore Urban, Karnataka, 560100, India",
            "closest_to": "tumkur"
        },
        "manchanabele": {
            "blogLinks": [
                "https://www.quora.com/What-are-the-best-weekend-road-trips-from-Bangalore"
            ],
            "locType": "village",
            "longitude": "77.3344212",
            "latitude": "12.8668921",
            "address": "Manchanabele, Magadi taluku, Ramanagara district, Karnataka, India",
            "closest_to": "tumkur"
        },
        "rock garden": {
            "blogLinks": [
                "https://en.wikipedia.org/wiki/Tourism_in_Karnataka"
            ],
            "locType": "waterfall",
            "longitude": "75.6142269",
            "latitude": "12.2248591",
            "address": "Waterfalls by the Rock site, Madikeri taluku, Kodagu, Karnataka, India",
            "closest_to": "agumbe"
        },
        "madurai": {
            "blogLinks": [
                "https://www.tripoto.com/weekend-getaways/from-agumbe"
            ],
            "locType": "restaurant",
            "longitude": "77.6320535",
            "latitude": "12.9185419",
            "address": "Madurai Idly Shop, 5th Main Road, Teachers Colony, HSR Layout, Bengaluru, Bangalore Urban, Karnataka, 560001, India",
            "closest_to": "tumkur"
        },
        "nagarhole national park": {
            "blogLinks": [
                "https://en.wikipedia.org/wiki/Tourism_in_Karnataka"
            ],
            "locType": "national_park",
            "longitude": "76.1537073415874",
            "latitude": "12.0600362",
            "address": "Nagarahole National Park, Virajpet taluk, Kodagu, Karnataka, India",
            "closest_to": "tumkur"
        },
        "kollur": {
            "blogLinks": [
                "http://wikitravel.org/en/Shimoga"
            ],
            "locType": "village",
            "longitude": "74.8137959",
            "latitude": "13.8634049",
            "address": "Kollur, \u0c95\u0cc1\u0c82\u0ca6\u0cbe\u0caa\u0cc1\u0cb0 \u0ca4\u0cbe\u0cb2\u0cc2\u0c95\u0cc1, Udupi district, Karnataka, 576220, India",
            "closest_to": "agumbe"
        },
        "ranganathittu bird sanctuary": {
            "blogLinks": [
                "https://en.wikipedia.org/wiki/Tourism_in_Karnataka"
            ],
            "locType": "attraction",
            "longitude": "76.6553081",
            "latitude": "12.4238524",
            "address": "Ranganathittu Bird Sanctuary, SH154, Palahalli, Srirangapattana taluk, Mandya district, Karnataka, 571438, India",
            "closest_to": "tumkur"
        },
        "shivaganga": {
            "blogLinks": [
                "http://rakeshholla.blogspot.com/2012/09/shivaganga-hills-tumkur.html"
            ],
            "locType": "village",
            "longitude": "76.2510807",
            "latitude": "14.0791346",
            "address": "Shivaganga, Holalkere taluk, Chitradurga district, Karnataka, India",
            "closest_to": "tumkur"
        },
        "annapoorneshwari temple": {
            "blogLinks": [
                "https://www.quora.com/What-are-the-best-weekend-road-trips-from-Bangalore"
            ],
            "locType": "place_of_worship",
            "longitude": "74.9006001",
            "latitude": "12.97910715",
            "address": "Sri Ambika Annapoorneshwari Temple, SH101, Sunkadakatte, Mangaluru taluk, Dakshina Kannada, Karnataka, India",
            "closest_to": "agumbe"
        },
        "avalabetta": {
            "blogLinks": [
                "https://www.quora.com/What-are-the-best-weekend-road-trips-from-Bangalore"
            ],
            "locType": "peak",
            "longitude": "77.6730413",
            "latitude": "13.5775096",
            "address": "Avalabetta, Chikkaballapura taluk, Chikkaballapura district, Karnataka, India",
            "closest_to": "tumkur"
        },
        "varada": {
            "blogLinks": [
                "https://en.wikipedia.org/wiki/Tourism_in_Karnataka"
            ],
            "locType": "river",
            "longitude": "75.47206",
            "latitude": "14.8717792",
            "address": "Varada, Savanura taluk, Haveri district, Karnataka, India",
            "closest_to": "agumbe"
        },
        "nandi hills": {
            "blogLinks": [
                "https://www.quora.com/What-are-the-best-weekend-road-trips-from-Bangalore"
            ],
            "locType": "hotel",
            "longitude": "77.7194741670394",
            "latitude": "13.268142",
            "address": "Nandi Upahara, Nandhi Hills Road, Kottige Thimmanahalli, Devanahalli taluk, Bangalore Rural, Karnataka, India",
            "closest_to": "tumkur"
        },
        "belagumba village": {
            "blogLinks": [
                "http://www.holidayiq.com/Tumkur-Places-of-Worship-A-975-4.html"
            ],
            "locType": "village",
            "longitude": "77.1427843",
            "latitude": "13.3524079",
            "address": "Belagumba, Tumkur taluk, Tumkur district, Karnataka, India",
            "closest_to": "tumkur"
        },
        "belthangady": {
            "blogLinks": [
                "https://www.quora.com/What-are-the-best-weekend-road-trips-from-Bangalore"
            ],
            "locType": "school",
            "longitude": "75.2789924801603",
            "latitude": "12.9899316",
            "address": "Government Model Primary School Belthangady, NH73, Guruvayankere, Beltangadi taluk, Dakshina Kannada, Karnataka, India",
            "closest_to": "tumkur"
        },
        "chamarajanagar": {
            "blogLinks": [
                "https://en.wikipedia.org/wiki/Tourism_in_Karnataka"
            ],
            "locType": "station",
            "longitude": "76.9331345",
            "latitude": "11.9346624",
            "address": "Chamarajanagar, Nanjangudu-Chamarajanagar Road, Kadahalli, Chamarajanagara taluk, Chamarajanagar district, Karnataka, 571313, India",
            "closest_to": "tumkur"
        },
        "devarayanadurga": {
            "blogLinks": [
                "http://www.holidayiq.com/Tumkur-Places-of-Worship-A-975-4.html"
            ],
            "locType": "peak",
            "longitude": "77.2143445",
            "latitude": "13.3740537",
            "address": "Devarayanadurga, Tumakuru, Tumkur taluk, Tumkur district, Karnataka, 572101, India",
            "closest_to": "tumkur"
        },
        "sirigere": {
            "blogLinks": [
                "https://en.wikipedia.org/wiki/Tourism_in_Karnataka"
            ],
            "locType": "village",
            "longitude": "76.2051907",
            "latitude": "14.2840739",
            "address": "Sirigere, Chitradurga taluku, Chitradurga district, Karnataka, India",
            "closest_to": "tumkur"
        },
        "river varahi": {
            "blogLinks": [
                "http://www.onefivenine.com/india/Travel/Place/Agumbe",
                "https://www.tripadvisor.in/ShowTopic-g2370709-i26348-k5737423-Tourist_attractions_in_Agumbe-Agumbe_Karnataka.html"
            ],
            "locType": "river",
            "longitude": "74.9489117",
            "latitude": "13.6582668",
            "address": "Varahi, \u0c95\u0cc1\u0c82\u0ca6\u0cbe\u0caa\u0cc1\u0cb0 \u0ca4\u0cbe\u0cb2\u0cc2\u0c95\u0cc1, Udupi district, Karnataka, India",
            "closest_to": "agumbe"
        },
        "malpe": {
            "blogLinks": [
                "https://en.wikipedia.org/wiki/Tourism_in_Karnataka"
            ],
            "locType": "village",
            "longitude": "74.7036914",
            "latitude": "13.3507423",
            "address": "Malpe, Udupi taluku, Udupi district, Karnataka, India",
            "closest_to": "agumbe"
        },
        "kudremukh national park": {
            "blogLinks": [
                "https://en.wikipedia.org/wiki/Tourism_in_Karnataka",
                "https://en.wikipedia.org/wiki/Agumbe"
            ],
            "locType": "national_park",
            "longitude": "75.1828713712862",
            "latitude": "13.25397485",
            "address": "Kudremukh National Park, SH66, Sringeri taluku, Chikkamagaluru district, Karnataka, India",
            "closest_to": "tumkur"
        },
        "dharma river": {
            "blogLinks": [
                "https://en.wikipedia.org/wiki/Tourism_in_Karnataka"
            ],
            "locType": "park",
            "longitude": "77.5575864485219",
            "latitude": "12.98914885",
            "address": "Dharma Naidu Udhyanavana, 44th cross, Rajajinagar 4th Block, Rajaji Nagar, Bengaluru, Bangalore Urban, Karnataka, 560001, India",
            "closest_to": "tumkur"
        },
        "manikyadhara": {
            "blogLinks": [
                "http://wikitravel.org/en/Chikmagalur"
            ],
            "locType": "attraction",
            "longitude": "75.7701434",
            "latitude": "13.4220248",
            "address": "Manikyadhara, Bababudangiri Road, Inam Dattatreya Pitha, Chikkamagaluru taluku, Chikkamagaluru district, Karnataka, India",
            "closest_to": "tumkur"
        },
        "soraba": {
            "blogLinks": [
                "http://wikitravel.org/en/Shimoga"
            ],
            "locType": "village",
            "longitude": "75.0921749",
            "latitude": "14.3794806",
            "address": "Soraba, Soraba taluk, Shimoga district, Karnataka, 577429, India",
            "closest_to": "agumbe"
        },
        "yagachi": {
            "blogLinks": [
                "http://wikitravel.org/en/Chikmagalur"
            ],
            "locType": "river",
            "longitude": "75.950911",
            "latitude": "13.0658494",
            "address": "Yagachi, Beluru taluk, Hassan district, Karnataka, India",
            "closest_to": "tumkur"
        },
        "anjaneya": {
            "blogLinks": [
                "http://www.holidayiq.com/Kukke-Subrahmanya-Sightseeing-972.html"
            ],
            "locType": "industrial",
            "longitude": "75.9641294673087",
            "latitude": "14.4269975",
            "address": "Anjaneya Mills, Nituvalli, Davanagere, Davanagere taluku, Davanagere district, Karnataka, 577000, India",
            "closest_to": "tumkur"
        },
        "kumta": {
            "blogLinks": [
                "https://en.wikipedia.org/wiki/Tourism_in_Karnataka",
                "http://rakeshholla.blogspot.com/2012/09/shivaganga-hills-tumkur.html"
            ],
            "locType": "town",
            "longitude": "74.4107617",
            "latitude": "14.4261647",
            "address": "Kumta, Kumata taluk, Uttara Kannada, Karnataka, India",
            "closest_to": "agumbe"
        },
        "netrani island of uttara kannada": {
            "blogLinks": [
                "https://en.wikipedia.org/wiki/Tourism_in_Karnataka"
            ],
            "locType": "island",
            "longitude": "74.3272086675849",
            "latitude": "14.0174924",
            "address": "Netrani, Uttara Kannada, Karnataka, India",
            "closest_to": "agumbe"
        },
        "kagal": {
            "blogLinks": [
                "https://en.wikipedia.org/wiki/Tourism_in_Karnataka"
            ],
            "locType": "grass",
            "longitude": "74.3575302591262",
            "latitude": "14.5055819",
            "address": "Kagal Fort, Birkodi Village, Kumata taluk, Uttara Kannada, Karnataka, India",
            "closest_to": "agumbe"
        },
        "shringeri": {
            "blogLinks": [
                "https://en.wikipedia.org/wiki/Agumbe"
            ],
            "locType": "village",
            "longitude": "75.0621168",
            "latitude": "14.7221214",
            "address": "Shringeri, Hanagal taluk, Haveri district, Karnataka, India",
            "closest_to": "agumbe"
        },
        "ooty": {
            "blogLinks": [
                "https://www.quora.com/What-are-the-best-weekend-road-trips-from-Bangalore"
            ],
            "locType": "primary",
            "longitude": "76.6586807",
            "latitude": "12.2774807",
            "address": "Ooty Road, Vidyaranyapuram, Mysuru, Mysuru taluk, Mysuru district, Karnataka, 570001, India",
            "closest_to": "tumkur"
        },
        "mysore": {
            "blogLinks": [
                "https://www.quora.com/What-are-the-best-weekend-road-trips-from-Bangalore"
            ],
            "locType": "city",
            "longitude": "76.6553609",
            "latitude": "12.3051828",
            "address": "Mysuru, Mysuru taluk, Mysuru district, Karnataka, 570001, India",
            "closest_to": "tumkur"
        },
        "kozhikode": {
            "blogLinks": [
                "https://www.quora.com/What-are-the-best-weekend-road-trips-from-Bangalore"
            ],
            "locType": "primary",
            "longitude": "76.6598864",
            "latitude": "12.2926117",
            "address": "Kozhikode - Kollegal Highway, Ittigegudu, Mysuru, Mysuru taluk, Mysuru district, Karnataka, 570001, India",
            "closest_to": "tumkur"
        },
        "subramanya": {
            "blogLinks": [
                "https://en.wikipedia.org/wiki/Tourism_in_Karnataka",
                "http://www.team-bhp.com/forum/travelogues/51461-my-tour-western-karnataka-lots-pics.html"
            ],
            "locType": "commercial",
            "longitude": "77.6015800913134",
            "latitude": "12.9251206",
            "address": "Subramanya Arcade, Marenahalli, Bengaluru, Bangalore Urban, Karnataka, 560001, India",
            "closest_to": "tumkur"
        },
        "samse": {
            "blogLinks": [
                "https://www.quora.com/What-are-the-best-weekend-road-trips-from-Bangalore"
            ],
            "locType": "village",
            "longitude": "75.3332678",
            "latitude": "13.1894244",
            "address": "Samse, Mudigere taluk, Chikkamagaluru district, Karnataka, India",
            "closest_to": "tumkur"
        },
        "kanakapura road": {
            "blogLinks": [
                "https://en.wikipedia.org/wiki/Tourism_in_Karnataka"
            ],
            "locType": "trunk",
            "longitude": "77.5733483",
            "latitude": "12.9064528",
            "address": "Kanakapura Road, Rajotsava Nagar, Kaderenahalli, Bengaluru, Bangalore Urban, Karnataka, 560001, India",
            "closest_to": "tumkur"
        },
        "mekedatu": {
            "blogLinks": [
                "https://en.wikipedia.org/wiki/Tourism_in_Karnataka",
                "https://www.quora.com/What-are-the-best-weekend-road-trips-from-Bangalore"
            ],
            "locType": "attraction",
            "longitude": "77.4475194",
            "latitude": "12.2584997",
            "address": "Mekedatu, SH92, Mahalli, Kanakapura taluk, Ramanagara district, Karnataka, India",
            "closest_to": "tumkur"
        },
        "sangameshwara": {
            "blogLinks": [
                "https://en.wikipedia.org/wiki/Tourism_in_Karnataka"
            ],
            "locType": "village",
            "longitude": "74.87651",
            "latitude": "15.184341",
            "address": "Sangameshwara, Kalaghatagi taluku, Dharwad district, Karnataka, India",
            "closest_to": "agumbe"
        },
        "mandya district": {
            "blogLinks": [
                "https://en.wikipedia.org/wiki/Tourism_in_Karnataka"
            ],
            "locType": "administrative",
            "longitude": "76.7302318329607",
            "latitude": "12.6336348",
            "address": "Mandya district, Karnataka, India",
            "closest_to": "tumkur"
        },
        "sakleshpur": {
            "blogLinks": [
                "https://www.quora.com/What-are-the-best-weekend-road-trips-from-Bangalore"
            ],
            "locType": "town",
            "longitude": "75.7862318",
            "latitude": "12.9434349",
            "address": "Sakaleshpura, Sakaleshapura taluk, Hassan district, Karnataka, 573134, India",
            "closest_to": "tumkur"
        },
        "mookambika": {
            "blogLinks": [
                "https://en.wikipedia.org/wiki/Tourism_in_Karnataka"
            ],
            "locType": "place_of_worship",
            "longitude": "74.8145296",
            "latitude": "13.8638043",
            "address": "Mukambika Devasthana, NH766C;SH26, Halkal, \u0c95\u0cc1\u0c82\u0ca6\u0cbe\u0caa\u0cc1\u0cb0 \u0ca4\u0cbe\u0cb2\u0cc2\u0c95\u0cc1, Udupi district, Karnataka, 576220, India",
            "closest_to": "agumbe"
        },
        "chola": {
            "blogLinks": [
                "https://en.wikipedia.org/wiki/Tourism_in_Karnataka"
            ],
            "locType": "yes",
            "longitude": "76.098782",
            "latitude": "13.0023906",
            "address": "Chola Gold Loan, Bengaluru - Mangaluru Road, Ravindra Nagar, Santhe Pete, Hassan, Hasana taluk, Hassan district, Karnataka, 573201, India",
            "closest_to": "tumkur"
        },
        "uttara kannada district": {
            "blogLinks": [
                "https://www.quora.com/What-are-the-best-weekend-road-trips-from-Bangalore"
            ],
            "locType": "county",
            "longitude": "74.583333",
            "latitude": "14.883333",
            "address": "Uttara Kannada, Karnataka, India",
            "closest_to": "agumbe"
        },
        "kaveri": {
            "blogLinks": [
                "https://en.wikipedia.org/wiki/Tourism_in_Karnataka",
                "https://www.quora.com/What-are-the-best-weekend-road-trips-from-Bangalore",
                "http://www.sutthonabanni.com/2011/07/tumkur-district.html"
            ],
            "locType": "river",
            "longitude": "77.0635531",
            "latitude": "12.1687878",
            "address": "Kaveri, Kollegala taluk, Chamarajanagar district, Karnataka, India",
            "closest_to": "tumkur"
        },
        "goa": {
            "blogLinks": [
                "https://en.wikipedia.org/wiki/Tourism_in_Karnataka",
                "http://rakeshholla.blogspot.com/2012/09/shivaganga-hills-tumkur.html",
                "https://www.tripoto.com/weekend-getaways/from-agumbe"
            ],
            "locType": "restaurant",
            "longitude": "77.6200027",
            "latitude": "12.9750047",
            "address": "Carnival De Goa, Bhaskaran Road, Gupta Layout, Halasuru, Bengaluru, Bangalore Urban, Karnataka, 560001, India",
            "closest_to": "tumkur"
        },
        "lal bagh": {
            "blogLinks": [
                "https://www.tripoto.com/weekend-getaways/from-agumbe"
            ],
            "locType": "bus_stop",
            "longitude": "74.8386152",
            "latitude": "12.8859223",
            "address": "Lal Bagh Bus Stop, Mahatma Gandhi Road, Lalbagh, Ladyhill, Mangaluru, Mangaluru taluk, Dakshina Kannada, Karnataka, 575001, India",
            "closest_to": "agumbe"
        },
        "' river varahi": {
            "blogLinks": [
                "https://en.wikipedia.org/wiki/Tourism_in_Karnataka"
            ],
            "locType": "river",
            "longitude": "74.9489117",
            "latitude": "13.6582668",
            "address": "Varahi, \u0c95\u0cc1\u0c82\u0ca6\u0cbe\u0caa\u0cc1\u0cb0 \u0ca4\u0cbe\u0cb2\u0cc2\u0c95\u0cc1, Udupi district, Karnataka, India",
            "closest_to": "agumbe"
        },
        "tirthahalli": {
            "blogLinks": [
                "http://www.team-bhp.com/forum/route-travel-queries/42482-bangalore-shimoga-route-queries-2.html"
            ],
            "locType": "town",
            "longitude": "75.2463699",
            "latitude": "13.6901992",
            "address": "Tirthahalli, Tirthahalli taluk, Shimoga district, Karnataka, 577432, India",
            "closest_to": "tumkur"
        },
        "kanakpura": {
            "blogLinks": [
                "https://www.quora.com/What-are-the-best-weekend-road-trips-from-Bangalore"
            ],
            "locType": "yes",
            "longitude": "77.5438085908703",
            "latitude": "12.8866679",
            "address": "H 902, Mantri Tranquil, Gubbalala, Off Kanakpura Road, Bengaluru - 61, Subramanyapura Main Road, Singapore Gardens, Uttarahalli, Gubbalala, Bangalore Urban, Karnataka, 560086, India",
            "closest_to": "tumkur"
        },
        "vishnu": {
            "blogLinks": [
                "https://en.wikipedia.org/wiki/Tourism_in_Karnataka"
            ],
            "locType": "residential",
            "longitude": "77.7198022157059",
            "latitude": "12.95388635",
            "address": "Vishnu Residency Apartments, Thubarahalli, Siddapura, Bangalore Urban, Karnataka, 560066, India",
            "closest_to": "tumkur"
        },
        "kodagu": {
            "blogLinks": [
                "https://en.wikipedia.org/wiki/Tourism_in_Karnataka",
                "https://www.quora.com/What-are-the-best-weekend-road-trips-from-Bangalore"
            ],
            "locType": "administrative",
            "longitude": "75.6677235950852",
            "latitude": "12.38117345",
            "address": "Kodagu, Karnataka, India",
            "closest_to": "tumkur"
        },
        "karwar": {
            "blogLinks": [
                "https://en.wikipedia.org/wiki/Tourism_in_Karnataka"
            ],
            "locType": "town",
            "longitude": "74.1319229",
            "latitude": "14.8120931",
            "address": "Karwar, Karavara taluk, Uttara Kannada, Karnataka, 581300, India",
            "closest_to": "agumbe"
        },
        "south": {
            "blogLinks": [
                "https://en.wikipedia.org/wiki/Tourism_in_Karnataka"
            ],
            "locType": "residential",
            "longitude": "77.8040874",
            "latitude": "13.2942848",
            "address": "s, Vijayapura, Devanahalli taluk, Bangalore Rural, Karnataka, 562135, India",
            "closest_to": "tumkur"
        },
        "belavadi": {
            "blogLinks": [
                "https://en.wikipedia.org/wiki/Tourism_in_Karnataka"
            ],
            "locType": "village",
            "longitude": "75.3760773",
            "latitude": "13.5284899",
            "address": "Belavadi, Koppa taluk, Chikkamagaluru district, Karnataka, India",
            "closest_to": "tumkur"
        },
        "maradi": {
            "blogLinks": [
                "http://wikitravel.org/en/Chikmagalur"
            ],
            "locType": "village",
            "longitude": "76.0757799",
            "latitude": "12.8130205",
            "address": "Maradi, Arakalagudu taluk, Hassan district, Karnataka, India",
            "closest_to": "tumkur"
        },
        "unchalli falls": {
            "blogLinks": [
                "https://en.wikipedia.org/wiki/Tourism_in_Karnataka"
            ],
            "locType": "waterfall",
            "longitude": "74.7477592",
            "latitude": "14.4097755",
            "address": "\u0c89\u0c82\u0c9a\u0cb3\u0ccd\u0cb3\u0cbf \u0c9c\u0cb2\u0caa\u0cbe\u0ca4, Siddapura taluk, Uttara Kannada, Karnataka, India",
            "closest_to": "agumbe"
        },
        "kalasa": {
            "blogLinks": [
                "https://en.wikipedia.org/wiki/Tourism_in_Karnataka",
                "https://www.quora.com/What-are-the-best-weekend-road-trips-from-Bangalore"
            ],
            "locType": "town",
            "longitude": "75.3582366",
            "latitude": "13.2322235",
            "address": "Kalasa, Mudigere taluk, Chikkamagaluru district, Karnataka, 577124, India",
            "closest_to": "tumkur"
        },
        "nilgiris": {
            "blogLinks": [
                "https://en.wikipedia.org/wiki/Tourism_in_Karnataka"
            ],
            "locType": "supermarket",
            "longitude": "77.6069792",
            "latitude": "12.9725052",
            "address": "Nilgiris, Brigade Road, Tasker Town, Ashok Nagar, Bengaluru, Bangalore Urban, Karnataka, 560001, India",
            "closest_to": "tumkur"
        },
        "tarekere": {
            "blogLinks": [
                "http://www.team-bhp.com/forum/route-travel-queries/42482-bangalore-shimoga-route-queries-2.html"
            ],
            "locType": "village",
            "longitude": "77.3158505",
            "latitude": "13.7172267",
            "address": "Talekere, Madhugiri taluk, Tumkur district, Karnataka, India",
            "closest_to": "tumkur"
        },
        "western karnataka": {
            "blogLinks": [
                "http://www.team-bhp.com/forum/travelogues/51461-my-tour-western-karnataka-lots-pics.html"
            ],
            "locType": "commercial",
            "longitude": "75.1458521440593",
            "latitude": "15.35527435",
            "address": "South Western Railways Offices, Kamaripet, Hubballi - \u0cb9\u0cc1\u0cac\u0ccd\u0cac\u0cb3\u0ccd\u0cb3\u0cbf, Hubballi taluku, Dharwad district, Karnataka, 580020, India",
            "closest_to": "agumbe"
        },
        "coimbatore": {
            "blogLinks": [
                "https://www.tripoto.com/weekend-getaways/from-agumbe"
            ],
            "locType": "trunk",
            "longitude": "76.6318246",
            "latitude": "11.6793976",
            "address": "Gundlupet - Coimbatore Highway, Bandipur, Gundlupet taluk, Chamarajanagar district, Karnataka, India",
            "closest_to": "tumkur"
        },
        "bellary district": {
            "blogLinks": [
                "https://en.wikipedia.org/wiki/Tourism_in_Karnataka"
            ],
            "locType": "administrative",
            "longitude": "76.7137978546465",
            "latitude": "15.20597305",
            "address": "Bellary district, Karnataka, India",
            "closest_to": "tumkur"
        },
        "bannerghatta national park": {
            "blogLinks": [
                "https://en.wikipedia.org/wiki/Tourism_in_Karnataka"
            ],
            "locType": "national_park",
            "longitude": "77.5722783830694",
            "latitude": "12.77900335",
            "address": "Bannerghatta National Park, Anekal Road, Begihalli, Bangalore Urban, Karnataka, 560076, India",
            "closest_to": "tumkur"
        },
        "haveri district": {
            "blogLinks": [
                "https://en.wikipedia.org/wiki/Tourism_in_Karnataka"
            ],
            "locType": "administrative",
            "longitude": "75.3845674304742",
            "latitude": "14.714635",
            "address": "Haveri district, Karnataka, India",
            "closest_to": "agumbe"
        },
        "kadur": {
            "blogLinks": [
                "http://wikitravel.org/en/Chikmagalur"
            ],
            "locType": "trunk",
            "longitude": "75.7820095",
            "latitude": "13.3283654",
            "address": "Mudigere-Kadur Road, Basavannahalli, Chikkamagaluru, Chikkamagaluru taluku, Chikkamagaluru district, Karnataka, 577101, India",
            "closest_to": "tumkur"
        },
        "shiggaon taluk": {
            "blogLinks": [
                "https://en.wikipedia.org/wiki/Tourism_in_Karnataka"
            ],
            "locType": "administrative",
            "longitude": "75.1756764988777",
            "latitude": "15.0138079",
            "address": "Shiggaon taluk, Haveri district, Karnataka, India",
            "closest_to": "agumbe"
        },
        "kuvempu": {
            "blogLinks": [
                "https://en.wikipedia.org/wiki/Agumbe"
            ],
            "locType": "artwork",
            "longitude": "77.5064032",
            "latitude": "12.9560369",
            "address": "Kuvempu, Kengeri Main Road, ITI Layout, Jnana Bharathi, Nagadevanahalli, Bangalore Urban, Karnataka, 560056, India",
            "closest_to": "tumkur"
        },
        "hemavati": {
            "blogLinks": [
                "http://wikitravel.org/en/Chikmagalur"
            ],
            "locType": "river",
            "longitude": "76.0723187",
            "latitude": "12.8179996",
            "address": "Hemavati, Hasana taluk, Hassan district, Karnataka, India",
            "closest_to": "tumkur"
        },
        "gudavi": {
            "blogLinks": [
                "https://en.wikipedia.org/wiki/Tourism_in_Karnataka"
            ],
            "locType": "village",
            "longitude": "75.009649",
            "latitude": "14.4400296",
            "address": "Gudavi, Soraba taluk, Shimoga district, Karnataka, India",
            "closest_to": "agumbe"
        },
        "gonibeedu": {
            "blogLinks": [
                "http://www.team-bhp.com/forum/route-travel-queries/42482-bangalore-shimoga-route-queries-2.html"
            ],
            "locType": "village",
            "longitude": "75.7002673",
            "latitude": "13.084746",
            "address": "Gonibeedu, Mudigere taluk, Chikkamagaluru district, Karnataka, India",
            "closest_to": "tumkur"
        },
        "hubli": {
            "blogLinks": [
                "https://en.wikipedia.org/wiki/Tourism_in_Karnataka"
            ],
            "locType": "city",
            "longitude": "75.1379848",
            "latitude": "15.3518378",
            "address": "Hubballi - \u0cb9\u0cc1\u0cac\u0ccd\u0cac\u0cb3\u0ccd\u0cb3\u0cbf, Hubballi taluku, Dharwad district, Karnataka, 580020, India",
            "closest_to": "agumbe"
        },
        "shimoga district": {
            "blogLinks": [
                "https://en.wikipedia.org/wiki/Tourism_in_Karnataka"
            ],
            "locType": "administrative",
            "longitude": "75.1312533993886",
            "latitude": "14.0558284",
            "address": "Shimoga district, Karnataka, India",
            "closest_to": "agumbe"
        },
        "kerala": {
            "blogLinks": [
                "http://rakeshholla.blogspot.com/2012/09/shivaganga-hills-tumkur.html",
                "https://www.quora.com/What-are-the-best-weekend-road-trips-from-Bangalore"
            ],
            "locType": "restaurant",
            "longitude": "77.6382683",
            "latitude": "12.9726449",
            "address": "New Life Kerala Mess, Sai Baba Mandira Road, Mottappanapalaya, Indiranagar, Bengaluru, Bangalore Urban, Karnataka, 560001, India",
            "closest_to": "tumkur"
        },
        "kali river": {
            "blogLinks": [
                "https://www.quora.com/What-are-the-best-weekend-road-trips-from-Bangalore"
            ],
            "locType": "river",
            "longitude": "74.5802901",
            "latitude": "15.0145378",
            "address": "Kali, Joida taluk, Uttara Kannada, Karnataka, India",
            "closest_to": "agumbe"
        },
        "uttara kannada": {
            "blogLinks": [
                "https://en.wikipedia.org/wiki/Tourism_in_Karnataka"
            ],
            "locType": "administrative",
            "longitude": "74.4729163045979",
            "latitude": "14.6726379",
            "address": "Uttara Kannada, Karnataka, India",
            "closest_to": "agumbe"
        },
        "lushington falls": {
            "blogLinks": [
                "https://en.wikipedia.org/wiki/Tourism_in_Karnataka"
            ],
            "locType": "waterfall",
            "longitude": "74.7477592",
            "latitude": "14.4097755",
            "address": "\u0c89\u0c82\u0c9a\u0cb3\u0ccd\u0cb3\u0cbf \u0c9c\u0cb2\u0caa\u0cbe\u0ca4, Siddapura taluk, Uttara Kannada, Karnataka, India",
            "closest_to": "agumbe"
        },
        "india": {
            "blogLinks": [
                "http://www.sutthonabanni.com/2011/07/tumkur-district.html",
                "http://distancecalculator.globefeed.com/India_Distance_Calculator.asp?state=19",
                "http://69kph.blogspot.com/2010/11/agumbe-trek-barkana-falls.html",
                "https://en.wikipedia.org/wiki/Tourism_in_Karnataka",
                "https://www.quora.com/What-are-the-best-weekend-road-trips-from-Bangalore",
                "https://en.wikipedia.org/wiki/Agumbe",
                "http://wikitravel.org/en/Chikmagalur",
                "http://rakeshholla.blogspot.com/2012/09/shivaganga-hills-tumkur.html",
                "https://www.tripoto.com/weekend-getaways/from-agumbe",
                "http://wikitravel.org/en/Shimoga",
                "https://www.tripadvisor.in/ShowTopic-g2370709-i26348-k5737423-Tourist_attractions_in_Agumbe-Agumbe_Karnataka.html",
                "http://www.team-bhp.com/forum/travelogues/51461-my-tour-western-karnataka-lots-pics.html",
                "http://www.onefivenine.com/india/Travel/Place/Agumbe"
            ],
            "locType": "administrative",
            "longitude": "75.7223521",
            "latitude": "14.5203896",
            "address": "Karnataka, India",
            "closest_to": "tumkur"
        },
        "dattatreya": {
            "blogLinks": [
                "https://en.wikipedia.org/wiki/Tourism_in_Karnataka"
            ],
            "locType": "hamlet",
            "longitude": "75.7539724",
            "latitude": "13.4315216",
            "address": "Inam Dattatreya Pitha, Chikkamagaluru taluku, Chikkamagaluru district, Karnataka, India",
            "closest_to": "tumkur"
        },
        "sharadamba temple": {
            "blogLinks": [
                "http://www.team-bhp.com/forum/travelogues/51461-my-tour-western-karnataka-lots-pics.html"
            ],
            "locType": "place_of_worship",
            "longitude": "77.5656194",
            "latitude": "12.9321898",
            "address": "Sharadamba Temple, 7th Main Road, Yediyur, Thyagaraja Nagar, Bengaluru, Bangalore Urban, Karnataka, 560001, India",
            "closest_to": "tumkur"
        },
        "nagarahole": {
            "blogLinks": [
                "https://en.wikipedia.org/wiki/Tourism_in_Karnataka"
            ],
            "locType": "river",
            "longitude": "76.2286805",
            "latitude": "12.0229466",
            "address": "Nagarahole, Heggadadevanakote taluk, Mysuru district, Karnataka, India",
            "closest_to": "tumkur"
        },
        "japanese garden": {
            "blogLinks": [
                "https://www.tripoto.com/weekend-getaways/from-agumbe"
            ],
            "locType": "restaurant",
            "longitude": "77.6055915",
            "latitude": "12.9655328",
            "address": "Hae Kum Gang (Korean/Japanese), 20, Castle Street, Shantala Nagar, Ashok Nagar, Bengaluru, Bangalore Urban, Karnataka, 560001, India",
            "closest_to": "tumkur"
        },
        "sharavathi": {
            "blogLinks": [
                "http://wikitravel.org/en/Shimoga"
            ],
            "locType": "yes",
            "longitude": "77.6216184337102",
            "latitude": "12.9464709",
            "address": "Sharavathi Block, National Games Village Road, Ambedkar Nagar, Ejipura, Bengaluru, Bangalore Urban, Karnataka, 560001, India",
            "closest_to": "tumkur"
        },
        "dakshina kashi": {
            "blogLinks": [
                "https://www.quora.com/What-are-the-best-weekend-road-trips-from-Bangalore"
            ],
            "locType": "place_of_worship",
            "longitude": "75.2439609",
            "latitude": "12.838765",
            "address": "Sahasralingeshwara Temple, Car Street, Uppinangadi, Putturu taluk, Dakshina Kannada, Karnataka, India",
            "closest_to": "tumkur"
        },
        "mandya": {
            "blogLinks": [
                "https://en.wikipedia.org/wiki/Tourism_in_Karnataka"
            ],
            "locType": "town",
            "longitude": "76.8937392",
            "latitude": "12.5217836",
            "address": "Mandya, Mandya taluk, Mandya district, Karnataka, 571401, India",
            "closest_to": "tumkur"
        },
        "hassan": {
            "blogLinks": [
                "https://en.wikipedia.org/wiki/Tourism_in_Karnataka",
                "https://www.quora.com/What-are-the-best-weekend-road-trips-from-Bangalore"
            ],
            "locType": "town",
            "longitude": "76.0992703",
            "latitude": "13.0070817",
            "address": "Hassan, Hasana taluk, Hassan district, Karnataka, 573201, India",
            "closest_to": "tumkur"
        },
        "udupi": {
            "blogLinks": [
                "https://en.wikipedia.org/wiki/Tourism_in_Karnataka",
                "http://www.team-bhp.com/forum/travelogues/51461-my-tour-western-karnataka-lots-pics.html"
            ],
            "locType": "city",
            "longitude": "74.7473232",
            "latitude": "13.3419169",
            "address": "Udupi, Udupi taluku, Udupi district, Karnataka, 576101, India",
            "closest_to": "agumbe"
        },
        "kabini": {
            "blogLinks": [
                "https://en.wikipedia.org/wiki/Tourism_in_Karnataka",
                "https://www.quora.com/What-are-the-best-weekend-road-trips-from-Bangalore"
            ],
            "locType": "river",
            "longitude": "76.4152088",
            "latitude": "12.0140065",
            "address": "Kabini, Heggadadevanakote taluk, Mysuru district, Karnataka, India",
            "closest_to": "tumkur"
        },
        "gowdahalli": {
            "blogLinks": [
                "http://wikitravel.org/en/Chikmagalur"
            ],
            "locType": "village",
            "longitude": "75.5981999",
            "latitude": "13.0422415",
            "address": "Gowdahalli, Mudigere taluk, Chikkamagaluru district, Karnataka, India",
            "closest_to": "tumkur"
        },
        "bankapura": {
            "blogLinks": [
                "https://en.wikipedia.org/wiki/Tourism_in_Karnataka"
            ],
            "locType": "town",
            "longitude": "75.2639298",
            "latitude": "14.9217443",
            "address": "Bankapura, Shiggaon taluk, Haveri district, Karnataka, 581202, India",
            "closest_to": "agumbe"
        },
        "thirthahalli road": {
            "blogLinks": [
                "http://wikitravel.org/en/Shimoga"
            ],
            "locType": "trunk",
            "longitude": "74.7829657",
            "latitude": "13.3476314",
            "address": "Malpe - Manipal Road, Indrali, Manipal, Udupi taluku, Udupi district, Karnataka, 576 104, India",
            "closest_to": "agumbe"
        },
        "sharavathi river": {
            "blogLinks": [
                "http://www.team-bhp.com/forum/travelogues/51461-my-tour-western-karnataka-lots-pics.html"
            ],
            "locType": "yes",
            "longitude": "77.6216184337102",
            "latitude": "12.9464709",
            "address": "Sharavathi Block, National Games Village Road, Ambedkar Nagar, Ejipura, Bengaluru, Bangalore Urban, Karnataka, 560001, India",
            "closest_to": "tumkur"
        },
        "anshi national park": {
            "blogLinks": [
                "https://en.wikipedia.org/wiki/Tourism_in_Karnataka"
            ],
            "locType": "national_park",
            "longitude": "74.3934408094182",
            "latitude": "14.9994424",
            "address": "Anshi National Park, SH46, Bidoli, Joida taluk, Uttara Kannada, Karnataka, India",
            "closest_to": "agumbe"
        },
        "sagara": {
            "blogLinks": [
                "https://en.wikipedia.org/wiki/Tourism_in_Karnataka"
            ],
            "locType": "town",
            "longitude": "75.0262551",
            "latitude": "14.1666594",
            "address": "Sagara, Sagara taluk, Shimoga district, Karnataka, 577400, India",
            "closest_to": "agumbe"
        },
        "shimsha river": {
            "blogLinks": [
                "http://www.sutthonabanni.com/2011/07/tumkur-district.html"
            ],
            "locType": "river",
            "longitude": "76.972542",
            "latitude": "12.8027322",
            "address": "Shimsha, Kunigal taluk, Tumkur district, Karnataka, India",
            "closest_to": "tumkur"
        },
        "haveri": {
            "blogLinks": [
                "https://en.wikipedia.org/wiki/Tourism_in_Karnataka"
            ],
            "locType": "town",
            "longitude": "75.3996731",
            "latitude": "14.7874825",
            "address": "Haveri, Haveri taluku, Haveri district, Karnataka, 581110, India",
            "closest_to": "agumbe"
        },
        "gokarna": {
            "blogLinks": [
                "https://en.wikipedia.org/wiki/Tourism_in_Karnataka"
            ],
            "locType": "town",
            "longitude": "74.3184418",
            "latitude": "14.5439629",
            "address": "Gokarna, Kumata taluk, Uttara Kannada, Karnataka, 581326, India",
            "closest_to": "agumbe"
        },
        "river cauvery": {
            "blogLinks": [
                "https://www.quora.com/What-are-the-best-weekend-road-trips-from-Bangalore"
            ],
            "locType": "cinema",
            "longitude": "77.5832796015599",
            "latitude": "13.00262215",
            "address": "Cauvery, 1st Main Road, Lower Palace Orchard, Guttahalli, Bengaluru, Bangalore Urban, Karnataka, 560001, India",
            "closest_to": "tumkur"
        },
        "nittur": {
            "blogLinks": [
                "http://wikitravel.org/en/Shimoga"
            ],
            "locType": "tertiary",
            "longitude": "75.7595937",
            "latitude": "14.3579814",
            "address": "Malebennur Nittur Road, Nitturu, Harihara taluku, Davanagere district, Karnataka, 577530, India",
            "closest_to": "tumkur"
        },
        "shimoga": {
            "blogLinks": [
                "https://en.wikipedia.org/wiki/Tourism_in_Karnataka",
                "https://en.wikipedia.org/wiki/Agumbe"
            ],
            "locType": "city",
            "longitude": "75.569737",
            "latitude": "13.9311723",
            "address": "Shivamogga, Shivamogga taluku, Shimoga district, Karnataka, 577200, India",
            "closest_to": "tumkur"
        },
        "udupi-agumbe road": {
            "blogLinks": [
                "https://en.wikipedia.org/wiki/Agumbe"
            ],
            "locType": "trunk",
            "longitude": "75.2422204",
            "latitude": "13.6914356",
            "address": "Agumbe Road, Soppugudde, Tirthahalli, Tirthahalli taluk, Shimoga district, Karnataka, 577432, India",
            "closest_to": "tumkur"
        },
        "south karnataka": {
            "blogLinks": [
                "https://en.wikipedia.org/wiki/Tourism_in_Karnataka",
                "http://wikitravel.org/en/Chikmagalur"
            ],
            "locType": "residential",
            "longitude": "77.8040874",
            "latitude": "13.2942848",
            "address": "s, Vijayapura, Devanahalli taluk, Bangalore Rural, Karnataka, 562135, India",
            "closest_to": "tumkur"
        },
        "shivanasamudra": {
            "blogLinks": [
                "https://en.wikipedia.org/wiki/Tourism_in_Karnataka"
            ],
            "locType": "village",
            "longitude": "77.1703215",
            "latitude": "12.2719056",
            "address": "Shivanasamudra, Kollegala taluk, Chamarajanagar district, Karnataka, India",
            "closest_to": "tumkur"
        },
        "gulmohar": {
            "blogLinks": [
                "https://www.quora.com/What-are-the-best-weekend-road-trips-from-Bangalore"
            ],
            "locType": "residential",
            "longitude": "77.745811757371",
            "latitude": "12.9841671",
            "address": "MIMS Gulmohar Villas, Kadugodi, Prashanth Extension, Bangalore Urban, Karnataka, 56066, India",
            "closest_to": "tumkur"
        },
        "kanakapura": {
            "blogLinks": [
                "https://www.quora.com/What-are-the-best-weekend-road-trips-from-Bangalore"
            ],
            "locType": "town",
            "longitude": "77.4199095",
            "latitude": "12.5450268",
            "address": "Kanakapura, Kanakapura taluk, Ramanagara district, Karnataka, 562117, India",
            "closest_to": "tumkur"
        },
        "nandi": {
            "blogLinks": [
                "https://www.quora.com/What-are-the-best-weekend-road-trips-from-Bangalore"
            ],
            "locType": "village",
            "longitude": "75.8556266",
            "latitude": "13.6434094",
            "address": "Nandi, Tarikere taluku, Chikkamagaluru district, Karnataka, India",
            "closest_to": "tumkur"
        },
        "sagar": {
            "blogLinks": [
                "http://wikitravel.org/en/Shimoga"
            ],
            "locType": "town",
            "longitude": "75.0262551",
            "latitude": "14.1666594",
            "address": "Sagara, Sagara taluk, Shimoga district, Karnataka, 577400, India",
            "closest_to": "agumbe"
        },
        "sharavati": {
            "blogLinks": [
                "https://en.wikipedia.org/wiki/Tourism_in_Karnataka"
            ],
            "locType": "river",
            "longitude": "74.7647294",
            "latitude": "14.2360979",
            "address": "Sharavati, Sagara taluk, Shimoga district, Karnataka, India",
            "closest_to": "agumbe"
        },
        "kanaganahalli": {
            "blogLinks": [
                "https://en.wikipedia.org/wiki/Tourism_in_Karnataka"
            ],
            "locType": "village",
            "longitude": "76.5876958",
            "latitude": "12.5588444",
            "address": "Kanaganahalli, Pandavapura taluk, Mandya district, Karnataka, India",
            "closest_to": "tumkur"
        },
        "varadaraja": {
            "blogLinks": [
                "https://en.wikipedia.org/wiki/Tourism_in_Karnataka"
            ],
            "locType": "fuel",
            "longitude": "77.5542736",
            "latitude": "13.005885",
            "address": "Varadaraja Petrol / Gas Station, Dr. Rajkumar Road, Rajajinagar 1st Block, Subrahmanya Nagar, Bengaluru, Bangalore Urban, Karnataka, 560001, India",
            "closest_to": "tumkur"
        },
        "banavasi": {
            "blogLinks": [
                "https://en.wikipedia.org/wiki/Tourism_in_Karnataka"
            ],
            "locType": "town",
            "longitude": "75.0129845",
            "latitude": "14.5389738",
            "address": "Banavasi, Shirasi taluk, Uttara Kannada, Karnataka, India",
            "closest_to": "agumbe"
        },
        "mastikatte": {
            "blogLinks": [
                "https://en.wikipedia.org/wiki/Tourism_in_Karnataka"
            ],
            "locType": "village",
            "longitude": "74.4604101",
            "latitude": "14.6857168",
            "address": "Mastikatte, Ankola taluk, Uttara Kannada, Karnataka, India",
            "closest_to": "agumbe"
        },
        "west": {
            "blogLinks": [
                "https://en.wikipedia.org/wiki/Agumbe"
            ],
            "locType": "clothes",
            "longitude": "77.5960999",
            "latitude": "12.8759384",
            "address": "w, Balmuri Main Road, Hulimavu,, Bannerghatta Road, Mico Arekere Layout 1st Stage, Hulimavu, Bengaluru, Bangalore Urban, Karnataka, 560076, India",
            "closest_to": "tumkur"
        },
        "north goa": {
            "blogLinks": [
                "https://www.tripoto.com/weekend-getaways/from-agumbe"
            ],
            "locType": "restaurant",
            "longitude": "77.6200027",
            "latitude": "12.9750047",
            "address": "Carnival De Goa, Bhaskaran Road, Gupta Layout, Halasuru, Bengaluru, Bangalore Urban, Karnataka, 560001, India",
            "closest_to": "tumkur"
        },
        "talaguppa": {
            "blogLinks": [
                "http://wikitravel.org/en/Shimoga"
            ],
            "locType": "town",
            "longitude": "74.911064",
            "latitude": "14.2148828",
            "address": "Talaguppa, Sagara taluk, Shimoga district, Karnataka, 577430, India",
            "closest_to": "agumbe"
        },
        "ganapathi": {
            "blogLinks": [
                "http://www.holidayiq.com/Kukke-Subrahmanya-Sightseeing-972.html"
            ],
            "locType": "clockmaker",
            "longitude": "77.6297861",
            "latitude": "13.0015272",
            "address": "Ganapathi, 4th Cross Road, MSO Colony, Cooke Town, Bengaluru, Bangalore Urban, Karnataka, 560001, India",
            "closest_to": "tumkur"
        },
        "uppinangadi": {
            "blogLinks": [
                "http://www.holidayiq.com/Kukke-Subrahmanya-Sightseeing-972.html"
            ],
            "locType": "town",
            "longitude": "75.2485277",
            "latitude": "12.83834",
            "address": "Uppinangadi, Putturu taluk, Dakshina Kannada, Karnataka, India",
            "closest_to": "tumkur"
        },
        "shravanabelagola": {
            "blogLinks": [
                "https://en.wikipedia.org/wiki/Tourism_in_Karnataka"
            ],
            "locType": "town",
            "longitude": "76.4869997",
            "latitude": "12.8581305",
            "address": "Shravanabelagola, Channarayapattana taluk, Hassan district, Karnataka, 573135, India",
            "closest_to": "tumkur"
        },
        "gendehalli": {
            "blogLinks": [
                "http://www.team-bhp.com/forum/route-travel-queries/42482-bangalore-shimoga-route-queries-2.html"
            ],
            "locType": "village",
            "longitude": "75.7577528",
            "latitude": "13.1839836",
            "address": "Gendehalli, Beluru taluk, Hassan district, Karnataka, India",
            "closest_to": "tumkur"
        },
        "kabini river": {
            "blogLinks": [
                "https://en.wikipedia.org/wiki/Tourism_in_Karnataka"
            ],
            "locType": "canal",
            "longitude": "76.6477184",
            "latitude": "12.0780998",
            "address": "Kabini right bank canal, Nanjanagudu taluk, Mysuru district, Karnataka, India",
            "closest_to": "tumkur"
        },
        "vedavati": {
            "blogLinks": [
                "http://wikitravel.org/en/Chikmagalur"
            ],
            "locType": "river",
            "longitude": "76.1347937",
            "latitude": "13.6048777",
            "address": "Vedavati, Kaduru taluk, Chikkamagaluru district, Karnataka, India",
            "closest_to": "tumkur"
        },
        "kodachadri": {
            "blogLinks": [
                "https://en.wikipedia.org/wiki/Tourism_in_Karnataka"
            ],
            "locType": "peak",
            "longitude": "74.8705395",
            "latitude": "13.8565758",
            "address": "Kodachadri, \u0c95\u0cc1\u0c82\u0ca6\u0cbe\u0caa\u0cc1\u0cb0 \u0ca4\u0cbe\u0cb2\u0cc2\u0c95\u0cc1, Udupi district, Karnataka, India",
            "closest_to": "agumbe"
        },
        "lakshmeshwar": {
            "blogLinks": [
                "https://en.wikipedia.org/wiki/Tourism_in_Karnataka"
            ],
            "locType": "bus_station",
            "longitude": "75.4741167",
            "latitude": "15.12373",
            "address": "Lakshmeshwar KSRTC Bus stand, SH6, Bastibana, Lakshmeshvara, Shirahatti taluku, Gadag district, Karnataka, 582116, India",
            "closest_to": "agumbe"
        },
        "sangama": {
            "blogLinks": [
                "https://www.quora.com/What-are-the-best-weekend-road-trips-from-Bangalore"
            ],
            "locType": "attraction",
            "longitude": "77.4320447",
            "latitude": "12.2880428",
            "address": "Sangam, SH92, Mahalli, Kanakapura taluk, Ramanagara district, Karnataka, India",
            "closest_to": "tumkur"
        },
        "mangalore": {
            "blogLinks": [
                "https://en.wikipedia.org/wiki/Tourism_in_Karnataka",
                "https://en.wikipedia.org/wiki/Agumbe",
                "http://wikitravel.org/en/Chikmagalur",
                "http://www.onefivenine.com/india/Travel/Place/Agumbe"
            ],
            "locType": "city",
            "longitude": "74.8430082",
            "latitude": "12.8698101",
            "address": "Mangaluru, Mangaluru taluk, Dakshina Kannada, Karnataka, 575001, India",
            "closest_to": "agumbe"
        },
        "karkala": {
            "blogLinks": [
                "https://en.wikipedia.org/wiki/Tourism_in_Karnataka",
                "https://www.quora.com/What-are-the-best-weekend-road-trips-from-Bangalore"
            ],
            "locType": "town",
            "longitude": "74.9959586",
            "latitude": "13.2112826",
            "address": "Karkala, Karkala taluk, Udupi district, Karnataka, 574104, India",
            "closest_to": "agumbe"
        },
        "manjusha museum": {
            "blogLinks": [
                "https://en.wikipedia.org/wiki/Tourism_in_Karnataka"
            ],
            "locType": "museum",
            "longitude": "75.3821342838196",
            "latitude": "12.95116975",
            "address": "Manjusha Museum, SH37, Dharmasthala, Beltangadi taluk, Dakshina Kannada, Karnataka, 574216, India",
            "closest_to": "tumkur"
        },
        "bhadra river": {
            "blogLinks": [
                "https://en.wikipedia.org/wiki/Tourism_in_Karnataka"
            ],
            "locType": "river",
            "longitude": "75.527118",
            "latitude": "13.4888356",
            "address": "Bhadra, Chikkamagaluru taluku, Chikkamagaluru district, Karnataka, India",
            "closest_to": "tumkur"
        },
        "nethrani island": {
            "blogLinks": [
                "https://en.wikipedia.org/wiki/Tourism_in_Karnataka"
            ],
            "locType": "island",
            "longitude": "74.3272086675849",
            "latitude": "14.0174924",
            "address": "Netrani, Uttara Kannada, Karnataka, India",
            "closest_to": "agumbe"
        },
        "bankpur fort": {
            "blogLinks": [
                "https://en.wikipedia.org/wiki/Tourism_in_Karnataka"
            ],
            "locType": "archaeological_site",
            "longitude": "75.2512090188504",
            "latitude": "14.9231815",
            "address": "Bankapura Fort, SH137, Guddada Channapura, Shiggaon taluk, Haveri district, Karnataka, 581202, India",
            "closest_to": "agumbe"
        },
        "varaha": {
            "blogLinks": [
                "https://en.wikipedia.org/wiki/Tourism_in_Karnataka"
            ],
            "locType": "village",
            "longitude": "75.3718812",
            "latitude": "14.390777",
            "address": "Varaha, Hirekeruru taluk, Haveri district, Karnataka, India",
            "closest_to": "tumkur"
        },
        "agumbe rainforest research station": {
            "blogLinks": [
                "https://www.tripoto.com/weekend-getaways/from-agumbe"
            ],
            "locType": "Research",
            "longitude": "75.088690168594",
            "latitude": "13.51811715",
            "address": "Agumbe Rainforest Research Station (ARRS), Agumbe Road, Guddekeri, Tirthahalli taluk, Shimoga district, Karnataka, 577411, India",
            "closest_to": "agumbe"
        },
        "magadi": {
            "blogLinks": [
                "https://www.quora.com/What-are-the-best-weekend-road-trips-from-Bangalore"
            ],
            "locType": "town",
            "longitude": "77.2242281",
            "latitude": "12.9567353",
            "address": "Magadi, Magadi taluku, Ramanagara district, Karnataka, 562120, India",
            "closest_to": "tumkur"
        },
        "shirali": {
            "blogLinks": [
                "https://en.wikipedia.org/wiki/Tourism_in_Karnataka"
            ],
            "locType": "village",
            "longitude": "74.5286591",
            "latitude": "14.0280925",
            "address": "Shirali, Bhatkala taluk, Uttara Kannada, Karnataka, 581354, India",
            "closest_to": "agumbe"
        },
        "kannada": {
            "blogLinks": [
                "https://www.quora.com/What-are-the-best-weekend-road-trips-from-Bangalore"
            ],
            "locType": "administrative",
            "longitude": "75.1008028650794",
            "latitude": "12.8114089",
            "address": "Dakshina Kannada, Karnataka, India",
            "closest_to": "agumbe"
        },
        "coastal karnataka": {
            "blogLinks": [
                "https://en.wikipedia.org/wiki/Tourism_in_Karnataka"
            ],
            "locType": "industrial",
            "longitude": "74.8137275833157",
            "latitude": "12.96014675",
            "address": "Bharat Petroleum Mangalore Coastal Installation, Baikampady, Mangaluru taluk, Dakshina Kannada, Karnataka, 575014, India",
            "closest_to": "agumbe"
        },
        "chitradurga": {
            "blogLinks": [
                "https://en.wikipedia.org/wiki/Tourism_in_Karnataka"
            ],
            "locType": "town",
            "longitude": "76.4005122",
            "latitude": "14.2266443",
            "address": "Chitradurga, Chitradurga taluku, Chitradurga district, Karnataka, 577500, India",
            "closest_to": "tumkur"
        },
        "dakshina kannada district": {
            "blogLinks": [
                "http://www.holidayiq.com/Kukke-Subrahmanya-Sightseeing-972.html"
            ],
            "locType": "county",
            "longitude": "74.9813132",
            "latitude": "12.9324457",
            "address": "Dakshina Kannada, Karnataka, India",
            "closest_to": "agumbe"
        },
        "mysore district": {
            "blogLinks": [
                "https://en.wikipedia.org/wiki/Tourism_in_Karnataka"
            ],
            "locType": "city",
            "longitude": "76.6553609",
            "latitude": "12.3051828",
            "address": "Mysuru, Mysuru taluk, Mysuru district, Karnataka, 570001, India",
            "closest_to": "tumkur"
        },