{
    "mentions": {
        "shamrock avenue": {
            "blogLinks": [
                "http://gocalifornia.about.com/od/topcalifornia/ss/route-66.htm"
            ],
            "address": "Shamrock Avenue, Riverside, Riverside County, California, 92501, United States of America",
            "longitude": -117.3682239,
            "locType": "residential",
            "latitude": 33.9999686,
            "closest_to": "san bernardino"
        },
        "norco": {
            "blogLinks": [
                "http://www.roadsideamerica.com/location/ca"
            ],
            "address": "Norco, Riverside County, California, 92860, United States of America",
            "longitude": -117.55089,
            "locType": "city",
            "latitude": 33.9323307,
            "closest_to": "san bernardino"
        },
        "tucson": {
            "blogLinks": [
                "http://wikitravel.org/en/San_Diego"
            ],
            "address": "Tucson, Coto de Caza, Orange County, California, 92690, United States of America",
            "longitude": -117.5934281,
            "locType": "residential",
            "latitude": 33.5678303,
            "closest_to": "anaheim"
        },
        "los angeles": {
            "blogLinks": [
                "http://gocalifornia.about.com/od/topcalifornia/ss/route-66.htm",
                "http://www.distancesfrom.com/us/travel-time-from-Anaheim-to-San-Bernardino-CA-via-Disneyland/TravelTimeHistory/4504031.aspx",
                "http://wikitravel.org/en/San_Diego",
                "http://www.timeanddate.com/worldclock/distances.html?n=137",
                "https://www.tripit.com/blog/2016/01/california-driving-distances-and-times.html",
                "http://www.roadsideamerica.com/location/ca",
                "http://www.movoto.com/guide/ca/most-dangerous-places-in-california/"
            ],
            "address": "LA, Los Angeles County, California, United States of America",
            "longitude": -118.2439408,
            "locType": "city",
            "latitude": 34.0543942,
            "closest_to": "anaheim"
        },
        "glendale": {
            "blogLinks": [
                "http://gocalifornia.about.com/od/topcalifornia/ss/route-66.htm",
                "http://www.roadsideamerica.com/location/ca"
            ],
            "address": "Glendale, Los Angeles County, California, United States of America",
            "longitude": -118.248367,
            "locType": "city",
            "latitude": 34.1423455,
            "closest_to": "anaheim"
        },
        "west hollywood": {
            "blogLinks": [
                "http://gocalifornia.about.com/od/topcalifornia/ss/route-66.htm"
            ],
            "address": "West Hollywood, Los Angeles County, California, United States of America",
            "longitude": -118.3617442,
            "locType": "city",
            "latitude": 34.0900091,
            "closest_to": "anaheim"
        },
        "scottsdale": {
            "blogLinks": [
                "http://wikitravel.org/en/San_Diego"
            ],
            "address": "Scottsdale Townhouse Association Maintenance Storage Area, Keystone, Carson, Los Angeles County, California, 90745, United States of America",
            "longitude": -118.262579480198,
            "locType": "residential",
            "latitude": 33.81271835,
            "closest_to": "anaheim"
        },
        "genesee avenue": {
            "blogLinks": [
                "http://wikitravel.org/en/San_Diego"
            ],
            "address": "Genesee Avenue, South Carthay, The Village Green, LA, Los Angeles County, California, 90016, United States of America",
            "longitude": -118.3685811,
            "locType": "residential",
            "latitude": 34.0376458,
            "closest_to": "anaheim"
        },
        "santa monica pier": {
            "blogLinks": [
                "https://www.tripadvisor.com/ShowTopic-g29092-i65-k3773903-Mountains_and_desert-Anaheim_California.html",
                "http://gocalifornia.about.com/od/topcalifornia/ss/route-66.htm"
            ],
            "address": "Santa Monica Pier, Santa Monica, Los Angeles County, California, CA 90401, United States of America",
            "longitude": -118.4960541,
            "locType": "service",
            "latitude": 34.0104809,
            "closest_to": "anaheim"
        },
        "burbank": {
            "blogLinks": [
                "http://www.roadsideamerica.com/location/ca"
            ],
            "address": "Burbank, Los Angeles County, California, United States of America",
            "longitude": -118.3258553,
            "locType": "city",
            "latitude": 34.1816482,
            "closest_to": "anaheim"
        },
        "moreno valley ca": {
            "blogLinks": [
                "http://www.california-blog.com/"
            ],
            "address": "Moreno Valley, Riverside County, California, United States of America",
            "longitude": -117.2305943,
            "locType": "city",
            "latitude": 33.937517,
            "closest_to": "san bernardino"
        },
        "palos verdes peninsula ca": {
            "blogLinks": [
                "http://www.california-blog.com/"
            ],
            "address": "Palos Verdes Peninsula High School, Hawthorne Boulevard, Rolling Hills Estates, Los Angeles County, California, 90274, United States of America",
            "longitude": -118.372196730215,
            "locType": "school",
            "latitude": 33.77984925,
            "closest_to": "anaheim"
        },
        "aztec hotel": {
            "blogLinks": [
                "http://gocalifornia.about.com/od/topcalifornia/ss/route-66.htm"
            ],
            "address": "Aztec Hotel, 311, West Foothill Boulevard, Monrovia, Los Angeles County, California, 91016, United States of America",
            "longitude": -118.0057962,
            "locType": "hotel",
            "latitude": 34.151536,
            "closest_to": "anaheim"
        },
        "alberta": {
            "blogLinks": [
                "http://wikitravel.org/en/San_Diego"
            ],
            "address": "Alberta, Aliso Viejo, Orange County, California, 92656, United States of America",
            "longitude": -117.7344716,
            "locType": "residential",
            "latitude": 33.5736346,
            "closest_to": "anaheim"
        },
        "san pedro": {
            "blogLinks": [
                "http://www.roadsideamerica.com/location/ca"
            ],
            "address": "San Pedro, LA, Los Angeles County, California, United States of America",
            "longitude": -118.2922933,
            "locType": "suburb",
            "latitude": 33.7358518,
            "closest_to": "anaheim"
        },
        "huntington beach": {
            "blogLinks": [
                "http://www.roadsideamerica.com/location/ca"
            ],
            "address": "Huntington Beach, Orange County, California, United States of America",
            "longitude": -118.0000165,
            "locType": "city",
            "latitude": 33.6783336,
            "closest_to": "anaheim"
        },
        "lake elsinore": {
            "blogLinks": [
                "https://www.tripadvisor.com/ShowTopic-g29092-i65-k3773903-Mountains_and_desert-Anaheim_California.html"
            ],
            "address": "Lake Elsinore, Riverside County, California, United States of America",
            "longitude": -117.3272614,
            "locType": "administrative",
            "latitude": 33.6680772,
            "closest_to": "san bernardino"
        },
        "ghost town": {
            "blogLinks": [
                "https://www.tripadvisor.com/ShowTopic-g29092-i65-k3773903-Mountains_and_desert-Anaheim_California.html"
            ],
            "address": "Ghost Town, Buena Park, Orange County, California, United States of America",
            "longitude": -118.000007081493,
            "locType": "locality",
            "latitude": 33.8437194,
            "closest_to": "anaheim"
        },
        "glendora": {
            "blogLinks": [
                "http://www.roadsideamerica.com/location/ca"
            ],
            "address": "Glendora, Los Angeles County, California, United States of America",
            "longitude": -117.8653389,
            "locType": "city",
            "latitude": 34.1361187,
            "closest_to": "san bernardino"
        },
        "mentone": {
            "blogLinks": [
                "http://www.roadsideamerica.com/location/ca"
            ],
            "address": "Mentone, Reservoir Canal Road, Crafton, San Bernardino County, California, 92374, United States of America",
            "longitude": -117.109606374724,
            "locType": "administrative",
            "latitude": 34.05884,
            "closest_to": "san bernardino"
        },
        "canada": {
            "blogLinks": [
                "http://wikitravel.org/en/San_Diego"
            ],
            "address": "La Canada, Lower Peters Canyon, Irvine, Orange County, California, 92602, United States of America",
            "longitude": -117.7641381,
            "locType": "residential",
            "latitude": 33.7298842,
            "closest_to": "san bernardino"
        },
        "pasadena": {
            "blogLinks": [
                "http://gocalifornia.about.com/od/topcalifornia/ss/route-66.htm",
                "http://www.roadsideamerica.com/location/ca"
            ],
            "address": "Pasadena, Los Angeles County, California, United States of America",
            "longitude": -118.1444778,
            "locType": "city",
            "latitude": 34.1476452,
            "closest_to": "anaheim"
        },
        "canyon crest drive": {
            "blogLinks": [
                "http://wikitravel.org/en/San_Diego"
            ],
            "address": "Canyon Crest Drive, Riverside, Riverside County, California, 92521, United States of America",
            "longitude": -117.3300787,
            "locType": "primary",
            "latitude": 33.9575498,
            "closest_to": "san bernardino"
        },
        "southern california": {
            "blogLinks": [
                "http://wikitravel.org/en/San_Diego",
                "https://www.tripadvisor.com/ShowTopic-g29092-i65-k3773903-Mountains_and_desert-Anaheim_California.html",
                "https://www.kcet.org/socal-wanderer/11-places-you-have-to-see-in-the-california-desert"
            ],
            "address": "University of Southern California, Watt Way, Saint James Park, LA, Los Angeles County, California, 90089, United States of America",
            "longitude": -118.286343973446,
            "locType": "university",
            "latitude": 34.0224149,
            "closest_to": "anaheim"
        },
        "newport beach": {
            "blogLinks": [
                "http://www.roadsideamerica.com/location/ca"
            ],
            "address": "Newport Beach, Orange County, California, United States of America",
            "longitude": -117.92944,
            "locType": "city",
            "latitude": 33.6170092,
            "closest_to": "anaheim"
        },
        "san gabriel valley": {
            "blogLinks": [
                "https://www.kcet.org/socal-wanderer/11-places-you-have-to-see-in-the-california-desert"
            ],
            "address": "San Gabriel, Los Angeles County, California, United States of America",
            "longitude": -118.108604,
            "locType": "city",
            "latitude": 34.0991325,
            "closest_to": "anaheim"
        },
        "pacific coast highway": {
            "blogLinks": [
                "http://wikitravel.org/en/San_Diego",
                "https://www.tripit.com/blog/2016/01/california-driving-distances-and-times.html"
            ],
            "address": "Pacific Coast Highway, Huntington Beach, Orange County, California, 92648, United States of America",
            "longitude": -118.0051687,
            "locType": "primary",
            "latitude": 33.6595127,
            "closest_to": "anaheim"
        },
        "hollywood": {
            "blogLinks": [
                "http://www.roadsideamerica.com/location/ca"
            ],
            "address": "Hollywood, LA, Los Angeles County, California, United States of America",
            "longitude": -118.3299898,
            "locType": "suburb",
            "latitude": 34.1028268,
            "closest_to": "anaheim"
        },
        "hill rd": {
            "blogLinks": [
                "https://www.kcet.org/socal-wanderer/11-places-you-have-to-see-in-the-california-desert"
            ],
            "address": "Hill Road, Smiley Park, San Bernardino County, California, 92382, United States of America",
            "longitude": -117.1287597,
            "locType": "residential",
            "latitude": 34.1998594,
            "closest_to": "san bernardino"
        },
        "los angeles union station": {
            "blogLinks": [
                "http://wikitravel.org/en/San_Diego"
            ],
            "address": "Los Angeles Union Station, LA Union Station Underground Walkway, Naud Junction, Little Tokyo Historic District, LA, Los Angeles County, California, 90012, United States of America",
            "longitude": -118.2342858,
            "locType": "station",
            "latitude": 34.0558624,
            "closest_to": "anaheim"
        },
        "cajon pass": {
            "blogLinks": [
                "http://gocalifornia.about.com/od/topcalifornia/ss/route-66.htm"
            ],
            "address": "Cajon Pass, Summit Terrace, San Bernardino County, California, United States of America",
            "longitude": -117.4282748,
            "locType": "yes",
            "latitude": 34.3251973,
            "closest_to": "san bernardino"
        },
        "disneyland": {
            "blogLinks": [
                "http://gocalifornia.about.com/od/topcalifornia/ss/route-66.htm",
                "http://www.distancesfrom.com/us/Anaheim-to-San-Bernardino-CA-Route-via-Disneyland/RouteplannerHistory/4504031.aspx",
                "http://www.distancesfrom.com/us/travel-time-from-Anaheim-to-San-Bernardino-CA-via-Disneyland/TravelTimeHistory/4504031.aspx"
            ],
            "address": "DL, 1313, South Harbor Boulevard, Anaheim Resort District, Anaheim, Orange County, California, 92805, United States of America",
            "longitude": -117.91971186569,
            "locType": "theme_park",
            "latitude": 33.8136367,
            "closest_to": "anaheim"
        },
        "fashion island": {
            "blogLinks": [
                "https://www.tripadvisor.com/ShowTopic-g29092-i65-k3773903-Mountains_and_desert-Anaheim_California.html"
            ],
            "address": "Fashion Island, Newport Center, Newport Beach, Orange County, California, 62660, United States of America",
            "longitude": -117.872907649816,
            "locType": "retail;commercial;residential",
            "latitude": 33.61476865,
            "closest_to": "anaheim"
        },
        "dakota": {
            "blogLinks": [
                "https://www.kcet.org/socal-wanderer/11-places-you-have-to-see-in-the-california-desert"
            ],
            "address": "Dakota, French Valley, Country Road Estates, Riverside County, California, 92596, United States of America",
            "longitude": -117.102995421508,
            "locType": "residential",
            "latitude": 33.6136924,
            "closest_to": "san bernardino"
        },
        "lake arrowhead": {
            "blogLinks": [
                "https://www.tripadvisor.com/ShowTopic-g29092-i65-k3773903-Mountains_and_desert-Anaheim_California.html"
            ],
            "address": "Lake Arrowhead, Shelter Cove Lane, North Shore, San Bernardino County, California, 92407, United States of America",
            "longitude": -117.185753981831,
            "locType": "water",
            "latitude": 34.2592869,
            "closest_to": "san bernardino"
        },
        "mount san gorgonio ca": {
            "blogLinks": [
                "http://www.california-blog.com/"
            ],
            "address": "San Gorgonio Avenue, Banning, Riverside County, California, 92220, United States of America",
            "longitude": -116.8766731,
            "locType": "secondary",
            "latitude": 33.9121294,
            "closest_to": "san bernardino"
        },
        "morongo valley": {
            "blogLinks": [
                "http://www.california-blog.com/"
            ],
            "address": "Morongo Valley, Vista Drive, Morongo Valley, San Bernardino County, California, 92256, United States of America",
            "longitude": -116.596723958419,
            "locType": "administrative",
            "latitude": 34.0537585,
            "closest_to": "san bernardino"
        },
        "north hollywood": {
            "blogLinks": [
                "http://www.roadsideamerica.com/location/ca"
            ],
            "address": "North Hollywood, LA, Los Angeles County, California, United States of America",
            "longitude": -118.374037,
            "locType": "suburb",
            "latitude": 34.1729044,
            "closest_to": "anaheim"
        },
        "esmeralda": {
            "blogLinks": [
                "http://wikitravel.org/en/San_Diego"
            ],
            "address": "Esmeralda Street, Rose Hill, Highland Park, LA, Los Angeles County, California, 90032, United States of America",
            "longitude": -118.1939061,
            "locType": "residential",
            "latitude": 34.0829329,
            "closest_to": "anaheim"
        },
        "santa monica pier.in": {
            "blogLinks": [
                "http://gocalifornia.about.com/od/topcalifornia/ss/route-66.htm"
            ],
            "address": "Santa Monica Pier, Santa Monica, Los Angeles County, California, CA 90401, United States of America",
            "longitude": -118.4960541,
            "locType": "service",
            "latitude": 34.0104809,
            "closest_to": "anaheim"
        },
        "torrey pines": {
            "blogLinks": [
                "http://wikitravel.org/en/San_Diego"
            ],
            "address": "Torrey Pines, Coto de Caza, Orange County, California, 92679, United States of America",
            "longitude": -117.5806448,
            "locType": "residential",
            "latitude": 33.6004207,
            "closest_to": "san bernardino"
        },
        "phoenix": {
            "blogLinks": [
                "http://wikitravel.org/en/San_Diego",
                "http://www.distancesfrom.com/us/travel-from-Anaheim-to-San-Bernardino/TravelFromHistory/24176409.aspx"
            ],
            "address": "Phoenix, Heritage Park Apartments, El Camino Real, Irvine, Orange County, California, 92604, United States of America",
            "longitude": -117.7764481,
            "locType": "residential",
            "latitude": 33.6988015,
            "closest_to": "san bernardino"
        },
        "san clemente": {
            "blogLinks": [
                "http://wikitravel.org/en/San_Diego"
            ],
            "address": "San Clemente, Orange County, California, United States of America",
            "longitude": -117.6124178,
            "locType": "city",
            "latitude": 33.4270275,
            "closest_to": "anaheim"
        },
        "santa monica": {
            "blogLinks": [
                "http://gocalifornia.about.com/od/topcalifornia/ss/route-66.htm"
            ],
            "address": "Santa Monica, Los Angeles County, California, United States of America",
            "longitude": -118.4869738,
            "locType": "city",
            "latitude": 34.0195598,
            "closest_to": "anaheim"
        },
        "san bernardino route": {
            "blogLinks": [
                "http://www.distancesfrom.com/us/travel-from-Anaheim-to-San-Bernardino/TravelFromHistory/24176409.aspx"
            ],
            "address": "San Bernardino, San Bernardino County, California, United States of America",
            "longitude": -117.2897651,
            "locType": "city",
            "latitude": 34.1083449,
            "closest_to": "san bernardino"
        },
        "harbor drive": {
            "blogLinks": [
                "http://wikitravel.org/en/San_Diego"
            ],
            "address": "Harbor Drive, San Bernardino County, California, 92392, United States of America",
            "longitude": -117.2654027,
            "locType": "residential",
            "latitude": 34.5013497,
            "closest_to": "san bernardino"
        },
        "baldwin park": {
            "blogLinks": [
                "http://www.roadsideamerica.com/location/ca"
            ],
            "address": "Baldwin Park, Los Angeles County, California, United States of America",
            "longitude": -117.961176,
            "locType": "city",
            "latitude": 34.0854739,
            "closest_to": "san bernardino"
        },
        "arizona-california": {
            "blogLinks": [
                "http://gocalifornia.about.com/od/topcalifornia/ss/route-66.htm"
            ],
            "address": "Arizona, San Bernardino County, California, 92371, United States of America",
            "longitude": -117.5060679,
            "locType": "track",
            "latitude": 34.4631398,
            "closest_to": "san bernardino"
        },
        "sierra madre blvd south": {
            "blogLinks": [
                "http://gocalifornia.about.com/od/topcalifornia/ss/route-66.htm"
            ],
            "address": "Sierra Madre Boulevard, Pasadena, Los Angeles County, California, 91024, United States of America",
            "longitude": -118.0698286,
            "locType": "primary",
            "latitude": 34.161921,
            "closest_to": "anaheim"
        },
        "mission san juan capistrano": {
            "blogLinks": [
                "https://www.tripadvisor.com/ShowTopic-g29092-i65-k3773903-Mountains_and_desert-Anaheim_California.html"
            ],
            "address": "Mission San Juan Capistrano, El Camino Real, San Juan Capistrano, Orange County, California, 92675, United States of America",
            "longitude": -117.663061669391,
            "locType": "place_of_worship",
            "latitude": 33.50381465,
            "closest_to": "anaheim"
        },
        "east los angeles": {
            "blogLinks": [
                "http://www.roadsideamerica.com/location/ca"
            ],
            "address": "East Los Angeles, Belvedere Gardens, Los Angeles County, California, United States of America",
            "longitude": -118.1720156,
            "locType": "suburb",
            "latitude": 34.0239015,
            "closest_to": "anaheim"
        },
        "los angeles county": {
            "blogLinks": [
                "http://gocalifornia.about.com/od/topcalifornia/ss/route-66.htm"
            ],
            "address": "Los Angeles County, California, United States of America",
            "longitude": -118.2096813,
            "locType": "administrative",
            "latitude": 34.3155072,
            "closest_to": "anaheim"
        },
        "oregon": {
            "blogLinks": [
                "http://wikitravel.org/en/San_Diego",
                "https://www.kcet.org/socal-wanderer/11-places-you-have-to-see-in-the-california-desert"
            ],
            "address": "Oregon, Walnut, Irvine, Orange County, California, 92606, United States of America",
            "longitude": -117.7911567,
            "locType": "residential",
            "latitude": 33.7123207,
            "closest_to": "san bernardino"
        },
        "victorville": {
            "blogLinks": [
                "http://gocalifornia.about.com/od/topcalifornia/ss/route-66.htm"
            ],
            "address": "Victorville, San Bernardino County, California, United States of America",
            "longitude": -117.2911564,
            "locType": "city",
            "latitude": 34.5361067,
            "closest_to": "san bernardino"
        },
        "venice": {
            "blogLinks": [
                "http://www.roadsideamerica.com/location/ca"
            ],
            "address": "Venice, LA, Los Angeles County, California, United States of America",
            "longitude": -118.4668874,
            "locType": "suburb",
            "latitude": 33.995044,
            "closest_to": "anaheim"
        },
        "mount baldy ca": {
            "blogLinks": [
                "http://www.california-blog.com/"
            ],
            "address": "Mount Baldy, Los Angeles County, California, United States of America",
            "longitude": -117.6600552,
            "locType": "hamlet",
            "latitude": 34.2361168,
            "closest_to": "san bernardino"
        },
        "arrowhead": {
            "blogLinks": [
                "https://www.tripadvisor.com/ShowTopic-g29092-i65-k3773903-Mountains_and_desert-Anaheim_California.html"
            ],
            "address": "Arrowhead, San Bernardino County, California, United States of America",
            "longitude": -117.2872653,
            "locType": "hamlet",
            "latitude": 34.1477879,
            "closest_to": "san bernardino"
        },
        "central avenue": {
            "blogLinks": [
                "http://gocalifornia.about.com/od/topcalifornia/ss/route-66.htm"
            ],
            "address": "Central Avenue, Riverside, Riverside County, California, 92504, United States of America",
            "longitude": -117.3851652,
            "locType": "primary",
            "latitude": 33.9535912,
            "closest_to": "san bernardino"
        },
        "riverside national cemetery": {
            "blogLinks": [
                "http://www.california-blog.com/"
            ],
            "address": "Riverside National Cemetery, 22495, Alessandro, Riverside County, California, 92518, United States of America",
            "longitude": -117.270726607134,
            "locType": "cemetery",
            "latitude": 33.87692125,
            "closest_to": "san bernardino"
        },
        "apple valley": {
            "blogLinks": [
                "http://www.roadsideamerica.com/location/ca"
            ],
            "address": "Apple Valley, San Bernardino County, California, United States of America",
            "longitude": -117.1858758,
            "locType": "administrative",
            "latitude": 34.5008311,
            "closest_to": "san bernardino"
        },
        "anaheim route": {
            "blogLinks": [
                "http://www.distancesfrom.com/us/travel-from-San-Bernardino-to-Anaheim/TravelFromHistory/14524192.aspx"
            ],
            "address": "Anaheim, Orange County, California, United States of America",
            "longitude": -117.9117319,
            "locType": "city",
            "latitude": 33.8347516,
            "closest_to": "anaheim"
        },
        "dana point": {
            "blogLinks": [
                "http://wikitravel.org/en/San_Diego"
            ],
            "address": "Dana Point, Orange County, California, United States of America",
            "longitude": -117.6981074,
            "locType": "city",
            "latitude": 33.4669721,
            "closest_to": "anaheim"
        },
        "santa fe springs": {
            "blogLinks": [
                "http://www.roadsideamerica.com/location/ca"
            ],
            "address": "Santa Fe Springs, Los Angeles County, California, United States of America",
            "longitude": -118.0676102,
            "locType": "city",
            "latitude": 33.9482434,
            "closest_to": "anaheim"
        },
        "whittier": {
            "blogLinks": [
                "http://www.roadsideamerica.com/location/ca"
            ],
            "address": "Whittier, Los Angeles County, California, United States of America",
            "longitude": -118.0336974,
            "locType": "city",
            "latitude": 33.9748932,
            "closest_to": "anaheim"
        },
        "inglewood": {
            "blogLinks": [
                "http://www.roadsideamerica.com/location/ca"
            ],
            "address": "Inglewood, Los Angeles County, California, United States of America",
            "longitude": -118.353131,
            "locType": "city",
            "latitude": 33.9616801,
            "closest_to": "anaheim"
        },
        "mount san jacinto ca": {
            "blogLinks": [
                "http://www.california-blog.com/"
            ],
            "address": "San Jacinto, Riverside County, California, United States of America",
            "longitude": -116.9586349,
            "locType": "city",
            "latitude": 33.7839084,
            "closest_to": "san bernardino"
        },
        "monrovia": {
            "blogLinks": [
                "http://www.california-blog.com/",
                "http://gocalifornia.about.com/od/topcalifornia/ss/route-66.htm"
            ],
            "address": "Monrovia, Los Angeles County, California, United States of America",
            "longitude": -118.0014516,
            "locType": "city",
            "latitude": 34.1483499,
            "closest_to": "anaheim"
        },
        "west 5th street": {
            "blogLinks": [
                "http://gocalifornia.about.com/od/topcalifornia/ss/route-66.htm"
            ],
            "address": "West 5th Street, Gallery Row, Bunker Hill, LA, Los Angeles County, California, 90014, United States of America",
            "longitude": -118.2490778,
            "locType": "primary",
            "latitude": 34.0470254,
            "closest_to": "anaheim"
        },
        "san bernardino": {
            "blogLinks": [
                "http://gocalifornia.about.com/od/topcalifornia/ss/route-66.htm",
                "http://www.distancesfrom.com/us/Anaheim-to-San-Bernardino-CA-Route-via-Disneyland/RouteplannerHistory/4504031.aspx",
                "http://www.distancesfrom.com/us/travel-from-San-Bernardino-to-Anaheim/TravelFromHistory/14524192.aspx",
                "http://www.distancesfrom.com/us/travel-from-Anaheim-to-San-Bernardino/TravelFromHistory/24176409.aspx",
                "http://distancecalculator.globefeed.com/US_Distance_Calculator.asp?state=CA",
                "http://www.distancesfrom.com/us/travel-time-from-Anaheim-to-San-Bernardino-CA-via-Disneyland/TravelTimeHistory/4504031.aspx",
                "http://wikitravel.org/en/San_Diego",
                "https://www.kcet.org/socal-wanderer/11-places-you-have-to-see-in-the-california-desert",
                "http://www.distancesfrom.com/us/flight-distance-from-Anaheim-to-San-Bernardino-CA/FlightHistory/4504031.aspx",
                "http://www.movoto.com/guide/ca/most-dangerous-places-in-california/"
            ],
            "address": "San Bernardino, San Bernardino County, California, United States of America",
            "longitude": -117.2897651,
            "locType": "city",
            "latitude": 34.1083449,
            "closest_to": "san bernardino"
        },
        "ontario": {
            "blogLinks": [
                "http://www.california-blog.com/"
            ],
            "address": "Ontario, San Bernardino County, California, United States of America",
            "longitude": -117.6484303,
            "locType": "city",
            "latitude": 34.065846,
            "closest_to": "san bernardino"
        },
        "tokyo": {
            "blogLinks": [
                "http://wikitravel.org/en/San_Diego"
            ],
            "address": "Southern California Institute of Architecture, 960, East 3rd Street, Arts District, Little Tokyo Historic District, LA, Los Angeles County, California, 90013, United States of America",
            "longitude": -118.2328066,
            "locType": "school",
            "latitude": 34.0431787,
            "closest_to": "anaheim"
        },
        "riverside": {
            "blogLinks": [
                "https://www.tripadvisor.com/ShowTopic-g29092-i65-k3773903-Mountains_and_desert-Anaheim_California.html"
            ],
            "address": "Riverside, Riverside County, California, United States of America",
            "longitude": -117.3961622,
            "locType": "city",
            "latitude": 33.9533546,
            "closest_to": "san bernardino"
        },
        "buena park": {
            "blogLinks": [
                "http://www.roadsideamerica.com/location/ca"
            ],
            "address": "Buena Park, Orange County, California, United States of America",
            "longitude": -117.9962164,
            "locType": "city",
            "latitude": 33.870413,
            "closest_to": "anaheim"
        },
        "devore": {
            "blogLinks": [
                "http://gocalifornia.about.com/od/topcalifornia/ss/route-66.htm"
            ],
            "address": "Devore, San Bernardino County, California, United States of America",
            "longitude": -117.4014364,
            "locType": "hamlet",
            "latitude": 34.2163964,
            "closest_to": "san bernardino"
        },
        "balboa island": {
            "blogLinks": [
                "https://www.tripadvisor.com/ShowTopic-g29092-i65-k3773903-Mountains_and_desert-Anaheim_California.html"
            ],
            "address": "Balboa Island, Newport Beach, Orange County, California, United States of America",
            "longitude": -117.8920818,
            "locType": "suburb",
            "latitude": 33.6064778,
            "closest_to": "anaheim"
        },
        "west los angeles": {
            "blogLinks": [
                "http://gocalifornia.about.com/od/topcalifornia/ss/route-66.htm"
            ],
            "address": "West Los Angeles, Westwood, LA, Los Angeles County, California, 90025, United States of America",
            "longitude": -118.4481349,
            "locType": "neighbourhood",
            "latitude": 34.0463986,
            "closest_to": "anaheim"
        },
        "beaumont": {
            "blogLinks": [
                "https://www.tripadvisor.com/ShowTopic-g29092-i65-k3773903-Mountains_and_desert-Anaheim_California.html"
            ],
            "address": "Beaumont, Riverside County, California, United States of America",
            "longitude": -116.9772479,
            "locType": "city",
            "latitude": 33.9294606,
            "closest_to": "san bernardino"
        },
        "arizona": {
            "blogLinks": [
                "http://wikitravel.org/en/San_Diego",
                "https://www.tripadvisor.com/ShowTopic-g29092-i65-k3773903-Mountains_and_desert-Anaheim_California.html",
                "http://gocalifornia.about.com/od/topcalifornia/ss/route-66.htm"
            ],
            "address": "Arizona, San Bernardino County, California, 92371, United States of America",
            "longitude": -117.5060679,
            "locType": "track",
            "latitude": 34.4631398,
            "closest_to": "san bernardino"
        },
        "first avenue": {
            "blogLinks": [
                "https://www.kcet.org/socal-wanderer/11-places-you-have-to-see-in-the-california-desert"
            ],
            "address": "First Avenue, Arcadia, Los Angeles County, California, 91006, United States of America",
            "longitude": -118.028452,
            "locType": "tertiary",
            "latitude": 34.145538,
            "closest_to": "anaheim"
        },
        "cherry valley": {
            "blogLinks": [
                "https://www.tripadvisor.com/ShowTopic-g29092-i65-k3773903-Mountains_and_desert-Anaheim_California.html"
            ],
            "address": "Cherry Valley, Avenida Miravilla, Cherry Valley, Riverside County, California, 92223, United States of America",
            "longitude": -116.970584340156,
            "locType": "administrative",
            "latitude": 33.9795655,
            "closest_to": "san bernardino"
        },
        "santa monica boulevard": {
            "blogLinks": [
                "http://gocalifornia.about.com/od/topcalifornia/ss/route-66.htm"
            ],
            "address": "Santa Monica Boulevard, Little Armenia, LA, Los Angeles County, California, Ca 90038, United States of America",
            "longitude": -118.317943,
            "locType": "primary",
            "latitude": 34.0907545,
            "closest_to": "anaheim"
        },
        "anaheim": {
            "blogLinks": [
                "http://www.distancesfrom.com/us/Anaheim-to-San-Bernardino-CA-Route-via-Disneyland/RouteplannerHistory/4504031.aspx",
                "http://www.distancesfrom.com/us/travel-from-San-Bernardino-to-Anaheim/TravelFromHistory/14524192.aspx",
                "http://www.distancesfrom.com/us/travel-from-Anaheim-to-San-Bernardino/TravelFromHistory/24176409.aspx",
                "http://www.distancesfrom.com/us/travel-time-from-Anaheim-to-San-Bernardino-CA-via-Disneyland/TravelTimeHistory/4504031.aspx",
                "http://wikitravel.org/en/San_Diego",
                "http://www.distancesfrom.com/us/flight-distance-from-Anaheim-to-San-Bernardino-CA/FlightHistory/4504031.aspx",
                "https://www.tripadvisor.com/ShowTopic-g29092-i65-k3773903-Mountains_and_desert-Anaheim_California.html",
                "http://www.roadsideamerica.com/location/ca"
            ],
            "address": "Anaheim, Orange County, California, United States of America",
            "longitude": -117.9117319,
            "locType": "city",
            "latitude": 33.8347516,
            "closest_to": "anaheim"
        },
        "college avenue": {
            "blogLinks": [
                "http://wikitravel.org/en/San_Diego"
            ],
            "address": "College Avenue, Palms, LA, Los Angeles County, California, 90232, United States of America",
            "longitude": -118.411823,
            "locType": "residential",
            "latitude": 34.0158908,
            "closest_to": "anaheim"
        },
        "newport beach ca": {
            "blogLinks": [
                "http://www.california-blog.com/"
            ],
            "address": "Newport Beach, Orange County, California, United States of America",
            "longitude": -117.92944,
            "locType": "city",
            "latitude": 33.6170092,
            "closest_to": "anaheim"
        },
        "gaslamp": {
            "blogLinks": [
                "http://wikitravel.org/en/San_Diego"
            ],
            "address": "Gaslamp, Loynes Drive, Marina Pacifica, Naples, Long Beach, Los Angeles County, California, 90803, United States of America",
            "longitude": -118.116345466191,
            "locType": "hotel",
            "latitude": 33.76711105,
            "closest_to": "anaheim"
        },
        "point loma": {
            "blogLinks": [
                "http://wikitravel.org/en/San_Diego"
            ],
            "address": "Point Loma, Laguna Niguel, Orange County, California, 92677, United States of America",
            "longitude": -117.717867,
            "locType": "residential",
            "latitude": 33.5466403,
            "closest_to": "anaheim"
        },
        "beverly hills": {
            "blogLinks": [
                "http://gocalifornia.about.com/od/topcalifornia/ss/route-66.htm"
            ],
            "address": "Beverly Hills, Los Angeles County, California, United States of America",
            "longitude": -118.4003562,
            "locType": "city",
            "latitude": 34.0736204,
            "closest_to": "anaheim"
        },
        "mother road": {
            "blogLinks": [
                "http://gocalifornia.about.com/od/topcalifornia/ss/route-66.htm"
            ],
            "address": "Route 66, Anaheim Resort District, Anaheim, Orange County, California, 92802, United States of America",
            "longitude": -117.9189801,
            "locType": "living_street",
            "latitude": 33.8058766,
            "closest_to": "anaheim"
        },
        "santa monica blvd.": {
            "blogLinks": [
                "http://gocalifornia.about.com/od/topcalifornia/ss/route-66.htm"
            ],
            "address": "Santa Monica Boulevard, Little Armenia, LA, Los Angeles County, California, Ca 90038, United States of America",
            "longitude": -118.317943,
            "locType": "primary",
            "latitude": 34.0907545,
            "closest_to": "anaheim"
        },
        "orange county": {
            "blogLinks": [
                "http://wikitravel.org/en/San_Diego",
                "https://www.tripadvisor.com/ShowTopic-g29092-i65-k3773903-Mountains_and_desert-Anaheim_California.html"
            ],
            "address": "Orange County, California, United States of America",
            "longitude": -117.870493,
            "locType": "administrative",
            "latitude": 33.7500378,
            "closest_to": "anaheim"
        },
        "santa ana": {
            "blogLinks": [
                "http://wikitravel.org/en/San_Diego"
            ],
            "address": "Santa Ana, Orange County, California, United States of America",
            "longitude": -117.8732212,
            "locType": "city",
            "latitude": 33.7494951,
            "closest_to": "anaheim"
        },
        "santa monica blvd": {
            "blogLinks": [
                "http://gocalifornia.about.com/od/topcalifornia/ss/route-66.htm"
            ],
            "address": "Santa Monica Boulevard, Little Armenia, LA, Los Angeles County, California, Ca 90038, United States of America",
            "longitude": -118.317943,
            "locType": "primary",
            "latitude": 34.0907545,
            "closest_to": "anaheim"
        },
        "costa mesa": {
            "blogLinks": [
                "http://www.roadsideamerica.com/location/ca"
            ],
            "address": "Costa Mesa, Orange County, California, United States of America",
            "longitude": -117.9033169,
            "locType": "city",
            "latitude": 33.6633386,
            "closest_to": "anaheim"
        }
    },
    "anaheim": {
        "osm_type": "relation",
        "lon": "-117.9117319",
        "type": "city",
        "boundingbox": [
            "33.7889241",
            "33.8790572",
            "-118.017421",
            "-117.6735594"
        ],
        "class": "place",
        "place_id": "159226845",
        "osm_id": "253985",
        "lat": "33.8347516",
        "licence": "Data \u00a9 OpenStreetMap contributors, ODbL 1.0. http://www.openstreetmap.org/copyright",
        "icon": "https://nominatim.openstreetmap.org/images/mapicons/poi_place_city.p.20.png",
        "importance": 0.79164393262363,
        "display_name": "Anaheim, Orange County, California, United States of America"
    },
    "san bernardino": {
        "osm_type": "relation",
        "lon": "-117.2897651",
        "type": "city",
        "boundingbox": [
            "34.050346",
            "34.230706",
            "-117.4024519",
            "-117.1649719"
        ],
        "class": "place",
        "place_id": "159293643",
        "osm_id": "253639",
        "lat": "34.1083449",
        "licence": "Data \u00a9 OpenStreetMap contributors, ODbL 1.0. http://www.openstreetmap.org/copyright",
        "icon": "https://nominatim.openstreetmap.org/images/mapicons/poi_place_city.p.20.png",
        "importance": 0.81183700771795,
        "display_name": "San Bernardino, San Bernardino County, California, United States of America"
    }
}