{
    "mentions": {
        "san diego": {
            "closest_to": "temecula",
            "locType": "city",
            "address": "San Diego, San Diego County, California, United States of America",
            "latitude": "32.7174209",
            "longitude": "-117.1627713",
            "blogLinks": [
                "https://www.tripadvisor.com/Tourism-g33165-Temecula_California-Vacations.html",
                "http://www.sandiego.org/articles/wineries/wine-tasting-in-san-diego.aspx",
                "http://www.sandiego.org/articles/tours-sightseeing/san-diegos-59-mile-scenic-drive.aspx",
                "http://www.diariesofwanderlust.com/wine-tour-of-temecula-valley/",
                "http://wikitravel.org/en/San_Diego",
                "http://www.daytrippen.com/",
                "http://www.daytrippen.com/lake-elsinore-day-trip-things-to-do/",
                "http://blog.avalonwaterways.com/2014/12/18/best-places-travel-2015/",
                "http://www.yellowpages.com/temecula-ca/avalon-hotel-new-york-city",
                "https://www.yelp.com/list/places-in-or-near-temecula-and-san-diego-ca-temecula"
            ]
        },
        "balboa park | balboa park-hillcrest": {
            "closest_to": "temecula",
            "locType": "park",
            "address": "Balboa Park, Plaza de Balboa, North Park, Hillcrest, San Diego, San Diego County, California, 92101, United States of America",
            "latitude": "32.7310521",
            "longitude": "-117.146580648446",
            "blogLinks": [
                "http://wikitravel.org/en/San_Diego"
            ]
        },
        "laguna lake park fullerton": {
            "closest_to": "temecula",
            "locType": "park",
            "address": "Laguna Lake Park, Bud Turner Trail, Downtown Fullerton, Fullerton, Orange County, California, 92835, United States of America",
            "latitude": "33.90523475",
            "longitude": "-117.938589767008",
            "blogLinks": [
                "http://www.daytrippen.com/"
            ]
        },
        "park boulevard": {
            "closest_to": "temecula",
            "locType": "secondary",
            "address": "Park Boulevard, Hillcrest, San Diego, San Diego County, California, 92116, United States of America",
            "latitude": "32.7242198",
            "longitude": "-117.1511213",
            "blogLinks": [
                "http://www.sandiego.org/articles/tours-sightseeing/san-diegos-59-mile-scenic-drive.aspx"
            ]
        },
        "santa rosa mountains": {
            "closest_to": "temecula",
            "locType": "nature_reserve",
            "address": "Santa Rosa Mountains State Wilderness, San Diego County, California, United States of America",
            "latitude": "33.412282",
            "longitude": "-116.231717855027",
            "blogLinks": [
                "http://www.daytrippen.com/"
            ]
        },
        "carlsbad state beach": {
            "closest_to": "temecula",
            "locType": "park",
            "address": "Carlsbad State Beach, Carlsbad Boulevard, Carlsbad, San Diego County, California, 92009, United States of America",
            "latitude": "33.13596865",
            "longitude": "-117.338366938891",
            "blogLinks": [
                "http://www.yellowpages.com/temecula-ca/avalon-hotel-new-york-city"
            ]
        },
        "downtown los angeles": {
            "closest_to": "avalon",
            "locType": "station",
            "address": "Downtown Burbank, Front Street, Burbank, Los Angeles County, California, 91502, United States of America",
            "latitude": "34.1789188",
            "longitude": "-118.312628",
            "blogLinks": [
                "http://www.daytrippen.com/"
            ]
        },
        "laurel street": {
            "closest_to": "temecula",
            "locType": "secondary",
            "address": "Laurel Street, Hillcrest, San Diego, San Diego County, California, 92101, United States of America",
            "latitude": "32.7313904",
            "longitude": "-117.1594735",
            "blogLinks": [
                "http://wikitravel.org/en/San_Diego"
            ]
        },
        "newport avenue": {
            "closest_to": "temecula",
            "locType": "secondary",
            "address": "Newport Avenue, Old Town, San Diego, San Diego County, California, 92107, United States of America",
            "latitude": "32.7436805",
            "longitude": "-117.2458648",
            "blogLinks": [
                "http://www.sandiego.org/articles/tours-sightseeing/san-diegos-59-mile-scenic-drive.aspx"
            ]
        },
        "montgomery field": {
            "closest_to": "temecula",
            "locType": "aerodrome",
            "address": "Montgomery Field, John J Montgomery Drive, Mission Valley, San Diego, San Diego County, California, 92123, United States of America",
            "latitude": "32.8149052",
            "longitude": "-117.140320448768",
            "blogLinks": [
                "http://wikitravel.org/en/San_Diego"
            ]
        },
        "black 's beach": {
            "closest_to": "temecula",
            "locType": "residential",
            "address": "Black Sea Avenue, Salton Sea Beach, Imperial County, California, United States of America",
            "latitude": "33.3358674",
            "longitude": "-115.9938426",
            "blogLinks": [
                "http://wikitravel.org/en/San_Diego"
            ]
        },
        "temecula": {
            "closest_to": "temecula",
            "locType": "city",
            "address": "Temecula, Riverside County, California, United States of America",
            "latitude": "33.4946353",
            "longitude": "-117.147366",
            "blogLinks": [
                "https://www.tripadvisor.com/Tourism-g33165-Temecula_California-Vacations.html",
                "http://www.temeculawines.org/blog/temecula-valley-wine-country-restaurants/",
                "http://www.sandiego.org/articles/wineries/wine-tasting-in-san-diego.aspx",
                "http://temeculaca.gov/207/Things-To-Do-Lodging-Transportation",
                "http://www.diariesofwanderlust.com/wine-tour-of-temecula-valley/",
                "http://wikitravel.org/en/San_Diego",
                "http://www.daytrippen.com/lake-elsinore-day-trip-things-to-do/",
                "http://www.yellowpages.com/temecula-ca/avalon-hotel-new-york-city",
                "https://www.yelp.com/list/places-in-or-near-temecula-and-san-diego-ca-temecula"
            ]
        },
        "tamarack beach": {
            "closest_to": "temecula",
            "locType": "beach",
            "address": "Tamarack Beach, Carlsbad Boulevard, Carlsbad, San Diego County, California, 92008, United States of America",
            "latitude": "33.15106155",
            "longitude": "-117.348550722652",
            "blogLinks": [
                "http://www.yellowpages.com/temecula-ca/avalon-hotel-new-york-city"
            ]
        },
        "san marcos": {
            "closest_to": "temecula",
            "locType": "city",
            "address": "San Marcos, San Diego County, California, United States of America",
            "latitude": "33.1433723",
            "longitude": "-117.1661448",
            "blogLinks": [
                "http://www.yellowpages.com/temecula-ca/avalon-hotel-new-york-city"
            ]
        },
        "new york": {
            "closest_to": "temecula",
            "locType": "service",
            "address": "New York, West Covina, Los Angeles County, California, 91792, United States of America",
            "latitude": "34.0143928",
            "longitude": "-117.8984509",
            "blogLinks": [
                "http://www.yellowpages.com/temecula-ca/avalon-hotel-new-york-city"
            ]
        },
        "sun city": {
            "closest_to": "temecula",
            "locType": "suburb",
            "address": "Sun City, Menifee, Sun City, Riverside County, California, United States of America",
            "latitude": "33.7010223",
            "longitude": "-117.2027866",
            "blogLinks": [
                "http://www.yellowpages.com/temecula-ca/avalon-hotel-new-york-city"
            ]
        },
        "ontario": {
            "closest_to": "temecula",
            "locType": "city",
            "address": "Ontario, San Bernardino County, California, United States of America",
            "latitude": "34.065846",
            "longitude": "-117.6484303",
            "blogLinks": [
                "http://www.california-blog.com/",
                "http://www.diariesofwanderlust.com/wine-tour-of-temecula-valley/"
            ]
        },
        "callaway": {
            "closest_to": "temecula",
            "locType": "residential",
            "address": "Callaway Drive, Ontario, San Bernardino County, California, 91761, United States of America",
            "latitude": "34.0176963",
            "longitude": "-117.5643405",
            "blogLinks": [
                "http://www.temeculawines.org/blog/temecula-valley-wine-country-restaurants/"
            ]
        },
        "palos verdes peninsula ca": {
            "closest_to": "avalon",
            "locType": "school",
            "address": "Palos Verdes Peninsula High School, Hawthorne Boulevard, Rolling Hills Estates, Los Angeles County, California, 90274, United States of America",
            "latitude": "33.77984925",
            "longitude": "-118.372196730215",
            "blogLinks": [
                "http://www.california-blog.com/"
            ]
        },
        "crown point drive": {
            "closest_to": "temecula",
            "locType": "residential",
            "address": "Crown Point Drive, Pacific Beach, San Diego, San Diego County, California, 92109, United States of America",
            "latitude": "32.793282",
            "longitude": "-117.2311629",
            "blogLinks": [
                "http://www.sandiego.org/articles/tours-sightseeing/san-diegos-59-mile-scenic-drive.aspx"
            ]
        },
        "temecula california": {
            "closest_to": "temecula",
            "locType": "city",
            "address": "Temecula, Riverside County, California, United States of America",
            "latitude": "33.4946353",
            "longitude": "-117.147366",
            "blogLinks": [
                "http://www.daytrippen.com/lake-elsinore-day-trip-things-to-do/"
            ]
        },
        "hotel temecula": {
            "closest_to": "temecula",
            "locType": "hotel",
            "address": "Temecula Creek Inn, Rainbow Canyon Road, California Sunset, Temecula Creek Village, Temecula, Riverside County, California, 92592, United States of America",
            "latitude": "33.4672125",
            "longitude": "-117.1317601",
            "blogLinks": [
                "http://www.yellowpages.com/temecula-ca/avalon-hotel-new-york-city"
            ]
        },
        "north harbor drive": {
            "closest_to": "temecula",
            "locType": "primary",
            "address": "North Harbor Drive, Hillcrest, San Diego, San Diego County, California, 92106, United States of America",
            "latitude": "32.7118038",
            "longitude": "-117.1726983",
            "blogLinks": [
                "http://www.sandiego.org/articles/tours-sightseeing/san-diegos-59-mile-scenic-drive.aspx"
            ]
        },
        "mount baldy ca": {
            "closest_to": "temecula",
            "locType": "hamlet",
            "address": "Mount Baldy, Los Angeles County, California, United States of America",
            "latitude": "34.2361168",
            "longitude": "-117.6600552",
            "blogLinks": [
                "http://www.california-blog.com/"
            ]
        },
        "jefferson ave": {
            "closest_to": "temecula",
            "locType": "residential",
            "address": "Jefferson Avenue, San Bernardino, San Bernardino County, California, 92376, United States of America",
            "latitude": "34.0886856",
            "longitude": "-117.3589431",
            "blogLinks": [
                "http://www.yellowpages.com/temecula-ca/avalon-hotel-new-york-city"
            ]
        },
        "prospect street": {
            "closest_to": "temecula",
            "locType": "secondary",
            "address": "Prospect Street, La Jolla, San Diego, San Diego County, California, 92037, United States of America",
            "latitude": "32.8478832",
            "longitude": "-117.2741032",
            "blogLinks": [
                "http://www.sandiego.org/articles/tours-sightseeing/san-diegos-59-mile-scenic-drive.aspx"
            ]
        },
        "lemon grove": {
            "closest_to": "temecula",
            "locType": "city",
            "address": "Lemon Grove, San Diego County, California, United States of America",
            "latitude": "32.7425516",
            "longitude": "-117.0314171",
            "blogLinks": [
                "http://wikitravel.org/en/San_Diego"
            ]
        },
        "ponte": {
            "closest_to": "temecula",
            "locType": "residential",
            "address": "Ponte, Westpark, Irvine, Orange County, California, 92606, United States of America",
            "latitude": "33.6946643",
            "longitude": "-117.8064455",
            "blogLinks": [
                "http://www.temeculawines.org/blog/temecula-valley-wine-country-restaurants/"
            ]
        },
        "south coast winery": {
            "closest_to": "temecula",
            "locType": "attraction",
            "address": "South Coast Winery, Rancho California Road, Temecula Valley Wine Country, Valle de los Caballos, Riverside County, California, 92592, United States of America",
            "latitude": "33.5338835",
            "longitude": "-117.053849",
            "blogLinks": [
                "http://www.temeculawines.org/blog/temecula-valley-wine-country-restaurants/"
            ]
        },
        "highway 101": {
            "closest_to": "temecula",
            "locType": "primary",
            "address": "Highway 101, Solana Beach, San Diego County, California, 92075, United States of America",
            "latitude": "32.9967358",
            "longitude": "-117.2731974",
            "blogLinks": [
                "http://www.daytrippen.com/",
                "http://www.sandiego.org/articles/wineries/wine-tasting-in-san-diego.aspx"
            ]
        },
        "san jacinto": {
            "closest_to": "temecula",
            "locType": "city",
            "address": "San Jacinto, Riverside County, California, United States of America",
            "latitude": "33.7839084",
            "longitude": "-116.9586349",
            "blogLinks": [
                "http://www.daytrippen.com/"
            ]
        },
        "viejas arena": {
            "closest_to": "temecula",
            "locType": "sports_centre",
            "address": "Viejas Arena, Aztec Walk, San Diego, San Diego County, California, 92182, United States of America",
            "latitude": "32.77380925",
            "longitude": "-117.074548235413",
            "blogLinks": [
                "http://wikitravel.org/en/San_Diego"
            ]
        },
        "mulholland highway": {
            "closest_to": "avalon",
            "locType": "residential",
            "address": "Mulholland Highway, Hollywood Hills, LA, Los Angeles County, California, 90068, United States of America",
            "latitude": "34.1306145",
            "longitude": "-118.3191905",
            "blogLinks": [
                "http://www.daytrippen.com/"
            ]
        },
        "moreno valley ca": {
            "closest_to": "temecula",
            "locType": "city",
            "address": "Moreno Valley, Riverside County, California, United States of America",
            "latitude": "33.937517",
            "longitude": "-117.2305943",
            "blogLinks": [
                "http://www.california-blog.com/"
            ]
        },
        "shelter island": {
            "closest_to": "temecula",
            "locType": "island",
            "address": "Shelter Island, San Diego, San Diego County, California, United States of America",
            "latitude": "32.7113133",
            "longitude": "-117.2300318",
            "blogLinks": [
                "http://www.sandiego.org/articles/tours-sightseeing/san-diegos-59-mile-scenic-drive.aspx",
                "http://wikitravel.org/en/San_Diego"
            ]
        },
        "santee": {
            "closest_to": "temecula",
            "locType": "city",
            "address": "Santee, San Diego County, California, United States of America",
            "latitude": "32.8383828",
            "longitude": "-116.9739166",
            "blogLinks": [
                "http://wikitravel.org/en/San_Diego"
            ]
        },
        "canon street": {
            "closest_to": "temecula",
            "locType": "secondary",
            "address": "Canon Street, Old Town, San Diego, San Diego County, California, 92106, United States of America",
            "latitude": "32.725689",
            "longitude": "-117.2373119",
            "blogLinks": [
                "http://www.sandiego.org/articles/tours-sightseeing/san-diegos-59-mile-scenic-drive.aspx"
            ]
        },
        "torrey pines state beach": {
            "closest_to": "temecula",
            "locType": "beach",
            "address": "Torrey Pines State Beach, Yucca Point Trail, Del Mar, San Diego, San Diego County, California, 92121, United States of America",
            "latitude": "32.91754945",
            "longitude": "-117.259044437013",
            "blogLinks": [
                "http://wikitravel.org/en/San_Diego"
            ]
        },
        "monrovia": {
            "closest_to": "temecula",
            "locType": "city",
            "address": "Monrovia, Los Angeles County, California, United States of America",
            "latitude": "34.1483499",
            "longitude": "-118.0014516",
            "blogLinks": [
                "http://www.california-blog.com/"
            ]
        },
        "tucson": {
            "closest_to": "temecula",
            "locType": "residential",
            "address": "Tucson, Coto de Caza, Orange County, California, 92690, United States of America",
            "latitude": "33.5678303",
            "longitude": "-117.5934281",
            "blogLinks": [
                "http://wikitravel.org/en/San_Diego"
            ]
        },
        "coronado": {
            "closest_to": "temecula",
            "locType": "city",
            "address": "Coronado, San Diego County, California, United States of America",
            "latitude": "32.6858854",
            "longitude": "-117.183089",
            "blogLinks": [
                "http://www.sandiego.org/articles/tours-sightseeing/san-diegos-59-mile-scenic-drive.aspx"
            ]
        },
        "inland san diego county": {
            "closest_to": "temecula",
            "locType": "cycleway",
            "address": "Inland Rail Trail, Escondido, San Diego County, California, 92025, United States of America",
            "latitude": "33.119939",
            "longitude": "-117.0913462",
            "blogLinks": [
                "http://wikitravel.org/en/San_Diego"
            ]
        },
        "old town transit center": {
            "closest_to": "temecula",
            "locType": "station",
            "address": "Old Town Transit Center, Congress Street, Old Town, San Diego, San Diego County, California, 92110, United States of America",
            "latitude": "32.7548849",
            "longitude": "-117.1994928",
            "blogLinks": [
                "http://wikitravel.org/en/San_Diego"
            ]
        },
        "scottsdale": {
            "closest_to": "temecula",
            "locType": "residential",
            "address": "Scottsdale Townhouse Association Maintenance Storage Area, Keystone, Carson, Los Angeles County, California, 90745, United States of America",
            "latitude": "33.81271835",
            "longitude": "-118.262579480198",
            "blogLinks": [
                "http://wikitravel.org/en/San_Diego"
            ]
        },
        "laguna beach": {
            "closest_to": "temecula",
            "locType": "city",
            "address": "Laguna Beach, Orange County, California, United States of America",
            "latitude": "33.5420888",
            "longitude": "-117.7834146",
            "blogLinks": [
                "http://www.daytrippen.com/"
            ]
        },
        "glastonbury": {
            "closest_to": "avalon",
            "locType": "residential",
            "address": "Glastonbury Road, Thousand Oaks, Ventura County, California, 91361, United States of America",
            "latitude": "34.143619",
            "longitude": "-118.8404319",
            "blogLinks": [
                "http://avalonmarshes.org/explore/places-to-visit/places-to-visit-landscape/"
            ]
        },
        "san diego county": {
            "closest_to": "temecula",
            "locType": "administrative",
            "address": "San Diego County, California, United States of America",
            "latitude": "32.9637838",
            "longitude": "-116.7706276",
            "blogLinks": [
                "http://wikitravel.org/en/San_Diego"
            ]
        },
        "san bernardino": {
            "closest_to": "temecula",
            "locType": "city",
            "address": "San Bernardino, San Bernardino County, California, United States of America",
            "latitude": "34.1083449",
            "longitude": "-117.2897651",
            "blogLinks": [
                "http://www.diariesofwanderlust.com/wine-tour-of-temecula-valley/",
                "http://wikitravel.org/en/San_Diego"
            ]
        },
        "valley center": {
            "closest_to": "temecula",
            "locType": "administrative",
            "address": "Valley Center, San Diego County, California, United States of America",
            "latitude": "33.2183701",
            "longitude": "-117.0341966",
            "blogLinks": [
                "http://www.daytrippen.com/"
            ]
        },
        "carlsbad": {
            "closest_to": "temecula",
            "locType": "city",
            "address": "Carlsbad, San Diego County, California, United States of America",
            "latitude": "33.1580933",
            "longitude": "-117.3505938",
            "blogLinks": [
                "http://www.yellowpages.com/temecula-ca/avalon-hotel-new-york-city",
                "http://wikitravel.org/en/San_Diego",
                "http://www.sandiego.org/articles/wineries/wine-tasting-in-san-diego.aspx"
            ]
        },
        "mission valley": {
            "closest_to": "temecula",
            "locType": "suburb",
            "address": "Mission Valley, San Diego, San Diego County, California, United States of America",
            "latitude": "32.7768074",
            "longitude": "-117.1520977",
            "blogLinks": [
                "http://wikitravel.org/en/San_Diego"
            ]
        },
        "irvine": {
            "closest_to": "temecula",
            "locType": "city",
            "address": "Irvine, Orange County, California, United States of America",
            "latitude": "33.6856969",
            "longitude": "-117.8259818",
            "blogLinks": [
                "http://www.daytrippen.com/"
            ]
        },
        "riverside": {
            "closest_to": "temecula",
            "locType": "city",
            "address": "Riverside, Riverside County, California, United States of America",
            "latitude": "33.9533546",
            "longitude": "-117.3961622",
            "blogLinks": [
                "http://www.diariesofwanderlust.com/wine-tour-of-temecula-valley/"
            ]
        },
        "mission beach-pacific beach": {
            "closest_to": "temecula",
            "locType": "cafe",
            "address": "The Mission, 3795, Mission Boulevard, Pacific Beach, San Diego, San Diego County, California, 92109, United States of America",
            "latitude": "32.7846357",
            "longitude": "-117.2527558",
            "blogLinks": [
                "http://wikitravel.org/en/San_Diego"
            ]
        },
        "grand pacific palisades resort & hotel": {
            "closest_to": "temecula",
            "locType": "hotel",
            "address": "Grand Pacific Palisades Resort and Hotel, Armada Drive, Carlsbad, San Diego County, California, 92008, United States of America",
            "latitude": "33.1245722",
            "longitude": "-117.315434919128",
            "blogLinks": [
                "http://www.yellowpages.com/temecula-ca/avalon-hotel-new-york-city"
            ]
        },
        "point loma": {
            "closest_to": "temecula",
            "locType": "residential",
            "address": "Point Loma, Laguna Niguel, Orange County, California, 92677, United States of America",
            "latitude": "33.5466403",
            "longitude": "-117.717867",
            "blogLinks": [
                "http://wikitravel.org/en/San_Diego"
            ]
        },
        "la jolla": {
            "closest_to": "temecula",
            "locType": "suburb",
            "address": "La Jolla, San Diego, San Diego County, California, United States of America",
            "latitude": "32.8472711",
            "longitude": "-117.2742085",
            "blogLinks": [
                "http://www.sandiego.org/articles/tours-sightseeing/san-diegos-59-mile-scenic-drive.aspx",
                "http://wikitravel.org/en/San_Diego"
            ]
        },
        "naval air station": {
            "closest_to": "temecula",
            "locType": "military",
            "address": "Naval Air Station North Island, F West Road, Coronado, San Diego County, California, 92135, United States of America",
            "latitude": "32.701613",
            "longitude": "-117.2043364",
            "blogLinks": [
                "http://wikitravel.org/en/San_Diego"
            ]
        },
        "goldfinch street": {
            "closest_to": "temecula",
            "locType": "tertiary",
            "address": "Goldfinch Street, Hillcrest, San Diego, San Diego County, California, 92103, United States of America",
            "latitude": "32.746819",
            "longitude": "-117.1713489",
            "blogLinks": [
                "http://www.sandiego.org/articles/tours-sightseeing/san-diegos-59-mile-scenic-drive.aspx"
            ]
        },
        "west mission bay drive": {
            "closest_to": "temecula",
            "locType": "trunk",
            "address": "West Mission Bay Drive, Old Town, San Diego, San Diego County, California, 92107, United States of America",
            "latitude": "32.764275",
            "longitude": "-117.2341419",
            "blogLinks": [
                "http://www.sandiego.org/articles/tours-sightseeing/san-diegos-59-mile-scenic-drive.aspx"
            ]
        },
        "agoura hills": {
            "closest_to": "avalon",
            "locType": "city",
            "address": "Agoura Hills, Los Angeles County, California, United States of America",
            "latitude": "34.1363945",
            "longitude": "-118.7745347",
            "blogLinks": [
                "http://www.daytrippen.com/"
            ]
        },
        "la jolla shores": {
            "closest_to": "temecula",
            "locType": "hamlet",
            "address": "La Jolla Shores, San Diego County, California, United States of America",
            "latitude": "32.8556028",
            "longitude": "-117.2536478",
            "blogLinks": [
                "http://wikitravel.org/en/San_Diego"
            ]
        },
        "diamond valley lake": {
            "closest_to": "temecula",
            "locType": "water",
            "address": "Diamond Valley Lake, Old Mine Road, Egan, Riverside County, California, 92543, United States of America",
            "latitude": "33.679902",
            "longitude": "-117.027609780569",
            "blogLinks": [
                "https://www.yelp.com/list/places-in-or-near-temecula-and-san-diego-ca-temecula"
            ]
        },
        "washington street": {
            "closest_to": "temecula",
            "locType": "station",
            "address": "Washington Street, Kurtz Street, Hillcrest, San Diego, San Diego County, California, 92103, United States of America",
            "latitude": "32.7415883",
            "longitude": "-117.1842757",
            "blogLinks": [
                "http://www.sandiego.org/articles/tours-sightseeing/san-diegos-59-mile-scenic-drive.aspx"
            ]
        },
        "india": {
            "closest_to": "temecula",
            "locType": "attraction",
            "address": "Star of India, North Harbor Drive, Hillcrest, San Diego, San Diego County, California, 92106, United States of America",
            "latitude": "32.72025735",
            "longitude": "-117.173543004762",
            "blogLinks": [
                "http://wikitravel.org/en/San_Diego"
            ]
        },
        "thornton winery": {
            "closest_to": "temecula",
            "locType": "attraction",
            "address": "Thornton Winery, Camino de Oscar, Mendicino, Vintage Hills, Riverside County, California, 92592, United States of America",
            "latitude": "33.51974745",
            "longitude": "-117.088984446851",
            "blogLinks": [
                "http://www.temeculawines.org/blog/temecula-valley-wine-country-restaurants/"
            ]
        },
        "ocean beach": {
            "closest_to": "temecula",
            "locType": "region",
            "address": "Ocean Beach, San Diego, San Diego County, California, United States of America",
            "latitude": "32.7477784",
            "longitude": "-117.249321",
            "blogLinks": [
                "http://wikitravel.org/en/San_Diego"
            ]
        },
        "la mesa": {
            "closest_to": "temecula",
            "locType": "city",
            "address": "La Mesa, San Diego County, California, United States of America",
            "latitude": "32.7678288",
            "longitude": "-117.0230838",
            "blogLinks": [
                "http://wikitravel.org/en/San_Diego",
                "http://www.sandiego.org/articles/wineries/wine-tasting-in-san-diego.aspx"
            ]
        },
        "serra museum": {
            "closest_to": "temecula",
            "locType": "museum",
            "address": "Juniper Serra Museum, Presidio Drive, Old Town, San Diego, San Diego County, California, 92103, United States of America",
            "latitude": "32.7592166",
            "longitude": "-117.1939236",
            "blogLinks": [
                "http://www.sandiego.org/articles/tours-sightseeing/san-diegos-59-mile-scenic-drive.aspx"
            ]
        },
        "oceanside": {
            "closest_to": "temecula",
            "locType": "city",
            "address": "Oceanside, San Diego County, California, United States of America",
            "latitude": "33.1958696",
            "longitude": "-117.3794833",
            "blogLinks": [
                "http://wikitravel.org/en/San_Diego"
            ]
        },
        "kettner blvd": {
            "closest_to": "temecula",
            "locType": "secondary",
            "address": "Kettner Boulevard, Hillcrest, San Diego, San Diego County, California, 92101, United States of America",
            "latitude": "32.725143",
            "longitude": "-117.1698529",
            "blogLinks": [
                "http://wikitravel.org/en/San_Diego"
            ]
        },
        "mission beach": {
            "closest_to": "temecula",
            "locType": "hamlet",
            "address": "Mission Beach, San Diego County, California, United States of America",
            "latitude": "32.7827144",
            "longitude": "-117.2525056",
            "blogLinks": [
                "http://www.sandiego.org/articles/tours-sightseeing/san-diegos-59-mile-scenic-drive.aspx",
                "http://wikitravel.org/en/San_Diego"
            ]
        },
        "soledad road": {
            "closest_to": "temecula",
            "locType": "tertiary",
            "address": "Soledad Road, Pacific Beach, San Diego, San Diego County, California, 92037, United States of America",
            "latitude": "32.818256",
            "longitude": "-117.2413859",
            "blogLinks": [
                "http://www.sandiego.org/articles/tours-sightseeing/san-diegos-59-mile-scenic-drive.aspx"
            ]
        },
        "sassafras street": {
            "closest_to": "temecula",
            "locType": "secondary",
            "address": "Sassafras Street, Hillcrest, San Diego, San Diego County, California, 92103, United States of America",
            "latitude": "32.7353092",
            "longitude": "-117.1792479",
            "blogLinks": [
                "http://wikitravel.org/en/San_Diego"
            ]
        },
        "old town temecula": {
            "closest_to": "temecula",
            "locType": "attraction",
            "address": "Old Town Temecula, 5th Street, Villa Del Sol, Old Town, Temecula, Riverside County, California, 92590, United States of America",
            "latitude": "33.49487155",
            "longitude": "-117.149796716459",
            "blogLinks": [
                "http://temeculaca.gov/207/Things-To-Do-Lodging-Transportation"
            ]
        },
        "el cajon": {
            "closest_to": "temecula",
            "locType": "city",
            "address": "El Cajon, San Diego County, California, United States of America",
            "latitude": "32.7947731",
            "longitude": "-116.9625268",
            "blogLinks": [
                "http://wikitravel.org/en/San_Diego"
            ]
        },
        "mission hills": {
            "closest_to": "temecula",
            "locType": "hamlet",
            "address": "Mission Hills, San Diego County, California, United States of America",
            "latitude": "32.7528279",
            "longitude": "-117.1869788",
            "blogLinks": [
                "http://www.sandiego.org/articles/tours-sightseeing/san-diegos-59-mile-scenic-drive.aspx"
            ]
        },
        "poway": {
            "closest_to": "temecula",
            "locType": "city",
            "address": "Poway, San Diego County, California, United States of America",
            "latitude": "32.9628234",
            "longitude": "-117.0358645",
            "blogLinks": [
                "http://wikitravel.org/en/San_Diego"
            ]
        },
        "genesee avenue": {
            "closest_to": "avalon",
            "locType": "residential",
            "address": "Genesee Avenue, South Carthay, The Village Green, LA, Los Angeles County, California, 90016, United States of America",
            "latitude": "34.0376458",
            "longitude": "-118.3685811",
            "blogLinks": [
                "http://wikitravel.org/en/San_Diego"
            ]
        },
        "long beach": {
            "closest_to": "temecula",
            "locType": "city",
            "address": "Long Beach, Los Angeles County, California, United States of America",
            "latitude": "33.78538945",
            "longitude": "-118.158049215311",
            "blogLinks": [
                "https://www.viator.com/tours/Anaheim-and-Buena-Park/Catalina-Island-Day-Trip/d797-3457CATALINA"
            ]
        },
        "lakeshore drive": {
            "closest_to": "temecula",
            "locType": "secondary",
            "address": "Lakeshore Drive, Terra Cotta, Lake Elsinore, Riverside County, California, 92530, United States of America",
            "latitude": "33.6909623",
            "longitude": "-117.3769389",
            "blogLinks": [
                "http://www.daytrippen.com/lake-elsinore-day-trip-things-to-do/"
            ]
        },
        "mekong river": {
            "closest_to": "temecula",
            "locType": "residential",
            "address": "Mekong Street, Valle Vista, Riverside County, California, 92554, United States of America",
            "latitude": "33.7586693",
            "longitude": "-116.8971092",
            "blogLinks": [
                "http://blog.avalonwaterways.com/2014/12/18/best-places-travel-2015/"
            ]
        },
        "catalina islands": {
            "closest_to": "temecula",
            "locType": "residential",
            "address": "Catalina Islands Street, Aliso Viejo, Orange County, California, 92656, United States of America",
            "latitude": "33.5827676",
            "longitude": "-117.71315",
            "blogLinks": [
                "http://www.daytrippen.com/"
            ]
        },
        "french valley": {
            "closest_to": "temecula",
            "locType": "suburb",
            "address": "French Valley, Dutch Village, Riverside County, California, United States of America",
            "latitude": "33.5994102",
            "longitude": "-117.1091716",
            "blogLinks": [
                "http://www.diariesofwanderlust.com/wine-tour-of-temecula-valley/"
            ]
        },
        "kettner blvd.": {
            "closest_to": "temecula",
            "locType": "secondary",
            "address": "Kettner Boulevard, Hillcrest, San Diego, San Diego County, California, 92101, United States of America",
            "latitude": "32.725143",
            "longitude": "-117.1698529",
            "blogLinks": [
                "http://wikitravel.org/en/San_Diego"
            ]
        },
        "torrey pines": {
            "closest_to": "temecula",
            "locType": "residential",
            "address": "Torrey Pines, Coto de Caza, Orange County, California, 92679, United States of America",
            "latitude": "33.6004207",
            "longitude": "-117.5806448",
            "blogLinks": [
                "http://wikitravel.org/en/San_Diego"
            ]
        },
        "mission boulevard": {
            "closest_to": "temecula",
            "locType": "secondary",
            "address": "Mission Boulevard, Pacific Beach, San Diego, San Diego County, California, 92109, United States of America",
            "latitude": "32.799358",
            "longitude": "-117.2563629",
            "blogLinks": [
                "http://www.sandiego.org/articles/tours-sightseeing/san-diegos-59-mile-scenic-drive.aspx"
            ]
        },
        "strawberry hills": {
            "closest_to": "avalon",
            "locType": "peak",
            "address": "Strawberry Hill, Agoura Hills, Los Angeles County, California, United States of America",
            "latitude": "34.1518298",
            "longitude": "-118.7720129",
            "blogLinks": [
                "http://www.daytrippen.com/"
            ]
        },
        "camp pendleton": {
            "closest_to": "temecula",
            "locType": "dock",
            "address": "Camp Pendleton Boat Basin, San Diego County, California, United States of America",
            "latitude": "33.2167022",
            "longitude": "-117.4000394",
            "blogLinks": [
                "http://wikitravel.org/en/San_Diego"
            ]
        },
        "university drive": {
            "closest_to": "temecula",
            "locType": "residential",
            "address": "University Drive, Riverside, Riverside County, California, 92521, United States of America",
            "latitude": "33.9652539",
            "longitude": "-117.3271935",
            "blogLinks": [
                "http://www.daytrippen.com/"
            ]
        },
        "seaport village": {
            "closest_to": "temecula",
            "locType": "retail",
            "address": "Seaport Village, Hillcrest, San Diego, San Diego County, California, 92101, United States of America",
            "latitude": "32.7089976",
            "longitude": "-117.170488716601",
            "blogLinks": [
                "http://www.sandiego.org/articles/tours-sightseeing/san-diegos-59-mile-scenic-drive.aspx"
            ]
        },
        "mount palomar winery": {
            "closest_to": "temecula",
            "locType": "farmyard",
            "address": "Mount Palomar Winery, Roripaugh Ranch, Riverside County, California, 92592, United States of America",
            "latitude": "33.53047765",
            "longitude": "-117.077280309074",
            "blogLinks": [
                "http://www.temeculawines.org/blog/temecula-valley-wine-country-restaurants/"
            ]
        },
        "tokyo": {
            "closest_to": "avalon",
            "locType": "school",
            "address": "Southern California Institute of Architecture, 960, East 3rd Street, Arts District, Little Tokyo Historic District, LA, Los Angeles County, California, 90013, United States of America",
            "latitude": "34.0431787",
            "longitude": "-118.2328066",
            "blogLinks": [
                "http://wikitravel.org/en/San_Diego"
            ]
        },
        "san pasqual valley": {
            "closest_to": "temecula",
            "locType": "hamlet",
            "address": "San Pasqual, San Diego County, California, United States of America",
            "latitude": "33.0917085",
            "longitude": "-116.9539176",
            "blogLinks": [
                "http://www.sandiego.org/articles/wineries/wine-tasting-in-san-diego.aspx"
            ]
        },
        "santa ana": {
            "closest_to": "temecula",
            "locType": "city",
            "address": "Santa Ana, Orange County, California, United States of America",
            "latitude": "33.7494951",
            "longitude": "-117.8732212",
            "blogLinks": [
                "http://wikitravel.org/en/San_Diego"
            ]
        },
        "north torrey pines road": {
            "closest_to": "temecula",
            "locType": "primary",
            "address": "North Torrey Pines Road, Del Mar, San Diego, San Diego County, California, 92014, United States of America",
            "latitude": "32.9358252",
            "longitude": "-117.2608353",
            "blogLinks": [
                "http://www.sandiego.org/articles/tours-sightseeing/san-diegos-59-mile-scenic-drive.aspx"
            ]
        },
        "n. torrey pines rd": {
            "closest_to": "temecula",
            "locType": "primary",
            "address": "North Torrey Pines Road, Del Mar, San Diego, San Diego County, California, 92014, United States of America",
            "latitude": "32.9358252",
            "longitude": "-117.2608353",
            "blogLinks": [
                "http://wikitravel.org/en/San_Diego"
            ]
        },
        "northern california": {
            "closest_to": "temecula",
            "locType": "locality",
            "address": "Northern Frontier, San Diego, San Diego County, California, United States of America",
            "latitude": "32.7349196",
            "longitude": "-117.1545973",
            "blogLinks": [
                "http://www.sandiego.org/articles/wineries/wine-tasting-in-san-diego.aspx"
            ]
        },
        "catalina island": {
            "closest_to": "avalon",
            "locType": "island",
            "address": "Santa Catalina Island, Los Angeles County, California, United States of America",
            "latitude": "33.3890232",
            "longitude": "-118.424154004558",
            "blogLinks": [
                "https://www.viator.com/tours/Anaheim-and-Buena-Park/Catalina-Island-Day-Trip/d797-3457CATALINA"
            ]
        },
        "san diego international airport": {
            "closest_to": "temecula",
            "locType": "aerodrome",
            "address": "San Diego International Airport, Air Lane, Old Town, San Diego, San Diego County, California, 92101, United States of America",
            "latitude": "32.73336075",
            "longitude": "-117.193463366077",
            "blogLinks": [
                "http://wikitravel.org/en/San_Diego"
            ]
        },
        "palm springs air museum ca": {
            "closest_to": "temecula",
            "locType": "museum",
            "address": "Palm Springs Air Museum, 745, North Gene Autry Trail, Palm Springs, Riverside County, California, 92262, United States of America",
            "latitude": "33.83250375",
            "longitude": "-116.504677958796",
            "blogLinks": [
                "http://www.california-blog.com/"
            ]
        },
        "national city": {
            "closest_to": "temecula",
            "locType": "city",
            "address": "National City, San Diego County, California, United States of America",
            "latitude": "32.6781085",
            "longitude": "-117.0991966",
            "blogLinks": [
                "http://wikitravel.org/en/San_Diego"
            ]
        },
        "tuscany": {
            "closest_to": "temecula",
            "locType": "residential",
            "address": "Tuscany, Las Flores, Ladera Ranch, Orange County, California, 92675, United States of America",
            "latitude": "33.5416438",
            "longitude": "-117.6391537",
            "blogLinks": [
                "http://www.temeculawines.org/blog/temecula-valley-wine-country-restaurants/"
            ]
        },
        "san juan capistrano": {
            "closest_to": "temecula",
            "locType": "city",
            "address": "San Juan Capistrano, Orange County, California, United States of America",
            "latitude": "33.5016932",
            "longitude": "-117.6625508",
            "blogLinks": [
                "http://www.daytrippen.com/"
            ]
        },
        "san ysidro blvd": {
            "closest_to": "temecula",
            "locType": "suburb",
            "address": "San Ysidro, San Diego, San Diego County, California, United States of America",
            "latitude": "32.5520013",
            "longitude": "-117.0430812",
            "blogLinks": [
                "http://wikitravel.org/en/San_Diego"
            ]
        },
        "mission trails regional park": {
            "closest_to": "temecula",
            "locType": "park",
            "address": "Mission Trails Regional Park, Lake Shore Drive, San Diego, San Diego County, California, 91942:92119, United States of America",
            "latitude": "32.7958834",
            "longitude": "-117.0366957",
            "blogLinks": [
                "http://wikitravel.org/en/San_Diego"
            ]
        },
        "west broadway": {
            "closest_to": "temecula",
            "locType": "secondary",
            "address": "West Broadway, Hillcrest, San Diego, San Diego County, California, 92101, United States of America",
            "latitude": "32.7157697",
            "longitude": "-117.167374",
            "blogLinks": [
                "http://wikitravel.org/en/San_Diego"
            ]
        },
        "la jolla cove": {
            "closest_to": "temecula",
            "locType": "beach",
            "address": "La Jolla Cove, Coast Boulevard, La Jolla, San Diego, San Diego County, California, 92037, United States of America",
            "latitude": "32.85051835",
            "longitude": "-117.273024234204",
            "blogLinks": [
                "http://wikitravel.org/en/San_Diego"
            ]
        },
        "cuyamaca rancho state park": {
            "closest_to": "temecula",
            "locType": "park",
            "address": "Cuyamaca Rancho State Park, Highway 79, Guatay, San Diego County, California, 92036, United States of America",
            "latitude": "32.86396725",
            "longitude": "-116.591579345466",
            "blogLinks": [
                "http://wikitravel.org/en/San_Diego"
            ]
        },
        "hill street": {
            "closest_to": "temecula",
            "locType": "residential",
            "address": "Hill Street, San Diego, San Diego County, California, 92107, United States of America",
            "latitude": "32.724964",
            "longitude": "-117.2519229",
            "blogLinks": [
                "http://www.sandiego.org/articles/tours-sightseeing/san-diegos-59-mile-scenic-drive.aspx"
            ]
        },
        "catalina": {
            "closest_to": "temecula",
            "locType": "forest",
            "address": "Catalina, Anaheim Resort District, Anaheim, Orange County, California, 217, United States of America",
            "latitude": "33.810513",
            "longitude": "-117.920102663284",
            "blogLinks": [
                "http://www.sandiego.org/articles/tours-sightseeing/san-diegos-59-mile-scenic-drive.aspx"
            ]
        },
        "mission san diego": {
            "closest_to": "temecula",
            "locType": "station",
            "address": "Mission San Diego, Ward Road, City Heights, San Diego, San Diego County, California, 92108, United States of America",
            "latitude": "32.7808782",
            "longitude": "-117.1109827",
            "blogLinks": [
                "http://www.sandiego.org/articles/tours-sightseeing/san-diegos-59-mile-scenic-drive.aspx"
            ]
        },
        "warner springs": {
            "closest_to": "temecula",
            "locType": "hamlet",
            "address": "Warner Springs, San Diego County, California, United States of America",
            "latitude": "33.2822596",
            "longitude": "-116.6336302",
            "blogLinks": [
                "http://www.sandiego.org/articles/wineries/wine-tasting-in-san-diego.aspx"
            ]
        },
        "idyllwild": {
            "closest_to": "temecula",
            "locType": "village",
            "address": "Idyllwild, Riverside County, California, United States of America",
            "latitude": "33.7400209",
            "longitude": "-116.7189074",
            "blogLinks": [
                "http://www.temeculawines.org/blog/temecula-valley-wine-country-restaurants/"
            ]
        },
        "temecula valley": {
            "closest_to": "temecula",
            "locType": "memorial",
            "address": "U.S. Mormon Battalion Trail, Temecula Valley, CA 79, Aguanga, Riverside County, California, United States of America",
            "latitude": "33.4481335",
            "longitude": "-116.8917787",
            "blogLinks": [
                "http://www.daytrippen.com/",
                "http://www.diariesofwanderlust.com/wine-tour-of-temecula-valley/",
                "http://www.temeculawines.org/plan-your-trip/",
                "http://www.sandiego.org/articles/wineries/wine-tasting-in-san-diego.aspx"
            ]
        },
        "mount san jacinto ca": {
            "closest_to": "temecula",
            "locType": "city",
            "address": "San Jacinto, Riverside County, California, United States of America",
            "latitude": "33.7839084",
            "longitude": "-116.9586349",
            "blogLinks": [
                "http://www.california-blog.com/"
            ]
        },
        "avalon": {
            "closest_to": "temecula",
            "locType": "city",
            "address": "Avalon, Los Angeles County, California, United States of America",
            "latitude": "33.34221",
            "longitude": "-118.3272611",
            "blogLinks": [
                "https://www.viator.com/tours/Anaheim-and-Buena-Park/Catalina-Island-Day-Trip/d797-3457CATALINA"
            ]
        },
        "san clemente": {
            "closest_to": "temecula",
            "locType": "city",
            "address": "San Clemente, Orange County, California, United States of America",
            "latitude": "33.4270275",
            "longitude": "-117.6124178",
            "blogLinks": [
                "http://wikitravel.org/en/San_Diego"
            ]
        },
        "old town san diego state historic park": {
            "closest_to": "temecula",
            "locType": "park",
            "address": "Old Town San Diego State Historic Park, Twiggs Street, Old Town, San Diego, San Diego County, California, 92110, United States of America",
            "latitude": "32.7537731",
            "longitude": "-117.194891467408",
            "blogLinks": [
                "http://www.sandiego.org/articles/tours-sightseeing/san-diegos-59-mile-scenic-drive.aspx"
            ]
        },
        "mekong": {
            "closest_to": "temecula",
            "locType": "residential",
            "address": "Mekong Street, Valle Vista, Riverside County, California, 92554, United States of America",
            "latitude": "33.7586693",
            "longitude": "-116.8971092",
            "blogLinks": [
                "http://blog.avalonwaterways.com/2014/12/18/best-places-travel-2015/"
            ]
        },
        "torrey pines road": {
            "closest_to": "temecula",
            "locType": "secondary",
            "address": "Torrey Pines Road, La Jolla, San Diego, San Diego County, California, 92037, United States of America",
            "latitude": "32.8491824",
            "longitude": "-117.2620194",
            "blogLinks": [
                "http://www.sandiego.org/articles/tours-sightseeing/san-diegos-59-mile-scenic-drive.aspx"
            ]
        },
        "town-mission valley": {
            "closest_to": "temecula",
            "locType": "park",
            "address": "Old Town San Diego State Historic Park, Twiggs Street, Old Town, San Diego, San Diego County, California, 92110, United States of America",
            "latitude": "32.7537731",
            "longitude": "-117.194891467408",
            "blogLinks": [
                "http://wikitravel.org/en/San_Diego"
            ]
        },
        "santa fe depot": {
            "closest_to": "temecula",
            "locType": "station",
            "address": "Santa Fe Depot, Martin Luther King Promenade, Hillcrest, San Diego, San Diego County, California, 92101, United States of America",
            "latitude": "32.7167353",
            "longitude": "-117.1698167",
            "blogLinks": [
                "http://wikitravel.org/en/San_Diego"
            ]
        },
        "palomar mountain": {
            "closest_to": "temecula",
            "locType": "hamlet",
            "address": "Palomar Mountain, San Diego County, California, United States of America",
            "latitude": "33.3228128",
            "longitude": "-116.8786358",
            "blogLinks": [
                "http://wikitravel.org/en/San_Diego"
            ]
        },
        "lake park": {
            "closest_to": "temecula",
            "locType": "park",
            "address": "Lake Park, 11th Street, Huntington Beach, Orange County, California, 92648, United States of America",
            "latitude": "33.66856335",
            "longitude": "-117.999337083997",
            "blogLinks": [
                "http://www.daytrippen.com/lake-elsinore-day-trip-things-to-do/"
            ]
        },
        "college avenue": {
            "closest_to": "avalon",
            "locType": "residential",
            "address": "College Avenue, Palms, LA, Los Angeles County, California, 90232, United States of America",
            "latitude": "34.0158908",
            "longitude": "-118.411823",
            "blogLinks": [
                "http://wikitravel.org/en/San_Diego"
            ]
        },
        "presidio drive": {
            "closest_to": "temecula",
            "locType": "residential",
            "address": "Presidio Drive, Old Town, San Diego, San Diego County, California, 92103, United States of America",
            "latitude": "32.7587998",
            "longitude": "-117.1960775",
            "blogLinks": [
                "http://www.sandiego.org/articles/tours-sightseeing/san-diegos-59-mile-scenic-drive.aspx"
            ]
        },
        "mount palomar ca": {
            "closest_to": "temecula",
            "locType": "bank",
            "address": "California Bank & Trust, 2501, Palomar Airport Road, Carlsbad, San Diego County, California, 92011, United States of America",
            "latitude": "33.1278146",
            "longitude": "-117.270809764613",
            "blogLinks": [
                "http://www.california-blog.com/"
            ]
        },
        "encinitas": {
            "closest_to": "temecula",
            "locType": "city",
            "address": "Encinitas, San Diego County, California, United States of America",
            "latitude": "33.0369867",
            "longitude": "-117.2919817",
            "blogLinks": [
                "http://wikitravel.org/en/San_Diego"
            ]
        },
        "cabrillo memorial drive": {
            "closest_to": "temecula",
            "locType": "secondary",
            "address": "Cabrillo Memorial Drive, San Diego, San Diego County, California, 92106, United States of America",
            "latitude": "32.6999532",
            "longitude": "-117.2480469",
            "blogLinks": [
                "http://www.sandiego.org/articles/tours-sightseeing/san-diegos-59-mile-scenic-drive.aspx"
            ]
        },
        "phoenix": {
            "closest_to": "temecula",
            "locType": "residential",
            "address": "Phoenix, Heritage Park Apartments, El Camino Real, Irvine, Orange County, California, 92604, United States of America",
            "latitude": "33.6988015",
            "longitude": "-117.7764481",
            "blogLinks": [
                "http://wikitravel.org/en/San_Diego"
            ]
        },
        "taylor street": {
            "closest_to": "temecula",
            "locType": "residential",
            "address": "Taylor Street, North Long Beach, Long Beach, Los Angeles County, California, 90805, United States of America",
            "latitude": "33.8797864",
            "longitude": "-118.2071834",
            "blogLinks": [
                "http://www.sandiego.org/articles/tours-sightseeing/san-diegos-59-mile-scenic-drive.aspx"
            ]
        },
        "mount soledad park": {
            "closest_to": "temecula",
            "locType": "park",
            "address": "Soledad Park, Soledad Park Road, La Jolla, San Diego, San Diego County, California, 92037, United States of America",
            "latitude": "32.8411587",
            "longitude": "-117.2439254",
            "blogLinks": [
                "http://www.sandiego.org/articles/tours-sightseeing/san-diegos-59-mile-scenic-drive.aspx"
            ]
        },
        "north park": {
            "closest_to": "temecula",
            "locType": "neighbourhood",
            "address": "North Park, San Diego, San Diego County, California, 92104, United States of America",
            "latitude": "32.7408842",
            "longitude": "-117.1305876",
            "blogLinks": [
                "http://wikitravel.org/en/San_Diego"
            ]
        },
        "santa monica mountains": {
            "closest_to": "avalon",
            "locType": "protected_area",
            "address": "Santa Monica Mountains National Recreation Area, Simes Lane, Seminole Hot Springs, Los Angeles County, California, 91301, United States of America",
            "latitude": "34.11008435",
            "longitude": "-118.789983284662",
            "blogLinks": [
                "http://www.daytrippen.com/"
            ]
        },
        "rancho california road": {
            "closest_to": "temecula",
            "locType": "primary",
            "address": "Rancho California Road, Temecula Gardens, Old Town, Temecula, Riverside County, California, 92390, United States of America",
            "latitude": "33.5023506",
            "longitude": "-117.1493902",
            "blogLinks": [
                "http://www.diariesofwanderlust.com/wine-tour-of-temecula-valley/",
                "http://www.daytrippen.com/"
            ]
        },
        "sports arena boulevard": {
            "closest_to": "temecula",
            "locType": "primary",
            "address": "Sports Arena Boulevard, Old Town, San Diego, San Diego County, California, 92110, United States of America",
            "latitude": "32.7550644",
            "longitude": "-117.2200137",
            "blogLinks": [
                "http://www.sandiego.org/articles/tours-sightseeing/san-diegos-59-mile-scenic-drive.aspx"
            ]
        },
        "w. harbor drive": {
            "closest_to": "temecula",
            "locType": "primary",
            "address": "West Harbor Drive, Hillcrest, San Diego, San Diego County, California, 92101, United States of America",
            "latitude": "32.709333",
            "longitude": "-117.1651666",
            "blogLinks": [
                "http://www.sandiego.org/articles/tours-sightseeing/san-diegos-59-mile-scenic-drive.aspx"
            ]
        },
        "lethbridge": {
            "closest_to": "temecula",
            "locType": "residential",
            "address": "Lethbridge Way, San Diego, San Diego County, California, 92129, United States of America",
            "latitude": "32.971272",
            "longitude": "-117.1296619",
            "blogLinks": [
                "http://wikitravel.org/en/San_Diego"
            ]
        },
        "san diego airport": {
            "closest_to": "temecula",
            "locType": "bank",
            "address": "California Bank & Trust, 2501, Palomar Airport Road, Carlsbad, San Diego County, California, 92011, United States of America",
            "latitude": "33.1278146",
            "longitude": "-117.270809764613",
            "blogLinks": [
                "http://wikitravel.org/en/San_Diego"
            ]
        },
        "grand pacific palisades": {
            "closest_to": "avalon",
            "locType": "neighbourhood",
            "address": "Pacific Palisades, LA, Los Angeles County, California, 90272, United States of America",
            "latitude": "34.0480643",
            "longitude": "-118.5264705",
            "blogLinks": [
                "http://www.yellowpages.com/temecula-ca/avalon-hotel-new-york-city"
            ]
        },
        "' ocean beach": {
            "closest_to": "temecula",
            "locType": "region",
            "address": "Ocean Beach, San Diego, San Diego County, California, United States of America",
            "latitude": "32.7477784",
            "longitude": "-117.249321",
            "blogLinks": [
                "http://www.sandiego.org/articles/tours-sightseeing/san-diegos-59-mile-scenic-drive.aspx",
                "http://wikitravel.org/en/San_Diego"
            ]
        },
        "palomar airport road": {
            "closest_to": "temecula",
            "locType": "primary",
            "address": "Palomar Airport Road, Carlsbad, San Diego County, California, 92009, United States of America",
            "latitude": "33.1291437",
            "longitude": "-117.2418974",
            "blogLinks": [
                "http://wikitravel.org/en/San_Diego"
            ]
        },
        "rancho bernardo": {
            "closest_to": "temecula",
            "locType": "hamlet",
            "address": "Rancho Bernardo, San Diego County, California, United States of America",
            "latitude": "33.0186103",
            "longitude": "-117.0610494",
            "blogLinks": [
                "http://www.sandiego.org/articles/wineries/wine-tasting-in-san-diego.aspx"
            ]
        },
        "la jolla parkway": {
            "closest_to": "temecula",
            "locType": "motorway",
            "address": "La Jolla Parkway, La Jolla, San Diego, San Diego County, California, 92037, United States of America",
            "latitude": "32.8390806",
            "longitude": "-117.2361388",
            "blogLinks": [
                "http://www.sandiego.org/articles/tours-sightseeing/san-diegos-59-mile-scenic-drive.aspx"
            ]
        },
        "beryl street": {
            "closest_to": "temecula",
            "locType": "secondary",
            "address": "Beryl Street, Pacific Beach, San Diego, San Diego County, California, 92109, United States of America",
            "latitude": "32.808758",
            "longitude": "-117.2316669",
            "blogLinks": [
                "http://www.sandiego.org/articles/tours-sightseeing/san-diegos-59-mile-scenic-drive.aspx"
            ]
        },
        "pacific beach": {
            "closest_to": "temecula",
            "locType": "suburb",
            "address": "Pacific Beach, San Diego, San Diego County, California, United States of America",
            "latitude": "32.7978268",
            "longitude": "-117.2403182",
            "blogLinks": [
                "http://www.sandiego.org/articles/tours-sightseeing/san-diegos-59-mile-scenic-drive.aspx",
                "http://wikitravel.org/en/San_Diego",
                "http://www.sandiego.org/articles/wineries/wine-tasting-in-san-diego.aspx"
            ]
        },
        "imperial beach": {
            "closest_to": "temecula",
            "locType": "city",
            "address": "Imperial Beach, San Diego County, California, United States of America",
            "latitude": "32.5839444",
            "longitude": "-117.1130848",
            "blogLinks": [
                "http://wikitravel.org/en/San_Diego"
            ]
        },
        "old town-mission valley": {
            "closest_to": "temecula",
            "locType": "suburb",
            "address": "Old Town, San Diego, San Diego County, California, United States of America",
            "latitude": "32.7566177",
            "longitude": "-117.2028231",
            "blogLinks": [
                "http://wikitravel.org/en/San_Diego"
            ]
        },
        "escondido": {
            "closest_to": "temecula",
            "locType": "city",
            "address": "Escondido, San Diego County, California, United States of America",
            "latitude": "33.1216751",
            "longitude": "-117.0814848",
            "blogLinks": [
                "http://wikitravel.org/en/San_Diego",
                "http://www.sandiego.org/articles/wineries/wine-tasting-in-san-diego.aspx"
            ]
        },
        "mountain road": {
            "closest_to": "temecula",
            "locType": "pedestrian",
            "address": "Mountain Road, Anaheim Resort District, Anaheim, Orange County, California, 92802, United States of America",
            "latitude": "33.8076363",
            "longitude": "-117.9208871",
            "blogLinks": [
                "http://www.sandiego.org/articles/tours-sightseeing/san-diegos-59-mile-scenic-drive.aspx"
            ]
        },
        "gaslamp": {
            "closest_to": "temecula",
            "locType": "hotel",
            "address": "Gaslamp, Loynes Drive, Marina Pacifica, Naples, Long Beach, Los Angeles County, California, 90803, United States of America",
            "latitude": "33.76711105",
            "longitude": "-118.116345466191",
            "blogLinks": [
                "http://wikitravel.org/en/San_Diego"
            ]
        },
        "san ysidro": {
            "closest_to": "temecula",
            "locType": "suburb",
            "address": "San Ysidro, San Diego, San Diego County, California, United States of America",
            "latitude": "32.5520013",
            "longitude": "-117.0430812",
            "blogLinks": [
                "http://wikitravel.org/en/San_Diego"
            ]
        },
        "moreno valley": {
            "closest_to": "temecula",
            "locType": "city",
            "address": "Moreno Valley, Riverside County, California, United States of America",
            "latitude": "33.937517",
            "longitude": "-117.2305943",
            "blogLinks": [
                "http://www.yellowpages.com/temecula-ca/avalon-hotel-new-york-city"
            ]
        },
        "lake skinner": {
            "closest_to": "temecula",
            "locType": "water",
            "address": "Lake Skinner, Benton Road, Robert A. Skinner Treatment Plant, French Valley, Country Road Estates, Riverside County, California, 92596, United States of America",
            "latitude": "33.5892362",
            "longitude": "-117.059680888587",
            "blogLinks": [
                "http://temeculaca.gov/207/Things-To-Do-Lodging-Transportation"
            ]
        },
        "sprinter": {
            "closest_to": "temecula",
            "locType": "railway",
            "address": "Sprinter Operations Facility, 1021, Escondido, San Diego County, California, 92025, United States of America",
            "latitude": "33.12069635",
            "longitude": "-117.096886390674",
            "blogLinks": [
                "http://www.yellowpages.com/temecula-ca/avalon-hotel-new-york-city"
            ]
        },
        "san diego freeway": {
            "closest_to": "temecula",
            "locType": "motorway",
            "address": "San Diego Freeway, Hillcrest, San Diego, San Diego County, California, 92101, United States of America",
            "latitude": "32.7285162",
            "longitude": "-117.1690377",
            "blogLinks": [
                "http://www.daytrippen.com/"
            ]
        },
        "little italy": {
            "closest_to": "temecula",
            "locType": "hamlet",
            "address": "Little Italy, San Diego County, California, United States of America",
            "latitude": "32.7234579",
            "longitude": "-117.1682719",
            "blogLinks": [
                "http://wikitravel.org/en/San_Diego"
            ]
        },
        "temecula wine country": {
            "closest_to": "temecula",
            "locType": "suburb",
            "address": "Temecula Valley Wine Country, Valle de los Caballos, Riverside County, California, United States of America",
            "latitude": "33.5334975",
            "longitude": "-117.0334856",
            "blogLinks": [
                "http://www.temeculawines.org/blog/temecula-valley-wine-country-restaurants/",
                "http://wikitravel.org/en/San_Diego"
            ]
        },
        "morongo valley": {
            "closest_to": "temecula",
            "locType": "administrative",
            "address": "Morongo Valley, Vista Drive, Morongo Valley, San Bernardino County, California, 92256, United States of America",
            "latitude": "34.0537585",
            "longitude": "-116.596723958419",
            "blogLinks": [
                "http://www.california-blog.com/"
            ]
        },
        "mediterranean": {
            "closest_to": "temecula",
            "locType": "residential",
            "address": "Mediterranean, Palm Desert, Riverside County, California, 92211, United States of America",
            "latitude": "33.7439509",
            "longitude": "-116.3534838",
            "blogLinks": [
                "http://www.temeculawines.org/blog/temecula-valley-wine-country-restaurants/",
                "https://www.viator.com/tours/Anaheim-and-Buena-Park/Catalina-Island-Day-Trip/d797-3457CATALINA",
                "http://wikitravel.org/en/San_Diego"
            ]
        },
        "lindbergh field": {
            "closest_to": "temecula",
            "locType": "aerodrome",
            "address": "San Diego International Airport, Air Lane, Old Town, San Diego, San Diego County, California, 92101, United States of America",
            "latitude": "32.73336075",
            "longitude": "-117.193463366077",
            "blogLinks": [
                "http://wikitravel.org/en/San_Diego"
            ]
        },
        "oregon": {
            "closest_to": "temecula",
            "locType": "residential",
            "address": "Oregon, Walnut, Irvine, Orange County, California, 92606, United States of America",
            "latitude": "33.7123207",
            "longitude": "-117.7911567",
            "blogLinks": [
                "http://wikitravel.org/en/San_Diego"
            ]
        },
        "seaworld san diego": {
            "closest_to": "temecula",
            "locType": "theme_park",
            "address": "SeaWorld San Diego, 500, Sea World Drive, Old Town, San Diego, San Diego County, California, 92109, United States of America",
            "latitude": "32.7659778",
            "longitude": "-117.226626367006",
            "blogLinks": [
                "http://www.sandiego.org/articles/tours-sightseeing/san-diegos-59-mile-scenic-drive.aspx"
            ]
        },
        "catalina boulevard": {
            "closest_to": "temecula",
            "locType": "secondary",
            "address": "Catalina Boulevard, San Diego, San Diego County, California, 92106, United States of America",
            "latitude": "32.7079443",
            "longitude": "-117.2493992",
            "blogLinks": [
                "http://www.sandiego.org/articles/tours-sightseeing/san-diegos-59-mile-scenic-drive.aspx"
            ]
        },
        "legoland california": {
            "closest_to": "temecula",
            "locType": "theme_park",
            "address": "Legoland California, 1, LEGOLAND drive, Carlsbad, San Diego County, California, 92008, United States of America",
            "latitude": "33.1278683",
            "longitude": "-117.311664211922",
            "blogLinks": [
                "http://www.yellowpages.com/temecula-ca/avalon-hotel-new-york-city",
                "http://wikitravel.org/en/San_Diego"
            ]
        },
        "scott street": {
            "closest_to": "temecula",
            "locType": "residential",
            "address": "Scott Street, Old Town, San Diego, San Diego County, California, 92106, United States of America",
            "latitude": "32.7231672",
            "longitude": "-117.2289215",
            "blogLinks": [
                "http://www.sandiego.org/articles/tours-sightseeing/san-diegos-59-mile-scenic-drive.aspx"
            ]
        },
        "mount san gorgonio ca": {
            "closest_to": "temecula",
            "locType": "secondary",
            "address": "San Gorgonio Avenue, Banning, Riverside County, California, 92220, United States of America",
            "latitude": "33.9121294",
            "longitude": "-116.8766731",
            "blogLinks": [
                "http://www.california-blog.com/"
            ]
        },
        "orange empire railway museum": {
            "closest_to": "temecula",
            "locType": "museum",
            "address": "Orange Empire Railway Museum, Georgia Street, Perris, Riverside County, California, United States of America",
            "latitude": "33.7605517",
            "longitude": "-117.2330019",
            "blogLinks": [
                "http://www.daytrippen.com/lake-elsinore-day-trip-things-to-do/"
            ]
        },
        "orange county": {
            "closest_to": "temecula",
            "locType": "administrative",
            "address": "Orange County, California, United States of America",
            "latitude": "33.7500378",
            "longitude": "-117.870493",
            "blogLinks": [
                "http://wikitravel.org/en/San_Diego",
                "http://www.daytrippen.com/"
            ]
        },
        "cornell": {
            "closest_to": "avalon",
            "locType": "hamlet",
            "address": "Cornell, Los Angeles County, California, United States of America",
            "latitude": "34.1144504",
            "longitude": "-118.7778677",
            "blogLinks": [
                "http://www.daytrippen.com/"
            ]
        },
        "latin america": {
            "closest_to": "temecula",
            "locType": "yes",
            "address": "Latin America Hall, North Torrey Pines Road, La Jolla, San Diego, San Diego County, California, 92037, United States of America",
            "latitude": "32.88513545",
            "longitude": "-117.243474813578",
            "blogLinks": [
                "http://wikitravel.org/en/San_Diego"
            ]
        },
        "san pedro": {
            "closest_to": "temecula",
            "locType": "suburb",
            "address": "San Pedro, LA, Los Angeles County, California, United States of America",
            "latitude": "33.7358518",
            "longitude": "-118.2922933",
            "blogLinks": [
                "http://www.daytrippen.com/"
            ]
        },
        "morena blvd": {
            "closest_to": "temecula",
            "locType": "secondary",
            "address": "Morena Boulevard, Pacific Beach, San Diego, San Diego County, California, 92110, United States of America",
            "latitude": "32.816795",
            "longitude": "-117.2209089",
            "blogLinks": [
                "http://wikitravel.org/en/San_Diego"
            ]
        },
        "old town san diego": {
            "closest_to": "temecula",
            "locType": "hamlet",
            "address": "Old Town San Diego, San Diego County, California, United States of America",
            "latitude": "32.7542167",
            "longitude": "-117.1969792",
            "blogLinks": [
                "http://www.california-blog.com/"
            ]
        },
        "gaslamp quarter": {
            "closest_to": "temecula",
            "locType": "hamlet",
            "address": "Gaslamp Quarter, San Diego County, California, United States of America",
            "latitude": "32.7109444",
            "longitude": "-117.1597028",
            "blogLinks": [
                "http://www.sandiego.org/articles/tours-sightseeing/san-diegos-59-mile-scenic-drive.aspx",
                "http://wikitravel.org/en/San_Diego"
            ]
        },
        "' ocean": {
            "closest_to": "avalon",
            "locType": "residential",
            "address": "Ocean, Hawthorne, Los Angeles County, California, 90261, United States of America",
            "latitude": "33.9157306",
            "longitude": "-118.3763704",
            "blogLinks": [
                "http://www.sandiego.org/articles/tours-sightseeing/san-diegos-59-mile-scenic-drive.aspx",
                "http://www.daytrippen.com/"
            ]
        },
        "canada": {
            "closest_to": "temecula",
            "locType": "residential",
            "address": "La Canada, Lower Peters Canyon, Irvine, Orange County, California, 92602, United States of America",
            "latitude": "33.7298842",
            "longitude": "-117.7641381",
            "blogLinks": [
                "http://wikitravel.org/en/San_Diego"
            ]
        },
        "clairemont mesa": {
            "closest_to": "temecula",
            "locType": "secondary",
            "address": "Clairemont Mesa Boulevard, Pacific Beach, San Diego, San Diego County, California, 92117, United States of America",
            "latitude": "32.8302448",
            "longitude": "-117.215436",
            "blogLinks": [
                "http://wikitravel.org/en/San_Diego"
            ]
        },
        "northern san diego county": {
            "closest_to": "temecula",
            "locType": "locality",
            "address": "Northern Frontier, San Diego, San Diego County, California, United States of America",
            "latitude": "32.7349196",
            "longitude": "-117.1545973",
            "blogLinks": [
                "http://wikitravel.org/en/San_Diego"
            ]
        },
        "mcclellan-palomar airport": {
            "closest_to": "temecula",
            "locType": "aerodrome",
            "address": "McClellan-Palomar Airport, Aircraft Road, Carlsbad, San Diego County, California, 92011, United States of America",
            "latitude": "33.12754605",
            "longitude": "-117.281400045984",
            "blogLinks": [
                "http://wikitravel.org/en/San_Diego"
            ]
        },
        "san diego central library": {
            "closest_to": "temecula",
            "locType": "library",
            "address": "San Diego Central Library, 330, Park Boulevard, Hillcrest, San Diego, San Diego County, California, 92101, United States of America",
            "latitude": "32.7088",
            "longitude": "-117.1542279",
            "blogLinks": [
                "http://www.sandiego.org/articles/tours-sightseeing/san-diegos-59-mile-scenic-drive.aspx"
            ]
        },
        "palm springs": {
            "closest_to": "temecula",
            "locType": "city",
            "address": "Palm Springs, Riverside County, California, United States of America",
            "latitude": "33.8246269",
            "longitude": "-116.5403029",
            "blogLinks": [
                "http://www.daytrippen.com/"
            ]
        },
        "newport beach ca": {
            "closest_to": "temecula",
            "locType": "city",
            "address": "Newport Beach, Orange County, California, United States of America",
            "latitude": "33.6170092",
            "longitude": "-117.92944",
            "blogLinks": [
                "http://www.california-blog.com/"
            ]
        },
        "san diego zoo safari park": {
            "closest_to": "temecula",
            "locType": "zoo",
            "address": "San Diego Zoo Safari Park, 15500, San Pasqual Valley Road, San Diego, San Diego County, California, 92025, United States of America",
            "latitude": "33.096694",
            "longitude": "-116.995039439834",
            "blogLinks": [
                "http://www.sandiego.org/articles/tours-sightseeing/san-diegos-59-mile-scenic-drive.aspx",
                "http://wikitravel.org/en/San_Diego"
            ]
        },
        "la jolla boulevard": {
            "closest_to": "temecula",
            "locType": "secondary",
            "address": "La Jolla Boulevard, Pacific Beach, San Diego, San Diego County, California, 92037, United States of America",
            "latitude": "32.8076713",
            "longitude": "-117.2613568",
            "blogLinks": [
                "http://www.sandiego.org/articles/tours-sightseeing/san-diegos-59-mile-scenic-drive.aspx"
            ]
        },
        "ingraham street": {
            "closest_to": "temecula",
            "locType": "primary",
            "address": "Ingraham Street, Pacific Beach, San Diego, San Diego County, California, 92109, United States of America",
            "latitude": "32.7672782",
            "longitude": "-117.2334356",
            "blogLinks": [
                "http://www.sandiego.org/articles/tours-sightseeing/san-diegos-59-mile-scenic-drive.aspx"
            ]
        },
        "solana beach": {
            "closest_to": "temecula",
            "locType": "city",
            "address": "Solana Beach, San Diego County, California, United States of America",
            "latitude": "32.9905597",
            "longitude": "-117.2691315",
            "blogLinks": [
                "http://wikitravel.org/en/San_Diego",
                "http://www.sandiego.org/articles/wineries/wine-tasting-in-san-diego.aspx"
            ]
        },
        "torrey": {
            "closest_to": "temecula",
            "locType": "school",
            "address": "Torrey Pines High School, Del Mar Heights Road, Del Mar, San Diego, San Diego County, California, 92130, United States of America",
            "latitude": "32.9573985",
            "longitude": "-117.224896678294",
            "blogLinks": [
                "http://www.sandiego.org/articles/tours-sightseeing/san-diegos-59-mile-scenic-drive.aspx"
            ]
        },
        "arista street": {
            "closest_to": "temecula",
            "locType": "residential",
            "address": "Arista Street, Old Town, San Diego, San Diego County, California, 92103, United States of America",
            "latitude": "32.755437",
            "longitude": "-117.1897859",
            "blogLinks": [
                "http://www.sandiego.org/articles/tours-sightseeing/san-diegos-59-mile-scenic-drive.aspx"
            ]
        },
        "petco park": {
            "closest_to": "temecula",
            "locType": "stadium",
            "address": "Petco Park, 100, Park Boulevard, Hillcrest, San Diego, San Diego County, California, 92101, United States of America",
            "latitude": "32.70717575",
            "longitude": "-117.156886653262",
            "blogLinks": [
                "http://www.sandiego.org/articles/tours-sightseeing/san-diegos-59-mile-scenic-drive.aspx",
                "http://wikitravel.org/en/San_Diego"
            ]
        },
        "riverside national cemetery": {
            "closest_to": "temecula",
            "locType": "cemetery",
            "address": "Riverside National Cemetery, 22495, Alessandro, Riverside County, California, 92518, United States of America",
            "latitude": "33.87692125",
            "longitude": "-117.270726607134",
            "blogLinks": [
                "http://www.california-blog.com/"
            ]
        },
        "canyon crest drive": {
            "closest_to": "temecula",
            "locType": "primary",
            "address": "Canyon Crest Drive, Riverside, Riverside County, California, 92521, United States of America",
            "latitude": "33.9575498",
            "longitude": "-117.3300787",
            "blogLinks": [
                "http://wikitravel.org/en/San_Diego"
            ]
        },
        "irvine park": {
            "closest_to": "temecula",
            "locType": "residential",
            "address": "Irvine Park, Beaumont, Riverside County, California, 92223, United States of America",
            "latitude": "33.9082151",
            "longitude": "-116.9604311",
            "blogLinks": [
                "http://www.daytrippen.com/"
            ]
        },
        "ballast point": {
            "closest_to": "avalon",
            "locType": "locality",
            "address": "Ballast Point, Two Harbors, Los Angeles County, California, United States of America",
            "latitude": "33.4306128",
            "longitude": "-118.5054834",
            "blogLinks": [
                "http://wikitravel.org/en/San_Diego"
            ]
        },
        "pacific coast highway": {
            "closest_to": "temecula",
            "locType": "primary",
            "address": "Pacific Coast Highway, Huntington Beach, Orange County, California, 92648, United States of America",
            "latitude": "33.6595127",
            "longitude": "-118.0051687",
            "blogLinks": [
                "http://wikitravel.org/en/San_Diego"
            ]
        },
        "los angeles": {
            "closest_to": "avalon",
            "locType": "city",
            "address": "LA, Los Angeles County, California, United States of America",
            "latitude": "34.0543942",
            "longitude": "-118.2439408",
            "blogLinks": [
                "http://www.daytrippen.com/lake-elsinore-day-trip-things-to-do/",
                "http://www.yellowpages.com/temecula-ca/avalon-hotel-new-york-city",
                "http://wikitravel.org/en/San_Diego"
            ]
        },
        "anaheim": {
            "closest_to": "temecula",
            "locType": "city",
            "address": "Anaheim, Orange County, California, United States of America",
            "latitude": "33.8347516",
            "longitude": "-117.9117319",
            "blogLinks": [
                "https://www.viator.com/tours/Anaheim-and-Buena-Park/Catalina-Island-Day-Trip/d797-3457CATALINA",
                "http://wikitravel.org/en/San_Diego"
            ]
        },
        "linda vista road": {
            "closest_to": "temecula",
            "locType": "secondary",
            "address": "Linda Vista Road, Mission Valley, San Diego, San Diego County, California, 92111, United States of America",
            "latitude": "32.805611",
            "longitude": "-117.1553189",
            "blogLinks": [
                "http://wikitravel.org/en/San_Diego"
            ]
        },
        "lake elsinore": {
            "closest_to": "temecula",
            "locType": "administrative",
            "address": "Lake Elsinore, Riverside County, California, United States of America",
            "latitude": "33.6680772",
            "longitude": "-117.3272614",
            "blogLinks": [
                "http://www.daytrippen.com/lake-elsinore-day-trip-things-to-do/",
                "http://www.yellowpages.com/temecula-ca/avalon-hotel-new-york-city",
                "https://www.yelp.com/list/places-in-or-near-temecula-and-san-diego-ca-temecula"
            ]
        },
        "st. didacus": {
            "closest_to": "avalon",
            "locType": "school",
            "address": "Saint Didacus School, Fellows Avenue, Sylmar, LA, Los Angeles County, California, 91342, United States of America",
            "latitude": "34.3061118",
            "longitude": "-118.4445275",
            "blogLinks": [
                "http://wikitravel.org/en/San_Diego"
            ]
        },
        "hillcrest": {
            "closest_to": "temecula",
            "locType": "suburb",
            "address": "Hillcrest, San Diego, San Diego County, California, United States of America",
            "latitude": "32.7483621",
            "longitude": "-117.1609795",
            "blogLinks": [
                "http://wikitravel.org/en/San_Diego"
            ]
        },
        "temecula valley wine country": {
            "closest_to": "temecula",
            "locType": "suburb",
            "address": "Temecula Valley Wine Country, Valle de los Caballos, Riverside County, California, United States of America",
            "latitude": "33.5334975",
            "longitude": "-117.0334856",
            "blogLinks": [
                "http://www.temeculawines.org/blog/temecula-valley-wine-country-restaurants/"
            ]
        },
        "esmeralda": {
            "closest_to": "avalon",
            "locType": "residential",
            "address": "Esmeralda Street, Rose Hill, Highland Park, LA, Los Angeles County, California, 90032, United States of America",
            "latitude": "34.0829329",
            "longitude": "-118.1939061",
            "blogLinks": [
                "http://wikitravel.org/en/San_Diego"
            ]
        },
        "broadway pier": {
            "closest_to": "temecula",
            "locType": "pier",
            "address": "Broadway Pier, Loading Zone, Hillcrest, San Diego, San Diego County, California, 92101, United States of America",
            "latitude": "32.7157143",
            "longitude": "-117.175060770741",
            "blogLinks": [
                "http://www.sandiego.org/articles/tours-sightseeing/san-diegos-59-mile-scenic-drive.aspx"
            ]
        },
        "alberta": {
            "closest_to": "temecula",
            "locType": "residential",
            "address": "Alberta, Aliso Viejo, Orange County, California, 92656, United States of America",
            "latitude": "33.5736346",
            "longitude": "-117.7344716",
            "blogLinks": [
                "http://wikitravel.org/en/San_Diego"
            ]
        },
        "southern california": {
            "closest_to": "avalon",
            "locType": "university",
            "address": "University of Southern California, Watt Way, Saint James Park, LA, Los Angeles County, California, 90089, United States of America",
            "latitude": "34.0224149",
            "longitude": "-118.286343973446",
            "blogLinks": [
                "http://www.temeculawines.org/blog/temecula-valley-wine-country-restaurants/",
                "http://www.sandiego.org/articles/wineries/wine-tasting-in-san-diego.aspx",
                "http://www.diariesofwanderlust.com/wine-tour-of-temecula-valley/",
                "http://www.daytrippen.com/",
                "http://wikitravel.org/en/San_Diego",
                "http://www.daytrippen.com/lake-elsinore-day-trip-things-to-do/"
            ]
        },
        "balboa park-hillcrest": {
            "closest_to": "temecula",
            "locType": "park",
            "address": "Balboa Park, Plaza de Balboa, North Park, Hillcrest, San Diego, San Diego County, California, 92101, United States of America",
            "latitude": "32.7310521",
            "longitude": "-117.146580648446",
            "blogLinks": [
                "http://wikitravel.org/en/San_Diego"
            ]
        },
        "san diego bay": {
            "closest_to": "temecula",
            "locType": "bay",
            "address": "San Diego Bay, Leyte Road, Crown Island, Coronado, San Diego County, California, 92118, United States of America",
            "latitude": "32.6500534",
            "longitude": "-117.1341977",
            "blogLinks": [
                "http://www.daytrippen.com/",
                "http://www.sandiego.org/articles/tours-sightseeing/san-diegos-59-mile-scenic-drive.aspx",
                "http://wikitravel.org/en/San_Diego",
                "http://www.sandiego.org/articles/wineries/wine-tasting-in-san-diego.aspx"
            ]
        },
        "chula vista": {
            "closest_to": "temecula",
            "locType": "city",
            "address": "Chula Vista, San Diego County, California, United States of America",
            "latitude": "32.6400541",
            "longitude": "-117.0841954",
            "blogLinks": [
                "http://wikitravel.org/en/San_Diego"
            ]
        },
        "california desert": {
            "closest_to": "temecula",
            "locType": "residential",
            "address": "California Drive, Palm Desert, Riverside County, California, 92211, United States of America",
            "latitude": "33.7348741",
            "longitude": "-116.317684",
            "blogLinks": [
                "http://wikitravel.org/en/San_Diego"
            ]
        },
        "france": {
            "closest_to": "avalon",
            "locType": "cafe",
            "address": "France, Sherman Way, Canoga Park, LA, Los Angeles County, California, 91307, United States of America",
            "latitude": "34.2013715",
            "longitude": "-118.5935353",
            "blogLinks": [
                "http://wikitravel.org/en/San_Diego"
            ]
        },
        "america temecula": {
            "closest_to": "temecula",
            "locType": "bank",
            "address": "Bank of America, Ynez Road, Stonewood, Old Town, Temecula, Riverside County, California, 92591, United States of America",
            "latitude": "33.50479665",
            "longitude": "-117.150229272715",
            "blogLinks": [
                "http://www.yellowpages.com/temecula-ca/avalon-hotel-new-york-city"
            ]
        },
        "qualcomm stadium": {
            "closest_to": "temecula",
            "locType": "station",
            "address": "Qualcomm Stadium, Qualcomm Way, Mission Valley, San Diego, San Diego County, California, 92123, United States of America",
            "latitude": "32.7810139",
            "longitude": "-117.1196206",
            "blogLinks": [
                "http://wikitravel.org/en/San_Diego"
            ]
        },
        "hidden valley road": {
            "closest_to": "avalon",
            "locType": "residential",
            "address": "Hidden Valley Road, Hidden Valley Estates, Valley Village, LA, Los Angeles County, California, 90210, United States of America",
            "latitude": "34.1217136",
            "longitude": "-118.4026282",
            "blogLinks": [
                "http://www.sandiego.org/articles/tours-sightseeing/san-diegos-59-mile-scenic-drive.aspx"
            ]
        },
        "riverside county": {
            "closest_to": "temecula",
            "locType": "administrative",
            "address": "Riverside County, California, United States of America",
            "latitude": "33.7219991",
            "longitude": "-116.0372471",
            "blogLinks": [
                "http://www.daytrippen.com/lake-elsinore-day-trip-things-to-do/"
            ]
        },
        "buena park": {
            "closest_to": "temecula",
            "locType": "city",
            "address": "Buena Park, Orange County, California, United States of America",
            "latitude": "33.870413",
            "longitude": "-117.9962164",
            "blogLinks": [
                "https://www.viator.com/tours/Anaheim-and-Buena-Park/Catalina-Island-Day-Trip/d797-3457CATALINA"
            ]
        },
        "anthonys": {
            "closest_to": "temecula",
            "locType": "shoemaker",
            "address": "Anthony's, Del Mar Heights Road, Del Mar, San Diego, San Diego County, California, 92130, United States of America",
            "latitude": "32.9531439",
            "longitude": "-117.2325474",
            "blogLinks": [
                "https://www.yelp.com/list/places-in-or-near-temecula-and-san-diego-ca-temecula"
            ]
        },
        "dana point": {
            "closest_to": "temecula",
            "locType": "city",
            "address": "Dana Point, Orange County, California, United States of America",
            "latitude": "33.4669721",
            "longitude": "-117.6981074",
            "blogLinks": [
                "http://www.yellowpages.com/temecula-ca/avalon-hotel-new-york-city",
                "http://wikitravel.org/en/San_Diego"
            ]
        }
    },
    "temecula": {
        "class": "place",
        "licence": "Data \u00a9 OpenStreetMap contributors, ODbL 1.0. http://www.openstreetmap.org/copyright",
        "lon": "-117.147366",
        "lat": "33.4946353",
        "boundingbox": [
            "33.4321253",
            "33.554625",
            "-117.2066944",
            "-117.0548702"
        ],
        "importance": 0.66507963701587,
        "osm_type": "relation",
        "icon": "https://nominatim.openstreetmap.org/images/mapicons/poi_place_city.p.20.png",
        "osm_id": "3866463",
        "display_name": "Temecula, Riverside County, California, United States of America",
        "type": "city",
        "place_id": "159718106"
    },
    "avalon": {
        "type": "city",
        "class": "place",
        "lat": "33.34221",
        "lon": "-118.3272611",
        "licence": "Data \u00a9 OpenStreetMap contributors, ODbL 1.0. http://www.openstreetmap.org/copyright",
        "osm_type": "relation",
        "importance": 0.59676353508209,
        "boundingbox": [
            "33.317583",
            "33.356566",
            "-118.3466549",
            "-118.3073689"
        ],
        "icon": "https://nominatim.openstreetmap.org/images/mapicons/poi_place_city.p.20.png",
        "osm_id": "6169443",
        "display_name": "Avalon, Los Angeles County, California, United States of America",
        "place_id": "159849240"
    }
}