{
    "mentions": {
        "granada hills": {
            "closest_to": "santa clarita",
            "locType": "neighbourhood",
            "address": "Granada Hills, Northridge, LA, Los Angeles County, California, 91344, United States of America",
            "latitude": "34.2647247",
            "longitude": "-118.5231414",
            "blogLinks": [
                "http://www.roadsideamerica.com/location/ca/all"
            ]
        },
        "catalina avenue": {
            "closest_to": "santa clarita",
            "locType": "residential",
            "address": "Catalina Avenue, Pasadena, Los Angeles County, California, 91106, United States of America",
            "latitude": "34.1340069",
            "longitude": "-118.1292997",
            "blogLinks": [
                "https://en.wikipedia.org/wiki/Avalon,_California"
            ]
        },
        "metropole street": {
            "closest_to": "santa clarita",
            "locType": "residential",
            "address": "Metropole Avenue, Avalon, Los Angeles County, California, 90704, United States of America",
            "latitude": "33.3419998",
            "longitude": "-118.3289166",
            "blogLinks": [
                "https://en.wikipedia.org/wiki/Avalon,_California"
            ]
        },
        "toyon bay": {
            "closest_to": "santa clarita",
            "locType": "residential",
            "address": "Toyon Bay, Marina Pacifica, Naples, Long Beach, Los Angeles County, California, 90803, United States of America",
            "latitude": "33.7664645",
            "longitude": "-118.1246363",
            "blogLinks": [
                "https://en.wikipedia.org/wiki/Santa_Catalina_Island,_California"
            ]
        },
        "catalina casino": {
            "closest_to": "santa clarita",
            "locType": "attraction",
            "address": "Catalina Casino, 1, Casino Way, Avalon, Los Angeles County, California, 90704, United States of America",
            "latitude": "33.34888805",
            "longitude": "-118.325755127421",
            "blogLinks": [
                "https://en.wikipedia.org/wiki/Avalon,_California",
                "https://en.wikipedia.org/wiki/Santa_Catalina_Island,_California"
            ]
        },
        "califia": {
            "closest_to": "santa clarita",
            "locType": "residential",
            "address": "Califia Court, Santa Barbara County, California, 93111, United States of America",
            "latitude": "34.4290422",
            "longitude": "-119.8065791",
            "blogLinks": [
                "http://www.roadsideamerica.com/location/ca"
            ]
        },
        "wrigley": {
            "closest_to": "santa clarita",
            "locType": "residential",
            "address": "Wrigley, Irvine, Orange County, California, 92630, United States of America",
            "latitude": "33.640771",
            "longitude": "-117.7189179",
            "blogLinks": [
                "https://en.wikipedia.org/wiki/Avalon,_California",
                "https://en.wikipedia.org/wiki/Santa_Catalina_Island,_California"
            ]
        },
        "irvine": {
            "closest_to": "santa clarita",
            "locType": "city",
            "address": "Irvine, Orange County, California, United States of America",
            "latitude": "33.6856969",
            "longitude": "-117.8259818",
            "blogLinks": [
                "http://www.livability.com/ca"
            ]
        },
        "catalina": {
            "closest_to": "santa clarita",
            "locType": "forest",
            "address": "Catalina, Anaheim Resort District, Anaheim, Orange County, California, 217, United States of America",
            "latitude": "33.810513",
            "longitude": "-117.920102663284",
            "blogLinks": [
                "https://www.pinterest.com/catalinaexpress/foodie-places-of-catalina-island/",
                "https://en.wikipedia.org/wiki/Avalon,_California",
                "https://en.wikipedia.org/wiki/Santa_Catalina_Island,_California"
            ]
        },
        "baldwin park": {
            "closest_to": "santa clarita",
            "locType": "city",
            "address": "Baldwin Park, Los Angeles County, California, United States of America",
            "latitude": "34.0854739",
            "longitude": "-117.961176",
            "blogLinks": [
                "http://www.roadsideamerica.com/location/ca"
            ]
        },
        "bakersfield": {
            "closest_to": "santa clarita",
            "locType": "city",
            "address": "Bakersfield, Kern County, California, United States of America",
            "latitude": "35.3738712",
            "longitude": "-119.0194638",
            "blogLinks": [
                "http://www.roadsideamerica.com/location/ca"
            ]
        },
        "placerita": {
            "closest_to": "santa clarita",
            "locType": "park",
            "address": "Placerita Canyon State Park, Placerita Canyon Trail, Sand Canyon, Los Angeles County, California, 91351, United States of America",
            "latitude": "34.3758312",
            "longitude": "-118.4459162",
            "blogLinks": [
                "https://www.yelp.com/list/best-places-to-hike-in-santa-clarita-newhall-3"
            ]
        },
        "temecula": {
            "closest_to": "avalon",
            "locType": "city",
            "address": "Temecula, Riverside County, California, United States of America",
            "latitude": "33.4946353",
            "longitude": "-117.147366",
            "blogLinks": [
                "http://www.roadsideamerica.com/location/ca"
            ]
        },
        "placerita canyon road": {
            "closest_to": "santa clarita",
            "locType": "secondary",
            "address": "Placerita Canyon Road, Newhall, Los Angeles County, California, 91321, United States of America",
            "latitude": "34.3769153",
            "longitude": "-118.4926118",
            "blogLinks": [
                "https://www.yelp.com/list/best-places-to-hike-in-santa-clarita-newhall-3"
            ]
        },
        "new york": {
            "closest_to": "santa clarita",
            "locType": "service",
            "address": "New York, West Covina, Los Angeles County, California, 91792, United States of America",
            "latitude": "34.0143928",
            "longitude": "-117.8984509",
            "blogLinks": [
                "https://en.wikipedia.org/wiki/Santa_Catalina_Island,_California"
            ]
        },
        "avalon beach": {
            "closest_to": "santa clarita",
            "locType": "residential",
            "address": "Avalon Lane, Huntington Beach, Orange County, California, 92647, United States of America",
            "latitude": "33.7114547",
            "longitude": "-118.0233228",
            "blogLinks": [
                "https://en.wikipedia.org/wiki/Avalon,_California",
                "https://en.wikipedia.org/wiki/Santa_Catalina_Island,_California"
            ]
        },
        "middle ranch": {
            "closest_to": "santa clarita",
            "locType": "hamlet",
            "address": "Middle Ranch, Los Angeles County, California, United States of America",
            "latitude": "33.355269",
            "longitude": "-118.4383285",
            "blogLinks": [
                "https://en.wikipedia.org/wiki/Santa_Catalina_Island,_California"
            ]
        },
        "costa mesa": {
            "closest_to": "santa clarita",
            "locType": "city",
            "address": "Costa Mesa, Orange County, California, United States of America",
            "latitude": "33.6633386",
            "longitude": "-117.9033169",
            "blogLinks": [
                "http://www.roadsideamerica.com/location/ca"
            ]
        },
        "botanical gardens": {
            "closest_to": "santa clarita",
            "locType": "park",
            "address": "Botanical Gardens, Orlando Road, San Pasqual, San Marino, Los Angeles County, California, 91125, United States of America",
            "latitude": "34.1310559",
            "longitude": "-118.114044107557",
            "blogLinks": [
                "https://en.wikipedia.org/wiki/Avalon,_California"
            ]
        },
        "crescent street": {
            "closest_to": "santa clarita",
            "locType": "residential",
            "address": "Crescent Street, San Bernardino, San Bernardino County, California, 92407, United States of America",
            "latitude": "34.1805181",
            "longitude": "-117.2999806",
            "blogLinks": [
                "https://en.wikipedia.org/wiki/Avalon,_California"
            ]
        },
        "torrance": {
            "closest_to": "santa clarita",
            "locType": "city",
            "address": "Torrance, Los Angeles County, California, United States of America",
            "latitude": "33.8358492",
            "longitude": "-118.3406287",
            "blogLinks": [
                "https://en.wikipedia.org/wiki/Avalon,_California"
            ]
        },
        "whitney canyon": {
            "closest_to": "santa clarita",
            "locType": "residential",
            "address": "Whitney Canyon Road, Newhall, Santa Clarita, Los Angeles County, California, 91321, United States of America",
            "latitude": "34.3658881",
            "longitude": "-118.4929088",
            "blogLinks": [
                "https://www.yelp.com/list/best-places-to-hike-in-santa-clarita-newhall-3"
            ]
        },
        "rialto": {
            "closest_to": "santa clarita",
            "locType": "city",
            "address": "Rialto, San Bernardino County, California, United States of America",
            "latitude": "34.1064001",
            "longitude": "-117.3703234",
            "blogLinks": [
                "http://www.roadsideamerica.com/location/ca/all"
            ]
        },
        "remsen road": {
            "closest_to": "santa clarita",
            "locType": "theatre",
            "address": "Remsen Bird Hillside Theater, 1600, Campus Road, Eagle Rock, Highland Park, LA, Los Angeles County, California, 90041, United States of America",
            "latitude": "34.1293636",
            "longitude": "-118.2085386",
            "blogLinks": [
                "https://www.yelp.com/list/best-places-to-hike-in-santa-clarita-newhall-3"
            ]
        },
        "channel islands of california": {
            "closest_to": "santa clarita",
            "locType": "garden",
            "address": "Channel Islands, Evolution Walk, Warner Center, LA, Los Angeles County, California, 91307, United States of America",
            "latitude": "34.1848815",
            "longitude": "-118.5759409",
            "blogLinks": [
                "https://en.wikipedia.org/wiki/Avalon,_California",
                "https://en.wikipedia.org/wiki/Santa_Catalina_Island,_California"
            ]
        },
        "santa monica mountains conservancy": {
            "closest_to": "santa clarita",
            "locType": "park",
            "address": "Santa Monica Mountains Conservancy, Reforma Road, Woodland Hills, LA, Los Angeles County, California, 91364, United States of America",
            "latitude": "34.15089545",
            "longitude": "-118.616054173671",
            "blogLinks": [
                "https://www.yelp.com/list/best-places-to-hike-in-santa-clarita-newhall-3"
            ]
        },
        "minneapolis": {
            "closest_to": "santa clarita",
            "locType": "residential",
            "address": "Minneapolis Street, Atwater, LA, Los Angeles County, California, 90039, United States of America",
            "latitude": "34.1135807",
            "longitude": "-118.2520117",
            "blogLinks": [
                "https://en.wikipedia.org/wiki/Santa_Catalina_Island,_California"
            ]
        },
        "santa clarita park": {
            "closest_to": "santa clarita",
            "locType": "park",
            "address": "Santa Clarita Park, Seco Canyon Road, Saugus, Santa Clarita, Los Angeles County, California, 91390, United States of America",
            "latitude": "34.446384",
            "longitude": "-118.5356409",
            "blogLinks": [
                "http://visitsantaclarita.com/plan/free-things-to-do/"
            ]
        },
        "catalina island medical center": {
            "closest_to": "avalon",
            "locType": "hospital",
            "address": "Catalina Island Medical Center, 100, Falls Canyon Road, Avalon, Los Angeles County, California, 90704, United States of America",
            "latitude": "33.33918575",
            "longitude": "-118.330742762703",
            "blogLinks": [
                "https://en.wikipedia.org/wiki/Avalon,_California",
                "https://en.wikipedia.org/wiki/Santa_Catalina_Island,_California"
            ]
        },
        "orange county": {
            "closest_to": "santa clarita",
            "locType": "administrative",
            "address": "Orange County, California, United States of America",
            "latitude": "33.7500378",
            "longitude": "-117.870493",
            "blogLinks": [
                "https://en.wikipedia.org/wiki/Avalon,_California",
                "https://en.wikipedia.org/wiki/Santa_Catalina_Island,_California"
            ]
        },
        "catalina island museum": {
            "closest_to": "santa clarita",
            "locType": "museum",
            "address": "Catalina Island Museum, 1, Casino Way, Avalon, Los Angeles County, California, 90704, United States of America",
            "latitude": "33.3487561",
            "longitude": "-118.3257254",
            "blogLinks": [
                "https://en.wikipedia.org/wiki/Avalon,_California",
                "https://en.wikipedia.org/wiki/Santa_Catalina_Island,_California"
            ]
        },
        "avalon canyon": {
            "closest_to": "santa clarita",
            "locType": "residential",
            "address": "Avalon, Lower Peters Canyon, Irvine, Orange County, California, 92602, United States of America",
            "latitude": "33.7182832",
            "longitude": "-117.7751725",
            "blogLinks": [
                "https://en.wikipedia.org/wiki/Santa_Catalina_Island,_California"
            ]
        },
        "glendale": {
            "closest_to": "santa clarita",
            "locType": "city",
            "address": "Glendale, Los Angeles County, California, United States of America",
            "latitude": "34.1423455",
            "longitude": "-118.248367",
            "blogLinks": [
                "http://www.roadsideamerica.com/location/ca"
            ]
        },
        "republic highway": {
            "closest_to": "santa clarita",
            "locType": "residential",
            "address": "Republic Street, El Pueblo, Little Tokyo Historic District, LA, Los Angeles County, California, 90012, United States of America",
            "latitude": "34.0562192",
            "longitude": "-118.2397302",
            "blogLinks": [
                "http://visitsantaclarita.com/plan/free-things-to-do/"
            ]
        },
        "santa fe springs": {
            "closest_to": "santa clarita",
            "locType": "city",
            "address": "Santa Fe Springs, Los Angeles County, California, United States of America",
            "latitude": "33.9482434",
            "longitude": "-118.0676102",
            "blogLinks": [
                "http://www.roadsideamerica.com/location/ca"
            ]
        },
        "canyon country": {
            "closest_to": "santa clarita",
            "locType": "suburb",
            "address": "Canyon Country, Santa Clarita, Los Angeles County, California, United States of America",
            "latitude": "34.4233293",
            "longitude": "-118.472028",
            "blogLinks": [
                "http://visitsantaclarita.com/",
                "http://www.zillow.com/homedetails/27912-Avalon-Dr-Canyon-Country-CA-91351/2133993154_zpid/",
                "http://www.scvrealty.com/valencia-real-estate/",
                "https://www.yelp.com/list/best-places-to-hike-in-santa-clarita-newhall-3"
            ]
        },
        "placerita canyon rd": {
            "closest_to": "santa clarita",
            "locType": "secondary",
            "address": "Placerita Canyon Road, Newhall, Los Angeles County, California, 91321, United States of America",
            "latitude": "34.3769153",
            "longitude": "-118.4926118",
            "blogLinks": [
                "https://www.yelp.com/list/best-places-to-hike-in-santa-clarita-newhall-3"
            ]
        },
        "los angeles public library": {
            "closest_to": "santa clarita",
            "locType": "library",
            "address": "Chatsworth Branch Los Angeles Public Library, 21052, Devonshire Street, Chatsworth, LA, Los Angeles County, California, 91311, United States of America",
            "latitude": "34.2569724",
            "longitude": "-118.5926369",
            "blogLinks": [
                "https://en.wikipedia.org/wiki/Santa_Catalina_Island,_California"
            ]
        },
        "soledad canyon": {
            "closest_to": "santa clarita",
            "locType": "secondary",
            "address": "Soledad Canyon Road, Honby, Canyon Country, Santa Clarita, Los Angeles County, California, 93510, United States of America",
            "latitude": "34.4180678",
            "longitude": "-118.48154",
            "blogLinks": [
                "https://www.yelp.com/list/best-places-to-hike-in-santa-clarita-newhall-3"
            ]
        },
        "old road": {
            "closest_to": "santa clarita",
            "locType": "primary",
            "address": "The Old Road, LA, Los Angeles County, California, SCV, United States of America",
            "latitude": "34.3328446",
            "longitude": "-118.506284",
            "blogLinks": [
                "https://www.yelp.com/list/best-places-to-hike-in-santa-clarita-newhall-3"
            ]
        },
        "antelope valley": {
            "closest_to": "santa clarita",
            "locType": "college",
            "address": "Antelope Valley College, West Avenue K, Lancaster, Los Angeles County, California, 93536, United States of America",
            "latitude": "34.67743",
            "longitude": "-118.1865629",
            "blogLinks": [
                "http://visitsantaclarita.com/plan/free-things-to-do/"
            ]
        },
        "towsley canyon": {
            "closest_to": "santa clarita",
            "locType": "residential",
            "address": "Towsley Canyon Road, Newhall, Santa Clarita, Los Angeles County, California, 91321, United States of America",
            "latitude": "34.3573878",
            "longitude": "-118.5605864",
            "blogLinks": [
                "https://www.yelp.com/list/best-places-to-hike-in-santa-clarita-newhall-3",
                "http://visitsantaclarita.com/plan/free-things-to-do/"
            ]
        },
        "hart park": {
            "closest_to": "santa clarita",
            "locType": "park",
            "address": "Hart Park, South Grand Street, Orange, Orange County, California, 92866, United States of America",
            "latitude": "33.7774513",
            "longitude": "-117.850866971889",
            "blogLinks": [
                "http://visitsantaclarita.com/plan/free-things-to-do/"
            ]
        },
        "harbor gateway": {
            "closest_to": "santa clarita",
            "locType": "pedestrian",
            "address": "Harbor Gateway Transit Center, Roosevelt, LA, Los Angeles County, California, 90248-4007, United States of America",
            "latitude": "33.86933215",
            "longitude": "-118.287376850688",
            "blogLinks": [
                "https://en.wikipedia.org/wiki/Avalon,_California"
            ]
        },
        "los angeles harbor": {
            "closest_to": "santa clarita",
            "locType": "bay",
            "address": "Los Angeles Harbor, Miner Street, San Pedro, LA, Los Angeles County, California, 90731, United States of America",
            "latitude": "33.7097418",
            "longitude": "-118.2675706",
            "blogLinks": [
                "https://en.wikipedia.org/wiki/Avalon,_California"
            ]
        },
        "santa clarita": {
            "closest_to": "santa clarita",
            "locType": "city",
            "address": "Santa Clarita, Los Angeles County, California, United States of America",
            "latitude": "34.3916641",
            "longitude": "-118.5425859",
            "blogLinks": [
                "https://www.yelp.com/list/best-places-to-hike-in-santa-clarita-newhall-3",
                "http://visitsantaclarita.com/plan/free-things-to-do/",
                "http://visitsantaclarita.com/",
                "http://www.scvrealty.com/valencia-real-estate/",
                "http://www.roadsideamerica.com/location/ca",
                "http://www.zillow.com/homedetails/27912-Avalon-Dr-Canyon-Country-CA-91351/2133993154_zpid/"
            ]
        },
        "newhall ave": {
            "closest_to": "santa clarita",
            "locType": "secondary",
            "address": "Newhall Avenue, Newhall, Santa Clarita, Los Angeles County, California, 91321, United States of America",
            "latitude": "34.3646153",
            "longitude": "-118.501592",
            "blogLinks": [
                "https://www.yelp.com/list/best-places-to-hike-in-santa-clarita-newhall-3"
            ]
        },
        "almendra park": {
            "closest_to": "santa clarita",
            "locType": "park",
            "address": "Almendra Park, Via Gracioso, Valencia, Santa Clarita, Los Angeles County, California, 91355, United States of America",
            "latitude": "34.4005526",
            "longitude": "-118.5442525",
            "blogLinks": [
                "http://visitsantaclarita.com/plan/free-things-to-do/"
            ]
        },
        "hotel atwater": {
            "closest_to": "santa clarita",
            "locType": "hotel",
            "address": "Verdugo Road, Atwater, LA, Los Angeles County, California, 90065, United States of America",
            "latitude": "34.1204099",
            "longitude": "-118.22954315",
            "blogLinks": [
                "http://www.scvrealty.com/valencia-real-estate/"
            ]
        },
        "avalon bay": {
            "closest_to": "santa clarita",
            "locType": "bay",
            "address": "Avalon Bay, Crescent Avenue, Avalon, Los Angeles County, California, 90704, United States of America",
            "latitude": "33.3455843",
            "longitude": "-118.3242393",
            "blogLinks": [
                "https://en.wikipedia.org/wiki/Avalon,_California"
            ]
        },
        "shark/little harbor": {
            "closest_to": "santa clarita",
            "locType": "bay",
            "address": "Shark Harbor, Middle Ranch Road, El Rancho Escondido, Los Angeles County, California, United States of America",
            "latitude": "33.3831147",
            "longitude": "-118.4747324",
            "blogLinks": [
                "https://en.wikipedia.org/wiki/Santa_Catalina_Island,_California"
            ]
        },
        "hollywood": {
            "closest_to": "santa clarita",
            "locType": "suburb",
            "address": "Hollywood, LA, Los Angeles County, California, United States of America",
            "latitude": "34.1028268",
            "longitude": "-118.3299898",
            "blogLinks": [
                "https://en.wikipedia.org/wiki/Santa_Catalina_Island,_California",
                "http://www.scvrealty.com/valencia-real-estate/",
                "http://www.roadsideamerica.com/location/ca",
                "http://visitsantaclarita.com/plan/free-things-to-do/"
            ]
        },
        "wrigley memorial": {
            "closest_to": "avalon",
            "locType": "yes",
            "address": "Wrigley Memorial, Avalon Canyon Road, Avalon, Los Angeles County, California, 90704, United States of America",
            "latitude": "33.3234965",
            "longitude": "-118.342036773792",
            "blogLinks": [
                "https://en.wikipedia.org/wiki/Avalon,_California"
            ]
        },
        "los angeles county": {
            "closest_to": "santa clarita",
            "locType": "administrative",
            "address": "Los Angeles County, California, United States of America",
            "latitude": "34.3155072",
            "longitude": "-118.2096813",
            "blogLinks": [
                "http://visitsantaclarita.com/",
                "https://en.wikipedia.org/wiki/Avalon,_California",
                "https://en.wikipedia.org/wiki/Santa_Catalina_Island,_California",
                "http://www.scvrealty.com/valencia-real-estate/",
                "http://visitsantaclarita.com/plan/free-things-to-do/"
            ]
        },
        "catalina island conservancy": {
            "closest_to": "avalon",
            "locType": "association",
            "address": "Catalina Island Conservancy, 125, Claressa Avenue, Avalon, Los Angeles County, California, 90704, United States of America",
            "latitude": "33.3423636",
            "longitude": "-118.325159451964",
            "blogLinks": [
                "https://en.wikipedia.org/wiki/Avalon,_California",
                "https://en.wikipedia.org/wiki/Santa_Catalina_Island,_California"
            ]
        },
        "carlsbad": {
            "closest_to": "avalon",
            "locType": "city",
            "address": "Carlsbad, San Diego County, California, United States of America",
            "latitude": "33.1580933",
            "longitude": "-117.3505938",
            "blogLinks": [
                "http://www.roadsideamerica.com/location/ca"
            ]
        },
        "sylmar": {
            "closest_to": "santa clarita",
            "locType": "suburb",
            "address": "Sylmar, LA, Los Angeles County, California, United States of America",
            "latitude": "34.3076252",
            "longitude": "-118.4492147",
            "blogLinks": [
                "http://www.roadsideamerica.com/location/ca"
            ]
        },
        "aliso canyon": {
            "closest_to": "santa clarita",
            "locType": "locality",
            "address": "Aliso Canyon gas leak, Los Angeles County, California, United States of America",
            "latitude": "34.3150312",
            "longitude": "-118.5641161",
            "blogLinks": [
                "https://www.yelp.com/list/best-places-to-hike-in-santa-clarita-newhall-3"
            ]
        },
        "pacific coast": {
            "closest_to": "santa clarita",
            "locType": "yes",
            "address": "Pacific Coast, Florista Street, Los Alamitos, Orange County, California, 90720, United States of America",
            "latitude": "33.8047323",
            "longitude": "-118.063517668143",
            "blogLinks": [
                "http://www.livability.com/ca"
            ]
        },
        "catalina airport": {
            "closest_to": "santa clarita",
            "locType": "aerodrome",
            "address": "Catalina Airport, Airport Road, El Rancho Escondido, Los Angeles County, California, United States of America",
            "latitude": "33.4046824",
            "longitude": "-118.416278892874",
            "blogLinks": [
                "https://en.wikipedia.org/wiki/Avalon,_California",
                "https://en.wikipedia.org/wiki/Santa_Catalina_Island,_California"
            ]
        },
        "antelope valley freeway": {
            "closest_to": "santa clarita",
            "locType": "motorway",
            "address": "Antelope Valley Freeway, Palmdale, Los Angeles County, California, 93550, United States of America",
            "latitude": "34.5816462",
            "longitude": "-118.1338867",
            "blogLinks": [
                "http://visitsantaclarita.com/plan/free-things-to-do/"
            ]
        },
        "calgrove": {
            "closest_to": "santa clarita",
            "locType": "secondary",
            "address": "Calgrove Boulevard, Newhall, Santa Clarita, Los Angeles County, California, 91321, United States of America",
            "latitude": "34.3591518",
            "longitude": "-118.5553757",
            "blogLinks": [
                "https://www.yelp.com/list/best-places-to-hike-in-santa-clarita-newhall-3"
            ]
        },
        "sierra highway": {
            "closest_to": "santa clarita",
            "locType": "secondary",
            "address": "Sierra Highway, Palmdale, Los Angeles County, California, 93550, United States of America",
            "latitude": "34.5912297",
            "longitude": "-118.1182306",
            "blogLinks": [
                "https://www.yelp.com/list/best-places-to-hike-in-santa-clarita-newhall-3",
                "http://visitsantaclarita.com/plan/free-things-to-do/"
            ]
        },
        "east canyon mtwy": {
            "closest_to": "santa clarita",
            "locType": "residential",
            "address": "East Canyon Motorway, Newhall, Los Angeles County, California, SCV, United States of America",
            "latitude": "34.3470216",
            "longitude": "-118.5446174",
            "blogLinks": [
                "https://www.yelp.com/list/best-places-to-hike-in-santa-clarita-newhall-3"
            ]
        },
        "santa clarita valley": {
            "closest_to": "santa clarita",
            "locType": "city",
            "address": "Santa Clarita, Los Angeles County, California, United States of America",
            "latitude": "34.3916641",
            "longitude": "-118.5425859",
            "blogLinks": [
                "http://www.scvrealty.com/valencia-real-estate/",
                "https://www.yelp.com/list/best-places-to-hike-in-santa-clarita-newhall-3",
                "http://visitsantaclarita.com/plan/free-things-to-do/"
            ]
        },
        "san pedro": {
            "closest_to": "santa clarita",
            "locType": "suburb",
            "address": "San Pedro, LA, Los Angeles County, California, United States of America",
            "latitude": "33.7358518",
            "longitude": "-118.2922933",
            "blogLinks": [
                "http://www.zillow.com/homedetails/27912-Avalon-Dr-Canyon-Country-CA-91351/2133993154_zpid/",
                "https://en.wikipedia.org/wiki/Avalon,_California",
                "https://en.wikipedia.org/wiki/Santa_Catalina_Island,_California",
                "http://www.roadsideamerica.com/location/ca"
            ]
        },
        "william s. hart park": {
            "closest_to": "santa clarita",
            "locType": "tree",
            "address": "William S Hart Park, La Loma Road, Newhall, Santa Clarita, Los Angeles County, California, SCV, United States of America",
            "latitude": "34.3755536",
            "longitude": "-118.5273077",
            "blogLinks": [
                "http://visitsantaclarita.com/plan/free-things-to-do/"
            ]
        },
        "santa catalina island company": {
            "closest_to": "santa clarita",
            "locType": "tourism",
            "address": "Discovery Tours, 9, Crescent Avenue, Avalon, Los Angeles County, California, 90704, United States of America",
            "latitude": "33.3440137",
            "longitude": "-118.3247402",
            "blogLinks": [
                "https://en.wikipedia.org/wiki/Santa_Catalina_Island,_California"
            ]
        },
        "santa clara river trail": {
            "closest_to": "santa clarita",
            "locType": "cycleway",
            "address": "Santa Clara River Trail, Saugus, Santa Clarita, Los Angeles County, California, 91350, United States of America",
            "latitude": "34.4258901",
            "longitude": "-118.511812",
            "blogLinks": [
                "http://www.scvrealty.com/valencia-real-estate/"
            ]
        },
        "woodland hills": {
            "closest_to": "santa clarita",
            "locType": "suburb",
            "address": "Woodland Hills, LA, Los Angeles County, California, United States of America",
            "latitude": "34.1683386",
            "longitude": "-118.6059196",
            "blogLinks": [
                "http://www.roadsideamerica.com/location/ca"
            ]
        },
        "pebbly beach": {
            "closest_to": "avalon",
            "locType": "village",
            "address": "Pebbly Beach, Los Angeles County, California, United States of America",
            "latitude": "33.3349066",
            "longitude": "-118.3117079",
            "blogLinks": [
                "https://en.wikipedia.org/wiki/Avalon,_California"
            ]
        },
        "eternal valley cemetery": {
            "closest_to": "santa clarita",
            "locType": "cemetery",
            "address": "Eternal Valley, Newhall, Santa Clarita, Los Angeles County, California, 91321, United States of America",
            "latitude": "34.3618974",
            "longitude": "-118.510342379681",
            "blogLinks": [
                "https://www.yelp.com/list/best-places-to-hike-in-santa-clarita-newhall-3"
            ]
        },
        "newhall": {
            "closest_to": "santa clarita",
            "locType": "suburb",
            "address": "Newhall, Santa Clarita, Los Angeles County, California, United States of America",
            "latitude": "34.3798765",
            "longitude": "-118.5291916",
            "blogLinks": [
                "http://visitsantaclarita.com/plan/free-things-to-do/"
            ]
        },
        "catalina island golf course": {
            "closest_to": "avalon",
            "locType": "golf_course",
            "address": "Catalina Island Golf Course, Avalon Canyon Road, Avalon, Los Angeles County, California, 90704, United States of America",
            "latitude": "33.3359992",
            "longitude": "-118.330393386316",
            "blogLinks": [
                "https://en.wikipedia.org/wiki/Avalon,_California"
            ]
        },
        "magic mountain": {
            "closest_to": "santa clarita",
            "locType": "peak",
            "address": "Magic Mountain, Ventura County, California, United States of America",
            "latitude": "34.4724515",
            "longitude": "-119.2563693",
            "blogLinks": [
                "http://www.roadsideamerica.com/location/ca/all"
            ]
        },
        "norco": {
            "closest_to": "santa clarita",
            "locType": "city",
            "address": "Norco, Riverside County, California, 92860, United States of America",
            "latitude": "33.9323307",
            "longitude": "-117.55089",
            "blogLinks": [
                "http://www.roadsideamerica.com/location/ca"
            ]
        },
        "simi valley": {
            "closest_to": "santa clarita",
            "locType": "city",
            "address": "Simi Valley, Ventura County, California, United States of America",
            "latitude": "34.2694474",
            "longitude": "-118.7814819",
            "blogLinks": [
                "http://www.roadsideamerica.com/location/ca"
            ]
        },
        "newhall avenue": {
            "closest_to": "santa clarita",
            "locType": "secondary",
            "address": "Newhall Avenue, Newhall, Santa Clarita, Los Angeles County, California, 91321, United States of America",
            "latitude": "34.3646153",
            "longitude": "-118.501592",
            "blogLinks": [
                "http://visitsantaclarita.com/plan/free-things-to-do/"
            ]
        },
        "charleston": {
            "closest_to": "avalon",
            "locType": "administrative",
            "address": "Charleston, Harveston, Temecula, Riverside County, California, United States of America",
            "latitude": "33.53745",
            "longitude": "-117.160560207655",
            "blogLinks": [
                "https://en.wikipedia.org/wiki/Avalon,_California"
            ]
        },
        "santa barbara": {
            "closest_to": "santa clarita",
            "locType": "city",
            "address": "Santa Barbara, Santa Barbara County, California, United States of America",
            "latitude": "34.4221319",
            "longitude": "-119.7026672",
            "blogLinks": [
                "http://www.livability.com/ca",
                "https://en.wikipedia.org/wiki/Santa_Catalina_Island,_California"
            ]
        },
        "huntington beach": {
            "closest_to": "santa clarita",
            "locType": "city",
            "address": "Huntington Beach, Orange County, California, United States of America",
            "latitude": "33.6783336",
            "longitude": "-118.0000165",
            "blogLinks": [
                "http://www.roadsideamerica.com/location/ca"
            ]
        },
        "bouquet canyon park": {
            "closest_to": "santa clarita",
            "locType": "park",
            "address": "Bouquet Canyon Park, Altena Drive, Saugus, Santa Clarita, Los Angeles County, California, 91350, United States of America",
            "latitude": "34.4530504",
            "longitude": "-118.5053622",
            "blogLinks": [
                "http://visitsantaclarita.com/plan/free-things-to-do/"
            ]
        },
        "playa del rey": {
            "closest_to": "santa clarita",
            "locType": "suburb",
            "address": "Playa del Rey, LA, Los Angeles County, California, United States of America",
            "latitude": "33.9550828",
            "longitude": "-118.4367495",
            "blogLinks": [
                "https://en.wikipedia.org/wiki/Santa_Catalina_Island,_California"
            ]
        },
        "placerita trail": {
            "closest_to": "santa clarita",
            "locType": "park",
            "address": "Placerita Canyon State Park, Placerita Canyon Trail, Sand Canyon, Los Angeles County, California, 91351, United States of America",
            "latitude": "34.3758312",
            "longitude": "-118.4459162",
            "blogLinks": [
                "https://www.yelp.com/list/best-places-to-hike-in-santa-clarita-newhall-3"
            ]
        },
        "los angeles international airport": {
            "closest_to": "santa clarita",
            "locType": "aerodrome",
            "address": "Los Angeles International Airport, Gate 41, Westchester, Playa del Rey, LA, Los Angeles County, California, 90245, United States of America",
            "latitude": "33.94211345",
            "longitude": "-118.407057290249",
            "blogLinks": [
                "https://en.wikipedia.org/wiki/Avalon,_California"
            ]
        },
        "pasadena": {
            "closest_to": "santa clarita",
            "locType": "city",
            "address": "Pasadena, Los Angeles County, California, United States of America",
            "latitude": "34.1476452",
            "longitude": "-118.1444778",
            "blogLinks": [
                "http://www.roadsideamerica.com/location/ca"
            ]
        },
        "san fernando valley": {
            "closest_to": "santa clarita",
            "locType": "administrative",
            "address": "San Fernando, Los Angeles County, California, United States of America",
            "latitude": "34.2819461",
            "longitude": "-118.4389718",
            "blogLinks": [
                "http://www.scvrealty.com/valencia-real-estate/"
            ]
        },
        "glendora": {
            "closest_to": "santa clarita",
            "locType": "city",
            "address": "Glendora, Los Angeles County, California, United States of America",
            "latitude": "34.1361187",
            "longitude": "-117.8653389",
            "blogLinks": [
                "http://www.roadsideamerica.com/location/ca"
            ]
        },
        "california channel islands": {
            "closest_to": "santa clarita",
            "locType": "school",
            "address": "California State University - Channel Islands, Camarillo Street, Ventura County, California, 93011, United States of America",
            "latitude": "34.1630374",
            "longitude": "-119.042645",
            "blogLinks": [
                "https://en.wikipedia.org/wiki/Avalon,_California"
            ]
        },
        "east los angeles": {
            "closest_to": "santa clarita",
            "locType": "suburb",
            "address": "East Los Angeles, Belvedere Gardens, Los Angeles County, California, United States of America",
            "latitude": "34.0239015",
            "longitude": "-118.1720156",
            "blogLinks": [
                "http://www.roadsideamerica.com/location/ca"
            ]
        },
        "long beach": {
            "closest_to": "santa clarita",
            "locType": "city",
            "address": "Long Beach, Los Angeles County, California, United States of America",
            "latitude": "33.78538945",
            "longitude": "-118.158049215311",
            "blogLinks": [
                "https://en.wikipedia.org/wiki/Avalon,_California",
                "https://en.wikipedia.org/wiki/Santa_Catalina_Island,_California"
            ]
        },
        "santa catalina island": {
            "closest_to": "santa clarita",
            "locType": "island",
            "address": "Santa Catalina Island, Los Angeles County, California, United States of America",
            "latitude": "33.3890232",
            "longitude": "-118.424154004558",
            "blogLinks": [
                "https://en.wikipedia.org/wiki/Avalon,_California",
                "https://en.wikipedia.org/wiki/Santa_Catalina_Island,_California"
            ]
        },
        "santa catalina": {
            "closest_to": "avalon",
            "locType": "residential",
            "address": "Santa Catalina, Rancho Santa Margarita, Orange County, California, 92688, United States of America",
            "latitude": "33.6386517",
            "longitude": "-117.6242744",
            "blogLinks": [
                "https://www.pinterest.com/catalinaexpress/foodie-places-of-catalina-island/",
                "https://en.wikipedia.org/wiki/Avalon,_California",
                "https://en.wikipedia.org/wiki/Santa_Catalina_Island,_California"
            ]
        },
        "channel islands": {
            "closest_to": "santa clarita",
            "locType": "garden",
            "address": "Channel Islands, Evolution Walk, Warner Center, LA, Los Angeles County, California, 91307, United States of America",
            "latitude": "34.1848815",
            "longitude": "-118.5759409",
            "blogLinks": [
                "https://en.wikipedia.org/wiki/Santa_Catalina_Island,_California"
            ]
        },
        "long beach airport": {
            "closest_to": "santa clarita",
            "locType": "aerodrome",
            "address": "Long Beach Airport (LGB), Globemaster Avenue, California Heights, Long Beach, Los Angeles County, California, 90712:90807, United States of America",
            "latitude": "33.81682825",
            "longitude": "-118.153407224598",
            "blogLinks": [
                "https://en.wikipedia.org/wiki/Avalon,_California"
            ]
        },
        "placerita canyon": {
            "closest_to": "santa clarita",
            "locType": "park",
            "address": "Placerita Canyon State Park, Placerita Canyon Trail, Sand Canyon, Los Angeles County, California, 91351, United States of America",
            "latitude": "34.3758312",
            "longitude": "-118.4459162",
            "blogLinks": [
                "https://www.yelp.com/list/best-places-to-hike-in-santa-clarita-newhall-3"
            ]
        },
        "avalon valley": {
            "closest_to": "santa clarita",
            "locType": "city",
            "address": "Avalon, Los Angeles County, California, United States of America",
            "latitude": "33.34221",
            "longitude": "-118.3272611",
            "blogLinks": [
                "https://en.wikipedia.org/wiki/Avalon,_California"
            ]
        },
        "rice canyon": {
            "closest_to": "avalon",
            "locType": "tertiary",
            "address": "Rice Canyon Road, Rainbow CDP, San Diego County, California, 92028, United States of America",
            "latitude": "33.4050222",
            "longitude": "-117.144195",
            "blogLinks": [
                "https://www.yelp.com/list/best-places-to-hike-in-santa-clarita-newhall-3"
            ]
        },
        "los angeles": {
            "closest_to": "santa clarita",
            "locType": "city",
            "address": "LA, Los Angeles County, California, United States of America",
            "latitude": "34.0543942",
            "longitude": "-118.2439408",
            "blogLinks": [
                "https://www.yelp.com/list/best-places-to-hike-in-santa-clarita-newhall-3",
                "http://visitsantaclarita.com/plan/free-things-to-do/",
                "https://en.wikipedia.org/wiki/Avalon,_California",
                "http://www.timeanddate.com/worldclock/distances.html?n=137",
                "http://www.scvrealty.com/valencia-real-estate/",
                "http://www.roadsideamerica.com/location/ca",
                "https://www.pinterest.com/catalinaexpress/foodie-places-of-catalina-island/",
                "https://en.wikipedia.org/wiki/Santa_Catalina_Island,_California"
            ]
        },
        "burbank": {
            "closest_to": "santa clarita",
            "locType": "city",
            "address": "Burbank, Los Angeles County, California, United States of America",
            "latitude": "34.1816482",
            "longitude": "-118.3258553",
            "blogLinks": [
                "http://www.roadsideamerica.com/location/ca"
            ]
        },
        "avalon dr canyon country": {
            "closest_to": "santa clarita",
            "locType": "residential",
            "address": "Avalon Drive, Mint Canyon, Canyon Country, Santa Clarita, Los Angeles County, California, 91351, United States of America",
            "latitude": "34.4224267",
            "longitude": "-118.4531667",
            "blogLinks": [
                "http://www.zillow.com/homedetails/27912-Avalon-Dr-Canyon-Country-CA-91351/2133993154_zpid/"
            ]
        },
        "castaic lake": {
            "closest_to": "santa clarita",
            "locType": "water",
            "address": "Castaic Lake, Castaic Reservoir Road, Los Angeles County, California, United States of America",
            "latitude": "34.5406179",
            "longitude": "-118.587025025849",
            "blogLinks": [
                "http://visitsantaclarita.com/plan/free-things-to-do/"
            ]
        },
        "arcadia": {
            "closest_to": "santa clarita",
            "locType": "city",
            "address": "Arcadia, Los Angeles County, California, United States of America",
            "latitude": "34.1362075",
            "longitude": "-118.0401496",
            "blogLinks": [
                "https://en.wikipedia.org/wiki/Avalon,_California"
            ]
        },
        "inglewood": {
            "closest_to": "santa clarita",
            "locType": "city",
            "address": "Inglewood, Los Angeles County, California, United States of America",
            "latitude": "33.9616801",
            "longitude": "-118.353131",
            "blogLinks": [
                "http://www.roadsideamerica.com/location/ca"
            ]
        },
        "north hollywood": {
            "closest_to": "santa clarita",
            "locType": "suburb",
            "address": "North Hollywood, LA, Los Angeles County, California, United States of America",
            "latitude": "34.1729044",
            "longitude": "-118.374037",
            "blogLinks": [
                "http://www.roadsideamerica.com/location/ca"
            ]
        },
        "palmdale": {
            "closest_to": "santa clarita",
            "locType": "city",
            "address": "Palmdale, Los Angeles County, California, United States of America",
            "latitude": "34.5793131",
            "longitude": "-118.1171107",
            "blogLinks": [
                "http://www.roadsideamerica.com/location/ca"
            ]
        },
        "venice": {
            "closest_to": "santa clarita",
            "locType": "suburb",
            "address": "Venice, LA, Los Angeles County, California, United States of America",
            "latitude": "33.995044",
            "longitude": "-118.4668874",
            "blogLinks": [
                "http://www.roadsideamerica.com/location/ca"
            ]
        },
        "southern california": {
            "closest_to": "santa clarita",
            "locType": "university",
            "address": "University of Southern California, Watt Way, Saint James Park, LA, Los Angeles County, California, 90089, United States of America",
            "latitude": "34.0224149",
            "longitude": "-118.286343973446",
            "blogLinks": [
                "http://visitsantaclarita.com/plan/free-things-to-do/",
                "http://visitsantaclarita.com/",
                "https://en.wikipedia.org/wiki/Avalon,_California",
                "https://www.pinterest.com/catalinaexpress/foodie-places-of-catalina-island/",
                "http://www.visitcatalinaisland.com/hotels-packages/avalon/hotel-atwater",
                "https://en.wikipedia.org/wiki/Santa_Catalina_Island,_California"
            ]
        },
        "calgrove blvd": {
            "closest_to": "santa clarita",
            "locType": "secondary",
            "address": "Calgrove Boulevard, Newhall, Santa Clarita, Los Angeles County, California, 91321, United States of America",
            "latitude": "34.3591518",
            "longitude": "-118.5553757",
            "blogLinks": [
                "https://www.yelp.com/list/best-places-to-hike-in-santa-clarita-newhall-3"
            ]
        },
        "avalon harbor": {
            "closest_to": "santa clarita",
            "locType": "memorial",
            "address": "Drum Barracks, Cary Avenue, Wilmington, LA, Los Angeles County, California, 90744, United States of America",
            "latitude": "33.7845434",
            "longitude": "-118.2573756",
            "blogLinks": [
                "https://en.wikipedia.org/wiki/Avalon,_California"
            ]
        },
        "whittier": {
            "closest_to": "santa clarita",
            "locType": "city",
            "address": "Whittier, Los Angeles County, California, United States of America",
            "latitude": "33.9748932",
            "longitude": "-118.0336974",
            "blogLinks": [
                "http://www.roadsideamerica.com/location/ca"
            ]
        },
        "wilmington": {
            "closest_to": "santa clarita",
            "locType": "suburb",
            "address": "Wilmington, LA, Los Angeles County, California, United States of America",
            "latitude": "33.780018",
            "longitude": "-118.262571",
            "blogLinks": [
                "https://en.wikipedia.org/wiki/Santa_Catalina_Island,_California"
            ]
        },
        "santa clara river": {
            "closest_to": "santa clarita",
            "locType": "water",
            "address": "Santa Clara River, Chuck Pontius Commuter Rail Trail, Valencia, Santa Clarita, Los Angeles County, California, 91355, United States of America",
            "latitude": "34.4235943",
            "longitude": "-118.550387466286",
            "blogLinks": [
                "http://www.scvrealty.com/valencia-real-estate/"
            ]
        },
        "pebbly beach heliport": {
            "closest_to": "avalon",
            "locType": "helipad",
            "address": "Pebbly Beach Heliport, Pebbly Beach Road, Avalon, Los Angeles County, California, 90704, United States of America",
            "latitude": "33.3365438",
            "longitude": "-118.3118988",
            "blogLinks": [
                "https://en.wikipedia.org/wiki/Avalon,_California"
            ]
        },
        "descanso beach": {
            "closest_to": "santa clarita",
            "locType": "beach",
            "address": "Descanso Beach, Saint Catherine Way, Avalon, Los Angeles County, California, 90704, United States of America",
            "latitude": "33.35087",
            "longitude": "-118.328521193855",
            "blogLinks": [
                "https://en.wikipedia.org/wiki/Avalon,_California",
                "https://en.wikipedia.org/wiki/Santa_Catalina_Island,_California"
            ]
        },
        "golden valley ranch": {
            "closest_to": "santa clarita",
            "locType": "residential",
            "address": "Disney Golden Oak Ranch, Canyon Country, Los Angeles County, California, 91321, United States of America",
            "latitude": "34.378418",
            "longitude": "-118.4795884",
            "blogLinks": [
                "https://www.yelp.com/list/best-places-to-hike-in-santa-clarita-newhall-3"
            ]
        },
        "newport beach": {
            "closest_to": "santa clarita",
            "locType": "city",
            "address": "Newport Beach, Orange County, California, United States of America",
            "latitude": "33.6170092",
            "longitude": "-117.92944",
            "blogLinks": [
                "https://en.wikipedia.org/wiki/Avalon,_California",
                "https://en.wikipedia.org/wiki/Santa_Catalina_Island,_California",
                "http://www.roadsideamerica.com/location/ca"
            ]
        },
        "placerita motorway": {
            "closest_to": "santa clarita",
            "locType": "unclassified",
            "address": "Placerita Motorway, Canyon Country, Los Angeles County, California, 91351, United States of America",
            "latitude": "34.3877976",
            "longitude": "-118.4632589",
            "blogLinks": [
                "https://www.yelp.com/list/best-places-to-hike-in-santa-clarita-newhall-3"
            ]
        },
        "catalina island": {
            "closest_to": "santa clarita",
            "locType": "island",
            "address": "Santa Catalina Island, Los Angeles County, California, United States of America",
            "latitude": "33.3890232",
            "longitude": "-118.424154004558",
            "blogLinks": [
                "https://www.pinterest.com/catalinaexpress/foodie-places-of-catalina-island/",
                "http://www.visitcatalinaisland.com/hotels-packages/avalon/hotel-atwater",
                "https://en.wikipedia.org/wiki/Avalon,_California",
                "https://www.yelp.com/list/best-places-to-hike-in-santa-clarita-newhall-3",
                "https://en.wikipedia.org/wiki/Santa_Catalina_Island,_California"
            ]
        },
        "elsmere canyon": {
            "closest_to": "santa clarita",
            "locType": "residential",
            "address": "Elsmere Canyon Road, Newhall, Santa Clarita, Los Angeles County, California, 91321, United States of America",
            "latitude": "34.3632486",
            "longitude": "-118.5015127",
            "blogLinks": [
                "https://www.yelp.com/list/best-places-to-hike-in-santa-clarita-newhall-3"
            ]
        },
        "golden valley road": {
            "closest_to": "santa clarita",
            "locType": "trunk",
            "address": "Golden Valley Road, Canyon Country, Santa Clarita, Los Angeles County, California, 91351, United States of America",
            "latitude": "34.3933054",
            "longitude": "-118.4740207",
            "blogLinks": [
                "https://www.yelp.com/list/best-places-to-hike-in-santa-clarita-newhall-3"
            ]
        },
        "buena park": {
            "closest_to": "santa clarita",
            "locType": "city",
            "address": "Buena Park, Orange County, California, United States of America",
            "latitude": "33.870413",
            "longitude": "-117.9962164",
            "blogLinks": [
                "http://www.roadsideamerica.com/location/ca"
            ]
        }
    },
    "santa clarita": {
        "class": "place",
        "licence": "Data \u00a9 OpenStreetMap contributors, ODbL 1.0. http://www.openstreetmap.org/copyright",
        "lon": "-118.5425859",
        "lat": "34.3916641",
        "boundingbox": [
            "34.340498",
            "34.477213",
            "-118.6131919",
            "-118.3760709"
        ],
        "importance": 0.75253815368059,
        "osm_type": "relation",
        "icon": "https://nominatim.openstreetmap.org/images/mapicons/poi_place_city.p.20.png",
        "osm_id": "2313083",
        "display_name": "Santa Clarita, Los Angeles County, California, United States of America",
        "type": "city",
        "place_id": "159444356"
    },
    "avalon": {
        "type": "city",
        "class": "place",
        "lat": "33.34221",
        "lon": "-118.3272611",
        "licence": "Data \u00a9 OpenStreetMap contributors, ODbL 1.0. http://www.openstreetmap.org/copyright",
        "osm_type": "relation",
        "importance": 0.59676353508209,
        "boundingbox": [
            "33.317583",
            "33.356566",
            "-118.3466549",
            "-118.3073689"
        ],
        "icon": "https://nominatim.openstreetmap.org/images/mapicons/poi_place_city.p.20.png",
        "osm_id": "6169443",
        "display_name": "Avalon, Los Angeles County, California, United States of America",
        "place_id": "159849240"
    }
}