{
    "mentions": {
        "harangi dam": {
            "blogLinks": [
                "http://blog.indianluxurytrains.com/2014/09/best-places-to-visit-in-karnataka.html"
            ],
            "locType": "dam",
            "longitude": "75.9056999171375",
            "latitude": "12.4928663",
            "address": "Harangi dam, Somawarpet taluk, Kodagu, Karnataka, India",
            "closest_to": "hassan"
        },
        "kolkata": {
            "blogLinks": [
                "http://www.mapsofindia.com/maps/karnataka/travel-to-badami.html"
            ],
            "locType": "restaurant",
            "longitude": "77.5478044",
            "latitude": "12.9845159",
            "address": "Kolkata Biryani And Rolls, 1st Main Basaveshwaranagar, Rajajinagar 3rd Block, Dasarahalli, Bengaluru, Bangalore Urban, Karnataka, 560010, India",
            "closest_to": "hassan"
        },
        "venkatappa art gallery": {
            "blogLinks": [
                "http://blog.indianluxurytrains.com/2014/09/best-places-to-visit-in-karnataka.html"
            ],
            "locType": "museum",
            "longitude": "77.5952077",
            "latitude": "12.9742592",
            "address": "Venkatappa Art Gallery, Kasturba Road, Shantala Nagar, MacIvor Town, Bengaluru, Bangalore Urban, Karnataka, 560001, India",
            "closest_to": "hassan"
        },
        "badami taluk": {
            "blogLinks": [
                "https://en.wikipedia.org/wiki/Badami"
            ],
            "locType": "primary",
            "longitude": "75.6395312",
            "latitude": "15.4389959",
            "address": "Pala Badami Road, Betageri, Gadag, Gadag taluk, Gadag district, Karnataka, 582102, India",
            "closest_to": "hassan"
        },
        "pattadakal-badami road": {
            "blogLinks": [
                "https://en.wikipedia.org/wiki/Pattadakal"
            ],
            "locType": "attraction",
            "longitude": "75.815884048161",
            "latitude": "15.9506349",
            "address": "Pattadakal Temples, SH14, \u0cac\u0cbe\u0c9a\u0cbf\u0ca8\u0c97\u0cc1\u0ca1\u0ccd\u0ca1, Badami taluku, Bagalkote district, Karnataka, 587211, India",
            "closest_to": "badami"
        },
        "kadamba": {
            "blogLinks": [
                "https://en.wikipedia.org/wiki/Badami"
            ],
            "locType": "residential",
            "longitude": "77.7436954",
            "latitude": "12.9703178",
            "address": "Kadamba Avenue, R. Narayanapura, Brookefields, Dodsworth Enclave, Bangalore Urban, Karnataka, 560066, India",
            "closest_to": "hassan"
        },
        "shivalaya": {
            "blogLinks": [
                "https://en.wikipedia.org/wiki/Badami"
            ],
            "locType": "place_of_worship",
            "longitude": "77.645704",
            "latitude": "12.9692508",
            "address": "Sri Kanyaka Parameshwari & Shivalaya, 8th Cross Road, Old Thippasandra, Indiranagar, Bengaluru, Bangalore Urban, Karnataka, 560001, India",
            "closest_to": "hassan"
        },
        "agastya lake": {
            "blogLinks": [
                "http://www.mapsofindia.com/maps/karnataka/travel-to-badami.html"
            ],
            "locType": "residential",
            "longitude": "77.7512485332492",
            "latitude": "12.9796965",
            "address": "Agastya Guru Palatia Apartments, Kadugodi, Prashanth Extension, Bangalore Urban, Karnataka, 56066, India",
            "closest_to": "hassan"
        },
        "chalukya": {
            "blogLinks": [
                "https://en.wikipedia.org/wiki/Pattadakal"
            ],
            "locType": "residential",
            "longitude": "77.5192989605445",
            "latitude": "12.9617207",
            "address": "Chalukya Nagar, Chandra Layout, GKW Layout, Bangalore Urban, Karnataka, 560072, India",
            "closest_to": "hassan"
        },
        "kaveri": {
            "blogLinks": [
                "https://www.tripoto.com/trip/karnataka-one-state-many-worlds-2-565ed43147a04"
            ],
            "locType": "river",
            "longitude": "77.0635531",
            "latitude": "12.1687878",
            "address": "Kaveri, Kollegala taluk, Chamarajanagar district, Karnataka, India",
            "closest_to": "hassan"
        },
        "lal bagh": {
            "blogLinks": [
                "http://blog.indianluxurytrains.com/2014/09/best-places-to-visit-in-karnataka.html"
            ],
            "locType": "bus_stop",
            "longitude": "74.8386152",
            "latitude": "12.8859223",
            "address": "Lal Bagh Bus Stop, Mahatma Gandhi Road, Lalbagh, Ladyhill, Mangaluru, Mangaluru taluk, Dakshina Kannada, Karnataka, 575001, India",
            "closest_to": "hassan"
        },
        "delhi": {
            "blogLinks": [
                "http://blog.indianluxurytrains.com/2014/09/best-places-to-visit-in-karnataka.html"
            ],
            "locType": "trunk",
            "longitude": "77.6666062",
            "latitude": "12.9212473",
            "address": "Outer Ring Road, Green Glen Layout, Iblur, Bengaluru, Bangalore Urban, Karnataka, 560001, India",
            "closest_to": "hassan"
        },
        "rameshwara": {
            "blogLinks": [
                "http://www.nivalink.com/destination/hassan"
            ],
            "locType": "place_of_worship",
            "longitude": "77.5678621969321",
            "latitude": "12.99365815",
            "address": "Rameshwara Temple, Kranthikavi Sarvagnya Road, Rajajinagar 4th Block, Sriramapura, Bengaluru, Bangalore Urban, Karnataka, 560001, India",
            "closest_to": "hassan"
        },
        "chelavara falls": {
            "blogLinks": [
                "http://blog.indianluxurytrains.com/2014/09/best-places-to-visit-in-karnataka.html"
            ],
            "locType": "waterfall",
            "longitude": "75.6734811730693",
            "latitude": "12.20601005",
            "address": "Chelavara Falls, Madikeri taluku, Kodagu, Karnataka, India",
            "closest_to": "hassan"
        },
        "kundapura": {
            "blogLinks": [
                "http://www.nivalink.com/destination/hassan"
            ],
            "locType": "town",
            "longitude": "74.6915722",
            "latitude": "13.6250993",
            "address": "Kundapura, \u0c95\u0cc1\u0c82\u0ca6\u0cbe\u0caa\u0cc1\u0cb0 \u0ca4\u0cbe\u0cb2\u0cc2\u0c95\u0cc1, Udupi district, Karnataka, 576200, India",
            "closest_to": "hassan"
        },
        "vittala": {
            "blogLinks": [
                "http://blog.indianluxurytrains.com/2014/09/best-places-to-visit-in-karnataka.html"
            ],
            "locType": "yes",
            "longitude": "76.6237847175927",
            "latitude": "12.30129655",
            "address": "Vijaya Vittala PU College, Sahukar Chennaiah Road, Sarasvatipuram, Mysuru, Mysuru taluk, Mysuru district, Karnataka, 570001, India",
            "closest_to": "hassan"
        },
        "kannur": {
            "blogLinks": [
                "http://www.nivalink.com/destination/hassan"
            ],
            "locType": "construction",
            "longitude": "74.8858161",
            "latitude": "12.8487602",
            "address": "Netravati bridge - Kannur Bypass Road (Proposed), Padil, Bajal, Mangaluru taluk, Dakshina Kannada, Karnataka, 575007, India",
            "closest_to": "hassan"
        },
        "virupaksha temple": {
            "blogLinks": [
                "https://en.wikipedia.org/wiki/Pattadakal"
            ],
            "locType": "place_of_worship",
            "longitude": "76.4587777156223",
            "latitude": "15.3351754",
            "address": "Virupaksha Temple, Hampi Bazaar, Hampe, Hosapete taluk, Bellary district, Karnataka, 583239, India",
            "closest_to": "hassan"
        },
        "south": {
            "blogLinks": [
                "http://www.nivalink.com/destination/hassan"
            ],
            "locType": "residential",
            "longitude": "77.8040874",
            "latitude": "13.2942848",
            "address": "s, Vijayapura, Devanahalli taluk, Bangalore Rural, Karnataka, 562135, India",
            "closest_to": "hassan"
        },
        "vijaynagara": {
            "blogLinks": [
                "http://blog.indianluxurytrains.com/2014/09/best-places-to-visit-in-karnataka.html"
            ],
            "locType": "bus_stop",
            "longitude": "77.5383681",
            "latitude": "12.9726377",
            "address": "Vijaynagara, Chord Road, Marenahalli, Vijaya Nagar, Binny Layout, Bangalore Urban, Karnataka, 560040, India",
            "closest_to": "hassan"
        },
        "belur": {
            "blogLinks": [
                "http://www.nivalink.com/destination/hassan"
            ],
            "locType": "town",
            "longitude": "75.8634851",
            "latitude": "13.1645671",
            "address": "Belur, Beluru taluk, Hassan district, Karnataka, 573115, India",
            "closest_to": "hassan"
        },
        "bombay": {
            "blogLinks": [
                "https://en.wikipedia.org/wiki/Badami"
            ],
            "locType": "cafe",
            "longitude": "77.5500256",
            "latitude": "12.9632318",
            "address": "Bombay tea hotel, Hosahalli Main Road, Rajajinagar 6th Block, Goripalya, Bengaluru, Bangalore Urban, Karnataka, 560001, India",
            "closest_to": "hassan"
        },
        "bahmani": {
            "blogLinks": [
                "http://blog.indianluxurytrains.com/2014/09/best-places-to-visit-in-karnataka.html"
            ],
            "locType": "castle",
            "longitude": "76.8315008",
            "latitude": "17.3415485",
            "address": "Bahmani Fort, Alanda Road, Fort, Rauza, Kalaburagi, Gulbarga taluku, Kalaburagi district, Karnataka, 585101, India",
            "closest_to": "badami"
        },
        "station road": {
            "blogLinks": [
                "http://www.mapsofindia.com/maps/karnataka/travel-to-badami.html"
            ],
            "locType": "trunk",
            "longitude": "76.9220288",
            "latitude": "15.1442884",
            "address": "Station Road, Ballari, Bellary taluk, Bellary district, Karnataka, 583101, India",
            "closest_to": "hassan"
        },
        "mallikarjuna": {
            "blogLinks": [
                "https://en.wikipedia.org/wiki/Pattadakal"
            ],
            "locType": "village",
            "longitude": "77.0590502",
            "latitude": "17.8106693",
            "address": "Mallikarjuna Vadi, Basavakalyana taluku, Bidar district, Karnataka, India",
            "closest_to": "badami"
        },
        "river cauvery": {
            "blogLinks": [
                "http://www.nivalink.com/destination/hassan"
            ],
            "locType": "cinema",
            "longitude": "77.5832796015599",
            "latitude": "13.00262215",
            "address": "Cauvery, 1st Main Road, Lower Palace Orchard, Guttahalli, Bengaluru, Bangalore Urban, Karnataka, 560001, India",
            "closest_to": "hassan"
        },
        "gomateshwara": {
            "blogLinks": [
                "http://www.nivalink.com/destination/hassan"
            ],
            "locType": "place_of_worship",
            "longitude": "76.4846128",
            "latitude": "12.8540505",
            "address": "Bahubali Statue, SH8, Shravanabelagola, Channarayapattana taluk, Hassan district, Karnataka, 573135, India",
            "closest_to": "hassan"
        },
        "maharashtra": {
            "blogLinks": [
                "https://en.wikipedia.org/wiki/Badami"
            ],
            "locType": "bank",
            "longitude": "77.5856013",
            "latitude": "12.9049455",
            "address": "Bank of Maharashtra, 24th Main, K R Layout, Puttenahalli, Bengaluru, Bangalore Urban, Karnataka, 560001, India",
            "closest_to": "hassan"
        },
        "hoysaleswara": {
            "blogLinks": [
                "http://blog.indianluxurytrains.com/2014/09/best-places-to-visit-in-karnataka.html"
            ],
            "locType": "place_of_worship",
            "longitude": "75.9941649",
            "latitude": "13.2127193",
            "address": "Hoysaleswara Temple, SH21, Halebidu, Beluru taluk, Hassan district, Karnataka, 573121, India",
            "closest_to": "hassan"
        },
        "river hemavathi": {
            "blogLinks": [
                "http://www.nivalink.com/destination/hassan"
            ],
            "locType": "dam",
            "longitude": "76.0556931",
            "latitude": "12.8267596",
            "address": "Hemavathi Reservoir, Hasana taluk, Hassan district, Karnataka, India",
            "closest_to": "hassan"
        },
        "varaha": {
            "blogLinks": [
                "https://en.wikipedia.org/wiki/Badami"
            ],
            "locType": "village",
            "longitude": "75.3718812",
            "latitude": "14.390777",
            "address": "Varaha, Hirekeruru taluk, Haveri district, Karnataka, India",
            "closest_to": "hassan"
        },
        "hubli": {
            "blogLinks": [
                "https://en.wikipedia.org/wiki/Badami",
                "https://en.wikipedia.org/wiki/Pattadakal",
                "http://www.nivalink.com/destination/badami",
                "http://www.mapsofindia.com/maps/karnataka/travel-to-badami.html"
            ],
            "locType": "city",
            "longitude": "75.1379848",
            "latitude": "15.3518378",
            "address": "Hubballi - \u0cb9\u0cc1\u0cac\u0ccd\u0cac\u0cb3\u0ccd\u0cb3\u0cbf, Hubballi taluku, Dharwad district, Karnataka, 580020, India",
            "closest_to": "hassan"
        },
        "bandipur national park": {
            "blogLinks": [
                "http://blog.indianluxurytrains.com/2014/09/best-places-to-visit-in-karnataka.html"
            ],
            "locType": "national_park",
            "longitude": "76.4314968740264",
            "latitude": "11.76682425",
            "address": "Bandipur National Park, Kozhikode - Kollegal Highway, Gundlupet taluk, Chamarajanagar district, Karnataka, India",
            "closest_to": "hassan"
        },
        "belgaum airport": {
            "blogLinks": [
                "https://en.wikipedia.org/wiki/Pattadakal"
            ],
            "locType": "aerodrome",
            "longitude": "74.6189763983851",
            "latitude": "15.8602827",
            "address": "Belgaum Airport, SH20, Balekundri, Belagavi taluku, Belgaum district, Karnataka, 591124, India",
            "closest_to": "badami"
        },
        "india": {
            "blogLinks": [
                "http://blog.indianluxurytrains.com/2014/09/best-places-to-visit-in-karnataka.html",
                "http://www.distancesfrom.com/distance-from-Hassan-to-Chikmagalur-via-Badami/DistanceHistory/4509927.aspx",
                "http://journeymart.com/de/india/karnataka/sightseeing/default.aspx",
                "http://www.distancesfrom.com/distance-from-Hassan-to-Badami/DistanceHistory/28328949.aspx",
                "http://www.nivalink.com/destination/badami",
                "https://en.wikipedia.org/wiki/Badami",
                "https://www.tripadvisor.com/ShowTopic-g297627-i2498-k6657230-Visiting_Hampi_Badami_Aihole_Pattadakal_Bijapur-Karnataka.html",
                "http://www.nivalink.com/destination/hassan",
                "https://www.distancecalculator.net/from-badami-to-hassan",
                "http://www.mapsofindia.com/maps/karnataka/travel-to-badami.html",
                "https://en.wikipedia.org/wiki/Pattadakal"
            ],
            "locType": "administrative",
            "longitude": "75.7223521",
            "latitude": "14.5203896",
            "address": "Karnataka, India",
            "closest_to": "hassan"
        },
        "railway museum": {
            "blogLinks": [
                "http://blog.indianluxurytrains.com/2014/09/best-places-to-visit-in-karnataka.html"
            ],
            "locType": "railway",
            "longitude": "77.6182271274845",
            "latitude": "13.001147",
            "address": "Bangalore East Railway Station, Cox Town, Bengaluru, Bangalore Urban, Karnataka, 560001, India",
            "closest_to": "hassan"
        },
        "mumbai": {
            "blogLinks": [
                "https://en.wikipedia.org/wiki/Pattadakal",
                "http://www.mapsofindia.com/maps/karnataka/travel-to-badami.html"
            ],
            "locType": "restaurant",
            "longitude": "77.5718472",
            "latitude": "13.0002869",
            "address": "Mumbai Spice, 18/2, 10th Cross, Malleswaram, Vyalikaval, Malleswaram, Bengaluru, Bangalore Urban, Karnataka, 560003, India",
            "closest_to": "hassan"
        },
        "tamil nadu": {
            "blogLinks": [
                "https://en.wikipedia.org/wiki/Badami"
            ],
            "locType": "bank",
            "longitude": "76.9514152",
            "latitude": "11.0025894",
            "address": "KARNATAKA BANK, Diwan Bhadur Road, Five Corner, RS Puram, Coimbatore, Coimbatore district, Tamil Nadu, 641001, India",
            "closest_to": "hassan"
        },
        "bandipur": {
            "blogLinks": [
                "http://journeymart.com/de/india/karnataka/sightseeing/default.aspx"
            ],
            "locType": "village",
            "longitude": "76.6285739",
            "latitude": "11.6662708",
            "address": "Bandipur, Gundlupet taluk, Chamarajanagar district, Karnataka, India",
            "closest_to": "hassan"
        },
        "nagara": {
            "blogLinks": [
                "https://en.wikipedia.org/wiki/Pattadakal"
            ],
            "locType": "village",
            "longitude": "75.0328554",
            "latitude": "13.8236828",
            "address": "Nagara, Hosanagara taluk, Shimoga district, Karnataka, India",
            "closest_to": "hassan"
        },
        "aihole": {
            "blogLinks": [
                "https://en.wikipedia.org/wiki/Badami",
                "https://www.tripadvisor.com/ShowTopic-g297627-i2498-k6657230-Visiting_Hampi_Badami_Aihole_Pattadakal_Bijapur-Karnataka.html",
                "https://en.wikipedia.org/wiki/Pattadakal"
            ],
            "locType": "village",
            "longitude": "75.8819129",
            "latitude": "16.0192298",
            "address": "Aihole, Hunagunda taluku, Bagalkote district, Karnataka, India",
            "closest_to": "badami"
        },
        "mangalore": {
            "blogLinks": [
                "http://www.nivalink.com/destination/hassan",
                "http://journeymart.com/de/india/karnataka/sightseeing/default.aspx",
                "http://www.mapsofindia.com/maps/karnataka/travel-to-badami.html"
            ],
            "locType": "city",
            "longitude": "74.8430082",
            "latitude": "12.8698101",
            "address": "Mangaluru, Mangaluru taluk, Dakshina Kannada, Karnataka, 575001, India",
            "closest_to": "hassan"
        },
        "bahubali": {
            "blogLinks": [
                "https://en.wikipedia.org/wiki/Badami"
            ],
            "locType": "place_of_worship",
            "longitude": "76.4846128",
            "latitude": "12.8540505",
            "address": "Bahubali Statue, SH8, Shravanabelagola, Channarayapattana taluk, Hassan district, Karnataka, 573135, India",
            "closest_to": "hassan"
        },
        "udupi": {
            "blogLinks": [
                "http://journeymart.com/de/india/karnataka/sightseeing/default.aspx"
            ],
            "locType": "city",
            "longitude": "74.7473232",
            "latitude": "13.3419169",
            "address": "Udupi, Udupi taluku, Udupi district, Karnataka, 576101, India",
            "closest_to": "hassan"
        },
        "papanatha temple": {
            "blogLinks": [
                "https://en.wikipedia.org/wiki/Pattadakal"
            ],
            "locType": "yes",
            "longitude": "75.8164391839286",
            "latitude": "15.94762935",
            "address": "Papanatha Temple, SH14, \u0cac\u0cbe\u0c9a\u0cbf\u0ca8\u0c97\u0cc1\u0ca1\u0ccd\u0ca1, Badami taluku, Bagalkote district, Karnataka, 587211, India",
            "closest_to": "badami"
        },
        "bagalkot": {
            "blogLinks": [
                "http://blog.indianluxurytrains.com/2014/09/best-places-to-visit-in-karnataka.html",
                "https://en.wikipedia.org/wiki/Badami",
                "https://www.tripoto.com/trip/karnataka-one-state-many-worlds-2-565ed43147a04",
                "https://en.wikipedia.org/wiki/Pattadakal",
                "http://www.mapsofindia.com/maps/karnataka/travel-to-badami.html"
            ],
            "locType": "city",
            "longitude": "75.6967919",
            "latitude": "16.1853166",
            "address": "Bagalakote, Bagalakote taluk, Bagalkote district, Karnataka, India",
            "closest_to": "badami"
        },
        "nageshwara": {
            "blogLinks": [
                "http://www.nivalink.com/destination/hassan"
            ],
            "locType": "yes",
            "longitude": "77.095092",
            "latitude": "13.3632898",
            "address": "Nageshwara, #4, Honnenahalli Road, Satyamangala, Tumkur taluk, Tumkur district, Karnataka, 572101, India",
            "closest_to": "hassan"
        },
        "bagalkot district": {
            "blogLinks": [
                "https://en.wikipedia.org/wiki/Badami"
            ],
            "locType": "city",
            "longitude": "75.6967919",
            "latitude": "16.1853166",
            "address": "Bagalakote, Bagalakote taluk, Bagalkote district, Karnataka, India",
            "closest_to": "badami"
        },
        "kodagu": {
            "blogLinks": [
                "http://blog.indianluxurytrains.com/2014/09/best-places-to-visit-in-karnataka.html"
            ],
            "locType": "administrative",
            "longitude": "75.6677235950852",
            "latitude": "12.38117345",
            "address": "Kodagu, Karnataka, India",
            "closest_to": "hassan"
        },
        "channarayapatna of hassan": {
            "blogLinks": [
                "http://blog.indianluxurytrains.com/2014/09/best-places-to-visit-in-karnataka.html"
            ],
            "locType": "primary",
            "longitude": "76.4628912",
            "latitude": "13.0775815",
            "address": "Tiptur - Channarayapatna Road, Rampura, Channarayapattana taluk, Hassan district, Karnataka, India",
            "closest_to": "hassan"
        },
        "mahatma gandhi park": {
            "blogLinks": [
                "http://blog.indianluxurytrains.com/2014/09/best-places-to-visit-in-karnataka.html"
            ],
            "locType": "park",
            "longitude": "77.5997033330292",
            "latitude": "12.9772144",
            "address": "Mahatma Gandhi Park, Mahatma Gandhi Road, Shantala Nagar, MacIvor Town, Bengaluru, Bangalore Urban, Karnataka, 560001, India",
            "closest_to": "hassan"
        },
        "new delhi": {
            "blogLinks": [
                "http://www.mapsofindia.com/maps/karnataka/travel-to-badami.html"
            ],
            "locType": "college",
            "longitude": "76.6142178649055",
            "latitude": "12.30911465",
            "address": "Regional Institute of Education, Chaduranga Road, Jayalakshmipuram, Mysuru, Mysuru taluk, Mysuru district, Karnataka, 570001, India",
            "closest_to": "hassan"
        },
        "mysore": {
            "blogLinks": [
                "http://blog.indianluxurytrains.com/2014/09/best-places-to-visit-in-karnataka.html"
            ],
            "locType": "city",
            "longitude": "76.6553609",
            "latitude": "12.3051828",
            "address": "Mysuru, Mysuru taluk, Mysuru district, Karnataka, 570001, India",
            "closest_to": "hassan"
        },
        "nataraja": {
            "blogLinks": [
                "https://en.wikipedia.org/wiki/Badami",
                "https://en.wikipedia.org/wiki/Pattadakal"
            ],
            "locType": "cinema",
            "longitude": "77.5730381173154",
            "latitude": "12.9900332",
            "address": "Nataraja, Sirur Park Road, Vyalikaval, Seshadripuram, Bengaluru, Bangalore Urban, Karnataka, 560001, India",
            "closest_to": "hassan"
        },
        "sringeri": {
            "blogLinks": [
                "https://www.tripoto.com/trip/karnataka-one-state-many-worlds-2-565ed43147a04"
            ],
            "locType": "town",
            "longitude": "75.2553718",
            "latitude": "13.4261724",
            "address": "Sringeri, Sringeri taluku, Chikkamagaluru district, Karnataka, 577592, India",
            "closest_to": "hassan"
        },
        "north kerala": {
            "blogLinks": [
                "http://www.nivalink.com/destination/hassan"
            ],
            "locType": "restaurant",
            "longitude": "77.6382683",
            "latitude": "12.9726449",
            "address": "New Life Kerala Mess, Sai Baba Mandira Road, Mottappanapalaya, Indiranagar, Bengaluru, Bangalore Urban, Karnataka, 560001, India",
            "closest_to": "hassan"
        },
        "nandi": {
            "blogLinks": [
                "https://en.wikipedia.org/wiki/Pattadakal"
            ],
            "locType": "village",
            "longitude": "75.8556266",
            "latitude": "13.6434094",
            "address": "Nandi, Tarikere taluku, Chikkamagaluru district, Karnataka, India",
            "closest_to": "hassan"
        },
        "belgaum": {
            "blogLinks": [
                "http://www.mapsofindia.com/maps/karnataka/travel-to-badami.html"
            ],
            "locType": "county",
            "longitude": "74.75",
            "latitude": "16.333333",
            "address": "Belgaum, Belgaum district, Karnataka, India",
            "closest_to": "badami"
        },
        "cubbon park": {
            "blogLinks": [
                "http://blog.indianluxurytrains.com/2014/09/best-places-to-visit-in-karnataka.html"
            ],
            "locType": "station",
            "longitude": "77.5977565",
            "latitude": "12.9808487",
            "address": "Cubbon Park, Cubbon Road, Tasker Town, Shivajinagar, Bengaluru, Bangalore Urban, Karnataka, 560001, India",
            "closest_to": "hassan"
        },
        "hasanamba temple": {
            "blogLinks": [
                "http://www.nivalink.com/destination/hassan"
            ],
            "locType": "place_of_worship",
            "longitude": "76.0946142",
            "latitude": "13.0027589",
            "address": "Sri Hasanamba Temple, Hosaline Road, Ravindra Nagar, Santhe Pete, Hassan, Hasana taluk, Hassan district, Karnataka, 573201, India",
            "closest_to": "hassan"
        },
        "hassan": {
            "blogLinks": [
                "http://blog.indianluxurytrains.com/2014/09/best-places-to-visit-in-karnataka.html"
            ],
            "locType": "town",
            "longitude": "76.0992703",
            "latitude": "13.0070817",
            "address": "Hassan, Hasana taluk, Hassan district, Karnataka, 573201, India",
            "closest_to": "hassan"
        },
        "yellamma": {
            "blogLinks": [
                "https://en.wikipedia.org/wiki/Badami"
            ],
            "locType": "industrial",
            "longitude": "75.959986215",
            "latitude": "14.39927745",
            "address": "NTC - Yellamma Mills Area, Tolahunase, Davanagere taluku, Davanagere district, Karnataka, 577003, India",
            "closest_to": "hassan"
        },
        "west": {
            "blogLinks": [
                "https://en.wikipedia.org/wiki/Badami"
            ],
            "locType": "clothes",
            "longitude": "77.5960999",
            "latitude": "12.8759384",
            "address": "w, Balmuri Main Road, Hulimavu,, Bannerghatta Road, Mico Arekere Layout 1st Stage, Hulimavu, Bengaluru, Bangalore Urban, Karnataka, 560076, India",
            "closest_to": "hassan"
        },
        "chennakesava": {
            "blogLinks": [
                "http://blog.indianluxurytrains.com/2014/09/best-places-to-visit-in-karnataka.html"
            ],
            "locType": "place_of_worship",
            "longitude": "75.8603311",
            "latitude": "13.1629239",
            "address": "Chennakesava Temple, NH73, Navilahalli, Beluru taluk, Hassan district, Karnataka, India",
            "closest_to": "hassan"
        },
        "doddamakali": {
            "blogLinks": [
                "http://www.nivalink.com/destination/hassan"
            ],
            "locType": "locality",
            "longitude": "77.2173416",
            "latitude": "12.3096676",
            "address": "Doddamakali, Dalanakatte, Malavalli taluk, Mandya district, Karnataka, India",
            "closest_to": "hassan"
        },
        "halebid": {
            "blogLinks": [
                "http://blog.indianluxurytrains.com/2014/09/best-places-to-visit-in-karnataka.html"
            ],
            "locType": "village",
            "longitude": "75.9918793",
            "latitude": "13.2167959",
            "address": "Halebidu, Beluru taluk, Hassan district, Karnataka, 573121, India",
            "closest_to": "hassan"
        },
        "pattadakal": {
            "blogLinks": [
                "http://blog.indianluxurytrains.com/2014/09/best-places-to-visit-in-karnataka.html",
                "http://journeymart.com/de/india/karnataka/sightseeing/default.aspx",
                "http://www.nivalink.com/destination/badami",
                "https://www.tripadvisor.com/ShowTopic-g297627-i2498-k6657230-Visiting_Hampi_Badami_Aihole_Pattadakal_Bijapur-Karnataka.html",
                "https://en.wikipedia.org/wiki/Pattadakal",
                "https://www.ixigo.com/travel-guide/badami"
            ],
            "locType": "attraction",
            "longitude": "75.815884048161",
            "latitude": "15.9506349",
            "address": "Pattadakal Temples, SH14, \u0cac\u0cbe\u0c9a\u0cbf\u0ca8\u0c97\u0cc1\u0ca1\u0ccd\u0ca1, Badami taluku, Bagalkote district, Karnataka, 587211, India",
            "closest_to": "badami"
        },
        "galaganatha temple": {
            "blogLinks": [
                "https://en.wikipedia.org/wiki/Pattadakal"
            ],
            "locType": "yes",
            "longitude": "75.8162171957903",
            "latitude": "15.95018615",
            "address": "Galaganatha Temple, SH14, \u0cac\u0cbe\u0c9a\u0cbf\u0ca8\u0c97\u0cc1\u0ca1\u0ccd\u0ca1, Badami taluku, Bagalkote district, Karnataka, 587211, India",
            "closest_to": "badami"
        },
        "uma maheshwara temple": {
            "blogLinks": [
                "http://blog.indianluxurytrains.com/2014/09/best-places-to-visit-in-karnataka.html"
            ],
            "locType": "place_of_worship",
            "longitude": "74.3120254424635",
            "latitude": "14.5234594",
            "address": "Uma-maheshwara temple, Om beach road, Gokarna, Kumata taluk, Uttara Kannada, Karnataka, 581326, India",
            "closest_to": "hassan"
        },
        "aralaguppe": {
            "blogLinks": [
                "http://www.nivalink.com/destination/hassan"
            ],
            "locType": "village",
            "longitude": "76.6165598",
            "latitude": "13.2517886",
            "address": "Aralaguppe, Tipaturu taluk, Tumkur district, Karnataka, India",
            "closest_to": "hassan"
        },
        "malaprabha": {
            "blogLinks": [
                "https://en.wikipedia.org/wiki/Pattadakal"
            ],
            "locType": "river",
            "longitude": "75.1982668",
            "latitude": "15.8914192",
            "address": "Malaprabha, Ramadurga taluku, Belgaum district, Karnataka, India",
            "closest_to": "badami"
        },
        "bijapur": {
            "blogLinks": [
                "https://www.tripadvisor.com/ShowTopic-g297627-i2498-k6657230-Visiting_Hampi_Badami_Aihole_Pattadakal_Bijapur-Karnataka.html"
            ],
            "locType": "city",
            "longitude": "75.7175387",
            "latitude": "16.8269911",
            "address": "Vijayapura, Vijayapura taluk, Bijapur district, Karnataka, 586101, India",
            "closest_to": "badami"
        },
        "karnataka": {
            "blogLinks": [
                "http://blog.indianluxurytrains.com/2014/09/best-places-to-visit-in-karnataka.html",
                "http://www.distancesfrom.com/distance-from-Hassan-to-Chikmagalur-via-Badami/DistanceHistory/4509927.aspx",
                "http://journeymart.com/de/india/karnataka/sightseeing/default.aspx",
                "http://www.distancesfrom.com/distance-from-Hassan-to-Badami/DistanceHistory/28328949.aspx",
                "http://www.nivalink.com/destination/badami",
                "https://en.wikipedia.org/wiki/Badami",
                "https://www.tripadvisor.com/ShowTopic-g297627-i2498-k6657230-Visiting_Hampi_Badami_Aihole_Pattadakal_Bijapur-Karnataka.html",
                "http://www.nivalink.com/destination/hassan",
                "http://www.mapsofindia.com/maps/karnataka/travel-to-badami.html",
                "http://www.karnatakatourism.org/",
                "https://www.tripoto.com/trip/karnataka-one-state-many-worlds-2-565ed43147a04",
                "https://en.wikipedia.org/wiki/Pattadakal",
                "https://www.ixigo.com/travel-guide/badami"
            ],
            "locType": "atm",
            "longitude": "76.6639936",
            "latitude": "12.3084901",
            "address": "Karnataka, Shalivahana Road, Nazarbad, Mysuru, Mysuru taluk, Mysuru district, Karnataka, 570001, India",
            "closest_to": "hassan"
        },
        "chikmagalur": {
            "blogLinks": [
                "https://www.tripoto.com/trip/karnataka-one-state-many-worlds-2-565ed43147a04"
            ],
            "locType": "county",
            "longitude": "75.5",
            "latitude": "13.5",
            "address": "Chikmagalur, Chikkamagaluru district, Karnataka, India",
            "closest_to": "hassan"
        },
        "nagarhole national park": {
            "blogLinks": [
                "http://blog.indianluxurytrains.com/2014/09/best-places-to-visit-in-karnataka.html",
                "http://journeymart.com/de/india/karnataka/sightseeing/default.aspx"
            ],
            "locType": "national_park",
            "longitude": "76.1537073415874",
            "latitude": "12.0600362",
            "address": "Nagarahole National Park, Virajpet taluk, Kodagu, Karnataka, India",
            "closest_to": "hassan"
        },
        "papanatha": {
            "blogLinks": [
                "http://blog.indianluxurytrains.com/2014/09/best-places-to-visit-in-karnataka.html"
            ],
            "locType": "yes",
            "longitude": "75.8164391839286",
            "latitude": "15.94762935",
            "address": "Papanatha Temple, SH14, \u0cac\u0cbe\u0c9a\u0cbf\u0ca8\u0c97\u0cc1\u0ca1\u0ccd\u0ca1, Badami taluku, Bagalkote district, Karnataka, 587211, India",
            "closest_to": "badami"
        },
        "badami": {
            "blogLinks": [
                "http://www.distancesfrom.com/distance-from-Hassan-to-Chikmagalur-via-Badami/DistanceHistory/4509927.aspx",
                "http://www.distancesfrom.com/distance-from-Hassan-to-Badami/DistanceHistory/28328949.aspx",
                "http://www.nivalink.com/destination/badami",
                "https://en.wikipedia.org/wiki/Badami",
                "https://www.audleytravel.com/india/places-to-go/badami",
                "https://www.tripadvisor.com/ShowTopic-g297627-i2498-k6657230-Visiting_Hampi_Badami_Aihole_Pattadakal_Bijapur-Karnataka.html",
                "https://www.distancecalculator.net/from-badami-to-hassan",
                "http://www.mapsofindia.com/maps/karnataka/travel-to-badami.html",
                "https://www.tripoto.com/trip/karnataka-one-state-many-worlds-2-565ed43147a04",
                "https://en.wikipedia.org/wiki/Pattadakal",
                "https://www.ixigo.com/travel-guide/badami"
            ],
            "locType": "town",
            "longitude": "75.6807865",
            "latitude": "15.9203874",
            "address": "Badami, Badami taluku, Bagalkote district, Karnataka, 587200, India",
            "closest_to": "hassan"
        },
        "malaprabha river": {
            "blogLinks": [
                "https://en.wikipedia.org/wiki/Pattadakal"
            ],
            "locType": "river",
            "longitude": "75.1982668",
            "latitude": "15.8914192",
            "address": "Malaprabha, Ramadurga taluku, Belgaum district, Karnataka, India",
            "closest_to": "badami"
        },
        "parvati": {
            "blogLinks": [
                "http://www.nivalink.com/destination/hassan"
            ],
            "locType": "village",
            "longitude": "75.7898501",
            "latitude": "16.0395701",
            "address": "Parvati, Badami taluku, Bagalkote district, Karnataka, India",
            "closest_to": "badami"
        },
        "tungabhadra": {
            "blogLinks": [
                "https://www.tripoto.com/trip/karnataka-one-state-many-worlds-2-565ed43147a04"
            ],
            "locType": "river",
            "longitude": "76.4931607",
            "latitude": "15.3446123",
            "address": "Tungabhadra, Gangavati taluku, Koppal district, Karnataka, India",
            "closest_to": "hassan"
        },
        "harihara": {
            "blogLinks": [
                "https://en.wikipedia.org/wiki/Badami"
            ],
            "locType": "town",
            "longitude": "75.809288",
            "latitude": "14.5116874",
            "address": "Harihara, Harihara taluku, Davanagere district, Karnataka, 577600, India",
            "closest_to": "hassan"
        },
        "northern india": {
            "blogLinks": [
                "https://en.wikipedia.org/wiki/Pattadakal"
            ],
            "locType": "company",
            "longitude": "77.6804678",
            "latitude": "12.9257442",
            "address": "Northern Operating  Services Pvt Ltd, RMZ Ecospace, Internal Rd, RMZ Ecospace, Bellandur, Doddakannelli, Bangalore Urban, Karnataka, 560037, India",
            "closest_to": "hassan"
        },
        "earth": {
            "blogLinks": [
                "https://en.wikipedia.org/wiki/Badami"
            ],
            "locType": "industrial",
            "longitude": "77.659986649248",
            "latitude": "12.9740596",
            "address": "Bharat Earth Movers Limited - BEML, GM Palya, Bengaluru, Bangalore Urban, Karnataka, 560001, India",
            "closest_to": "hassan"
        },
        "hampi": {
            "blogLinks": [
                "http://blog.indianluxurytrains.com/2014/09/best-places-to-visit-in-karnataka.html",
                "https://www.tripadvisor.com/ShowTopic-g297627-i2498-k6657230-Visiting_Hampi_Badami_Aihole_Pattadakal_Bijapur-Karnataka.html",
                "http://journeymart.com/de/india/karnataka/sightseeing/default.aspx",
                "https://www.tripoto.com/trip/karnataka-one-state-many-worlds-2-565ed43147a04"
            ],
            "locType": "village",
            "longitude": "76.4606199",
            "latitude": "15.3359769",
            "address": "Hampe, Hosapete taluk, Bellary district, Karnataka, 583239, India",
            "closest_to": "hassan"
        },
        "udipi": {
            "blogLinks": [
                "http://www.nivalink.com/destination/hassan"
            ],
            "locType": "restaurant",
            "longitude": "77.652888",
            "latitude": "12.9530588",
            "address": "Udipi Park, 2nd Cross Road, Muniyappa Layout, Murugeshpalaya, Belure Ambedkar Nagar, Bangalore Urban, Karnataka, 560067, India",
            "closest_to": "hassan"
        },
        "jambulinga temple": {
            "blogLinks": [
                "https://en.wikipedia.org/wiki/Pattadakal",
                "http://www.mapsofindia.com/maps/karnataka/travel-to-badami.html"
            ],
            "locType": "yes",
            "longitude": "75.8160313484561",
            "latitude": "15.95023405",
            "address": "Jambulinga Temple, SH14, \u0cac\u0cbe\u0c9a\u0cbf\u0ca8\u0c97\u0cc1\u0ca1\u0ccd\u0ca1, Badami taluku, Bagalkote district, Karnataka, 587211, India",
            "closest_to": "badami"
        },
        "kalaseshwara temple": {
            "blogLinks": [
                "http://www.nivalink.com/destination/hassan"
            ],
            "locType": "place_of_worship",
            "longitude": "75.363446975",
            "latitude": "13.23228505",
            "address": "Kalaseshwara Temple, SH66, Kalasa, Mudigere taluk, Chikkamagaluru district, Karnataka, 577124, India",
            "closest_to": "hassan"
        },
        "halebidu": {
            "blogLinks": [
                "http://www.nivalink.com/destination/hassan"
            ],
            "locType": "village",
            "longitude": "76.4607075",
            "latitude": "12.359893",
            "address": "Halebidu, Hunasuru taluk, Mysuru district, Karnataka, India",
            "closest_to": "hassan"
        },
        "venkataramana temple": {
            "blogLinks": [
                "http://blog.indianluxurytrains.com/2014/09/best-places-to-visit-in-karnataka.html"
            ],
            "locType": "place_of_worship",
            "longitude": "77.6895365754579",
            "latitude": "12.8380349",
            "address": "Venkataramana Temple, 20th Cross Road, Anantnagar, Sampige Nagara, Bangalore Urban, Karnataka, 560099, India",
            "closest_to": "hassan"
        },
        "sangameshvara": {
            "blogLinks": [
                "https://en.wikipedia.org/wiki/Pattadakal"
            ],
            "locType": "village",
            "longitude": "76.158147",
            "latitude": "14.8574503",
            "address": "Sangameshvara, Hagari Bommanahalli taluk, Bellary district, Karnataka, India",
            "closest_to": "hassan"
        },
        "sykes point": {
            "blogLinks": [
                "http://blog.indianluxurytrains.com/2014/09/best-places-to-visit-in-karnataka.html"
            ],
            "locType": "viewpoint",
            "longitude": "74.6488754",
            "latitude": "15.0905368",
            "address": "Sykes point, Ambikanagar road, Haliyala taluku, Uttara Kannada, Karnataka, India",
            "closest_to": "hassan"
        },
        "kannada": {
            "blogLinks": [
                "https://en.wikipedia.org/wiki/Badami"
            ],
            "locType": "administrative",
            "longitude": "75.1008028650794",
            "latitude": "12.8114089",
            "address": "Dakshina Kannada, Karnataka, India",
            "closest_to": "hassan"
        },
        "bangalore": {
            "blogLinks": [
                "https://en.wikipedia.org/wiki/Badami",
                "https://www.tripadvisor.com/ShowTopic-g297627-i2498-k6657230-Visiting_Hampi_Badami_Aihole_Pattadakal_Bijapur-Karnataka.html",
                "http://www.nivalink.com/destination/hassan",
                "http://www.nivalink.com/destination/badami",
                "https://en.wikipedia.org/wiki/Pattadakal"
            ],
            "locType": "city",
            "longitude": "77.5912997",
            "latitude": "12.9791198",
            "address": "Bengaluru, Bangalore Urban, Karnataka, 560001, India",
            "closest_to": "hassan"
        },
        "ooty": {
            "blogLinks": [
                "http://www.nivalink.com/destination/hassan"
            ],
            "locType": "primary",
            "longitude": "76.6586807",
            "latitude": "12.2774807",
            "address": "Ooty Road, Vidyaranyapuram, Mysuru, Mysuru taluk, Mysuru district, Karnataka, 570001, India",
            "closest_to": "hassan"
        },
        "kerala": {
            "blogLinks": [
                "http://journeymart.com/de/india/karnataka/sightseeing/default.aspx"
            ],
            "locType": "restaurant",
            "longitude": "77.6382683",
            "latitude": "12.9726449",
            "address": "New Life Kerala Mess, Sai Baba Mandira Road, Mottappanapalaya, Indiranagar, Bengaluru, Bangalore Urban, Karnataka, 560001, India",
            "closest_to": "hassan"
        }
    },
    "hassan": {
        "icon": "https://nominatim.openstreetmap.org/images/mapicons/poi_place_town.p.20.png",
        "osm_type": "node",
        "boundingbox": [
            "12.9670817",
            "13.0470817",
            "76.0592703",
            "76.1392703"
        ],
        "display_name": "Hassan, Hasana taluk, Hassan district, Karnataka, 573201, India",
        "class": "place",
        "osm_id": "340748436",
        "type": "town",
        "licence": "Data \u00a9 OpenStreetMap contributors, ODbL 1.0. http://www.openstreetmap.org/copyright",
        "lon": "76.0992703",
        "lat": "13.0070817",
        "place_id": "1806238",
        "importance": 0.490701435537
    },
    "badami": {
        "icon": "https://nominatim.openstreetmap.org/images/mapicons/poi_place_town.p.20.png",
        "osm_type": "node",
        "boundingbox": [
            "15.8803874",
            "15.9603874",
            "75.6407865",
            "75.7207865"
        ],
        "display_name": "Badami, Badami taluku, Bagalkote district, Karnataka, 587200, India",
        "class": "place",
        "osm_id": "655135229",
        "type": "town",
        "licence": "Data \u00a9 OpenStreetMap contributors, ODbL 1.0. http://www.openstreetmap.org/copyright",
        "lon": "75.6807865",
        "lat": "15.9203874",
        "place_id": "6086961",
        "importance": 0.5
    }
}