{
    "sakleshpur": {
        "icon": "https://nominatim.openstreetmap.org/images/mapicons/poi_place_town.p.20.png",
        "osm_type": "node",
        "boundingbox": [
            "12.9034349",
            "12.9834349",
            "75.7462318",
            "75.8262318"
        ],
        "display_name": "Sakaleshpura, Sakaleshapura taluk, Hassan district, Karnataka, 573134, India",
        "class": "place",
        "osm_id": "670593480",
        "type": "town",
        "licence": "Data \u00a9 OpenStreetMap contributors, ODbL 1.0. http://www.openstreetmap.org/copyright",
        "lon": "75.7862318",
        "lat": "12.9434349",
        "place_id": "6499206",
        "importance": 0.4
    },
    "badami": {
        "icon": "https://nominatim.openstreetmap.org/images/mapicons/poi_place_town.p.20.png",
        "osm_type": "node",
        "boundingbox": [
            "15.8803874",
            "15.9603874",
            "75.6407865",
            "75.7207865"
        ],
        "display_name": "Badami, Badami taluku, Bagalkote district, Karnataka, 587200, India",
        "class": "place",
        "osm_id": "655135229",
        "type": "town",
        "licence": "Data \u00a9 OpenStreetMap contributors, ODbL 1.0. http://www.openstreetmap.org/copyright",
        "lon": "75.6807865",
        "lat": "15.9203874",
        "place_id": "6086961",
        "importance": 0.5
    },
    "mentions": {
        "bhatkal": {
            "blogLinks": [
                "https://en.wikipedia.org/wiki/Tourism_in_Karnataka"
            ],
            "locType": "town",
            "longitude": "74.5485295",
            "latitude": "13.9952114",
            "address": "Bhatkal, Bhatkala taluk, Uttara Kannada, Karnataka, 581320, India",
            "closest_to": "sakleshpur"
        },
        "venkatappa art gallery": {
            "blogLinks": [
                "http://blog.indianluxurytrains.com/2014/09/best-places-to-visit-in-karnataka.html"
            ],
            "locType": "museum",
            "longitude": "77.5952077",
            "latitude": "12.9742592",
            "address": "Venkatappa Art Gallery, Kasturba Road, Shantala Nagar, MacIvor Town, Bengaluru, Bangalore Urban, Karnataka, 560001, India",
            "closest_to": "sakleshpur"
        },
        "manjarabad fort": {
            "blogLinks": [
                "http://www.holidayiq.com/destinations/sakleshpur/"
            ],
            "locType": "attraction",
            "longitude": "75.7580572896098",
            "latitude": "12.9173302",
            "address": "Manjarabad Fort, SH27, Hullahalli, Sakaleshapura taluk, Hassan district, Karnataka, 573134, India",
            "closest_to": "sakleshpur"
        },
        "harangi dam": {
            "blogLinks": [
                "http://blog.indianluxurytrains.com/2014/09/best-places-to-visit-in-karnataka.html"
            ],
            "locType": "dam",
            "longitude": "75.9056999171375",
            "latitude": "12.4928663",
            "address": "Harangi dam, Somawarpet taluk, Kodagu, Karnataka, India",
            "closest_to": "sakleshpur"
        },
        "kadamba": {
            "blogLinks": [
                "https://www.quora.com/What-are-the-best-places-to-visit-on-a-3-day-trip-in-and-around-Karnataka"
            ],
            "locType": "residential",
            "longitude": "77.7436954",
            "latitude": "12.9703178",
            "address": "Kadamba Avenue, R. Narayanapura, Brookefields, Dodsworth Enclave, Bangalore Urban, Karnataka, 560066, India",
            "closest_to": "sakleshpur"
        },
        "tumkur": {
            "blogLinks": [
                "https://en.wikipedia.org/wiki/Tourism_in_Karnataka"
            ],
            "locType": "county",
            "longitude": "77.0002445",
            "latitude": "13.4999406",
            "address": "Tumakuru, Tumkur district, Karnataka, India",
            "closest_to": "sakleshpur"
        },
        "kambadahalli": {
            "blogLinks": [
                "https://en.wikipedia.org/wiki/Tourism_in_Karnataka"
            ],
            "locType": "village",
            "longitude": "77.1671918",
            "latitude": "13.6843692",
            "address": "Kambadahalli, Madhugiri taluk, Tumkur district, Karnataka, India",
            "closest_to": "sakleshpur"
        },
        "nippani": {
            "blogLinks": [
                "https://en.wikipedia.org/wiki/Tourism_in_Karnataka"
            ],
            "locType": "town",
            "longitude": "74.3842372",
            "latitude": "16.4020402",
            "address": "Nippani, Chikodi taluk, Belgaum district, Karnataka, 591237, India",
            "closest_to": "badami"
        },
        "chikmagalur district": {
            "blogLinks": [
                "https://en.wikipedia.org/wiki/Tourism_in_Karnataka"
            ],
            "locType": "county",
            "longitude": "75.5",
            "latitude": "13.5",
            "address": "Chikmagalur, Chikkamagaluru district, Karnataka, India",
            "closest_to": "sakleshpur"
        },
        "chalukya": {
            "blogLinks": [
                "https://en.wikipedia.org/wiki/Tourism_in_Karnataka"
            ],
            "locType": "residential",
            "longitude": "77.5192989605445",
            "latitude": "12.9617207",
            "address": "Chalukya Nagar, Chandra Layout, GKW Layout, Bangalore Urban, Karnataka, 560072, India",
            "closest_to": "sakleshpur"
        },
        "bannerghatta": {
            "blogLinks": [
                "https://en.wikipedia.org/wiki/Tourism_in_Karnataka"
            ],
            "locType": "village",
            "longitude": "77.5789509",
            "latitude": "12.813337",
            "address": "Bannerghatta, Bangalore Urban, Karnataka, India",
            "closest_to": "sakleshpur"
        },
        "tagore beach": {
            "blogLinks": [
                "https://www.quora.com/What-are-the-best-places-to-visit-on-a-3-day-trip-in-and-around-Karnataka"
            ],
            "locType": "beach",
            "longitude": "74.126114099183",
            "latitude": "14.81741155",
            "address": "Rabindranath Tagore Beach, NH66, Kodibag, Karwar, Karavara taluk, Uttara Kannada, Karnataka, 581300, India",
            "closest_to": "sakleshpur"
        },
        "chennakeshava": {
            "blogLinks": [
                "https://www.quora.com/What-are-the-best-places-to-visit-on-a-3-day-trip-in-and-around-Karnataka"
            ],
            "locType": "place_of_worship",
            "longitude": "76.1294164",
            "latitude": "13.3748908",
            "address": "Chennakeshava Temple, NH73, Arakere, Arasikere taluku, Hassan district, Karnataka, 573112, India",
            "closest_to": "sakleshpur"
        },
        "bangalore karnataka": {
            "blogLinks": [
                "https://www.quora.com/What-are-the-best-places-to-visit-on-a-3-day-trip-in-and-around-Karnataka"
            ],
            "locType": "city",
            "longitude": "77.5912997",
            "latitude": "12.9791198",
            "address": "Bengaluru, Bangalore Urban, Karnataka, 560001, India",
            "closest_to": "sakleshpur"
        },
        "delhi": {
            "blogLinks": [
                "http://blog.indianluxurytrains.com/2014/09/best-places-to-visit-in-karnataka.html"
            ],
            "locType": "trunk",
            "longitude": "77.6666062",
            "latitude": "12.9212473",
            "address": "Outer Ring Road, Green Glen Layout, Iblur, Bengaluru, Bangalore Urban, Karnataka, 560001, India",
            "closest_to": "sakleshpur"
        },
        "panambur - panambur beach": {
            "blogLinks": [
                "https://www.quora.com/What-are-the-best-places-to-visit-on-a-3-day-trip-in-and-around-Karnataka"
            ],
            "locType": "beach",
            "longitude": "74.8034667207214",
            "latitude": "12.93907195",
            "address": "Panambur Beach, Panambur Beach Road, Gandhinagar, Panambur, Mangaluru taluk, Dakshina Kannada, Karnataka, 575013, India",
            "closest_to": "sakleshpur"
        },
        "tagore": {
            "blogLinks": [
                "https://www.quora.com/What-are-the-best-places-to-visit-on-a-3-day-trip-in-and-around-Karnataka"
            ],
            "locType": "suburb",
            "longitude": "77.595715",
            "latitude": "13.0227204",
            "address": "Rabindranath Tagore Nagar, Bengaluru, Bangalore Urban, Karnataka, 560001, India",
            "closest_to": "sakleshpur"
        },
        "sasivekalu": {
            "blogLinks": [
                "https://www.thrillophilia.com/places-to-visit-in-hampi"
            ],
            "locType": "place_of_worship",
            "longitude": "76.4604025",
            "latitude": "15.3322644",
            "address": "Sasivekalu Ganesha, Hampi Kamalapura Road, Hampe, Hosapete taluk, Bellary district, Karnataka, 583239, India",
            "closest_to": "sakleshpur"
        },
        "banashankari temple": {
            "blogLinks": [
                "https://en.wikipedia.org/wiki/Tourism_in_Karnataka"
            ],
            "locType": "place_of_worship",
            "longitude": "77.5731752886765",
            "latitude": "12.91568785",
            "address": "Banashankari Temple, Kanakapura Road, JP Nagar 1st Phase, Kaderenahalli, Bengaluru, Bangalore Urban, Karnataka, 560001, India",
            "closest_to": "sakleshpur"
        },
        "ocean": {
            "blogLinks": [
                "https://www.quora.com/What-are-the-best-places-to-visit-on-a-3-day-trip-in-and-around-Karnataka"
            ],
            "locType": "residential",
            "longitude": "77.7178261979437",
            "latitude": "12.95490595",
            "address": "Gayatri Ocean Blue Apartments, Thubarahalli, Siddapura, Bangalore Urban, Karnataka, 560066, India",
            "closest_to": "sakleshpur"
        },
        "beluru": {
            "blogLinks": [
                "https://en.wikipedia.org/wiki/Tourism_in_Karnataka"
            ],
            "locType": "town",
            "longitude": "75.8634851",
            "latitude": "13.1645671",
            "address": "Belur, Beluru taluk, Hassan district, Karnataka, 573115, India",
            "closest_to": "sakleshpur"
        },
        "bangalore": {
            "blogLinks": [
                "https://en.wikipedia.org/wiki/Tourism_in_Karnataka",
                "https://www.quora.com/What-are-the-best-places-to-visit-on-a-3-day-trip-in-and-around-Karnataka",
                "http://wikitravel.org/en/Badami",
                "http://www.holidayiq.com/destinations/sakleshpur/"
            ],
            "locType": "city",
            "longitude": "77.5912997",
            "latitude": "12.9791198",
            "address": "Bengaluru, Bangalore Urban, Karnataka, 560001, India",
            "closest_to": "sakleshpur"
        },
        "markandeya river": {
            "blogLinks": [
                "https://www.quora.com/What-are-the-best-places-to-visit-on-a-3-day-trip-in-and-around-Karnataka"
            ],
            "locType": "river",
            "longitude": "74.5774895",
            "latitude": "15.9707453",
            "address": "Markandeya, Belagavi taluku, Belgaum district, Karnataka, India",
            "closest_to": "badami"
        },
        "' river varahi": {
            "blogLinks": [
                "https://en.wikipedia.org/wiki/Tourism_in_Karnataka"
            ],
            "locType": "river",
            "longitude": "74.9489117",
            "latitude": "13.6582668",
            "address": "Varahi, \u0c95\u0cc1\u0c82\u0ca6\u0cbe\u0caa\u0cc1\u0cb0 \u0ca4\u0cbe\u0cb2\u0cc2\u0c95\u0cc1, Udupi district, Karnataka, India",
            "closest_to": "sakleshpur"
        },
        "irupu falls": {
            "blogLinks": [
                "https://en.wikipedia.org/wiki/Tourism_in_Karnataka"
            ],
            "locType": "attraction",
            "longitude": "75.9839484",
            "latitude": "11.9667954",
            "address": "Iruppu Falls, SH89, Taila, Virajpet taluk, Kodagu, Karnataka, 571217, India",
            "closest_to": "sakleshpur"
        },
        "banashankari": {
            "blogLinks": [
                "http://wikitravel.org/en/Badami"
            ],
            "locType": "hamlet",
            "longitude": "75.7046777",
            "latitude": "15.8876779",
            "address": "Banashankari, Badami taluku, Bagalkote district, Karnataka, India",
            "closest_to": "sakleshpur"
        },
        "vijaynagara": {
            "blogLinks": [
                "https://www.thrillophilia.com/places-to-visit-in-hampi",
                "http://blog.indianluxurytrains.com/2014/09/best-places-to-visit-in-karnataka.html"
            ],
            "locType": "bus_stop",
            "longitude": "77.5383681",
            "latitude": "12.9726377",
            "address": "Vijaynagara, Chord Road, Marenahalli, Vijaya Nagar, Binny Layout, Bangalore Urban, Karnataka, 560040, India",
            "closest_to": "sakleshpur"
        },
        "nilgiris": {
            "blogLinks": [
                "https://en.wikipedia.org/wiki/Tourism_in_Karnataka"
            ],
            "locType": "supermarket",
            "longitude": "77.6069792",
            "latitude": "12.9725052",
            "address": "Nilgiris, Brigade Road, Tasker Town, Ashok Nagar, Bengaluru, Bangalore Urban, Karnataka, 560001, India",
            "closest_to": "sakleshpur"
        },
        "nagarahole national park": {
            "blogLinks": [
                "https://en.wikipedia.org/wiki/Tourism_in_Karnataka"
            ],
            "locType": "national_park",
            "longitude": "76.1537073415874",
            "latitude": "12.0600362",
            "address": "Nagarahole National Park, Virajpet taluk, Kodagu, Karnataka, India",
            "closest_to": "sakleshpur"
        },
        "gadag district": {
            "blogLinks": [
                "https://en.wikipedia.org/wiki/Tourism_in_Karnataka"
            ],
            "locType": "administrative",
            "longitude": "75.6807542794645",
            "latitude": "15.416337",
            "address": "Gadag district, Karnataka, India",
            "closest_to": "sakleshpur"
        },
        "gulbarga district": {
            "blogLinks": [
                "https://en.wikipedia.org/wiki/Tourism_in_Karnataka"
            ],
            "locType": "county",
            "longitude": "77.083333",
            "latitude": "17.166667",
            "address": "Kalaburgi, Kalaburagi district, Karnataka, India",
            "closest_to": "badami"
        },
        "gotagodi village": {
            "blogLinks": [
                "https://en.wikipedia.org/wiki/Tourism_in_Karnataka"
            ],
            "locType": "village",
            "longitude": "75.0452834",
            "latitude": "14.7634556",
            "address": "Gotagodi, Hanagal taluk, Haveri district, Karnataka, India",
            "closest_to": "sakleshpur"
        },
        "kumara": {
            "blogLinks": [
                "http://www.holidayiq.com/destinations/sakleshpur/"
            ],
            "locType": "peak",
            "longitude": "75.6865652",
            "latitude": "12.6623315",
            "address": "Kumara Parvatha, Somawarpet taluk, Kodagu, Karnataka, India",
            "closest_to": "sakleshpur"
        },
        "kali": {
            "blogLinks": [
                "https://www.quora.com/What-are-the-best-places-to-visit-on-a-3-day-trip-in-and-around-Karnataka"
            ],
            "locType": "river",
            "longitude": "74.5802901",
            "latitude": "15.0145378",
            "address": "Kali, Joida taluk, Uttara Kannada, Karnataka, India",
            "closest_to": "sakleshpur"
        },
        "sirsi": {
            "blogLinks": [
                "https://www.quora.com/What-are-the-best-places-to-visit-on-a-3-day-trip-in-and-around-Karnataka"
            ],
            "locType": "town",
            "longitude": "74.8388611",
            "latitude": "14.6192362",
            "address": "Sirsi, Shirasi taluk, Uttara Kannada, Karnataka, 581400, India",
            "closest_to": "sakleshpur"
        },
        "srirangapatna": {
            "blogLinks": [
                "https://en.wikipedia.org/wiki/Tourism_in_Karnataka"
            ],
            "locType": "town",
            "longitude": "76.6850743",
            "latitude": "12.4225604",
            "address": "Srirangapatna, Srirangapattana taluk, Mandya district, Karnataka, 571438, India",
            "closest_to": "sakleshpur"
        },
        "coorg": {
            "blogLinks": [
                "https://www.quora.com/What-are-the-best-places-to-visit-on-a-3-day-trip-in-and-around-Karnataka"
            ],
            "locType": "town",
            "longitude": "75.740031",
            "latitude": "12.4204003",
            "address": "Madikeri, Madikeri taluku, Kodagu, Karnataka, India",
            "closest_to": "sakleshpur"
        },
        "heart lake": {
            "blogLinks": [
                "https://www.quora.com/What-are-the-best-places-to-visit-on-a-3-day-trip-in-and-around-Karnataka"
            ],
            "locType": "cemetery",
            "longitude": "77.6033149073313",
            "latitude": "12.9542916",
            "address": "Sacred Heart Cemetry, Shanti Nagar, Bengaluru, Bangalore Urban, Karnataka, 560001, India",
            "closest_to": "sakleshpur"
        },
        "maharashtra": {
            "blogLinks": [
                "https://en.wikipedia.org/wiki/Tourism_in_Karnataka",
                "http://www.holidayiq.com/destinations/sakleshpur/"
            ],
            "locType": "bank",
            "longitude": "77.5856013",
            "latitude": "12.9049455",
            "address": "Bank of Maharashtra, 24th Main, K R Layout, Puttenahalli, Bengaluru, Bangalore Urban, Karnataka, 560001, India",
            "closest_to": "sakleshpur"
        },
        "bannerghatta national park": {
            "blogLinks": [
                "https://en.wikipedia.org/wiki/Tourism_in_Karnataka"
            ],
            "locType": "national_park",
            "longitude": "77.5722783830694",
            "latitude": "12.77900335",
            "address": "Bannerghatta National Park, Anekal Road, Begihalli, Bangalore Urban, Karnataka, 560076, India",
            "closest_to": "sakleshpur"
        },
        "hemakuta": {
            "blogLinks": [
                "https://www.thrillophilia.com/places-to-visit-in-hampi"
            ],
            "locType": "peak",
            "longitude": "76.4602971",
            "latitude": "15.332915",
            "address": "Hemakuta Hill, Hosapete taluk, Bellary district, Karnataka, India",
            "closest_to": "sakleshpur"
        },
        "amboli": {
            "blogLinks": [
                "https://www.quora.com/What-are-the-best-places-to-visit-on-a-3-day-trip-in-and-around-Karnataka"
            ],
            "locType": "village",
            "longitude": "74.4340839",
            "latitude": "15.6456171",
            "address": "Amboli, Khanapura taluku, Belgaum district, Karnataka, India",
            "closest_to": "badami"
        },
        "kamala": {
            "blogLinks": [
                "https://en.wikipedia.org/wiki/Tourism_in_Karnataka"
            ],
            "locType": "school",
            "longitude": "77.5664867",
            "latitude": "12.9339482",
            "address": "Kamala Nehru Patashala (Emmanual English School), 5th A Cross Road, Yediyur, Thyagaraja Nagar, Bengaluru, Bangalore Urban, Karnataka, 560001, India",
            "closest_to": "sakleshpur"
        },
        "vijayanagara": {
            "blogLinks": [
                "https://en.wikipedia.org/wiki/Tourism_in_Karnataka"
            ],
            "locType": "village",
            "longitude": "74.7380455",
            "latitude": "16.3270486",
            "address": "Vijayanagara, Chikodi taluk, Belgaum district, Karnataka, India",
            "closest_to": "badami"
        },
        "varaha": {
            "blogLinks": [
                "https://en.wikipedia.org/wiki/Tourism_in_Karnataka",
                "http://wikitravel.org/en/Badami"
            ],
            "locType": "village",
            "longitude": "75.3718812",
            "latitude": "14.390777",
            "address": "Varaha, Hirekeruru taluk, Haveri district, Karnataka, India",
            "closest_to": "sakleshpur"
        },
        "arabhavi": {
            "blogLinks": [
                "https://en.wikipedia.org/wiki/Tourism_in_Karnataka"
            ],
            "locType": "village",
            "longitude": "74.8213227",
            "latitude": "16.2193552",
            "address": "Arabhavi, Gokak taluku, Belgaum district, Karnataka, India",
            "closest_to": "badami"
        },
        "chamundi hill": {
            "blogLinks": [
                "https://www.quora.com/What-are-the-best-places-to-visit-on-a-3-day-trip-in-and-around-Karnataka"
            ],
            "locType": "peak",
            "longitude": "76.6703937",
            "latitude": "12.2724017",
            "address": "Chamundi Hill, Mysuru, Mysuru taluk, Mysuru district, Karnataka, 570001, India",
            "closest_to": "sakleshpur"
        },
        "lord shiva": {
            "blogLinks": [
                "https://www.quora.com/What-are-the-best-places-to-visit-on-a-3-day-trip-in-and-around-Karnataka"
            ],
            "locType": "place_of_worship",
            "longitude": "77.6024995",
            "latitude": "12.916875",
            "address": "Lord Shiva Temple, Marenahalli Road (South End), MICO Layout, BTM Layout, Bengaluru, Bangalore Urban, Karnataka, 560001, India",
            "closest_to": "sakleshpur"
        },
        "malnad": {
            "blogLinks": [
                "http://www.holidayiq.com/destinations/sakleshpur/"
            ],
            "locType": "hospital",
            "longitude": "75.7715495",
            "latitude": "13.3160351",
            "address": "Malnad Hospital, Mudigere-Kadur Road, Chikkamagaluru, Chikkamagaluru taluku, Chikkamagaluru district, Karnataka, 577101, India",
            "closest_to": "sakleshpur"
        },
        "railway museum": {
            "blogLinks": [
                "http://blog.indianluxurytrains.com/2014/09/best-places-to-visit-in-karnataka.html"
            ],
            "locType": "railway",
            "longitude": "77.6182271274845",
            "latitude": "13.001147",
            "address": "Bangalore East Railway Station, Cox Town, Bengaluru, Bangalore Urban, Karnataka, 560001, India",
            "closest_to": "sakleshpur"
        },
        "bangkok": {
            "blogLinks": [
                "https://www.quora.com/What-are-the-best-places-to-visit-on-a-3-day-trip-in-and-around-Karnataka"
            ],
            "locType": "bar",
            "longitude": "77.6382633",
            "latitude": "12.9701967",
            "address": "One night in Bangkok, 12th Main Road, HAL 2nd Stage, Indiranagar, Bengaluru, Bangalore Urban, Karnataka, 560001, India",
            "closest_to": "sakleshpur"
        },
        "karwar": {
            "blogLinks": [
                "https://en.wikipedia.org/wiki/Tourism_in_Karnataka"
            ],
            "locType": "town",
            "longitude": "74.1319229",
            "latitude": "14.8120931",
            "address": "Karwar, Karavara taluk, Uttara Kannada, Karnataka, 581300, India",
            "closest_to": "sakleshpur"
        },
        "mandalpatti": {
            "blogLinks": [
                "https://www.quora.com/What-are-the-best-places-to-visit-on-a-3-day-trip-in-and-around-Karnataka"
            ],
            "locType": "attraction",
            "longitude": "75.7307012",
            "latitude": "12.4486242",
            "address": "Mandalpatti road junction, Galibidu Road, Kalakeri Nidugane, Madikeri taluku, Kodagu, Karnataka, India",
            "closest_to": "sakleshpur"
        },
        "mercara": {
            "blogLinks": [
                "https://en.wikipedia.org/wiki/Tourism_in_Karnataka"
            ],
            "locType": "town",
            "longitude": "75.740031",
            "latitude": "12.4204003",
            "address": "Madikeri, Madikeri taluku, Kodagu, Karnataka, India",
            "closest_to": "sakleshpur"
        },
        "sakleshpur": {
            "blogLinks": [
                "https://en.wikipedia.org/wiki/Tourism_in_Karnataka",
                "https://www.quora.com/What-are-the-best-places-to-visit-on-a-3-day-trip-in-and-around-Karnataka",
                "http://www.triphobo.com/tripplans/sakleshpur",
                "http://www.holidayiq.com/destinations/sakleshpur/"
            ],
            "locType": "town",
            "longitude": "75.7862318",
            "latitude": "12.9434349",
            "address": "Sakaleshpura, Sakaleshapura taluk, Hassan district, Karnataka, 573134, India",
            "closest_to": "sakleshpur"
        },
        "arasikere": {
            "blogLinks": [
                "https://en.wikipedia.org/wiki/Tourism_in_Karnataka"
            ],
            "locType": "town",
            "longitude": "76.2568436",
            "latitude": "13.3159809",
            "address": "Arasikere, Arasikere taluku, Hassan district, Karnataka, 573103, India",
            "closest_to": "sakleshpur"
        },
        "bahubali": {
            "blogLinks": [
                "https://en.wikipedia.org/wiki/Tourism_in_Karnataka",
                "https://www.quora.com/What-are-the-best-places-to-visit-on-a-3-day-trip-in-and-around-Karnataka"
            ],
            "locType": "place_of_worship",
            "longitude": "76.4846128",
            "latitude": "12.8540505",
            "address": "Bahubali Statue, SH8, Shravanabelagola, Channarayapattana taluk, Hassan district, Karnataka, 573135, India",
            "closest_to": "sakleshpur"
        },
        "mahadeshwara hills": {
            "blogLinks": [
                "https://www.quora.com/What-are-the-best-places-to-visit-on-a-3-day-trip-in-and-around-Karnataka"
            ],
            "locType": "fuel",
            "longitude": "77.5414216",
            "latitude": "12.932367",
            "address": "Sri Mahadeshwara Filling Station, Outer Ring Road, Seven Hills Layout, Kathriguppe, Bengaluru, Bangalore Urban, Karnataka, 560001, India",
            "closest_to": "sakleshpur"
        },
        "daria daulat gardens": {
            "blogLinks": [
                "https://www.quora.com/What-are-the-best-places-to-visit-on-a-3-day-trip-in-and-around-Karnataka"
            ],
            "locType": "museum",
            "longitude": "76.6969039957315",
            "latitude": "12.4200182",
            "address": "Daria Daulat Bagh Museum, Bangalore-Mysore Road, Srirangapatna, Srirangapattana taluk, Mandya district, Karnataka, 571438, India",
            "closest_to": "sakleshpur"
        },
        "venur": {
            "blogLinks": [
                "https://en.wikipedia.org/wiki/Tourism_in_Karnataka"
            ],
            "locType": "village",
            "longitude": "75.1443252",
            "latitude": "13.0122097",
            "address": "Venoor, Beltangadi taluk, Dakshina Kannada, Karnataka, 574242, India",
            "closest_to": "sakleshpur"
        },
        "hebbe falls": {
            "blogLinks": [
                "https://en.wikipedia.org/wiki/Tourism_in_Karnataka"
            ],
            "locType": "attraction",
            "longitude": "75.7253701",
            "latitude": "13.5414025",
            "address": "Hebbe falls, Kemmannagundi Road, Attigundi, Chikkamagaluru taluku, Chikkamagaluru district, Karnataka, India",
            "closest_to": "sakleshpur"
        },
        "kemmangundi": {
            "blogLinks": [
                "https://en.wikipedia.org/wiki/Tourism_in_Karnataka"
            ],
            "locType": "village",
            "longitude": "75.7520082",
            "latitude": "13.5463048",
            "address": "Kemmannagundi, Tarikere taluku, Chikkamagaluru district, Karnataka, India",
            "closest_to": "sakleshpur"
        },
        "durga temple": {
            "blogLinks": [
                "https://www.quora.com/What-are-the-best-places-to-visit-on-a-3-day-trip-in-and-around-Karnataka"
            ],
            "locType": "place_of_worship",
            "longitude": "77.6125928",
            "latitude": "12.9057731",
            "address": "Durga Temple, 29th Main, Mahadeshwara Nagara, BTM Layout, Bengaluru, Bangalore Urban, Karnataka, 560001, India",
            "closest_to": "sakleshpur"
        },
        "bagalkot district": {
            "blogLinks": [
                "https://en.wikipedia.org/wiki/Tourism_in_Karnataka"
            ],
            "locType": "city",
            "longitude": "75.6967919",
            "latitude": "16.1853166",
            "address": "Bagalakote, Bagalakote taluk, Bagalkote district, Karnataka, India",
            "closest_to": "badami"
        },
        "north karnataka": {
            "blogLinks": [
                "https://en.wikipedia.org/wiki/Tourism_in_Karnataka",
                "https://www.quora.com/What-are-the-best-places-to-visit-on-a-3-day-trip-in-and-around-Karnataka"
            ],
            "locType": "service",
            "longitude": "77.7660547",
            "latitude": "13.0217151",
            "address": "N, Chaithanya Samarpan, Kadugodi, Kannamangala, Bangalore Urban, Karnataka, 560066, India",
            "closest_to": "sakleshpur"
        },
        "aihole": {
            "blogLinks": [
                "https://en.wikipedia.org/wiki/Tourism_in_Karnataka",
                "https://www.thrillophilia.com/places-to-visit-in-hampi",
                "http://travel.india.com/badami/places-to-visit/"
            ],
            "locType": "village",
            "longitude": "75.8819129",
            "latitude": "16.0192298",
            "address": "Aihole, Hunagunda taluku, Bagalkote district, Karnataka, India",
            "closest_to": "badami"
        },
        "varur": {
            "blogLinks": [
                "https://en.wikipedia.org/wiki/Tourism_in_Karnataka"
            ],
            "locType": "village",
            "longitude": "75.1387568",
            "latitude": "15.2077105",
            "address": "Varur, Hubballi taluku, Dharwad district, Karnataka, India",
            "closest_to": "sakleshpur"
        },
        "california": {
            "blogLinks": [
                "http://www.triphobo.com/tripplans/sakleshpur"
            ],
            "locType": "restaurant",
            "longitude": "77.640789",
            "latitude": "12.9759858",
            "address": "California Pizza Kitchen, 10th Main Road, Indiranagar 2nd Stage, Indiranagar, Bengaluru, Bangalore Urban, Karnataka, 560001, India",
            "closest_to": "sakleshpur"
        },
        "hoysala": {
            "blogLinks": [
                "https://en.wikipedia.org/wiki/Tourism_in_Karnataka",
                "https://www.quora.com/What-are-the-best-places-to-visit-on-a-3-day-trip-in-and-around-Karnataka"
            ],
            "locType": "administrative",
            "longitude": "77.6375990817051",
            "latitude": "12.97813815",
            "address": "Hoysala Nagar, Bengaluru, Bangalore Urban, Karnataka, 560001, India",
            "closest_to": "sakleshpur"
        },
        "hassan district": {
            "blogLinks": [
                "https://en.wikipedia.org/wiki/Tourism_in_Karnataka",
                "http://www.holidayiq.com/destinations/sakleshpur/"
            ],
            "locType": "administrative",
            "longitude": "76.1745460751981",
            "latitude": "13.0315068",
            "address": "Hassan district, Karnataka, India",
            "closest_to": "sakleshpur"
        },
        "naganur": {
            "blogLinks": [
                "https://en.wikipedia.org/wiki/Tourism_in_Karnataka"
            ],
            "locType": "village",
            "longitude": "74.4824431",
            "latitude": "16.073351",
            "address": "Naganur, Hukkeri taluku, Belgaum district, Karnataka, India",
            "closest_to": "badami"
        },
        "shiggaon taluk": {
            "blogLinks": [
                "https://en.wikipedia.org/wiki/Tourism_in_Karnataka"
            ],
            "locType": "administrative",
            "longitude": "75.1756764988777",
            "latitude": "15.0138079",
            "address": "Shiggaon taluk, Haveri district, Karnataka, India",
            "closest_to": "sakleshpur"
        },
        "sagara taluk": {
            "blogLinks": [
                "https://en.wikipedia.org/wiki/Tourism_in_Karnataka"
            ],
            "locType": "administrative",
            "longitude": "74.9610874491152",
            "latitude": "14.09993045",
            "address": "Sagara taluk, Shimoga district, Karnataka, India",
            "closest_to": "sakleshpur"
        },
        "nataraja": {
            "blogLinks": [
                "https://www.quora.com/What-are-the-best-places-to-visit-on-a-3-day-trip-in-and-around-Karnataka"
            ],
            "locType": "cinema",
            "longitude": "77.5730381173154",
            "latitude": "12.9900332",
            "address": "Nataraja, Sirur Park Road, Vyalikaval, Seshadripuram, Bengaluru, Bangalore Urban, Karnataka, 560001, India",
            "closest_to": "sakleshpur"
        },
        "hassan": {
            "blogLinks": [
                "https://en.wikipedia.org/wiki/Tourism_in_Karnataka",
                "http://blog.indianluxurytrains.com/2014/09/best-places-to-visit-in-karnataka.html",
                "http://www.holidayiq.com/destinations/sakleshpur/"
            ],
            "locType": "town",
            "longitude": "76.0992703",
            "latitude": "13.0070817",
            "address": "Hassan, Hasana taluk, Hassan district, Karnataka, 573201, India",
            "closest_to": "sakleshpur"
        },
        "narayana": {
            "blogLinks": [
                "https://en.wikipedia.org/wiki/Tourism_in_Karnataka"
            ],
            "locType": "village",
            "longitude": "76.201037",
            "latitude": "13.9181889",
            "address": "Narayana Gondanahalli, Holalkere taluk, Chitradurga district, Karnataka, India",
            "closest_to": "sakleshpur"
        },
        "ashoka road": {
            "blogLinks": [
                "http://www.holidayiq.com/destinations/sakleshpur/"
            ],
            "locType": "residential",
            "longitude": "77.6198454",
            "latitude": "13.0033073",
            "address": "Ashoka Road, Richards Town, St Thomastown, Bengaluru, Bangalore Urban, Karnataka, 560001, India",
            "closest_to": "sakleshpur"
        },
        "gokarna": {
            "blogLinks": [
                "https://en.wikipedia.org/wiki/Tourism_in_Karnataka"
            ],
            "locType": "town",
            "longitude": "74.3184418",
            "latitude": "14.5439629",
            "address": "Gokarna, Kumata taluk, Uttara Kannada, Karnataka, 581326, India",
            "closest_to": "sakleshpur"
        },
        "tunga": {
            "blogLinks": [
                "https://www.quora.com/What-are-the-best-places-to-visit-on-a-3-day-trip-in-and-around-Karnataka"
            ],
            "locType": "river",
            "longitude": "75.3221835",
            "latitude": "13.6632221",
            "address": "Tunga, Tirthahalli taluk, Shimoga district, Karnataka, India",
            "closest_to": "sakleshpur"
        },
        "kodava": {
            "blogLinks": [
                "https://www.quora.com/What-are-the-best-places-to-visit-on-a-3-day-trip-in-and-around-Karnataka"
            ],
            "locType": "community_centre",
            "longitude": "77.5947466457941",
            "latitude": "12.9946227",
            "address": "Kodava Samaja, M V Jayaram Road, Jayamahal Extension, Vasantnagar, Bengaluru, Bangalore Urban, Karnataka, 560001, India",
            "closest_to": "sakleshpur"
        },
        "sri krishna temple": {
            "blogLinks": [
                "https://www.quora.com/What-are-the-best-places-to-visit-on-a-3-day-trip-in-and-around-Karnataka"
            ],
            "locType": "unclassified",
            "longitude": "77.6437236",
            "latitude": "12.9791699",
            "address": "Sri Krishna Temple Road, Old Binnamangala, Hoysala Nagar, Bengaluru, Bangalore Urban, Karnataka, 560001, India",
            "closest_to": "sakleshpur"
        },
        "lokapura": {
            "blogLinks": [
                "https://en.wikipedia.org/wiki/Tourism_in_Karnataka"
            ],
            "locType": "town",
            "longitude": "75.3685939",
            "latitude": "16.1627427",
            "address": "Lokapura, Mudhola taluku, Bagalkote district, Karnataka, 587122, India",
            "closest_to": "badami"
        },
        "udupi": {
            "blogLinks": [
                "https://en.wikipedia.org/wiki/Tourism_in_Karnataka"
            ],
            "locType": "city",
            "longitude": "74.7473232",
            "latitude": "13.3419169",
            "address": "Udupi, Udupi taluku, Udupi district, Karnataka, 576101, India",
            "closest_to": "sakleshpur"
        },
        "brahmagiri range": {
            "blogLinks": [
                "https://www.quora.com/What-are-the-best-places-to-visit-on-a-3-day-trip-in-and-around-Karnataka"
            ],
            "locType": "peak",
            "longitude": "76.8122474",
            "latitude": "14.8001586",
            "address": "Brahmagiri Betta, Molakalmuru taluku, Chitradurga district, Karnataka, India",
            "closest_to": "sakleshpur"
        },
        "manipal": {
            "blogLinks": [
                "https://en.wikipedia.org/wiki/Tourism_in_Karnataka"
            ],
            "locType": "town",
            "longitude": "74.7870308",
            "latitude": "13.3519723",
            "address": "Manipal, Udupi taluku, Udupi district, Karnataka, India",
            "closest_to": "sakleshpur"
        },
        "sannati": {
            "blogLinks": [
                "https://en.wikipedia.org/wiki/Tourism_in_Karnataka"
            ],
            "locType": "village",
            "longitude": "76.9080631",
            "latitude": "16.8293201",
            "address": "Sannati, Chitapura taluku, Kalaburagi district, Karnataka, India",
            "closest_to": "badami"
        },
        "manjusha museum": {
            "blogLinks": [
                "https://en.wikipedia.org/wiki/Tourism_in_Karnataka"
            ],
            "locType": "museum",
            "longitude": "75.3821342838196",
            "latitude": "12.95116975",
            "address": "Manjusha Museum, SH37, Dharmasthala, Beltangadi taluk, Dakshina Kannada, Karnataka, 574216, India",
            "closest_to": "sakleshpur"
        },
        "karanji lake": {
            "blogLinks": [
                "http://blog.indianluxurytrains.com/2014/09/best-places-to-visit-in-karnataka.html",
                "https://www.quora.com/What-are-the-best-places-to-visit-on-a-3-day-trip-in-and-around-Karnataka"
            ],
            "locType": "village",
            "longitude": "77.5474867",
            "latitude": "18.2681849",
            "address": "Karanji, Aurad taluku, Bidar district, Karnataka, India",
            "closest_to": "badami"
        },
        "mahadeshwara": {
            "blogLinks": [
                "https://www.quora.com/What-are-the-best-places-to-visit-on-a-3-day-trip-in-and-around-Karnataka"
            ],
            "locType": "neighbourhood",
            "longitude": "77.6123722",
            "latitude": "12.9076689",
            "address": "Mahadeshwara Nagara, BTM Layout, Bengaluru, Bangalore Urban, Karnataka, 560001, India",
            "closest_to": "sakleshpur"
        },
        "kuppali": {
            "blogLinks": [
                "https://www.quora.com/What-are-the-best-places-to-visit-on-a-3-day-trip-in-and-around-Karnataka"
            ],
            "locType": "tertiary",
            "longitude": "75.3158067",
            "latitude": "13.5998255",
            "address": "Kuppali Road, Kuppalli, Tirthahalli taluk, Shimoga district, Karnataka, India",
            "closest_to": "sakleshpur"
        },
        "chandramoulishwara": {
            "blogLinks": [
                "https://en.wikipedia.org/wiki/Tourism_in_Karnataka"
            ],
            "locType": "place_of_worship",
            "longitude": "76.6290267",
            "latitude": "12.3225663",
            "address": "Chandramoulishwara Temple, Adipampa Road, Gokulam, Mysuru, Mysuru taluk, Mysuru district, Karnataka, 570001, India",
            "closest_to": "sakleshpur"
        },
        "chennakesava": {
            "blogLinks": [
                "http://blog.indianluxurytrains.com/2014/09/best-places-to-visit-in-karnataka.html"
            ],
            "locType": "place_of_worship",
            "longitude": "75.8603311",
            "latitude": "13.1629239",
            "address": "Chennakesava Temple, NH73, Navilahalli, Beluru taluk, Hassan district, Karnataka, India",
            "closest_to": "sakleshpur"
        },
        "pattadakal": {
            "blogLinks": [
                "https://en.wikipedia.org/wiki/Tourism_in_Karnataka",
                "https://www.audleytravel.com/india/places-to-go/badami",
                "http://blog.indianluxurytrains.com/2014/09/best-places-to-visit-in-karnataka.html"
            ],
            "locType": "attraction",
            "longitude": "75.815884048161",
            "latitude": "15.9506349",
            "address": "Pattadakal Temples, SH14, \u0cac\u0cbe\u0c9a\u0cbf\u0ca8\u0c97\u0cc1\u0ca1\u0ccd\u0ca1, Badami taluku, Bagalkote district, Karnataka, 587211, India",
            "closest_to": "badami"
        },
        "karnataka": {
            "blogLinks": [
                "http://blog.indianluxurytrains.com/2014/09/best-places-to-visit-in-karnataka.html",
                "http://www.karnatakatourism.org/",
                "https://www.thrillophilia.com/places-to-visit-in-hampi",
                "http://travel.india.com/badami/places-to-visit/",
                "http://wikitravel.org/en/Badami",
                "https://www.ixigo.com/travel-guide/badami",
                "https://www.quora.com/What-are-the-best-places-to-visit-on-a-3-day-trip-in-and-around-Karnataka",
                "https://en.wikipedia.org/wiki/Tourism_in_Karnataka",
                "http://www.holidayiq.com/destinations/sakleshpur/"
            ],
            "locType": "atm",
            "longitude": "76.6639936",
            "latitude": "12.3084901",
            "address": "Karnataka, Shalivahana Road, Nazarbad, Mysuru, Mysuru taluk, Mysuru district, Karnataka, 570001, India",
            "closest_to": "sakleshpur"
        },
        "kusha garden": {
            "blogLinks": [
                "https://www.quora.com/What-are-the-best-places-to-visit-on-a-3-day-trip-in-and-around-Karnataka"
            ],
            "locType": "park",
            "longitude": "76.6283545564802",
            "latitude": "12.2905505",
            "address": "Lava Kusha Park, Lalitadri Road, Kuvempunagara, Mysuru, Mysuru taluk, Mysuru district, Karnataka, 570001, India",
            "closest_to": "sakleshpur"
        },
        "gokul garden": {
            "blogLinks": [
                "https://www.quora.com/What-are-the-best-places-to-visit-on-a-3-day-trip-in-and-around-Karnataka"
            ],
            "locType": "recreation_ground",
            "longitude": "75.1141861403246",
            "latitude": "15.35009745",
            "address": "Gokul Garden, Gokul Road / Airport Road, Renuka Nagar, Padmaraj Nagar, Gokul, Hubballi taluku, Dharwad district, Karnataka, 580030, India",
            "closest_to": "sakleshpur"
        },
        "malaprabha": {
            "blogLinks": [
                "https://en.wikipedia.org/wiki/Tourism_in_Karnataka",
                "http://travel.india.com/badami/places-to-visit/"
            ],
            "locType": "river",
            "longitude": "75.1982668",
            "latitude": "15.8914192",
            "address": "Malaprabha, Ramadurga taluku, Belgaum district, Karnataka, India",
            "closest_to": "badami"
        },
        "kalyani": {
            "blogLinks": [
                "https://en.wikipedia.org/wiki/Tourism_in_Karnataka"
            ],
            "locType": "water",
            "longitude": "77.6286090192686",
            "latitude": "12.8406466",
            "address": "Kalyani, Neeladri Road, Electronics City Phase 1, Bettadasana Pura, Bangalore Urban, Karnataka, 560100, India",
            "closest_to": "sakleshpur"
        },
        "mirjan fort": {
            "blogLinks": [
                "https://www.quora.com/What-are-the-best-places-to-visit-on-a-3-day-trip-in-and-around-Karnataka"
            ],
            "locType": "attraction",
            "longitude": "74.4174838158512",
            "latitude": "14.48905715",
            "address": "Mirjana Fort, Edapally- Panvel Highway, Kimani, Kumata taluk, Uttara Kannada, Karnataka, 581344, India",
            "closest_to": "sakleshpur"
        },
        "rock garden": {
            "blogLinks": [
                "https://en.wikipedia.org/wiki/Tourism_in_Karnataka"
            ],
            "locType": "waterfall",
            "longitude": "75.6142269",
            "latitude": "12.2248591",
            "address": "Waterfalls by the Rock site, Madikeri taluku, Kodagu, Karnataka, India",
            "closest_to": "sakleshpur"
        },
        "iruppu falls": {
            "blogLinks": [
                "https://www.quora.com/What-are-the-best-places-to-visit-on-a-3-day-trip-in-and-around-Karnataka"
            ],
            "locType": "attraction",
            "longitude": "75.9839484",
            "latitude": "11.9667954",
            "address": "Iruppu Falls, SH89, Taila, Virajpet taluk, Kodagu, Karnataka, 571217, India",
            "closest_to": "sakleshpur"
        },
        "mangalore": {
            "blogLinks": [
                "https://en.wikipedia.org/wiki/Tourism_in_Karnataka",
                "https://www.quora.com/What-are-the-best-places-to-visit-on-a-3-day-trip-in-and-around-Karnataka",
                "http://www.holidayiq.com/destinations/sakleshpur/"
            ],
            "locType": "city",
            "longitude": "74.8430082",
            "latitude": "12.8698101",
            "address": "Mangaluru, Mangaluru taluk, Dakshina Kannada, Karnataka, 575001, India",
            "closest_to": "sakleshpur"
        },
        "ranganathittu bird sanctuary": {
            "blogLinks": [
                "https://en.wikipedia.org/wiki/Tourism_in_Karnataka"
            ],
            "locType": "attraction",
            "longitude": "76.6553081",
            "latitude": "12.4238524",
            "address": "Ranganathittu Bird Sanctuary, SH154, Palahalli, Srirangapattana taluk, Mandya district, Karnataka, 571438, India",
            "closest_to": "sakleshpur"
        },
        "nagareshwara": {
            "blogLinks": [
                "https://en.wikipedia.org/wiki/Tourism_in_Karnataka"
            ],
            "locType": "place_of_worship",
            "longitude": "77.3934679",
            "latitude": "16.8662525",
            "address": "Nagareshwara Temple, SH126, Dantapur, Yadagiri taluku, Yadagiri district, Karnataka, India",
            "closest_to": "badami"
        },
        "dharma river": {
            "blogLinks": [
                "https://en.wikipedia.org/wiki/Tourism_in_Karnataka"
            ],
            "locType": "park",
            "longitude": "77.5575864485219",
            "latitude": "12.98914885",
            "address": "Dharma Naidu Udhyanavana, 44th cross, Rajajinagar 4th Block, Rajaji Nagar, Bengaluru, Bangalore Urban, Karnataka, 560001, India",
            "closest_to": "sakleshpur"
        },
        "varada": {
            "blogLinks": [
                "https://en.wikipedia.org/wiki/Tourism_in_Karnataka"
            ],
            "locType": "river",
            "longitude": "75.47206",
            "latitude": "14.8717792",
            "address": "Varada, Savanura taluk, Haveri district, Karnataka, India",
            "closest_to": "sakleshpur"
        },
        "nandi hills": {
            "blogLinks": [
                "https://www.quora.com/What-are-the-best-places-to-visit-on-a-3-day-trip-in-and-around-Karnataka"
            ],
            "locType": "hotel",
            "longitude": "77.7194741670394",
            "latitude": "13.268142",
            "address": "Nandi Upahara, Nandhi Hills Road, Kottige Thimmanahalli, Devanahalli taluk, Bangalore Rural, Karnataka, India",
            "closest_to": "sakleshpur"
        },
        "bagalkot": {
            "blogLinks": [
                "http://blog.indianluxurytrains.com/2014/09/best-places-to-visit-in-karnataka.html",
                "http://travel.india.com/badami/places-to-visit/",
                "http://wikitravel.org/en/Badami"
            ],
            "locType": "city",
            "longitude": "75.6967919",
            "latitude": "16.1853166",
            "address": "Bagalakote, Bagalakote taluk, Bagalkote district, Karnataka, India",
            "closest_to": "badami"
        },
        "mullayanagiri range": {
            "blogLinks": [
                "https://www.quora.com/What-are-the-best-places-to-visit-on-a-3-day-trip-in-and-around-Karnataka"
            ],
            "locType": "peak",
            "longitude": "75.7214034",
            "latitude": "13.3909217",
            "address": "Mullayyanagiri, Chikkamagaluru, Chikkamagaluru taluku, Chikkamagaluru district, Karnataka, 577101, India",
            "closest_to": "sakleshpur"
        },
        "chamarajanagar": {
            "blogLinks": [
                "https://en.wikipedia.org/wiki/Tourism_in_Karnataka"
            ],
            "locType": "station",
            "longitude": "76.9331345",
            "latitude": "11.9346624",
            "address": "Chamarajanagar, Nanjangudu-Chamarajanagar Road, Kadahalli, Chamarajanagara taluk, Chamarajanagar district, Karnataka, 571313, India",
            "closest_to": "sakleshpur"
        },
        "lushington falls": {
            "blogLinks": [
                "https://en.wikipedia.org/wiki/Tourism_in_Karnataka"
            ],
            "locType": "waterfall",
            "longitude": "74.7477592",
            "latitude": "14.4097755",
            "address": "\u0c89\u0c82\u0c9a\u0cb3\u0ccd\u0cb3\u0cbf \u0c9c\u0cb2\u0caa\u0cbe\u0ca4, Siddapura taluk, Uttara Kannada, Karnataka, India",
            "closest_to": "sakleshpur"
        },
        "sirigere": {
            "blogLinks": [
                "https://en.wikipedia.org/wiki/Tourism_in_Karnataka"
            ],
            "locType": "village",
            "longitude": "76.2051907",
            "latitude": "14.2840739",
            "address": "Sirigere, Chitradurga taluku, Chitradurga district, Karnataka, India",
            "closest_to": "sakleshpur"
        },
        "nagarahole": {
            "blogLinks": [
                "https://en.wikipedia.org/wiki/Tourism_in_Karnataka"
            ],
            "locType": "river",
            "longitude": "76.2286805",
            "latitude": "12.0229466",
            "address": "Nagarahole, Heggadadevanakote taluk, Mysuru district, Karnataka, India",
            "closest_to": "sakleshpur"
        },
        "malpe": {
            "blogLinks": [
                "https://en.wikipedia.org/wiki/Tourism_in_Karnataka",
                "https://www.quora.com/What-are-the-best-places-to-visit-on-a-3-day-trip-in-and-around-Karnataka"
            ],
            "locType": "village",
            "longitude": "74.7036914",
            "latitude": "13.3507423",
            "address": "Malpe, Udupi taluku, Udupi district, Karnataka, India",
            "closest_to": "sakleshpur"
        },
        "tungabhadra": {
            "blogLinks": [
                "https://en.wikipedia.org/wiki/Tourism_in_Karnataka"
            ],
            "locType": "river",
            "longitude": "76.4931607",
            "latitude": "15.3446123",
            "address": "Tungabhadra, Gangavati taluku, Koppal district, Karnataka, India",
            "closest_to": "sakleshpur"
        },
        "kudremukh national park": {
            "blogLinks": [
                "https://en.wikipedia.org/wiki/Tourism_in_Karnataka",
                "https://www.quora.com/What-are-the-best-places-to-visit-on-a-3-day-trip-in-and-around-Karnataka"
            ],
            "locType": "national_park",
            "longitude": "75.1828713712862",
            "latitude": "13.25397485",
            "address": "Kudremukh National Park, SH66, Sringeri taluku, Chikkamagaluru district, Karnataka, India",
            "closest_to": "sakleshpur"
        },
        "subramanya": {
            "blogLinks": [
                "https://en.wikipedia.org/wiki/Tourism_in_Karnataka"
            ],
            "locType": "commercial",
            "longitude": "77.6015800913134",
            "latitude": "12.9251206",
            "address": "Subramanya Arcade, Marenahalli, Bengaluru, Bangalore Urban, Karnataka, 560001, India",
            "closest_to": "sakleshpur"
        },
        "rose garden": {
            "blogLinks": [
                "https://www.quora.com/What-are-the-best-places-to-visit-on-a-3-day-trip-in-and-around-Karnataka"
            ],
            "locType": "garden",
            "longitude": "77.590382853852",
            "latitude": "12.97371325",
            "address": "Rose Garden, Dr B R Ambedkar Veedhi, Shantala Nagar, Gandhinagar, Bengaluru, Bangalore Urban, Karnataka, 560001, India",
            "closest_to": "sakleshpur"
        },
        "kukke": {
            "blogLinks": [
                "http://www.holidayiq.com/destinations/sakleshpur/"
            ],
            "locType": "village",
            "longitude": "75.3076538",
            "latitude": "13.7523964",
            "address": "Kukke, Tirthahalli taluk, Shimoga district, Karnataka, India",
            "closest_to": "sakleshpur"
        },
        "golden temple": {
            "blogLinks": [
                "https://www.quora.com/What-are-the-best-places-to-visit-on-a-3-day-trip-in-and-around-Karnataka"
            ],
            "locType": "place_of_worship",
            "longitude": "75.9674656",
            "latitude": "12.430821",
            "address": "Padmasambhava Buddhist Vihara (Golden Temple), MDR21, Koppa, Piriyapattana taluk, Mysuru district, Karnataka, India",
            "closest_to": "sakleshpur"
        },
        "vittala": {
            "blogLinks": [
                "http://blog.indianluxurytrains.com/2014/09/best-places-to-visit-in-karnataka.html"
            ],
            "locType": "yes",
            "longitude": "76.6237847175927",
            "latitude": "12.30129655",
            "address": "Vijaya Vittala PU College, Sahukar Chennaiah Road, Sarasvatipuram, Mysuru, Mysuru taluk, Mysuru district, Karnataka, 570001, India",
            "closest_to": "sakleshpur"
        },
        "district bagalkot": {
            "blogLinks": [
                "https://en.wikipedia.org/wiki/Tourism_in_Karnataka"
            ],
            "locType": "commercial",
            "longitude": "75.6736388363024",
            "latitude": "16.16028195",
            "address": "District Commissioner's Office, Bagalkot, Navanagara, Bagalakote, Bagalakote taluk, Bagalkote district, Karnataka, India",
            "closest_to": "badami"
        },
        "matanga hill": {
            "blogLinks": [
                "https://www.thrillophilia.com/places-to-visit-in-hampi"
            ],
            "locType": "peak",
            "longitude": "76.4682314",
            "latitude": "15.3315267",
            "address": "Matanga Hill, Hosapete taluk, Bellary district, Karnataka, India",
            "closest_to": "sakleshpur"
        },
        "venkataramana temple": {
            "blogLinks": [
                "http://blog.indianluxurytrains.com/2014/09/best-places-to-visit-in-karnataka.html"
            ],
            "locType": "place_of_worship",
            "longitude": "77.6895365754579",
            "latitude": "12.8380349",
            "address": "Venkataramana Temple, 20th Cross Road, Anantnagar, Sampige Nagara, Bangalore Urban, Karnataka, 560099, India",
            "closest_to": "sakleshpur"
        },
        "yagachi": {
            "blogLinks": [
                "http://blog.indianluxurytrains.com/2014/09/best-places-to-visit-in-karnataka.html"
            ],
            "locType": "river",
            "longitude": "75.950911",
            "latitude": "13.0658494",
            "address": "Yagachi, Beluru taluk, Hassan district, Karnataka, India",
            "closest_to": "sakleshpur"
        },
        "kumta": {
            "blogLinks": [
                "https://en.wikipedia.org/wiki/Tourism_in_Karnataka"
            ],
            "locType": "town",
            "longitude": "74.4107617",
            "latitude": "14.4261647",
            "address": "Kumta, Kumata taluk, Uttara Kannada, Karnataka, India",
            "closest_to": "sakleshpur"
        },
        "netrani island of uttara kannada": {
            "blogLinks": [
                "https://en.wikipedia.org/wiki/Tourism_in_Karnataka"
            ],
            "locType": "island",
            "longitude": "74.3272086675849",
            "latitude": "14.0174924",
            "address": "Netrani, Uttara Kannada, Karnataka, India",
            "closest_to": "sakleshpur"
        },
        "kannada": {
            "blogLinks": [
                "https://www.quora.com/What-are-the-best-places-to-visit-on-a-3-day-trip-in-and-around-Karnataka"
            ],
            "locType": "administrative",
            "longitude": "75.1008028650794",
            "latitude": "12.8114089",
            "address": "Dakshina Kannada, Karnataka, India",
            "closest_to": "sakleshpur"
        },
        "ooty": {
            "blogLinks": [
                "https://www.quora.com/What-are-the-best-places-to-visit-on-a-3-day-trip-in-and-around-Karnataka"
            ],
            "locType": "primary",
            "longitude": "76.6586807",
            "latitude": "12.2774807",
            "address": "Ooty Road, Vidyaranyapuram, Mysuru, Mysuru taluk, Mysuru district, Karnataka, 570001, India",
            "closest_to": "sakleshpur"
        },
        "mysore": {
            "blogLinks": [
                "http://blog.indianluxurytrains.com/2014/09/best-places-to-visit-in-karnataka.html",
                "https://www.quora.com/What-are-the-best-places-to-visit-on-a-3-day-trip-in-and-around-Karnataka"
            ],
            "locType": "city",
            "longitude": "76.6553609",
            "latitude": "12.3051828",
            "address": "Mysuru, Mysuru taluk, Mysuru district, Karnataka, 570001, India",
            "closest_to": "sakleshpur"
        },
        "bheemeshwari": {
            "blogLinks": [
                "https://en.wikipedia.org/wiki/Tourism_in_Karnataka"
            ],
            "locType": "locality",
            "longitude": "77.2778171",
            "latitude": "12.3124122",
            "address": "Bheemeshwari, Muttatti, Malavalli taluk, Mandya district, Karnataka, India",
            "closest_to": "sakleshpur"
        },
        "cubbon park": {
            "blogLinks": [
                "http://blog.indianluxurytrains.com/2014/09/best-places-to-visit-in-karnataka.html"
            ],
            "locType": "station",
            "longitude": "77.5977565",
            "latitude": "12.9808487",
            "address": "Cubbon Park, Cubbon Road, Tasker Town, Shivajinagar, Bengaluru, Bangalore Urban, Karnataka, 560001, India",
            "closest_to": "sakleshpur"
        },
        "shivalinga": {
            "blogLinks": [
                "https://www.thrillophilia.com/places-to-visit-in-hampi"
            ],
            "locType": "yes",
            "longitude": "77.6572072883201",
            "latitude": "12.9591274",
            "address": "Shivalinga, Old Airport Road, Konena Agrahara, Vimanapura, Belure Ambedkar Nagar, Bangalore Urban, Karnataka, 560037, India",
            "closest_to": "sakleshpur"
        },
        "brindavan gardens": {
            "blogLinks": [
                "https://www.quora.com/What-are-the-best-places-to-visit-on-a-3-day-trip-in-and-around-Karnataka"
            ],
            "locType": "garden",
            "longitude": "76.5741029405883",
            "latitude": "12.4208084",
            "address": "Brindavan Gardens, Krishnaraja Sagara Road, Krushnarajasagara, Srirangapattana taluk, Mandya district, Karnataka, India",
            "closest_to": "sakleshpur"
        },
        "himavad gopalaswamy betta": {
            "blogLinks": [
                "https://www.quora.com/What-are-the-best-places-to-visit-on-a-3-day-trip-in-and-around-Karnataka"
            ],
            "locType": "place_of_worship",
            "longitude": "76.5804063",
            "latitude": "11.7206016",
            "address": "Gopalaswami Temple, Gopal Swami Betta road, Devarahalli, Gundlupet taluk, Chamarajanagar district, Karnataka, India",
            "closest_to": "sakleshpur"
        },
        "sakaleshpura": {
            "blogLinks": [
                "http://www.holidayiq.com/destinations/sakleshpur/"
            ],
            "locType": "town",
            "longitude": "75.7862318",
            "latitude": "12.9434349",
            "address": "Sakaleshpura, Sakaleshapura taluk, Hassan district, Karnataka, 573134, India",
            "closest_to": "sakleshpur"
        },
        "kanakapura road": {
            "blogLinks": [
                "https://en.wikipedia.org/wiki/Tourism_in_Karnataka"
            ],
            "locType": "trunk",
            "longitude": "77.5733483",
            "latitude": "12.9064528",
            "address": "Kanakapura Road, Rajotsava Nagar, Kaderenahalli, Bengaluru, Bangalore Urban, Karnataka, 560001, India",
            "closest_to": "sakleshpur"
        },
        "agastya lake": {
            "blogLinks": [
                "http://travel.india.com/badami/places-to-visit/"
            ],
            "locType": "residential",
            "longitude": "77.7512485332492",
            "latitude": "12.9796965",
            "address": "Agastya Guru Palatia Apartments, Kadugodi, Prashanth Extension, Bangalore Urban, Karnataka, 56066, India",
            "closest_to": "sakleshpur"
        },
        "sangameshwara": {
            "blogLinks": [
                "https://en.wikipedia.org/wiki/Tourism_in_Karnataka",
                "https://www.quora.com/What-are-the-best-places-to-visit-on-a-3-day-trip-in-and-around-Karnataka"
            ],
            "locType": "village",
            "longitude": "74.87651",
            "latitude": "15.184341",
            "address": "Sangameshwara, Kalaghatagi taluku, Dharwad district, Karnataka, India",
            "closest_to": "sakleshpur"
        },
        "mandya district": {
            "blogLinks": [
                "https://en.wikipedia.org/wiki/Tourism_in_Karnataka"
            ],
            "locType": "administrative",
            "longitude": "76.7302318329607",
            "latitude": "12.6336348",
            "address": "Mandya district, Karnataka, India",
            "closest_to": "sakleshpur"
        },
        "itagi": {
            "blogLinks": [
                "https://en.wikipedia.org/wiki/Tourism_in_Karnataka"
            ],
            "locType": "village",
            "longitude": "75.6701043",
            "latitude": "14.550374",
            "address": "Itagi, Ranebennuru taluk, Haveri district, Karnataka, India",
            "closest_to": "sakleshpur"
        },
        "gudavi": {
            "blogLinks": [
                "https://en.wikipedia.org/wiki/Tourism_in_Karnataka"
            ],
            "locType": "village",
            "longitude": "75.009649",
            "latitude": "14.4400296",
            "address": "Gudavi, Soraba taluk, Shimoga district, Karnataka, India",
            "closest_to": "sakleshpur"
        },
        "bijapur district": {
            "blogLinks": [
                "https://www.quora.com/What-are-the-best-places-to-visit-on-a-3-day-trip-in-and-around-Karnataka"
            ],
            "locType": "administrative",
            "longitude": "75.897147327785",
            "latitude": "16.81105965",
            "address": "Bijapur district, Karnataka, India",
            "closest_to": "badami"
        },
        "mookambika": {
            "blogLinks": [
                "https://en.wikipedia.org/wiki/Tourism_in_Karnataka",
                "https://www.quora.com/What-are-the-best-places-to-visit-on-a-3-day-trip-in-and-around-Karnataka"
            ],
            "locType": "place_of_worship",
            "longitude": "74.8145296",
            "latitude": "13.8638043",
            "address": "Mukambika Devasthana, NH766C;SH26, Halkal, \u0c95\u0cc1\u0c82\u0ca6\u0cbe\u0caa\u0cc1\u0cb0 \u0ca4\u0cbe\u0cb2\u0cc2\u0c95\u0cc1, Udupi district, Karnataka, 576220, India",
            "closest_to": "sakleshpur"
        },
        "chola": {
            "blogLinks": [
                "https://en.wikipedia.org/wiki/Tourism_in_Karnataka"
            ],
            "locType": "yes",
            "longitude": "76.098782",
            "latitude": "13.0023906",
            "address": "Chola Gold Loan, Bengaluru - Mangaluru Road, Ravindra Nagar, Santhe Pete, Hassan, Hasana taluk, Hassan district, Karnataka, 573201, India",
            "closest_to": "sakleshpur"
        },
        "dharwad": {
            "blogLinks": [
                "https://en.wikipedia.org/wiki/Tourism_in_Karnataka"
            ],
            "locType": "city",
            "longitude": "75.0066516",
            "latitude": "15.4540505",
            "address": "Dharwad, Dharawada taluku, Dharwad district, Karnataka, 580001, India",
            "closest_to": "sakleshpur"
        },
        "vittalapura": {
            "blogLinks": [
                "https://www.thrillophilia.com/places-to-visit-in-hampi"
            ],
            "locType": "village",
            "longitude": "76.4095029",
            "latitude": "15.4917365",
            "address": "Vittalapura, Gangavati taluku, Koppal district, Karnataka, India",
            "closest_to": "sakleshpur"
        },
        "kaveri": {
            "blogLinks": [
                "https://en.wikipedia.org/wiki/Tourism_in_Karnataka",
                "https://www.quora.com/What-are-the-best-places-to-visit-on-a-3-day-trip-in-and-around-Karnataka"
            ],
            "locType": "river",
            "longitude": "77.0635531",
            "latitude": "12.1687878",
            "address": "Kaveri, Kollegala taluk, Chamarajanagar district, Karnataka, India",
            "closest_to": "sakleshpur"
        },
        "goa": {
            "blogLinks": [
                "https://en.wikipedia.org/wiki/Tourism_in_Karnataka",
                "http://www.holidayiq.com/destinations/sakleshpur/"
            ],
            "locType": "restaurant",
            "longitude": "77.6200027",
            "latitude": "12.9750047",
            "address": "Carnival De Goa, Bhaskaran Road, Gupta Layout, Halasuru, Bengaluru, Bangalore Urban, Karnataka, 560001, India",
            "closest_to": "sakleshpur"
        },
        "dharmastala": {
            "blogLinks": [
                "https://en.wikipedia.org/wiki/Tourism_in_Karnataka"
            ],
            "locType": "village",
            "longitude": "75.3813122",
            "latitude": "12.9519571",
            "address": "Dharmasthala, Beltangadi taluk, Dakshina Kannada, Karnataka, 574216, India",
            "closest_to": "sakleshpur"
        },
        "kadalekalu ganesha": {
            "blogLinks": [
                "https://www.thrillophilia.com/places-to-visit-in-hampi"
            ],
            "locType": "place_of_worship",
            "longitude": "76.4611816490679",
            "latitude": "15.3328686",
            "address": "Kadalekalu Ganesha, Hampi Kamalapura Road, Hampe, Hosapete taluk, Bellary district, Karnataka, 583239, India",
            "closest_to": "sakleshpur"
        },
        "ooty lake": {
            "blogLinks": [
                "https://www.quora.com/What-are-the-best-places-to-visit-on-a-3-day-trip-in-and-around-Karnataka"
            ],
            "locType": "primary",
            "longitude": "76.6586807",
            "latitude": "12.2774807",
            "address": "Ooty Road, Vidyaranyapuram, Mysuru, Mysuru taluk, Mysuru district, Karnataka, 570001, India",
            "closest_to": "sakleshpur"
        },
        "unchalli falls": {
            "blogLinks": [
                "https://en.wikipedia.org/wiki/Tourism_in_Karnataka"
            ],
            "locType": "waterfall",
            "longitude": "74.7477592",
            "latitude": "14.4097755",
            "address": "\u0c89\u0c82\u0c9a\u0cb3\u0ccd\u0cb3\u0cbf \u0c9c\u0cb2\u0caa\u0cbe\u0ca4, Siddapura taluk, Uttara Kannada, Karnataka, India",
            "closest_to": "sakleshpur"
        },
        "chelavara falls": {
            "blogLinks": [
                "http://blog.indianluxurytrains.com/2014/09/best-places-to-visit-in-karnataka.html"
            ],
            "locType": "waterfall",
            "longitude": "75.6734811730693",
            "latitude": "12.20601005",
            "address": "Chelavara Falls, Madikeri taluku, Kodagu, Karnataka, India",
            "closest_to": "sakleshpur"
        },
        "yeshwanthpur": {
            "blogLinks": [
                "http://www.holidayiq.com/destinations/sakleshpur/"
            ],
            "locType": "marketplace",
            "longitude": "77.5451161845771",
            "latitude": "13.0159579",
            "address": "Yeshwanthpur Yard market, Shankarnagar Main Road, Goragunte Palya, Nandini Layout, Bengaluru, Bangalore Urban, Karnataka, 560001, India",
            "closest_to": "sakleshpur"
        },
        "halebid": {
            "blogLinks": [
                "http://blog.indianluxurytrains.com/2014/09/best-places-to-visit-in-karnataka.html"
            ],
            "locType": "village",
            "longitude": "75.9918793",
            "latitude": "13.2167959",
            "address": "Halebidu, Beluru taluk, Hassan district, Karnataka, 573121, India",
            "closest_to": "sakleshpur"
        },
        "virupaksha temple": {
            "blogLinks": [
                "https://en.wikipedia.org/wiki/Tourism_in_Karnataka",
                "https://www.thrillophilia.com/places-to-visit-in-hampi"
            ],
            "locType": "place_of_worship",
            "longitude": "76.4587777156223",
            "latitude": "15.3351754",
            "address": "Virupaksha Temple, Hampi Bazaar, Hampe, Hosapete taluk, Bellary district, Karnataka, 583239, India",
            "closest_to": "sakleshpur"
        },
        "gurupura": {
            "blogLinks": [
                "https://www.quora.com/What-are-the-best-places-to-visit-on-a-3-day-trip-in-and-around-Karnataka"
            ],
            "locType": "village",
            "longitude": "75.7161587",
            "latitude": "13.6686411",
            "address": "Gurupura, Tarikere taluku, Chikkamagaluru district, Karnataka, India",
            "closest_to": "sakleshpur"
        },
        "belavadi": {
            "blogLinks": [
                "https://en.wikipedia.org/wiki/Tourism_in_Karnataka"
            ],
            "locType": "village",
            "longitude": "75.3760773",
            "latitude": "13.5284899",
            "address": "Belavadi, Koppa taluk, Chikkamagaluru district, Karnataka, India",
            "closest_to": "sakleshpur"
        },
        "maragunda": {
            "blogLinks": [
                "http://www.holidayiq.com/destinations/sakleshpur/"
            ],
            "locType": "village",
            "longitude": "75.6201653",
            "latitude": "12.9867236",
            "address": "Maragunda, Sakaleshapura taluk, Hassan district, Karnataka, India",
            "closest_to": "sakleshpur"
        },
        "bahmani": {
            "blogLinks": [
                "http://blog.indianluxurytrains.com/2014/09/best-places-to-visit-in-karnataka.html"
            ],
            "locType": "castle",
            "longitude": "76.8315008",
            "latitude": "17.3415485",
            "address": "Bahmani Fort, Alanda Road, Fort, Rauza, Kalaburagi, Gulbarga taluku, Kalaburagi district, Karnataka, 585101, India",
            "closest_to": "badami"
        },
        "belgaum": {
            "blogLinks": [
                "https://en.wikipedia.org/wiki/Tourism_in_Karnataka",
                "https://www.quora.com/What-are-the-best-places-to-visit-on-a-3-day-trip-in-and-around-Karnataka"
            ],
            "locType": "county",
            "longitude": "74.75",
            "latitude": "16.333333",
            "address": "Belgaum, Belgaum district, Karnataka, India",
            "closest_to": "badami"
        },
        "lakkundi": {
            "blogLinks": [
                "https://en.wikipedia.org/wiki/Tourism_in_Karnataka"
            ],
            "locType": "village",
            "longitude": "76.4084687",
            "latitude": "16.5255464",
            "address": "Lakkundi, Muddebihala taluku, Bijapur district, Karnataka, India",
            "closest_to": "badami"
        },
        "kalasa": {
            "blogLinks": [
                "https://en.wikipedia.org/wiki/Tourism_in_Karnataka"
            ],
            "locType": "town",
            "longitude": "75.3582366",
            "latitude": "13.2322235",
            "address": "Kalasa, Mudigere taluk, Chikkamagaluru district, Karnataka, 577124, India",
            "closest_to": "sakleshpur"
        },
        "chikkamagalur": {
            "blogLinks": [
                "http://www.holidayiq.com/destinations/sakleshpur/"
            ],
            "locType": "station",
            "longitude": "75.789501",
            "latitude": "13.3030706",
            "address": "Chikkamagalur, SH57, Hosamane Badavane, Hiremagaluru, Chikkamagaluru taluku, Chikkamagaluru district, Karnataka, 577101, India",
            "closest_to": "sakleshpur"
        },
        "bellary district": {
            "blogLinks": [
                "https://en.wikipedia.org/wiki/Tourism_in_Karnataka"
            ],
            "locType": "administrative",
            "longitude": "76.7137978546465",
            "latitude": "15.20597305",
            "address": "Bellary district, Karnataka, India",
            "closest_to": "sakleshpur"
        },
        "hemavathi river": {
            "blogLinks": [
                "http://www.holidayiq.com/destinations/sakleshpur/"
            ],
            "locType": "dam",
            "longitude": "76.0556931",
            "latitude": "12.8267596",
            "address": "Hemavathi Reservoir, Hasana taluk, Hassan district, Karnataka, India",
            "closest_to": "sakleshpur"
        },
        "kuknur": {
            "blogLinks": [
                "https://en.wikipedia.org/wiki/Tourism_in_Karnataka"
            ],
            "locType": "village",
            "longitude": "75.9934934",
            "latitude": "15.4902753",
            "address": "Kukanura, Yelaburga taluku, Koppal district, Karnataka, 583232, India",
            "closest_to": "sakleshpur"
        },
        "hoysaleswara": {
            "blogLinks": [
                "http://blog.indianluxurytrains.com/2014/09/best-places-to-visit-in-karnataka.html"
            ],
            "locType": "place_of_worship",
            "longitude": "75.9941649",
            "latitude": "13.2127193",
            "address": "Hoysaleswara Temple, SH21, Halebidu, Beluru taluk, Hassan district, Karnataka, 573121, India",
            "closest_to": "sakleshpur"
        },
        "tamil nadu": {
            "blogLinks": [
                "https://en.wikipedia.org/wiki/Tourism_in_Karnataka",
                "https://www.quora.com/What-are-the-best-places-to-visit-on-a-3-day-trip-in-and-around-Karnataka"
            ],
            "locType": "bank",
            "longitude": "76.9514152",
            "latitude": "11.0025894",
            "address": "KARNATAKA BANK, Diwan Bhadur Road, Five Corner, RS Puram, Coimbatore, Coimbatore district, Tamil Nadu, 641001, India",
            "closest_to": "sakleshpur"
        },
        "botanical garden": {
            "blogLinks": [
                "https://www.quora.com/What-are-the-best-places-to-visit-on-a-3-day-trip-in-and-around-Karnataka"
            ],
            "locType": "protected_area",
            "longitude": "77.5744817798899",
            "latitude": "13.08099125",
            "address": "Botanical Garden, Cart road, Judicial Layout, Jakkur, Bangalore Urban, Karnataka, 560065, India",
            "closest_to": "sakleshpur"
        },
        "silent valley": {
            "blogLinks": [
                "https://www.quora.com/What-are-the-best-places-to-visit-on-a-3-day-trip-in-and-around-Karnataka"
            ],
            "locType": "hotel",
            "longitude": "76.5819054",
            "latitude": "12.3459371",
            "address": "Silent Shores Resort, Krishnaraja Sagara Road, Kurgalli, Bastipura, Srirangapattana taluk, Mandya district, Karnataka, 570027, India",
            "closest_to": "sakleshpur"
        },
        "karkala": {
            "blogLinks": [
                "https://en.wikipedia.org/wiki/Tourism_in_Karnataka",
                "https://www.quora.com/What-are-the-best-places-to-visit-on-a-3-day-trip-in-and-around-Karnataka"
            ],
            "locType": "town",
            "longitude": "74.9959586",
            "latitude": "13.2112826",
            "address": "Karkala, Karkala taluk, Udupi district, Karnataka, 574104, India",
            "closest_to": "sakleshpur"
        },
        "hubli junction": {
            "blogLinks": [
                "http://wikitravel.org/en/Badami"
            ],
            "locType": "station",
            "longitude": "75.1489563",
            "latitude": "15.3505517",
            "address": "Hubballi Junction, Gadag Road, Arihant Nagar, Kamaripet, Hubballi - \u0cb9\u0cc1\u0cac\u0ccd\u0cac\u0cb3\u0ccd\u0cb3\u0cbf, Hubballi taluku, Dharwad district, Karnataka, 580020, India",
            "closest_to": "sakleshpur"
        },
        "gadag": {
            "blogLinks": [
                "https://en.wikipedia.org/wiki/Tourism_in_Karnataka",
                "http://wikitravel.org/en/Badami"
            ],
            "locType": "town",
            "longitude": "75.6300786",
            "latitude": "15.4263647",
            "address": "Gadag, Gadag taluk, Gadag district, Karnataka, 582101, India",
            "closest_to": "sakleshpur"
        },
        "gokak": {
            "blogLinks": [
                "https://en.wikipedia.org/wiki/Tourism_in_Karnataka",
                "https://www.quora.com/What-are-the-best-places-to-visit-on-a-3-day-trip-in-and-around-Karnataka"
            ],
            "locType": "town",
            "longitude": "74.8224338",
            "latitude": "16.1693033",
            "address": "Gokak, Gokak taluku, Belgaum district, Karnataka, 591307, India",
            "closest_to": "badami"
        },
        "shimoga district": {
            "blogLinks": [
                "https://en.wikipedia.org/wiki/Tourism_in_Karnataka"
            ],
            "locType": "administrative",
            "longitude": "75.1312533993886",
            "latitude": "14.0558284",
            "address": "Shimoga district, Karnataka, India",
            "closest_to": "sakleshpur"
        },
        "kerala": {
            "blogLinks": [
                "https://www.quora.com/What-are-the-best-places-to-visit-on-a-3-day-trip-in-and-around-Karnataka"
            ],
            "locType": "restaurant",
            "longitude": "77.6382683",
            "latitude": "12.9726449",
            "address": "New Life Kerala Mess, Sai Baba Mandira Road, Mottappanapalaya, Indiranagar, Bengaluru, Bangalore Urban, Karnataka, 560001, India",
            "closest_to": "sakleshpur"
        },
        "kali river": {
            "blogLinks": [
                "https://www.quora.com/What-are-the-best-places-to-visit-on-a-3-day-trip-in-and-around-Karnataka"
            ],
            "locType": "river",
            "longitude": "74.5802901",
            "latitude": "15.0145378",
            "address": "Kali, Joida taluk, Uttara Kannada, Karnataka, India",
            "closest_to": "sakleshpur"
        },
        "uttara kannada": {
            "blogLinks": [
                "https://en.wikipedia.org/wiki/Tourism_in_Karnataka",
                "https://www.quora.com/What-are-the-best-places-to-visit-on-a-3-day-trip-in-and-around-Karnataka"
            ],
            "locType": "administrative",
            "longitude": "74.4729163045979",
            "latitude": "14.6726379",
            "address": "Uttara Kannada, Karnataka, India",
            "closest_to": "sakleshpur"
        },
        "belgaum fort": {
            "blogLinks": [
                "https://en.wikipedia.org/wiki/Tourism_in_Karnataka"
            ],
            "locType": "locality",
            "longitude": "74.5255651",
            "latitude": "15.8581696",
            "address": "Belgaum Fort, Belagavi, Belagavi taluku, Belgaum district, Karnataka, 590001, India",
            "closest_to": "badami"
        },
        "india": {
            "blogLinks": [
                "https://en.wikipedia.org/wiki/Tourism_in_Karnataka",
                "https://www.thrillophilia.com/places-to-visit-in-hampi",
                "http://blog.indianluxurytrains.com/2014/09/best-places-to-visit-in-karnataka.html",
                "https://www.quora.com/What-are-the-best-places-to-visit-on-a-3-day-trip-in-and-around-Karnataka",
                "http://www.karnatakatourism.org/"
            ],
            "locType": "administrative",
            "longitude": "75.7223521",
            "latitude": "14.5203896",
            "address": "Karnataka, India",
            "closest_to": "sakleshpur"
        },
        "dattatreya": {
            "blogLinks": [
                "https://en.wikipedia.org/wiki/Tourism_in_Karnataka"
            ],
            "locType": "hamlet",
            "longitude": "75.7539724",
            "latitude": "13.4315216",
            "address": "Inam Dattatreya Pitha, Chikkamagaluru taluku, Chikkamagaluru district, Karnataka, India",
            "closest_to": "sakleshpur"
        },
        "halebidu": {
            "blogLinks": [
                "https://en.wikipedia.org/wiki/Tourism_in_Karnataka"
            ],
            "locType": "village",
            "longitude": "76.4607075",
            "latitude": "12.359893",
            "address": "Halebidu, Hunasuru taluk, Mysuru district, Karnataka, India",
            "closest_to": "sakleshpur"
        },
        "monkey temple": {
            "blogLinks": [
                "https://www.thrillophilia.com/places-to-visit-in-hampi"
            ],
            "locType": "place_of_worship",
            "longitude": "76.469358",
            "latitude": "15.354654",
            "address": "Monkey temple, SH130, Basapura, Koppala taluku, Koppal district, Karnataka, India",
            "closest_to": "sakleshpur"
        },
        "bandipur": {
            "blogLinks": [
                "https://en.wikipedia.org/wiki/Tourism_in_Karnataka"
            ],
            "locType": "village",
            "longitude": "76.6285739",
            "latitude": "11.6662708",
            "address": "Bandipur, Gundlupet taluk, Chamarajanagar district, Karnataka, India",
            "closest_to": "sakleshpur"
        },
        "bellary": {
            "blogLinks": [
                "https://en.wikipedia.org/wiki/Tourism_in_Karnataka"
            ],
            "locType": "county",
            "longitude": "76.8323648",
            "latitude": "15.2485413",
            "address": "Bellary, Bellary district, Karnataka, India",
            "closest_to": "sakleshpur"
        },
        "bagalkote": {
            "blogLinks": [
                "https://en.wikipedia.org/wiki/Tourism_in_Karnataka"
            ],
            "locType": "administrative",
            "longitude": "75.5825586777167",
            "latitude": "16.28998085",
            "address": "Bagalkote district, Karnataka, India",
            "closest_to": "badami"
        },
        "bidar": {
            "blogLinks": [
                "https://www.quora.com/What-are-the-best-places-to-visit-on-a-3-day-trip-in-and-around-Karnataka"
            ],
            "locType": "county",
            "longitude": "77.333333",
            "latitude": "18.083333",
            "address": "Bidar, Bidar district, Karnataka, India",
            "closest_to": "badami"
        },
        "ananthapadmanabha": {
            "blogLinks": [
                "https://www.quora.com/What-are-the-best-places-to-visit-on-a-3-day-trip-in-and-around-Karnataka"
            ],
            "locType": "place_of_worship",
            "longitude": "74.8937899082456",
            "latitude": "12.9039019",
            "address": "Kudupu Ananthapadmanabha Temple, Solapur-Mangalore Highway, Shakthinagar, Kulashekara, Kudupu, Mangaluru taluk, Dakshina Kannada, Karnataka, 575007, India",
            "closest_to": "sakleshpur"
        },
        "koppal district": {
            "blogLinks": [
                "https://en.wikipedia.org/wiki/Tourism_in_Karnataka"
            ],
            "locType": "administrative",
            "longitude": "76.310639117029",
            "latitude": "15.57825725",
            "address": "Koppal district, Karnataka, India",
            "closest_to": "sakleshpur"
        },
        "mandya": {
            "blogLinks": [
                "https://en.wikipedia.org/wiki/Tourism_in_Karnataka"
            ],
            "locType": "town",
            "longitude": "76.8937392",
            "latitude": "12.5217836",
            "address": "Mandya, Mandya taluk, Mandya district, Karnataka, 571401, India",
            "closest_to": "sakleshpur"
        },
        "siddheshwara": {
            "blogLinks": [
                "https://en.wikipedia.org/wiki/Tourism_in_Karnataka"
            ],
            "locType": "pharmacy",
            "longitude": "77.5876527",
            "latitude": "13.0797146",
            "address": "Siddheshwara Medicals, Judicial Layout, Allalasandra, Bangalore, 7th Main Road, Judicial Layout, Bengaluru, Bangalore Urban, Karnataka, 560001, India",
            "closest_to": "sakleshpur"
        },
        "kabini": {
            "blogLinks": [
                "https://en.wikipedia.org/wiki/Tourism_in_Karnataka"
            ],
            "locType": "river",
            "longitude": "76.4152088",
            "latitude": "12.0140065",
            "address": "Kabini, Heggadadevanakote taluk, Mysuru district, Karnataka, India",
            "closest_to": "sakleshpur"
        },
        "bankapura": {
            "blogLinks": [
                "https://en.wikipedia.org/wiki/Tourism_in_Karnataka"
            ],
            "locType": "town",
            "longitude": "75.2639298",
            "latitude": "14.9217443",
            "address": "Bankapura, Shiggaon taluk, Haveri district, Karnataka, 581202, India",
            "closest_to": "sakleshpur"
        },
        "mallikarjuna": {
            "blogLinks": [
                "https://en.wikipedia.org/wiki/Tourism_in_Karnataka"
            ],
            "locType": "village",
            "longitude": "77.0590502",
            "latitude": "17.8106693",
            "address": "Mallikarjuna Vadi, Basavakalyana taluku, Bidar district, Karnataka, India",
            "closest_to": "badami"
        },
        "ganeshgudi": {
            "blogLinks": [
                "https://www.quora.com/What-are-the-best-places-to-visit-on-a-3-day-trip-in-and-around-Karnataka"
            ],
            "locType": "village",
            "longitude": "74.5335693",
            "latitude": "15.2815822",
            "address": "Ganeshagudi, Joida taluk, Uttara Kannada, Karnataka, India",
            "closest_to": "sakleshpur"
        },
        "anshi national park": {
            "blogLinks": [
                "https://en.wikipedia.org/wiki/Tourism_in_Karnataka"
            ],
            "locType": "national_park",
            "longitude": "74.3934408094182",
            "latitude": "14.9994424",
            "address": "Anshi National Park, SH46, Bidoli, Joida taluk, Uttara Kannada, Karnataka, India",
            "closest_to": "sakleshpur"
        },
        "sagara": {
            "blogLinks": [
                "https://en.wikipedia.org/wiki/Tourism_in_Karnataka"
            ],
            "locType": "town",
            "longitude": "75.0262551",
            "latitude": "14.1666594",
            "address": "Sagara, Sagara taluk, Shimoga district, Karnataka, 577400, India",
            "closest_to": "sakleshpur"
        },
        "veera narayana temple": {
            "blogLinks": [
                "https://www.quora.com/What-are-the-best-places-to-visit-on-a-3-day-trip-in-and-around-Karnataka"
            ],
            "locType": "place_of_worship",
            "longitude": "75.9953525",
            "latitude": "13.2821212",
            "address": "Veera Narayana Temple, Chikmagalur Javagal Road, Narasipura, Chikkamagaluru taluku, Chikkamagaluru district, Karnataka, India",
            "closest_to": "sakleshpur"
        },
        "haveri": {
            "blogLinks": [
                "https://en.wikipedia.org/wiki/Tourism_in_Karnataka"
            ],
            "locType": "town",
            "longitude": "75.3996731",
            "latitude": "14.7874825",
            "address": "Haveri, Haveri taluku, Haveri district, Karnataka, 581110, India",
            "closest_to": "sakleshpur"
        },
        "grs fantasy park": {
            "blogLinks": [
                "https://www.quora.com/What-are-the-best-places-to-visit-on-a-3-day-trip-in-and-around-Karnataka"
            ],
            "locType": "theme_park",
            "longitude": "76.6338102194966",
            "latitude": "12.3540981",
            "address": "GRS Fantasy Park, Ring Road, Kumbara Koppalu, Metagalli Industrial Area, Mysuru, Mysuru taluk, Mysuru district, Karnataka, 570001, India",
            "closest_to": "sakleshpur"
        },
        "sharadamba": {
            "blogLinks": [
                "https://www.quora.com/What-are-the-best-places-to-visit-on-a-3-day-trip-in-and-around-Karnataka"
            ],
            "locType": "place_of_worship",
            "longitude": "77.5656194",
            "latitude": "12.9321898",
            "address": "Sharadamba Temple, 7th Main Road, Yediyur, Thyagaraja Nagar, Bengaluru, Bangalore Urban, Karnataka, 560001, India",
            "closest_to": "sakleshpur"
        },
        "kalyan": {
            "blogLinks": [
                "https://www.quora.com/What-are-the-best-places-to-visit-on-a-3-day-trip-in-and-around-Karnataka"
            ],
            "locType": "suburb",
            "longitude": "77.6403368",
            "latitude": "13.0221416",
            "address": "Kalyan Nagar, Chelekere, Bangalore Urban, Karnataka, India",
            "closest_to": "sakleshpur"
        },
        "agastya": {
            "blogLinks": [
                "http://travel.india.com/badami/places-to-visit/"
            ],
            "locType": "residential",
            "longitude": "77.7512485332492",
            "latitude": "12.9796965",
            "address": "Agastya Guru Palatia Apartments, Kadugodi, Prashanth Extension, Bangalore Urban, Karnataka, 56066, India",
            "closest_to": "sakleshpur"
        },
        "kodagu": {
            "blogLinks": [
                "https://en.wikipedia.org/wiki/Tourism_in_Karnataka",
                "http://blog.indianluxurytrains.com/2014/09/best-places-to-visit-in-karnataka.html",
                "https://www.quora.com/What-are-the-best-places-to-visit-on-a-3-day-trip-in-and-around-Karnataka"
            ],
            "locType": "administrative",
            "longitude": "75.6677235950852",
            "latitude": "12.38117345",
            "address": "Kodagu, Karnataka, India",
            "closest_to": "sakleshpur"
        },
        "anjanadri hill": {
            "blogLinks": [
                "https://www.thrillophilia.com/places-to-visit-in-hampi"
            ],
            "locType": "peak",
            "longitude": "76.4691482",
            "latitude": "15.3550046",
            "address": "Anjanadri Hill, Gangavati taluku, Koppal district, Karnataka, India",
            "closest_to": "sakleshpur"
        },
        "badami cave": {
            "blogLinks": [
                "http://travel.india.com/badami/places-to-visit/"
            ],
            "locType": "attraction",
            "longitude": "75.6842639478391",
            "latitude": "15.9184483",
            "address": "Badami Cave Temples, Bahanpur - Gadankeri Highway, Banashankari, Badami taluku, Bagalkote district, Karnataka, 587200, India",
            "closest_to": "sakleshpur"
        },
        "shimoga": {
            "blogLinks": [
                "https://en.wikipedia.org/wiki/Tourism_in_Karnataka"
            ],
            "locType": "city",
            "longitude": "75.569737",
            "latitude": "13.9311723",
            "address": "Shivamogga, Shivamogga taluku, Shimoga district, Karnataka, 577200, India",
            "closest_to": "sakleshpur"
        },
        "channarayapatna of hassan": {
            "blogLinks": [
                "http://blog.indianluxurytrains.com/2014/09/best-places-to-visit-in-karnataka.html"
            ],
            "locType": "primary",
            "longitude": "76.4628912",
            "latitude": "13.0775815",
            "address": "Tiptur - Channarayapatna Road, Rampura, Channarayapattana taluk, Hassan district, Karnataka, India",
            "closest_to": "sakleshpur"
        },
        "srirangapattana": {
            "blogLinks": [
                "http://www.holidayiq.com/destinations/sakleshpur/"
            ],
            "locType": "administrative",
            "longitude": "76.703932434547",
            "latitude": "12.40148225",
            "address": "Srirangapattana taluk, Mandya district, Karnataka, India",
            "closest_to": "sakleshpur"
        },
        "haveri district": {
            "blogLinks": [
                "https://en.wikipedia.org/wiki/Tourism_in_Karnataka"
            ],
            "locType": "administrative",
            "longitude": "75.3845674304742",
            "latitude": "14.714635",
            "address": "Haveri district, Karnataka, India",
            "closest_to": "sakleshpur"
        },
        "south karnataka": {
            "blogLinks": [
                "https://en.wikipedia.org/wiki/Tourism_in_Karnataka"
            ],
            "locType": "residential",
            "longitude": "77.8040874",
            "latitude": "13.2942848",
            "address": "s, Vijayapura, Devanahalli taluk, Bangalore Rural, Karnataka, 562135, India",
            "closest_to": "sakleshpur"
        },
        "shivanasamudra": {
            "blogLinks": [
                "https://en.wikipedia.org/wiki/Tourism_in_Karnataka"
            ],
            "locType": "village",
            "longitude": "77.1703215",
            "latitude": "12.2719056",
            "address": "Shivanasamudra, Kollegala taluk, Chamarajanagar district, Karnataka, India",
            "closest_to": "sakleshpur"
        },
        "anegundi": {
            "blogLinks": [
                "https://en.wikipedia.org/wiki/Tourism_in_Karnataka",
                "https://www.thrillophilia.com/places-to-visit-in-hampi"
            ],
            "locType": "village",
            "longitude": "76.4924232",
            "latitude": "15.3509583",
            "address": "Anegundi, Gangavati taluku, Koppal district, Karnataka, India",
            "closest_to": "sakleshpur"
        },
        "hampi": {
            "blogLinks": [
                "https://en.wikipedia.org/wiki/Tourism_in_Karnataka",
                "https://www.thrillophilia.com/places-to-visit-in-hampi",
                "http://blog.indianluxurytrains.com/2014/09/best-places-to-visit-in-karnataka.html",
                "https://www.quora.com/What-are-the-best-places-to-visit-on-a-3-day-trip-in-and-around-Karnataka"
            ],
            "locType": "village",
            "longitude": "76.4606199",
            "latitude": "15.3359769",
            "address": "Hampe, Hosapete taluk, Bellary district, Karnataka, 583239, India",
            "closest_to": "sakleshpur"
        },
        "river tungabhadra": {
            "blogLinks": [
                "https://www.thrillophilia.com/places-to-visit-in-hampi"
            ],
            "locType": "river",
            "longitude": "76.4931607",
            "latitude": "15.3446123",
            "address": "Tungabhadra, Gangavati taluku, Koppal district, Karnataka, India",
            "closest_to": "sakleshpur"
        },
        "manjunatha temple": {
            "blogLinks": [
                "https://www.quora.com/What-are-the-best-places-to-visit-on-a-3-day-trip-in-and-around-Karnataka"
            ],
            "locType": "place_of_worship",
            "longitude": "77.5640116772773",
            "latitude": "12.9211928",
            "address": "Devagiri Manjunatha Swamy Temple, 30th Cross, Jayanagar 8th Block, Banashankari 2nd Stage, Bengaluru, Bangalore Urban, Karnataka, 560001, India",
            "closest_to": "sakleshpur"
        },
        "yellapur": {
            "blogLinks": [
                "https://www.quora.com/What-are-the-best-places-to-visit-on-a-3-day-trip-in-and-around-Karnataka"
            ],
            "locType": "town",
            "longitude": "74.7061458",
            "latitude": "14.9622518",
            "address": "Yellapura, Yallapura taluk, Uttara Kannada, Karnataka, 581359, India",
            "closest_to": "sakleshpur"
        },
        "sharavati": {
            "blogLinks": [
                "https://en.wikipedia.org/wiki/Tourism_in_Karnataka",
                "https://www.quora.com/What-are-the-best-places-to-visit-on-a-3-day-trip-in-and-around-Karnataka"
            ],
            "locType": "river",
            "longitude": "74.7647294",
            "latitude": "14.2360979",
            "address": "Sharavati, Sagara taluk, Shimoga district, Karnataka, India",
            "closest_to": "sakleshpur"
        },
        "kanaganahalli": {
            "blogLinks": [
                "https://en.wikipedia.org/wiki/Tourism_in_Karnataka"
            ],
            "locType": "village",
            "longitude": "76.5876958",
            "latitude": "12.5588444",
            "address": "Kanaganahalli, Pandavapura taluk, Mandya district, Karnataka, India",
            "closest_to": "sakleshpur"
        },