{
    "mentions": {
        "bhatkal": {
            "blogLinks": [
                "http://www.skbcarrentals.com/destination/karnataka/heritage/"
            ],
            "locType": "town",
            "longitude": "74.5485295",
            "latitude": "13.9952114",
            "address": "Bhatkal, Bhatkala taluk, Uttara Kannada, Karnataka, 581320, India",
            "closest_to": "manipal"
        },
        "kozhikode": {
            "blogLinks": [
                "https://www.yatra.com/india-tour-packages/holidays-in-thrissur"
            ],
            "locType": "primary",
            "longitude": "76.6598864",
            "latitude": "12.2926117",
            "address": "Kozhikode - Kollegal Highway, Ittigegudu, Mysuru, Mysuru taluk, Mysuru district, Karnataka, 570001, India",
            "closest_to": "manipal"
        },
        "kukke subrahmanya": {
            "blogLinks": [
                "http://www.skbcarrentals.com/destination/karnataka/heritage/"
            ],
            "locType": "village",
            "longitude": "75.6131771",
            "latitude": "12.6677868",
            "address": "Kukke Subrahmanya, Sulya taluk, Dakshina Kannada, Karnataka, 574238, India",
            "closest_to": "manipal"
        },
        "hadagali": {
            "blogLinks": [
                "http://www.skbcarrentals.com/destination/karnataka/heritage/"
            ],
            "locType": "village",
            "longitude": "75.9370122",
            "latitude": "16.8109502",
            "address": "Hadagali, Vijayapura taluk, Bijapur district, Karnataka, India",
            "closest_to": "badami"
        },
        "kundapur": {
            "blogLinks": [
                "https://en.wikipedia.org/wiki/Udupi",
                "http://www.skbcarrentals.com/destination/karnataka/heritage/"
            ],
            "locType": "school",
            "longitude": "74.6906749",
            "latitude": "13.6343509",
            "address": "United Basel mission church Higher Primary School, Kundapur, Chikkansal Road, Vaderahobali, Kundapura, \u0c95\u0cc1\u0c82\u0ca6\u0cbe\u0caa\u0cc1\u0cb0 \u0ca4\u0cbe\u0cb2\u0cc2\u0c95\u0cc1, Udupi district, Karnataka, 576200, India",
            "closest_to": "manipal"
        },
        "sakaleshpura": {
            "blogLinks": [
                "http://www.skbcarrentals.com/destination/karnataka/heritage/"
            ],
            "locType": "town",
            "longitude": "75.7862318",
            "latitude": "12.9434349",
            "address": "Sakaleshpura, Sakaleshapura taluk, Hassan district, Karnataka, 573134, India",
            "closest_to": "manipal"
        },
        "anegundi": {
            "blogLinks": [
                "http://www.skbcarrentals.com/destination/karnataka/heritage/"
            ],
            "locType": "village",
            "longitude": "76.4924232",
            "latitude": "15.3509583",
            "address": "Anegundi, Gangavati taluku, Koppal district, Karnataka, India",
            "closest_to": "manipal"
        },
        "kannada": {
            "blogLinks": [
                "https://en.wikipedia.org/wiki/Udupi",
                "http://www.skbcarrentals.com/destination/karnataka/heritage/"
            ],
            "locType": "administrative",
            "longitude": "75.1008028650794",
            "latitude": "12.8114089",
            "address": "Dakshina Kannada, Karnataka, India",
            "closest_to": "manipal"
        },
        "kudala sangama": {
            "blogLinks": [
                "http://www.skbcarrentals.com/destination/karnataka/heritage/"
            ],
            "locType": "village",
            "longitude": "76.0604244",
            "latitude": "16.2033992",
            "address": "Kudala Sangama, Hunagunda taluku, Bagalkote district, Karnataka, India",
            "closest_to": "badami"
        },
        "sakleshpur": {
            "blogLinks": [
                "http://www.skbcarrentals.com/destination/karnataka/heritage/"
            ],
            "locType": "town",
            "longitude": "75.7862318",
            "latitude": "12.9434349",
            "address": "Sakaleshpura, Sakaleshapura taluk, Hassan district, Karnataka, 573134, India",
            "closest_to": "manipal"
        },
        "renuka devi temple": {
            "blogLinks": [
                "http://www.skbcarrentals.com/destination/karnataka/heritage/"
            ],
            "locType": "place_of_worship",
            "longitude": "75.9246108",
            "latitude": "14.4562651",
            "address": "Renuka Devi Temple, Nituvalli Road, K.T. Jambanna Nagara, Davanagere, Davanagere taluku, Davanagere district, Karnataka, 577002, India",
            "closest_to": "manipal"
        },
        "ballari": {
            "blogLinks": [
                "http://www.skbcarrentals.com/destination/karnataka/heritage/"
            ],
            "locType": "city",
            "longitude": "76.9125211",
            "latitude": "15.1467299",
            "address": "Ballari, Bellary taluk, Bellary district, Karnataka, India",
            "closest_to": "badami"
        },
        "jumma masjid": {
            "blogLinks": [
                "http://www.skbcarrentals.com/destination/karnataka/heritage/"
            ],
            "locType": "place_of_worship",
            "longitude": "75.0331004",
            "latitude": "14.166827",
            "address": "Jumma Masjid, J. C. Road, Sagara, Sagara taluk, Shimoga district, Karnataka, 577400, India",
            "closest_to": "manipal"
        },
        "jog road": {
            "blogLinks": [
                "http://www.skbcarrentals.com/destination/karnataka/heritage/"
            ],
            "locType": "locality",
            "longitude": "74.8128715",
            "latitude": "14.2276106",
            "address": "Jog Falls, Joga - Kargal, Sagara taluk, Shimoga district, Karnataka, India",
            "closest_to": "manipal"
        },
        "udupi city": {
            "blogLinks": [
                "https://en.wikipedia.org/wiki/Udupi"
            ],
            "locType": "city",
            "longitude": "74.7473232",
            "latitude": "13.3419169",
            "address": "Udupi, Udupi taluku, Udupi district, Karnataka, 576101, India",
            "closest_to": "manipal"
        },
        "virupaksha temple": {
            "blogLinks": [
                "http://www.mapsofindia.com/karnataka/places-to-visit-in-hampi.html"
            ],
            "locType": "place_of_worship",
            "longitude": "76.4587777156223",
            "latitude": "15.3351754",
            "address": "Virupaksha Temple, Hampi Bazaar, Hampe, Hosapete taluk, Bellary district, Karnataka, 583239, India",
            "closest_to": "manipal"
        },
        "dharwad": {
            "blogLinks": [
                "http://www.skbcarrentals.com/destination/karnataka/heritage/"
            ],
            "locType": "city",
            "longitude": "75.0066516",
            "latitude": "15.4540505",
            "address": "Dharwad, Dharawada taluku, Dharwad district, Karnataka, 580001, India",
            "closest_to": "manipal"
        },
        "kaveri": {
            "blogLinks": [
                "http://www.skbcarrentals.com/destination/karnataka/heritage/"
            ],
            "locType": "river",
            "longitude": "77.0635531",
            "latitude": "12.1687878",
            "address": "Kaveri, Kollegala taluk, Chamarajanagar district, Karnataka, India",
            "closest_to": "manipal"
        },
        "hampi bazaar": {
            "blogLinks": [
                "http://www.mapsofindia.com/karnataka/places-to-visit-in-hampi.html"
            ],
            "locType": "unclassified",
            "longitude": "76.4621571",
            "latitude": "15.3347585",
            "address": "Hampi Bazaar, Hampe, Hosapete taluk, Bellary district, Karnataka, 583239, India",
            "closest_to": "manipal"
        },
        "hospet": {
            "blogLinks": [
                "http://www.skbcarrentals.com/destination/karnataka/heritage/",
                "http://www.solobackpacker.com/2012/02/04/aihole-an-architectural-wonder-in-stones/"
            ],
            "locType": "town",
            "longitude": "76.3870527",
            "latitude": "15.266079",
            "address": "Hosapete, Hosapete taluk, Bellary district, Karnataka, 583200, India",
            "closest_to": "manipal"
        },
        "lal bagh": {
            "blogLinks": [
                "https://www.tripoto.com/weekend-getaways/from-manipal"
            ],
            "locType": "bus_stop",
            "longitude": "74.8386152",
            "latitude": "12.8859223",
            "address": "Lal Bagh Bus Stop, Mahatma Gandhi Road, Lalbagh, Ladyhill, Mangaluru, Mangaluru taluk, Dakshina Kannada, Karnataka, 575001, India",
            "closest_to": "manipal"
        },
        "mahakali": {
            "blogLinks": [
                "http://www.nivalink.com/destination/manipal"
            ],
            "locType": "residential",
            "longitude": "74.7253262",
            "latitude": "13.3420788",
            "address": "Mahakali Marga, Ambalapadi, Udupi, Udupi taluku, Udupi district, Karnataka, 576101, India",
            "closest_to": "manipal"
        },
        "kodagu-coorg": {
            "blogLinks": [
                "http://www.skbcarrentals.com/destination/karnataka/heritage/"
            ],
            "locType": "bank",
            "longitude": "75.7356311",
            "latitude": "12.4232254",
            "address": "Karnataka Bank, College Road, Madikeri, Madikeri taluku, Kodagu, Karnataka, India",
            "closest_to": "manipal"
        },
        "dakshina kannada": {
            "blogLinks": [
                "https://en.wikipedia.org/wiki/Udupi"
            ],
            "locType": "administrative",
            "longitude": "75.1008028650794",
            "latitude": "12.8114089",
            "address": "Dakshina Kannada, Karnataka, India",
            "closest_to": "manipal"
        },
        "santekatte": {
            "blogLinks": [
                "https://en.wikipedia.org/wiki/Udupi"
            ],
            "locType": "village",
            "longitude": "74.7369919",
            "latitude": "13.38436",
            "address": "Santekatte, Udupi taluku, Udupi district, Karnataka, India",
            "closest_to": "manipal"
        },
        "anegondi": {
            "blogLinks": [
                "http://www.mapsofindia.com/karnataka/places-to-visit-in-hampi.html"
            ],
            "locType": "village",
            "longitude": "76.4924232",
            "latitude": "15.3509583",
            "address": "Anegundi, Gangavati taluku, Koppal district, Karnataka, India",
            "closest_to": "manipal"
        },
        "udupi district": {
            "blogLinks": [
                "https://en.wikipedia.org/wiki/Udupi"
            ],
            "locType": "administrative",
            "longitude": "74.7469037178649",
            "latitude": "13.49007305",
            "address": "Udupi district, Karnataka, India",
            "closest_to": "manipal"
        },
        "dharmasthala": {
            "blogLinks": [
                "http://www.skbcarrentals.com/destination/karnataka/heritage/"
            ],
            "locType": "village",
            "longitude": "75.3813122",
            "latitude": "12.9519571",
            "address": "Dharmasthala, Beltangadi taluk, Dakshina Kannada, Karnataka, 574216, India",
            "closest_to": "manipal"
        },
        "moodbidri": {
            "blogLinks": [
                "http://www.nivalink.com/destination/manipal"
            ],
            "locType": "place_of_worship",
            "longitude": "74.9956313829407",
            "latitude": "13.0656537",
            "address": "Corpus Christi Church, Moodbidri, Solapur-Mangalore Highway, Miyyar, Karkala taluk, Udupi district, Karnataka, 574107, India",
            "closest_to": "manipal"
        },
        "coimbatore": {
            "blogLinks": [
                "https://www.tripoto.com/weekend-getaways/from-manipal",
                "https://www.yatra.com/india-tour-packages/holidays-in-thrissur"
            ],
            "locType": "trunk",
            "longitude": "76.6318246",
            "latitude": "11.6793976",
            "address": "Gundlupet - Coimbatore Highway, Bandipur, Gundlupet taluk, Chamarajanagar district, Karnataka, India",
            "closest_to": "manipal"
        },
        "bagalkot district": {
            "blogLinks": [
                "http://www.skbcarrentals.com/destination/karnataka/heritage/"
            ],
            "locType": "city",
            "longitude": "75.6967919",
            "latitude": "16.1853166",
            "address": "Bagalakote, Bagalakote taluk, Bagalkote district, Karnataka, India",
            "closest_to": "badami"
        },
        "north fort": {
            "blogLinks": [
                "http://www.skbcarrentals.com/destination/karnataka/heritage/"
            ],
            "locType": "yes",
            "longitude": "75.5823545103161",
            "latitude": "13.94174775",
            "address": "Karnataka Electric Board, 100 ft Ring Road, Basavana Gudi, Shivamogga, Shivamogga taluku, Shimoga district, Karnataka, 577200, India",
            "closest_to": "manipal"
        },
        "hubballi": {
            "blogLinks": [
                "http://www.skbcarrentals.com/destination/karnataka/heritage/"
            ],
            "locType": "administrative",
            "longitude": "75.1516752287964",
            "latitude": "15.3341153",
            "address": "Hubballi taluku, Dharwad district, Karnataka, India",
            "closest_to": "manipal"
        },
        "gangolli": {
            "blogLinks": [
                "https://en.wikipedia.org/wiki/Udupi"
            ],
            "locType": "school",
            "longitude": "74.6642475",
            "latitude": "13.6554353",
            "address": "Konchadi Radha Shyne Government Higher Primary School, Kharvikeri, Gangolli, NH66, Navunda, \u0c95\u0cc1\u0c82\u0ca6\u0cbe\u0caa\u0cc1\u0cb0 \u0ca4\u0cbe\u0cb2\u0cc2\u0c95\u0cc1, Udupi district, Karnataka, 576224, India",
            "closest_to": "manipal"
        },
        "halebid": {
            "blogLinks": [
                "http://www.skbcarrentals.com/destination/karnataka/heritage/"
            ],
            "locType": "village",
            "longitude": "75.9918793",
            "latitude": "13.2167959",
            "address": "Halebidu, Beluru taluk, Hassan district, Karnataka, 573121, India",
            "closest_to": "manipal"
        },
        "south goa": {
            "blogLinks": [
                "https://www.tripoto.com/weekend-getaways/from-badami"
            ],
            "locType": "bank",
            "longitude": "73.9583411",
            "latitude": "15.2740083",
            "address": "Karnataka bank, NH66, Aquem, Fatorda, Margao, South Goa, Goa, 403600, India",
            "closest_to": "manipal"
        },
        "kannur": {
            "blogLinks": [
                "http://www.skbcarrentals.com/destination/karnataka/heritage/"
            ],
            "locType": "construction",
            "longitude": "74.8858161",
            "latitude": "12.8487602",
            "address": "Netravati bridge - Kannur Bypass Road (Proposed), Padil, Bajal, Mangaluru taluk, Dakshina Kannada, Karnataka, 575007, India",
            "closest_to": "manipal"
        },
        "kundapura": {
            "blogLinks": [
                "http://www.nivalink.com/destination/manipal"
            ],
            "locType": "town",
            "longitude": "74.6915722",
            "latitude": "13.6250993",
            "address": "Kundapura, \u0c95\u0cc1\u0c82\u0ca6\u0cbe\u0caa\u0cc1\u0cb0 \u0ca4\u0cbe\u0cb2\u0cc2\u0c95\u0cc1, Udupi district, Karnataka, 576200, India",
            "closest_to": "manipal"
        },
        "banashankari": {
            "blogLinks": [
                "http://www.skbcarrentals.com/destination/karnataka/heritage/"
            ],
            "locType": "hamlet",
            "longitude": "75.7046777",
            "latitude": "15.8876779",
            "address": "Banashankari, Badami taluku, Bagalkote district, Karnataka, India",
            "closest_to": "manipal"
        },
        "hosanagar": {
            "blogLinks": [
                "http://www.skbcarrentals.com/destination/karnataka/heritage/"
            ],
            "locType": "marketplace",
            "longitude": "75.0631116",
            "latitude": "13.9166601",
            "address": "Hosanagar Santhe Market, Nehru Road, Kaluru, Hosanagara taluk, Shimoga district, Karnataka, 577418, India",
            "closest_to": "manipal"
        },
        "maragunda": {
            "blogLinks": [
                "http://www.skbcarrentals.com/destination/karnataka/heritage/"
            ],
            "locType": "village",
            "longitude": "75.6201653",
            "latitude": "12.9867236",
            "address": "Maragunda, Sakaleshapura taluk, Hassan district, Karnataka, India",
            "closest_to": "manipal"
        },
        "malpe beach": {
            "blogLinks": [
                "http://manipalblog.com/2012/04/06/5-places-you-can-visit-on-weekends-in-manipal-tips-for-the-foreign-exchange-student/"
            ],
            "locType": "marina",
            "longitude": "74.6977767",
            "latitude": "13.3610748",
            "address": "Malpe Beach, Malpe Road, Adi Udupi, Malpe, Udupi taluku, Udupi district, Karnataka, 576101, India",
            "closest_to": "manipal"
        },
        "belgaum": {
            "blogLinks": [
                "http://www.skbcarrentals.com/destination/karnataka/heritage/",
                "http://www.solobackpacker.com/2011/06/11/travelling-solo-to-north-karnataka-badami/"
            ],
            "locType": "county",
            "longitude": "74.75",
            "latitude": "16.333333",
            "address": "Belgaum, Belgaum district, Karnataka, India",
            "closest_to": "badami"
        },
        "mangalore international airport": {
            "blogLinks": [
                "https://en.wikipedia.org/wiki/Udupi"
            ],
            "locType": "aerodrome",
            "longitude": "74.887492668144",
            "latitude": "12.95518575",
            "address": "Mangalore International Airport, Airport Entry Road, Gandhinagar, Kenjar, Mangaluru taluk, Dakshina Kannada, Karnataka, 575015, India",
            "closest_to": "manipal"
        },
        "keladi": {
            "blogLinks": [
                "http://www.skbcarrentals.com/destination/karnataka/heritage/"
            ],
            "locType": "village",
            "longitude": "75.0165753",
            "latitude": "14.2214761",
            "address": "Keladi, Sagara taluk, Shimoga district, Karnataka, India",
            "closest_to": "manipal"
        },
        "peenya": {
            "blogLinks": [
                "https://www.travelblog.org/Asia/India/Karnataka/Bangalore/Koramangala/blog-914055.html"
            ],
            "locType": "suburb",
            "longitude": "77.5273253",
            "latitude": "13.0329419",
            "address": "Peenya, Bengaluru, Bangalore Urban, Karnataka, 560001, India",
            "closest_to": "manipal"
        },
        "coorg": {
            "blogLinks": [
                "http://www.skbcarrentals.com/destination/karnataka/heritage/"
            ],
            "locType": "town",
            "longitude": "75.740031",
            "latitude": "12.4204003",
            "address": "Madikeri, Madikeri taluku, Kodagu, Karnataka, India",
            "closest_to": "manipal"
        },
        "marikamba temple the marikamba temple": {
            "blogLinks": [
                "http://www.skbcarrentals.com/destination/karnataka/heritage/"
            ],
            "locType": "place_of_worship",
            "longitude": "74.8103631279317",
            "latitude": "13.8626958",
            "address": "Marikamba Temple, NH766C;SH26, Halkal, \u0c95\u0cc1\u0c82\u0ca6\u0cbe\u0caa\u0cc1\u0cb0 \u0ca4\u0cbe\u0cb2\u0cc2\u0c95\u0cc1, Udupi district, Karnataka, 576220, India",
            "closest_to": "manipal"
        },
        "jog falls": {
            "blogLinks": [
                "http://www.skbcarrentals.com/destination/karnataka/heritage/"
            ],
            "locType": "locality",
            "longitude": "74.8128715",
            "latitude": "14.2276106",
            "address": "Jog Falls, Joga - Kargal, Sagara taluk, Shimoga district, Karnataka, India",
            "closest_to": "manipal"
        },
        "syndicate circle of manipal": {
            "blogLinks": [
                "https://en.wikipedia.org/wiki/Udupi"
            ],
            "locType": "yes",
            "longitude": "74.7877778462655",
            "latitude": "13.3498028",
            "address": "Syndicate Bank Head Office, Malpe - Manipal Road, Indrali, Manipal, Udupi taluku, Udupi district, Karnataka, 576 104, India",
            "closest_to": "manipal"
        },
        "almatti dam": {
            "blogLinks": [
                "https://www.travelblog.org/Asia/India/Karnataka/Bangalore/Koramangala/blog-914055.html"
            ],
            "locType": "canal",
            "longitude": "75.9517801",
            "latitude": "16.3648934",
            "address": "Almatti Left Bank Canal, Basavana Bagevadi Taluku, Bijapur district, Karnataka, India",
            "closest_to": "badami"
        },
        "amboli": {
            "blogLinks": [
                "http://www.skbcarrentals.com/destination/karnataka/heritage/"
            ],
            "locType": "village",
            "longitude": "74.4340839",
            "latitude": "15.6456171",
            "address": "Amboli, Khanapura taluku, Belgaum district, Karnataka, India",
            "closest_to": "manipal"
        },
        "belagavi": {
            "blogLinks": [
                "http://www.skbcarrentals.com/destination/karnataka/heritage/"
            ],
            "locType": "county",
            "longitude": "74.75",
            "latitude": "16.333333",
            "address": "Belgaum, Belgaum district, Karnataka, India",
            "closest_to": "badami"
        },
        "vijayanagara": {
            "blogLinks": [
                "http://www.skbcarrentals.com/destination/karnataka/heritage/"
            ],
            "locType": "village",
            "longitude": "74.7380455",
            "latitude": "16.3270486",
            "address": "Vijayanagara, Chikodi taluk, Belgaum district, Karnataka, India",
            "closest_to": "badami"
        },
        "gokarna": {
            "blogLinks": [
                "http://www.skbcarrentals.com/destination/karnataka/heritage/"
            ],
            "locType": "town",
            "longitude": "74.3184418",
            "latitude": "14.5439629",
            "address": "Gokarna, Kumata taluk, Uttara Kannada, Karnataka, 581326, India",
            "closest_to": "manipal"
        },
        "u.s.": {
            "blogLinks": [
                "http://manipalblog.com/2012/04/06/5-places-you-can-visit-on-weekends-in-manipal-tips-for-the-foreign-exchange-student/"
            ],
            "locType": "administrative",
            "longitude": "75.7223521",
            "latitude": "14.5203896",
            "address": "Karnataka, India",
            "closest_to": "manipal"
        },
        "hubli": {
            "blogLinks": [
                "http://www.skbcarrentals.com/destination/karnataka/heritage/"
            ],
            "locType": "city",
            "longitude": "75.1379848",
            "latitude": "15.3518378",
            "address": "Hubballi - \u0cb9\u0cc1\u0cac\u0ccd\u0cac\u0cb3\u0ccd\u0cb3\u0cbf, Hubballi taluku, Dharwad district, Karnataka, 580020, India",
            "closest_to": "manipal"
        },
        "ashoka": {
            "blogLinks": [
                "http://www.skbcarrentals.com/destination/karnataka/heritage/"
            ],
            "locType": "cinema",
            "longitude": "75.925175",
            "latitude": "14.467413",
            "address": "Ashoka, SH 65, K.B. Extension, Davanagere, Davanagere taluku, Davanagere district, Karnataka, 577000, India",
            "closest_to": "manipal"
        },
        "bandipur national park": {
            "blogLinks": [
                "http://www.buzzntravel.com/places-to-visit-in-manipal-with-family",
                "http://www.buzzntravel.com/places-to-visit-in-manipal-with-kids"
            ],
            "locType": "national_park",
            "longitude": "76.4314968740264",
            "latitude": "11.76682425",
            "address": "Bandipur National Park, Kozhikode - Kollegal Highway, Gundlupet taluk, Chamarajanagar district, Karnataka, India",
            "closest_to": "manipal"
        },
        "uttara kannada": {
            "blogLinks": [
                "http://www.skbcarrentals.com/destination/karnataka/heritage/"
            ],
            "locType": "administrative",
            "longitude": "74.4729163045979",
            "latitude": "14.6726379",
            "address": "Uttara Kannada, Karnataka, India",
            "closest_to": "manipal"
        },
        "veeranarayana temple": {
            "blogLinks": [
                "http://www.skbcarrentals.com/destination/karnataka/heritage/"
            ],
            "locType": "place_of_worship",
            "longitude": "74.8847597015472",
            "latitude": "12.88735285",
            "address": "Veeranarayana Temple, Solapur-Mangalore Highway, Shakthinagar, Kulashekara, Kudupu, Mangaluru taluk, Dakshina Kannada, Karnataka, 575007, India",
            "closest_to": "manipal"
        },
        "india": {
            "blogLinks": [
                "http://www.skbcarrentals.com/destination/karnataka/heritage/"
            ],
            "locType": "administrative",
            "longitude": "75.7223521",
            "latitude": "14.5203896",
            "address": "Karnataka, India",
            "closest_to": "manipal"
        },
        "panaji": {
            "blogLinks": [
                "https://www.tripoto.com/weekend-getaways/from-badami",
                "https://www.tripoto.com/weekend-getaways/from-manipal"
            ],
            "locType": "trunk",
            "longitude": "74.4876784",
            "latitude": "15.4422981",
            "address": "Belgaum - Panaji Highway, Londa, Khanapura taluku, Belgaum district, Karnataka, India",
            "closest_to": "manipal"
        },
        "malnad": {
            "blogLinks": [
                "http://www.skbcarrentals.com/destination/karnataka/heritage/"
            ],
            "locType": "hospital",
            "longitude": "75.7715495",
            "latitude": "13.3160351",
            "address": "Malnad Hospital, Mudigere-Kadur Road, Chikkamagaluru, Chikkamagaluru taluku, Chikkamagaluru district, Karnataka, 577101, India",
            "closest_to": "manipal"
        },
        "karwar": {
            "blogLinks": [
                "http://www.skbcarrentals.com/destination/karnataka/heritage/"
            ],
            "locType": "town",
            "longitude": "74.1319229",
            "latitude": "14.8120931",
            "address": "Karwar, Karavara taluk, Uttara Kannada, Karnataka, 581300, India",
            "closest_to": "manipal"
        },
        "kapu beach": {
            "blogLinks": [
                "http://manipalblog.com/2012/04/06/5-places-you-can-visit-on-weekends-in-manipal-tips-for-the-foreign-exchange-student/"
            ],
            "locType": "beach",
            "longitude": "74.7388930883129",
            "latitude": "13.2187564",
            "address": "Kapu Beach, NH66, Mallaru, Udupi taluku, Udupi district, Karnataka, India",
            "closest_to": "manipal"
        },
        "bellary": {
            "blogLinks": [
                "http://www.mapsofindia.com/karnataka/places-to-visit-in-hampi.html",
                "http://www.skbcarrentals.com/destination/karnataka/heritage/",
                "http://www.solobackpacker.com/2011/06/11/travelling-solo-to-north-karnataka-badami/",
                "http://www.solobackpacker.com/2012/02/04/aihole-an-architectural-wonder-in-stones/"
            ],
            "locType": "county",
            "longitude": "76.8323648",
            "latitude": "15.2485413",
            "address": "Bellary, Bellary district, Karnataka, India",
            "closest_to": "badami"
        },
        "honnali": {
            "blogLinks": [
                "http://www.skbcarrentals.com/destination/karnataka/heritage/"
            ],
            "locType": "town",
            "longitude": "75.6457434",
            "latitude": "14.2389785",
            "address": "Honnali, Honnali taluku, Davanagere district, Karnataka, 577217, India",
            "closest_to": "manipal"
        },
        "parkala": {
            "blogLinks": [
                "https://en.wikipedia.org/wiki/Udupi"
            ],
            "locType": "village",
            "longitude": "74.8063643",
            "latitude": "13.3549129",
            "address": "Parkala, Udupi taluku, Udupi district, Karnataka, India",
            "closest_to": "manipal"
        },
        "somnathpur": {
            "blogLinks": [
                "http://www.skbcarrentals.com/destination/karnataka/heritage/"
            ],
            "locType": "village",
            "longitude": "76.8833039",
            "latitude": "12.2761528",
            "address": "Somanathapura, Tirumakudalu Narasipura taluk, Mysuru district, Karnataka, India",
            "closest_to": "manipal"
        },
        "koppal district": {
            "blogLinks": [
                "http://www.skbcarrentals.com/destination/karnataka/heritage/"
            ],
            "locType": "administrative",
            "longitude": "76.310639117029",
            "latitude": "15.57825725",
            "address": "Koppal district, Karnataka, India",
            "closest_to": "manipal"
        },
        "mangalore": {
            "blogLinks": [
                "https://en.wikipedia.org/wiki/Udupi",
                "http://www.skbcarrentals.com/destination/karnataka/heritage/",
                "http://www.nivalink.com/destination/manipal",
                "https://www.yatra.com/india-tour-packages/holidays-in-thrissur"
            ],
            "locType": "city",
            "longitude": "74.8430082",
            "latitude": "12.8698101",
            "address": "Mangaluru, Mangaluru taluk, Dakshina Kannada, Karnataka, 575001, India",
            "closest_to": "manipal"
        },
        "bahubali": {
            "blogLinks": [
                "http://www.nivalink.com/destination/manipal"
            ],
            "locType": "place_of_worship",
            "longitude": "76.4846128",
            "latitude": "12.8540505",
            "address": "Bahubali Statue, SH8, Shravanabelagola, Channarayapattana taluk, Hassan district, Karnataka, 573135, India",
            "closest_to": "manipal"
        },
        "marikamba": {
            "blogLinks": [
                "http://www.skbcarrentals.com/destination/karnataka/heritage/"
            ],
            "locType": "place_of_worship",
            "longitude": "74.8103631279317",
            "latitude": "13.8626958",
            "address": "Marikamba Temple, NH766C;SH26, Halkal, \u0c95\u0cc1\u0c82\u0ca6\u0cbe\u0caa\u0cc1\u0cb0 \u0ca4\u0cbe\u0cb2\u0cc2\u0c95\u0cc1, Udupi district, Karnataka, 576220, India",
            "closest_to": "manipal"
        },
        "udupi": {
            "blogLinks": [
                "https://en.wikipedia.org/wiki/Udupi",
                "http://www.skbcarrentals.com/destination/karnataka/heritage/",
                "http://www.nivalink.com/destination/manipal"
            ],
            "locType": "city",
            "longitude": "74.7473232",
            "latitude": "13.3419169",
            "address": "Udupi, Udupi taluku, Udupi district, Karnataka, 576101, India",
            "closest_to": "manipal"
        },
        "sagar": {
            "blogLinks": [
                "http://www.skbcarrentals.com/destination/karnataka/heritage/"
            ],
            "locType": "town",
            "longitude": "75.0262551",
            "latitude": "14.1666594",
            "address": "Sagara, Sagara taluk, Shimoga district, Karnataka, 577400, India",
            "closest_to": "manipal"
        },
        "bagalkot district of karnataka": {
            "blogLinks": [
                "http://www.solobackpacker.com/2011/06/11/travelling-solo-to-north-karnataka-badami/"
            ],
            "locType": "city",
            "longitude": "75.6967919",
            "latitude": "16.1853166",
            "address": "Bagalakote, Bagalakote taluk, Bagalkote district, Karnataka, India",
            "closest_to": "badami"
        },
        "bijapur district": {
            "blogLinks": [
                "http://www.skbcarrentals.com/destination/karnataka/heritage/"
            ],
            "locType": "administrative",
            "longitude": "75.897147327785",
            "latitude": "16.81105965",
            "address": "Bijapur district, Karnataka, India",
            "closest_to": "badami"
        },
        "gommateshwara": {
            "blogLinks": [
                "http://www.skbcarrentals.com/destination/karnataka/heritage/"
            ],
            "locType": "attraction",
            "longitude": "75.9951992",
            "latitude": "13.2132333",
            "address": "Statue of Gommateshwara, SH21, Halebidu, Beluru taluk, Hassan district, Karnataka, 573121, India",
            "closest_to": "manipal"
        },
        "nandikur": {
            "blogLinks": [
                "https://en.wikipedia.org/wiki/Udupi"
            ],
            "locType": "village",
            "longitude": "74.8012945",
            "latitude": "13.1324809",
            "address": "Nandikur, Udupi taluku, Udupi district, Karnataka, India",
            "closest_to": "manipal"
        },
        "padubidri": {
            "blogLinks": [
                "https://en.wikipedia.org/wiki/Udupi"
            ],
            "locType": "town",
            "longitude": "74.7712041",
            "latitude": "13.1407571",
            "address": "Padubidri, Udupi taluku, Udupi district, Karnataka, India",
            "closest_to": "manipal"
        },
        "mahakali temple": {
            "blogLinks": [
                "http://www.nivalink.com/destination/manipal"
            ],
            "locType": "place_of_worship",
            "longitude": "74.7307174382814",
            "latitude": "13.3371922",
            "address": "Mahakali and Janardhana Temple, Mahakali Marga, Ambalapadi, Udupi, Udupi taluku, Udupi district, Karnataka, 576101, India",
            "closest_to": "manipal"
        },
        "mangalore railway station": {
            "blogLinks": [
                "http://www.nivalink.com/destination/manipal"
            ],
            "locType": "travel_agent",
            "longitude": "74.8680725",
            "latitude": "12.9519663",
            "address": "Hotels in Mangalore Near Railway Station  (Reiseb\u00fcro ), SH67, Gandhinagar, Kenjar, Mangaluru taluk, Dakshina Kannada, Karnataka, 575015, India",
            "closest_to": "manipal"
        },
        "ashirvad": {
            "blogLinks": [
                "https://en.wikipedia.org/wiki/Udupi"
            ],
            "locType": "cinema",
            "longitude": "74.7399046",
            "latitude": "13.3796251",
            "address": "Ashirvad, NH66, Doddana Gudde, Santekatte, Udupi taluku, Udupi district, Karnataka, 576105, India",
            "closest_to": "manipal"
        },
        "pune-bangalore": {
            "blogLinks": [
                "http://www.skbcarrentals.com/destination/karnataka/heritage/"
            ],
            "locType": "trunk",
            "longitude": "75.4974847",
            "latitude": "14.7156528",
            "address": "Pune-Bangalore Road, Motebennur, Byadagi taluk, Haveri district, Karnataka, 581106, India",
            "closest_to": "manipal"
        },
        "krishna": {
            "blogLinks": [
                "http://www.skbcarrentals.com/destination/karnataka/heritage/"
            ],
            "locType": "river",
            "longitude": "77.0529845",
            "latitude": "16.5209569",
            "address": "Krishna, Shahapura taluku, Yadagiri district, Karnataka, India",
            "closest_to": "badami"
        },
        "sorab road": {
            "blogLinks": [
                "http://www.skbcarrentals.com/destination/karnataka/heritage/"
            ],
            "locType": "unclassified",
            "longitude": "75.0293897",
            "latitude": "14.1747341",
            "address": "Sorab Road, Sagara, Sagara taluk, Shimoga district, Karnataka, 577400, India",
            "closest_to": "manipal"
        },
        "dharmastala": {
            "blogLinks": [
                "https://en.wikipedia.org/wiki/Udupi"
            ],
            "locType": "village",
            "longitude": "75.3813122",
            "latitude": "12.9519571",
            "address": "Dharmasthala, Beltangadi taluk, Dakshina Kannada, Karnataka, 574216, India",
            "closest_to": "manipal"
        },
        "urdu": {
            "blogLinks": [
                "https://www.yatra.com/india-tourism/bhopal-travel-guide"
            ],
            "locType": "recreation_ground",
            "longitude": "75.636575371858",
            "latitude": "14.6180369",
            "address": "Urdu Ground, Ranebennur, Ranebennuru taluk, Haveri district, Karnataka, 581115, India",
            "closest_to": "manipal"
        },
        "upper lake": {
            "blogLinks": [
                "https://www.yatra.com/india-tourism/bhopal-travel-guide"
            ],
            "locType": "dam",
            "longitude": "74.3576168",
            "latitude": "15.1102228",
            "address": "Upper Kaneri Dam, Joida taluk, Uttara Kannada, Karnataka, India",
            "closest_to": "manipal"
        },
        "raichur fort": {
            "blogLinks": [
                "http://www.skbcarrentals.com/destination/karnataka/heritage/"
            ],
            "locType": "castle",
            "longitude": "77.3454002267497",
            "latitude": "16.20180685",
            "address": "Raichur Fort, Station Road, Raichur, Rayachuru taluku, Raichur district, Karnataka, 584100, India",
            "closest_to": "badami"
        },
        "durga": {
            "blogLinks": [
                "http://www.solobackpacker.com/2012/02/04/aihole-an-architectural-wonder-in-stones/"
            ],
            "locType": "village",
            "longitude": "74.4075331",
            "latitude": "15.3918509",
            "address": "Durga, Joida taluk, Uttara Kannada, Karnataka, India",
            "closest_to": "manipal"
        },
        "gadag": {
            "blogLinks": [
                "http://www.solobackpacker.com/2011/06/11/travelling-solo-to-north-karnataka-badami/"
            ],
            "locType": "town",
            "longitude": "75.6300786",
            "latitude": "15.4263647",
            "address": "Gadag, Gadag taluk, Gadag district, Karnataka, 582101, India",
            "closest_to": "manipal"
        },
        "new delhi": {
            "blogLinks": [
                "https://en.wikipedia.org/wiki/Udupi",
                "https://www.yatra.com/india-tour-packages/holidays-in-thrissur"
            ],
            "locType": "college",
            "longitude": "76.6142178649055",
            "latitude": "12.30911465",
            "address": "Regional Institute of Education, Chaduranga Road, Jayalakshmipuram, Mysuru, Mysuru taluk, Mysuru district, Karnataka, 570001, India",
            "closest_to": "manipal"
        },
        "dakshina kannada district": {
            "blogLinks": [
                "https://en.wikipedia.org/wiki/Udupi"
            ],
            "locType": "county",
            "longitude": "74.9813132",
            "latitude": "12.9324457",
            "address": "Dakshina Kannada, Karnataka, India",
            "closest_to": "manipal"
        },
        "kakati": {
            "blogLinks": [
                "http://www.skbcarrentals.com/destination/karnataka/heritage/"
            ],
            "locType": "village",
            "longitude": "74.5255528",
            "latitude": "15.9326725",
            "address": "Kakati, Belagavi taluku, Belgaum district, Karnataka, India",
            "closest_to": "manipal"
        },
        "hassan": {
            "blogLinks": [
                "http://www.skbcarrentals.com/destination/karnataka/heritage/"
            ],
            "locType": "town",
            "longitude": "76.0992703",
            "latitude": "13.0070817",
            "address": "Hassan, Hasana taluk, Hassan district, Karnataka, 573201, India",
            "closest_to": "manipal"
        },
        "mangalore airport": {
            "blogLinks": [
                "http://www.nivalink.com/destination/manipal"
            ],
            "locType": "aerodrome",
            "longitude": "74.887492668144",
            "latitude": "12.95518575",
            "address": "Mangalore International Airport, Airport Entry Road, Gandhinagar, Kenjar, Mangaluru taluk, Dakshina Kannada, Karnataka, 575015, India",
            "closest_to": "manipal"
        },
        "gol gumbaz": {
            "blogLinks": [
                "http://www.skbcarrentals.com/destination/karnataka/heritage/"
            ],
            "locType": "attraction",
            "longitude": "75.7360929",
            "latitude": "16.8300223",
            "address": "Gol Gumbaz, Station Road, Ibrahimpura, Vijayapura, Vijayapura taluk, Bijapur district, Karnataka, 586101, India",
            "closest_to": "badami"
        },
        "nandi": {
            "blogLinks": [
                "http://www.solobackpacker.com/2011/06/11/travelling-solo-to-north-karnataka-badami/"
            ],
            "locType": "village",
            "longitude": "75.8556266",
            "latitude": "13.6434094",
            "address": "Nandi, Tarikere taluku, Chikkamagaluru district, Karnataka, India",
            "closest_to": "manipal"
        },
        "b. h. road": {
            "blogLinks": [
                "http://www.skbcarrentals.com/destination/karnataka/heritage/"
            ],
            "locType": "primary",
            "longitude": "77.1210915",
            "latitude": "13.3358176",
            "address": "Bengaluru Honnavara Road, Tumakuru, Tumkur taluk, Tumkur district, Karnataka, 572101, India",
            "closest_to": "manipal"
        },
        "fort": {
            "blogLinks": [
                "http://www.solobackpacker.com/2011/06/11/travelling-solo-to-north-karnataka-badami/"
            ],
            "locType": "neighbourhood",
            "longitude": "76.8313091",
            "latitude": "17.3439629",
            "address": "Fort, Rauza, Kalaburagi, Gulbarga taluku, Kalaburagi district, Karnataka, 585101, India",
            "closest_to": "badami"
        },
        "hampi": {
            "blogLinks": [
                "http://www.mapsofindia.com/karnataka/places-to-visit-in-hampi.html",
                "http://www.skbcarrentals.com/destination/karnataka/heritage/",
                "http://www.solobackpacker.com/2012/02/04/aihole-an-architectural-wonder-in-stones/",
                "http://www.buzzntravel.com/manipal",
                "http://www.nivalink.com/destination/badami",
                "http://www.buzzntravel.com/places-to-visit-in-manipal-with-kids"
            ],
            "locType": "village",
            "longitude": "76.4606199",
            "latitude": "15.3359769",
            "address": "Hampe, Hosapete taluk, Bellary district, Karnataka, 583239, India",
            "closest_to": "manipal"
        },
        "manipal": {
            "blogLinks": [
                "http://manipalblog.com/2012/04/06/5-places-you-can-visit-on-weekends-in-manipal-tips-for-the-foreign-exchange-student/"
            ],
            "locType": "town",
            "longitude": "74.7870308",
            "latitude": "13.3519723",
            "address": "Manipal, Udupi taluku, Udupi district, Karnataka, India",
            "closest_to": "manipal"
        },
        "new mangalore port": {
            "blogLinks": [
                "https://en.wikipedia.org/wiki/Udupi"
            ],
            "locType": "locality",
            "longitude": "74.8219606",
            "latitude": "12.9318976",
            "address": "New Mangalore Port, Kuloor, Mangaluru taluk, Dakshina Kannada, Karnataka, India",
            "closest_to": "manipal"
        },
        "holalu": {
            "blogLinks": [
                "http://www.skbcarrentals.com/destination/karnataka/heritage/"
            ],
            "locType": "village",
            "longitude": "76.2374688",
            "latitude": "12.9558592",
            "address": "Holalu, Hasana taluk, Hassan district, Karnataka, India",
            "closest_to": "manipal"
        },
        "yellamma": {
            "blogLinks": [
                "http://www.skbcarrentals.com/destination/karnataka/heritage/"
            ],
            "locType": "industrial",
            "longitude": "75.959986215",
            "latitude": "14.39927745",
            "address": "NTC - Yellamma Mills Area, Tolahunase, Davanagere taluku, Davanagere district, Karnataka, 577003, India",
            "closest_to": "manipal"
        },
        "tungabadra river": {
            "blogLinks": [
                "http://www.skbcarrentals.com/destination/karnataka/heritage/"
            ],
            "locType": "canal",
            "longitude": "76.8686753",
            "latitude": "15.1764865",
            "address": "Tungabadra High Level Canal, Ballari, Bellary taluk, Bellary district, Karnataka, India",
            "closest_to": "badami"
        },
        "bheemeshwari": {
            "blogLinks": [
                "https://www.tripoto.com/weekend-getaways/from-badami",
                "http://www.skbcarrentals.com/destination/karnataka/heritage/"
            ],
            "locType": "locality",
            "longitude": "77.2778171",
            "latitude": "12.3124122",
            "address": "Bheemeshwari, Muttatti, Malavalli taluk, Mandya district, Karnataka, India",
            "closest_to": "manipal"
        },
        "bagalkot": {
            "blogLinks": [
                "http://www.solobackpacker.com/2011/06/11/travelling-solo-to-north-karnataka-badami/",
                "http://www.solobackpacker.com/2012/02/04/aihole-an-architectural-wonder-in-stones/"
            ],
            "locType": "city",
            "longitude": "75.6967919",
            "latitude": "16.1853166",
            "address": "Bagalakote, Bagalakote taluk, Bagalkote district, Karnataka, India",
            "closest_to": "badami"
        },
        "krs road": {
            "blogLinks": [
                "http://www.buzzntravel.com/places-to-visit-in-manipal-with-family",
                "http://www.buzzntravel.com/places-to-visit-in-manipal-with-kids"
            ],
            "locType": "secondary",
            "longitude": "76.6431754",
            "latitude": "12.3149717",
            "address": "Krishnaraja Sagara Road, Mandi Mohalla, Mysuru, Mysuru taluk, Mysuru district, Karnataka, 570001, India",
            "closest_to": "manipal"
        },
        "hanagal": {
            "blogLinks": [
                "http://www.skbcarrentals.com/destination/karnataka/heritage/"
            ],
            "locType": "village",
            "longitude": "76.7039857",
            "latitude": "14.7383723",
            "address": "Hanagal, Molakalmuru taluku, Chitradurga district, Karnataka, 577535, India",
            "closest_to": "manipal"
        },
        "chitradurga district": {
            "blogLinks": [
                "http://www.skbcarrentals.com/destination/karnataka/heritage/"
            ],
            "locType": "administrative",
            "longitude": "76.5299366059272",
            "latitude": "14.3051049",
            "address": "Chitradurga district, Karnataka, India",
            "closest_to": "manipal"
        },
        "pattadakal": {
            "blogLinks": [
                "http://www.skbcarrentals.com/destination/karnataka/heritage/",
                "https://www.travelblog.org/Asia/India/Karnataka/Bangalore/Koramangala/blog-914055.html",
                "http://www.solobackpacker.com/2012/02/04/aihole-an-architectural-wonder-in-stones/",
                "http://www.nivalink.com/destination/badami",
                "https://www.audleytravel.com/india/places-to-go/badami",
                "http://www.solobackpacker.com/2011/06/11/travelling-solo-to-north-karnataka-badami/"
            ],
            "locType": "attraction",
            "longitude": "75.815884048161",
            "latitude": "15.9506349",
            "address": "Pattadakal Temples, SH14, \u0cac\u0cbe\u0c9a\u0cbf\u0ca8\u0c97\u0cc1\u0ca1\u0ccd\u0ca1, Badami taluku, Bagalkote district, Karnataka, 587211, India",
            "closest_to": "badami"
        },
        "karnataka state": {
            "blogLinks": [
                "http://www.mapsofindia.com/karnataka/places-to-visit-in-hampi.html",
                "https://www.audleytravel.com/india/places-to-go/badami"
            ],
            "locType": "university",
            "longitude": "76.6236231",
            "latitude": "12.315382",
            "address": "Karnataka State Open University, \u0cb9\u0cc1\u0ca3\u0cb8\u0cc2\u0cb0\u0cc1 \u0cb0\u0cb8\u0ccd\u0ca4\u0cc6, Gokulam, Mysuru, Mysuru taluk, Mysuru district, Karnataka, 570001, India",
            "closest_to": "manipal"
        },
        "karnataka": {
            "blogLinks": [
                "http://www.skbcarrentals.com/destination/karnataka/heritage/"
            ],
            "locType": "atm",
            "longitude": "76.6639936",
            "latitude": "12.3084901",
            "address": "Karnataka, Shalivahana Road, Nazarbad, Mysuru, Mysuru taluk, Mysuru district, Karnataka, 570001, India",
            "closest_to": "manipal"
        },
        "koppal": {
            "blogLinks": [
                "http://www.skbcarrentals.com/destination/karnataka/heritage/"
            ],
            "locType": "town",
            "longitude": "76.1547421",
            "latitude": "15.3484144",
            "address": "Koppala, Koppala taluku, Koppal district, Karnataka, 583231, India",
            "closest_to": "manipal"
        },
        "ballari district": {
            "blogLinks": [
                "http://www.skbcarrentals.com/destination/karnataka/heritage/"
            ],
            "locType": "city",
            "longitude": "76.9125211",
            "latitude": "15.1467299",
            "address": "Ballari, Bellary taluk, Bellary district, Karnataka, India",
            "closest_to": "badami"
        },
        "shivalli": {
            "blogLinks": [
                "https://en.wikipedia.org/wiki/Udupi"
            ],
            "locType": "village",
            "longitude": "76.8226719",
            "latitude": "12.5863355",
            "address": "Shivalli, Mandya taluk, Mandya district, Karnataka, India",
            "closest_to": "manipal"
        },
        "sangameshwara temple": {
            "blogLinks": [
                "http://www.skbcarrentals.com/destination/karnataka/heritage/"
            ],
            "locType": "place_of_worship",
            "longitude": "76.0983066419415",
            "latitude": "13.0145717",
            "address": "Sri Sangameshwara temple, Hosaline Road, Ravindra Nagar, Pension Mohalla, Hassan, Hasana taluk, Hassan district, Karnataka, 573201, India",
            "closest_to": "manipal"
        },
        "alankar": {
            "blogLinks": [
                "https://en.wikipedia.org/wiki/Udupi"
            ],
            "locType": "village",
            "longitude": "75.35188",
            "latitude": "12.7773553",
            "address": "Alankar, Putturu taluk, Dakshina Kannada, Karnataka, India",
            "closest_to": "manipal"
        },
        "margao": {
            "blogLinks": [
                "https://www.tripoto.com/weekend-getaways/from-badami",
                "https://www.tripoto.com/weekend-getaways/from-manipal"
            ],
            "locType": "bank",
            "longitude": "73.9583411",
            "latitude": "15.2740083",
            "address": "Karnataka bank, NH66, Aquem, Fatorda, Margao, South Goa, Goa, 403600, India",
            "closest_to": "manipal"
        },
        "malaprabha": {
            "blogLinks": [
                "https://www.travelblog.org/Asia/India/Karnataka/Bangalore/Koramangala/blog-914055.html"
            ],
            "locType": "river",
            "longitude": "75.1982668",
            "latitude": "15.8914192",
            "address": "Malaprabha, Ramadurga taluku, Belgaum district, Karnataka, India",
            "closest_to": "manipal"
        },
        "sagar taluk": {
            "blogLinks": [
                "http://www.skbcarrentals.com/destination/karnataka/heritage/"
            ],
            "locType": "town",
            "longitude": "75.0262551",
            "latitude": "14.1666594",
            "address": "Sagara, Sagara taluk, Shimoga district, Karnataka, 577400, India",
            "closest_to": "manipal"
        },
        "chennakeshava temple": {
            "blogLinks": [
                "http://www.skbcarrentals.com/destination/karnataka/heritage/"
            ],
            "locType": "place_of_worship",
            "longitude": "76.1294164",
            "latitude": "13.3748908",
            "address": "Chennakeshava Temple, NH73, Arakere, Arasikere taluku, Hassan district, Karnataka, 573112, India",
            "closest_to": "manipal"
        },
        "hosagadde": {
            "blogLinks": [
                "http://www.skbcarrentals.com/destination/karnataka/heritage/"
            ],
            "locType": "locality",
            "longitude": "74.7527463",
            "latitude": "14.3274092",
            "address": "Hosagadde, Kelaginamane, Siddapura taluk, Uttara Kannada, Karnataka, India",
            "closest_to": "manipal"
        },
        "bijapur": {
            "blogLinks": [
                "http://www.skbcarrentals.com/destination/karnataka/heritage/",
                "https://www.travelblog.org/Asia/India/Karnataka/Bangalore/Koramangala/blog-914055.html",
                "http://www.solobackpacker.com/2011/06/11/travelling-solo-to-north-karnataka-badami/",
                "http://www.nivalink.com/destination/badami"
            ],
            "locType": "city",
            "longitude": "75.7175387",
            "latitude": "16.8269911",
            "address": "Vijayapura, Vijayapura taluk, Bijapur district, Karnataka, 586101, India",
            "closest_to": "badami"
        },
        "raichur district": {
            "blogLinks": [
                "http://www.skbcarrentals.com/destination/karnataka/heritage/"
            ],
            "locType": "administrative",
            "longitude": "76.9035293668443",
            "latitude": "16.05476235",
            "address": "Raichur district, Karnataka, India",
            "closest_to": "badami"
        },
        "pune": {
            "blogLinks": [
                "https://en.wikipedia.org/wiki/Udupi",
                "http://www.solobackpacker.com/2011/06/11/travelling-solo-to-north-karnataka-badami/"
            ],
            "locType": "trunk",
            "longitude": "76.9479122",
            "latitude": "17.8199745",
            "address": "Pune - Machilipatnam Highway, Kaudiyala, Basavakalyana taluku, Bidar district, Karnataka, India",
            "closest_to": "badami"
        },
        "tungabhadra river": {
            "blogLinks": [
                "http://www.mapsofindia.com/karnataka/places-to-visit-in-hampi.html",
                "http://www.skbcarrentals.com/destination/karnataka/heritage/"
            ],
            "locType": "river",
            "longitude": "76.4931607",
            "latitude": "15.3446123",
            "address": "Tungabhadra, Gangavati taluku, Koppal district, Karnataka, India",
            "closest_to": "manipal"
        },
        "kandlur": {
            "blogLinks": [
                "http://www.skbcarrentals.com/destination/karnataka/heritage/"
            ],
            "locType": "village",
            "longitude": "74.7651793",
            "latitude": "13.6367319",
            "address": "Kandlur, \u0c95\u0cc1\u0c82\u0ca6\u0cbe\u0caa\u0cc1\u0cb0 \u0ca4\u0cbe\u0cb2\u0cc2\u0c95\u0cc1, Udupi district, Karnataka, India",
            "closest_to": "manipal"
        },
        "davanagere district": {
            "blogLinks": [
                "http://www.skbcarrentals.com/destination/karnataka/heritage/"
            ],
            "locType": "administrative",
            "longitude": "75.8904782659728",
            "latitude": "14.37090835",
            "address": "Davanagere district, Karnataka, India",
            "closest_to": "manipal"
        },
        "kalpana": {
            "blogLinks": [
                "https://en.wikipedia.org/wiki/Udupi"
            ],
            "locType": "cinema",
            "longitude": "74.7506815",
            "latitude": "13.3360433",
            "address": "Kalpana, Kavi Muddana Marg, Indiranagara, Udupi, Udupi taluku, Udupi district, Karnataka, 576101, India",
            "closest_to": "manipal"
        },
        "kollur": {
            "blogLinks": [
                "http://www.skbcarrentals.com/destination/karnataka/heritage/"
            ],
            "locType": "village",
            "longitude": "74.8137959",
            "latitude": "13.8634049",
            "address": "Kollur, \u0c95\u0cc1\u0c82\u0ca6\u0cbe\u0caa\u0cc1\u0cb0 \u0ca4\u0cbe\u0cb2\u0cc2\u0c95\u0cc1, Udupi district, Karnataka, 576220, India",
            "closest_to": "manipal"
        },
        "bijapura": {
            "blogLinks": [
                "http://www.skbcarrentals.com/destination/karnataka/heritage/"
            ],
            "locType": "county",
            "longitude": "75.916667",
            "latitude": "16.666667",
            "address": "Vijayapura, Bijapur district, Karnataka, India",
            "closest_to": "badami"
        },
        "karkala": {
            "blogLinks": [
                "https://en.wikipedia.org/wiki/Udupi"
            ],
            "locType": "town",
            "longitude": "74.9959586",
            "latitude": "13.2112826",
            "address": "Karkala, Karkala taluk, Udupi district, Karnataka, 574104, India",
            "closest_to": "manipal"
        },
        "badami": {
            "blogLinks": [
                "http://www.skbcarrentals.com/destination/karnataka/heritage/",
                "https://www.travelblog.org/Asia/India/Karnataka/Bangalore/Koramangala/blog-914055.html",
                "http://www.solobackpacker.com/2012/02/04/aihole-an-architectural-wonder-in-stones/",
                "http://www.nivalink.com/destination/badami",
                "http://www.buzzntravel.com/places-to-visit-in-manipal-with-kids",
                "https://www.audleytravel.com/india/places-to-go/badami",
                "http://www.buzzntravel.com/places-to-visit-in-manipal-with-family",
                "http://www.solobackpacker.com/2011/06/11/travelling-solo-to-north-karnataka-badami/"
            ],
            "locType": "town",
            "longitude": "75.6807865",
            "latitude": "15.9203874",
            "address": "Badami, Badami taluku, Bagalkote district, Karnataka, 587200, India",
            "closest_to": "badami"
        },
        "ranebennur": {
            "blogLinks": [
                "http://www.skbcarrentals.com/destination/karnataka/heritage/"
            ],
            "locType": "town",
            "longitude": "75.6341529",
            "latitude": "14.6165795",
            "address": "Ranebennur, Ranebennuru taluk, Haveri district, Karnataka, 581115, India",
            "closest_to": "manipal"
        },
        "kukkikatte": {
            "blogLinks": [
                "https://en.wikipedia.org/wiki/Udupi"
            ],
            "locType": "village",
            "longitude": "74.8267852",
            "latitude": "13.3895991",
            "address": "Kukkikatte, Udupi taluku, Udupi district, Karnataka, India",
            "closest_to": "manipal"
        },
        "sagara": {
            "blogLinks": [
                "http://www.skbcarrentals.com/destination/karnataka/heritage/"
            ],
            "locType": "town",
            "longitude": "75.0262551",
            "latitude": "14.1666594",
            "address": "Sagara, Sagara taluk, Shimoga district, Karnataka, 577400, India",
            "closest_to": "manipal"
        },
        "khanapur": {
            "blogLinks": [
                "http://www.skbcarrentals.com/destination/karnataka/heritage/"
            ],
            "locType": "town",
            "longitude": "74.5088917",
            "latitude": "15.639879",
            "address": "Khanapur, Khanapura taluku, Belgaum district, Karnataka, 591302, India",
            "closest_to": "manipal"
        },
        "st. marys island": {
            "blogLinks": [
                "http://manipalblog.com/2012/04/06/5-places-you-can-visit-on-weekends-in-manipal-tips-for-the-foreign-exchange-student/"
            ],
            "locType": "island",
            "longitude": "74.673344375479",
            "latitude": "13.37920635",
            "address": "Thonse Par (St. Mary's Island), Udupi, Udupi district, Karnataka, 576101, India",
            "closest_to": "manipal"
        },
        "malaprabha river": {
            "blogLinks": [
                "http://www.solobackpacker.com/2012/02/04/aihole-an-architectural-wonder-in-stones/"
            ],
            "locType": "river",
            "longitude": "75.1982668",
            "latitude": "15.8914192",
            "address": "Malaprabha, Ramadurga taluku, Belgaum district, Karnataka, India",
            "closest_to": "manipal"
        },
        "udupi hotel": {
            "blogLinks": [
                "https://www.travelblog.org/Asia/India/Karnataka/Bangalore/Koramangala/blog-914055.html"
            ],
            "locType": "hotel",
            "longitude": "74.8346487",
            "latitude": "14.6157772",
            "address": "Udupi Hotel, Nataraj Raod, Sirsi, Shirasi taluk, Uttara Kannada, Karnataka, 581400, India",
            "closest_to": "manipal"
        },
        "middle east": {
            "blogLinks": [
                "https://www.yatra.com/india-tour-packages/holidays-in-thrissur",
                "https://www.yatra.com/india-tourism/bhopal-travel-guide"
            ],
            "locType": "school",
            "longitude": "77.3394684",
            "latitude": "13.1487605",
            "address": "Government Middle And Primary School, NH48, Dodderi, Nelamangala taluk, Bangalore Rural, Karnataka, India",
            "closest_to": "manipal"
        },
        "north karnataka district": {
            "blogLinks": [
                "https://www.tripoto.com/weekend-getaways/from-badami"
            ],
            "locType": "station",
            "longitude": "77.0196475",
            "latitude": "16.935745",
            "address": "Nalwar Station, Raichur - Wadi Road, Subbunayaka Tanda, Chitapura taluku, Kalaburagi district, Karnataka, India",
            "closest_to": "badami"
        },
        "parvati": {
            "blogLinks": [
                "http://www.skbcarrentals.com/destination/karnataka/heritage/"
            ],
            "locType": "village",
            "longitude": "75.7898501",
            "latitude": "16.0395701",
            "address": "Parvati, Badami taluku, Bagalkote district, Karnataka, India",
            "closest_to": "badami"
        },
        "aihole": {
            "blogLinks": [
                "https://en.wikipedia.org/wiki/Udupi",
                "http://www.skbcarrentals.com/destination/karnataka/heritage/",
                "https://www.travelblog.org/Asia/India/Karnataka/Bangalore/Koramangala/blog-914055.html",
                "http://www.solobackpacker.com/2012/02/04/aihole-an-architectural-wonder-in-stones/"
            ],
            "locType": "village",
            "longitude": "75.8819129",
            "latitude": "16.0192298",
            "address": "Aihole, Hunagunda taluku, Bagalkote district, Karnataka, India",
            "closest_to": "badami"
        },
        "malpe": {
            "blogLinks": [
                "https://en.wikipedia.org/wiki/Udupi",
                "http://www.skbcarrentals.com/destination/karnataka/heritage/"
            ],
            "locType": "village",
            "longitude": "74.7036914",
            "latitude": "13.3507423",
            "address": "Malpe, Udupi taluku, Udupi district, Karnataka, India",
            "closest_to": "manipal"
        },
        "harihara": {
            "blogLinks": [
                "http://www.skbcarrentals.com/destination/karnataka/heritage/"
            ],
            "locType": "town",
            "longitude": "75.809288",
            "latitude": "14.5116874",
            "address": "Harihara, Harihara taluku, Davanagere district, Karnataka, 577600, India",
            "closest_to": "manipal"
        },
        "basavanna": {
            "blogLinks": [
                "http://www.skbcarrentals.com/destination/karnataka/heritage/"
            ],
            "locType": "canal",
            "longitude": "76.3885655",
            "latitude": "15.2730988",
            "address": "Basavanna Canal, Hosapete taluk, Bellary district, Karnataka, India",
            "closest_to": "manipal"
        },
        "zilla panchayat": {
            "blogLinks": [
                "https://en.wikipedia.org/wiki/Udupi"
            ],
            "locType": "government",
            "longitude": "76.1015993019508",
            "latitude": "13.00270495",
            "address": "Zilla Panchayat, B M Road, Ravindra Nagar, Santhe Pete, Hassan, Hasana taluk, Hassan district, Karnataka, 573201, India",
            "closest_to": "manipal"
        },
        "honnavar": {
            "blogLinks": [
                "http://www.skbcarrentals.com/destination/karnataka/heritage/"
            ],
            "locType": "town",
            "longitude": "74.4446716",
            "latitude": "14.2810827",
            "address": "Honnavar, Honnavara taluku, Uttara Kannada, Karnataka, 581334, India",
            "closest_to": "manipal"
        },
        "chitradurga": {
            "blogLinks": [
                "http://www.skbcarrentals.com/destination/karnataka/heritage/"
            ],
            "locType": "town",
            "longitude": "76.4005122",
            "latitude": "14.2266443",
            "address": "Chitradurga, Chitradurga taluku, Chitradurga district, Karnataka, 577500, India",
            "closest_to": "manipal"
        },
        "soraba": {
            "blogLinks": [
                "http://www.skbcarrentals.com/destination/karnataka/heritage/"
            ],
            "locType": "village",
            "longitude": "75.0921749",
            "latitude": "14.3794806",
            "address": "Soraba, Soraba taluk, Shimoga district, Karnataka, 577429, India",
            "closest_to": "manipal"
        },
        "udupi railway station": {
            "blogLinks": [
                "https://www.tripoto.com/weekend-getaways/from-manipal"
            ],
            "locType": "station",
            "longitude": "74.7710217",
            "latitude": "13.3360878",
            "address": "Udupi Railway Station, Railway Godown Road, Indrali, Udupi, Udupi taluku, Udupi district, Karnataka, 576101, India",
            "closest_to": "manipal"
        },
        "kalaseshwara temple": {
            "blogLinks": [
                "http://www.nivalink.com/destination/manipal"
            ],
            "locType": "place_of_worship",
            "longitude": "75.363446975",
            "latitude": "13.23228505",
            "address": "Kalaseshwara Temple, SH66, Kalasa, Mudigere taluk, Chikkamagaluru district, Karnataka, 577124, India",
            "closest_to": "manipal"
        },
        "baga": {
            "blogLinks": [
                "https://www.tripoto.com/weekend-getaways/from-badami",
                "https://www.tripoto.com/weekend-getaways/from-manipal"
            ],
            "locType": "village",
            "longitude": "76.9300452",
            "latitude": "17.6148763",
            "address": "Baga Hipparaga, Basavakalyana taluku, Bidar district, Karnataka, India",
            "closest_to": "badami"
        },
        "ooty": {
            "blogLinks": [
                "http://www.buzzntravel.com/places-to-visit-in-manipal-with-family",
                "http://www.buzzntravel.com/places-to-visit-in-manipal-with-kids"
            ],
            "locType": "primary",
            "longitude": "76.6586807",
            "latitude": "12.2774807",
            "address": "Ooty Road, Vidyaranyapuram, Mysuru, Mysuru taluk, Mysuru district, Karnataka, 570001, India",
            "closest_to": "manipal"
        },
        "kallur": {
            "blogLinks": [
                "http://www.skbcarrentals.com/destination/karnataka/heritage/"
            ],
            "locType": "village",
            "longitude": "75.472923",
            "latitude": "15.2774137",
            "address": "Kallur, Gadag taluk, Gadag district, Karnataka, India",
            "closest_to": "manipal"
        },
        "shikaripura": {
            "blogLinks": [
                "http://www.skbcarrentals.com/destination/karnataka/heritage/"
            ],
            "locType": "town",
            "longitude": "75.3587796",
            "latitude": "14.2639661",
            "address": "Shikaripura, Shikaripura taluk, Shimoga district, Karnataka, 577427, India",
            "closest_to": "manipal"
        },
        "hyderabad": {
            "blogLinks": [
                "http://www.skbcarrentals.com/destination/karnataka/heritage/"
            ],
            "locType": "primary",
            "longitude": "77.5344002",
            "latitude": "17.9003114",
            "address": "Hyderabad Road, Old City, Bidar, Bidar taluku, Bidar district, Karnataka, 585400, India",
            "closest_to": "badami"
        },
        "kumta": {
            "blogLinks": [
                "http://www.skbcarrentals.com/destination/karnataka/heritage/"
            ],
            "locType": "town",
            "longitude": "74.4107617",
            "latitude": "14.4261647",
            "address": "Kumta, Kumata taluk, Uttara Kannada, Karnataka, India",
            "closest_to": "manipal"
        },
        "ganeshpur": {
            "blogLinks": [
                "http://www.skbcarrentals.com/destination/karnataka/heritage/"
            ],
            "locType": "secondary",
            "longitude": "74.4970226",
            "latitude": "15.8613093",
            "address": "Ganeshpur Road, Cantonment, Belagavi, Belagavi taluku, Belgaum district, Karnataka, 590001, India",
            "closest_to": "manipal"
        },
        "sakleshpur taluk": {
            "blogLinks": [
                "http://www.skbcarrentals.com/destination/karnataka/heritage/"
            ],
            "locType": "town",
            "longitude": "75.7862318",
            "latitude": "12.9434349",
            "address": "Sakaleshpura, Sakaleshapura taluk, Hassan district, Karnataka, 573134, India",
            "closest_to": "manipal"
        },
        "sharavati river": {
            "blogLinks": [
                "http://www.skbcarrentals.com/destination/karnataka/heritage/"
            ],
            "locType": "river",
            "longitude": "74.7647294",
            "latitude": "14.2360979",
            "address": "Sharavati, Sagara taluk, Shimoga district, Karnataka, India",
            "closest_to": "manipal"
        },
        "mysore": {
            "blogLinks": [
                "http://www.skbcarrentals.com/destination/karnataka/heritage/",
                "http://www.buzzntravel.com/places-to-visit-in-manipal-with-family",
                "http://www.buzzntravel.com/places-to-visit-in-manipal-with-kids"
            ],
            "locType": "city",
            "longitude": "76.6553609",
            "latitude": "12.3051828",
            "address": "Mysuru, Mysuru taluk, Mysuru district, Karnataka, 570001, India",
            "closest_to": "manipal"
        }
    },
    "badami": {
        "icon": "https://nominatim.openstreetmap.org/images/mapicons/poi_place_town.p.20.png",
        "osm_type": "node",
        "boundingbox": [
            "15.8803874",
            "15.9603874",
            "75.6407865",
            "75.7207865"
        ],
        "display_name": "Badami, Badami taluku, Bagalkote district, Karnataka, 587200, India",
        "class": "place",
        "osm_id": "655135229",
        "type": "town",
        "licence": "Data \u00a9 OpenStreetMap contributors, ODbL 1.0. http://www.openstreetmap.org/copyright",
        "lon": "75.6807865",
        "lat": "15.9203874",
        "place_id": "6086961",
        "importance": 0.5
    },
    "manipal": {
        "icon": "https://nominatim.openstreetmap.org/images/mapicons/poi_place_town.p.20.png",
        "osm_type": "node",
        "boundingbox": [
            "13.3119723",
            "13.3919723",
            "74.7470308",
            "74.8270308"
        ],
        "display_name": "Manipal, Udupi taluku, Udupi district, Karnataka, India",
        "class": "place",
        "osm_id": "1351009057",
        "type": "town",
        "licence": "Data \u00a9 OpenStreetMap contributors, ODbL 1.0. http://www.openstreetmap.org/copyright",
        "lon": "74.7870308",
        "lat": "13.3519723",
        "place_id": "14794110",
        "importance": 0.5
    }
}