{
    "mentions": {
        "badami station": {
            "blogLinks": [
                "https://www.tripoto.com/travel-guide/badami/trips"
            ],
            "locType": "administrative",
            "longitude": "75.6419100722642",
            "latitude": "15.98301895",
            "address": "Badami taluku, Bagalkote district, Karnataka, India",
            "closest_to": "badami"
        },
        "hazara rama temple": {
            "blogLinks": [
                "http://wikitravel.org/en/Hampi"
            ],
            "locType": "place_of_worship",
            "longitude": "76.4687794",
            "latitude": "15.3178218",
            "address": "Hazara Rama Temple, Hampi Kamalapura Road, Kamalapura, Hosapete taluk, Bellary district, Karnataka, 583221, India",
            "closest_to": "raichur"
        },
        "badami cave": {
            "blogLinks": [
                "https://www.tripoto.com/travel-guide/badami/trips",
                "http://travel.india.com/badami/places-to-visit/"
            ],
            "locType": "attraction",
            "longitude": "75.6842639478391",
            "latitude": "15.9184483",
            "address": "Badami Cave Temples, Bahanpur - Gadankeri Highway, Banashankari, Badami taluku, Bagalkote district, Karnataka, 587200, India",
            "closest_to": "raichur"
        },
        "prince restaurant": {
            "blogLinks": [
                "https://www.tripoto.com/weekend-getaways/from-raichur"
            ],
            "locType": "restaurant",
            "longitude": "76.4602348",
            "latitude": "15.3355701",
            "address": "Prince, Hampi Bazaar, Hampe, Hosapete taluk, Bellary district, Karnataka, 583239, India",
            "closest_to": "raichur"
        },
        "kamalapura - hampi": {
            "blogLinks": [
                "http://samundarbaba.blogspot.in/2010/11/we-visited-hampi-badami-aihole-and.html"
            ],
            "locType": "primary",
            "longitude": "76.4601501",
            "latitude": "15.3237031",
            "address": "Hampi Kamalapura Road, Hampe, Hosapete taluk, Bellary district, Karnataka, 583239, India",
            "closest_to": "raichur"
        },
        "tungabadra dam": {
            "blogLinks": [
                "http://wikitravel.org/en/Hampi"
            ],
            "locType": "canal",
            "longitude": "76.8686753",
            "latitude": "15.1764865",
            "address": "Tungabadra High Level Canal, Ballari, Bellary taluk, Bellary district, Karnataka, India",
            "closest_to": "raichur"
        },
        "urdu": {
            "blogLinks": [
                "https://en.wikipedia.org/wiki/Gulbarga"
            ],
            "locType": "recreation_ground",
            "longitude": "75.636575371858",
            "latitude": "14.6180369",
            "address": "Urdu Ground, Ranebennur, Ranebennuru taluk, Haveri district, Karnataka, 581115, India",
            "closest_to": "badami"
        },
        "sharana basaveshwara temple": {
            "blogLinks": [
                "https://en.wikipedia.org/wiki/Gulbarga"
            ],
            "locType": "place_of_worship",
            "longitude": "76.8261946",
            "latitude": "17.3363302",
            "address": "Basweswara Temple, Tank Bund Road, Fort, Rajapura, Kalaburagi, Gulbarga taluku, Kalaburagi district, Karnataka, 585101, India",
            "closest_to": "raichur"
        },
        "anegundi": {
            "blogLinks": [
                "http://wikitravel.org/en/Hampi"
            ],
            "locType": "village",
            "longitude": "76.4924232",
            "latitude": "15.3509583",
            "address": "Anegundi, Gangavati taluku, Koppal district, Karnataka, India",
            "closest_to": "raichur"
        },
        "kamalapur": {
            "blogLinks": [
                "http://wikitravel.org/en/Hampi"
            ],
            "locType": "yes",
            "longitude": "75.003629911571",
            "latitude": "15.4456282",
            "address": "Kamalapur Nursing Home, Station Road, Kalyana nagar, Gandhinagar, Dharwad, Dharawada taluku, Dharwad district, Karnataka, 580001, India",
            "closest_to": "badami"
        },
        "virupapur": {
            "blogLinks": [
                "http://wikitravel.org/en/Hampi"
            ],
            "locType": "school",
            "longitude": "76.80057",
            "latitude": "16.65052",
            "address": "Government Lps Virupapur, Virupapura, Shahapura taluku, Yadagiri district, Karnataka, India",
            "closest_to": "raichur"
        },
        "hampi bazaar": {
            "blogLinks": [
                "http://wikitravel.org/en/Hampi",
                "https://www.tripoto.com/weekend-getaways/from-raichur"
            ],
            "locType": "unclassified",
            "longitude": "76.4621571",
            "latitude": "15.3347585",
            "address": "Hampi Bazaar, Hampe, Hosapete taluk, Bellary district, Karnataka, 583239, India",
            "closest_to": "raichur"
        },
        "india": {
            "blogLinks": [
                "https://www.distancecalculator.net/from-badami-to-raichur",
                "https://www.tripoto.com/travel-guide/badami/trips",
                "http://wikitravel.org/en/Hampi",
                "http://samundarbaba.blogspot.in/2010/11/we-visited-hampi-badami-aihole-and.html",
                "https://www.tripoto.com/weekend-getaways/from-raichur",
                "http://www.distancesfrom.com/hyderabad-to-Badami-Route-via-Raichur/RouteplannerHistory/18814593.aspx",
                "https://en.wikipedia.org/wiki/Pattadakal",
                "http://distancecalculator.globefeed.com/India_Distance_Calculator.asp?state=19",
                "https://en.wikipedia.org/wiki/Gulbarga",
                "http://www.nivalink.com/destination/badami",
                "http://www.distancesfrom.com/distance-from-Raichur-to-Badami/DistanceHistory/33267783.aspx"
            ],
            "locType": "administrative",
            "longitude": "75.7223521",
            "latitude": "14.5203896",
            "address": "Karnataka, India",
            "closest_to": "badami"
        },
        "devagiri": {
            "blogLinks": [
                "https://en.wikipedia.org/wiki/Gulbarga"
            ],
            "locType": "village",
            "longitude": "74.8965381",
            "latitude": "15.3993352",
            "address": "Devagiri, Dharawada taluku, Dharwad district, Karnataka, India",
            "closest_to": "badami"
        },
        "anegondi": {
            "blogLinks": [
                "http://wikitravel.org/en/Hampi"
            ],
            "locType": "village",
            "longitude": "76.4924232",
            "latitude": "15.3509583",
            "address": "Anegundi, Gangavati taluku, Koppal district, Karnataka, India",
            "closest_to": "raichur"
        },
        "sedam road": {
            "blogLinks": [
                "https://en.wikipedia.org/wiki/Gulbarga"
            ],
            "locType": "primary",
            "longitude": "76.8704171",
            "latitude": "17.3228695",
            "address": "Sedam Road, Rajapura, Kalaburagi, Gulbarga taluku, Kalaburagi district, Karnataka, 585101, India",
            "closest_to": "raichur"
        },
        "sanapur lake": {
            "blogLinks": [
                "http://wikitravel.org/en/Hampi"
            ],
            "locType": "reservoir",
            "longitude": "76.4294274988777",
            "latitude": "15.35823095",
            "address": "Sanapura Kere, Sanapura, Gangavati taluku, Koppal district, Karnataka, India",
            "closest_to": "raichur"
        },
        "bagalkot district of north karnataka": {
            "blogLinks": [
                "http://samundarbaba.blogspot.in/2010/11/we-visited-hampi-badami-aihole-and.html"
            ],
            "locType": "city",
            "longitude": "75.6967919",
            "latitude": "16.1853166",
            "address": "Bagalakote, Bagalakote taluk, Bagalkote district, Karnataka, India",
            "closest_to": "raichur"
        },
        "koppal": {
            "blogLinks": [
                "http://wikitravel.org/en/Hampi"
            ],
            "locType": "town",
            "longitude": "76.1547421",
            "latitude": "15.3484144",
            "address": "Koppala, Koppala taluku, Koppal district, Karnataka, 583231, India",
            "closest_to": "raichur"
        },
        "vitthala": {
            "blogLinks": [
                "http://samundarbaba.blogspot.in/2010/11/we-visited-hampi-badami-aihole-and.html"
            ],
            "locType": "footway",
            "longitude": "76.4705005",
            "latitude": "15.3376716",
            "address": "Way to Vitthala Temple, Hampe, Hosapete taluk, Bellary district, Karnataka, 583239, India",
            "closest_to": "raichur"
        },
        "virupaksha temple": {
            "blogLinks": [
                "https://en.wikipedia.org/wiki/Pattadakal",
                "http://wikitravel.org/en/Hampi",
                "https://www.tripoto.com/weekend-getaways/from-raichur"
            ],
            "locType": "place_of_worship",
            "longitude": "76.4587777156223",
            "latitude": "15.3351754",
            "address": "Virupaksha Temple, Hampi Bazaar, Hampe, Hosapete taluk, Bellary district, Karnataka, 583239, India",
            "closest_to": "raichur"
        },
        "hemakuta hill": {
            "blogLinks": [
                "http://wikitravel.org/en/Hampi",
                "https://www.tripoto.com/weekend-getaways/from-raichur"
            ],
            "locType": "peak",
            "longitude": "76.4602971",
            "latitude": "15.332915",
            "address": "Hemakuta Hill, Hosapete taluk, Bellary district, Karnataka, India",
            "closest_to": "raichur"
        },
        "pattadakal": {
            "blogLinks": [
                "http://samundarbaba.blogspot.in/2010/11/we-visited-hampi-badami-aihole-and.html",
                "https://en.wikipedia.org/wiki/Pattadakal",
                "https://www.audleytravel.com/india/places-to-go/badami",
                "https://www.tripoto.com/weekend-getaways/from-raichur",
                "http://www.nivalink.com/destination/badami"
            ],
            "locType": "attraction",
            "longitude": "75.815884048161",
            "latitude": "15.9506349",
            "address": "Pattadakal Temples, SH14, \u0cac\u0cbe\u0c9a\u0cbf\u0ca8\u0c97\u0cc1\u0ca1\u0ccd\u0ca1, Badami taluku, Bagalkote district, Karnataka, 587211, India",
            "closest_to": "raichur"
        },
        "solapur": {
            "blogLinks": [
                "https://en.wikipedia.org/wiki/Pattadakal",
                "https://en.wikipedia.org/wiki/Gulbarga"
            ],
            "locType": "trunk",
            "longitude": "76.6763291",
            "latitude": "17.269752",
            "address": "Gulbarga - Solapur Highway, Chikka Gobbura, Afzalpura taluku, Kalaburagi district, Karnataka, 585265, India",
            "closest_to": "raichur"
        },
        "pattadakal-badami road": {
            "blogLinks": [
                "https://en.wikipedia.org/wiki/Pattadakal"
            ],
            "locType": "attraction",
            "longitude": "75.815884048161",
            "latitude": "15.9506349",
            "address": "Pattadakal Temples, SH14, \u0cac\u0cbe\u0c9a\u0cbf\u0ca8\u0c97\u0cc1\u0ca1\u0ccd\u0ca1, Badami taluku, Bagalkote district, Karnataka, 587211, India",
            "closest_to": "raichur"
        },
        "gulbarga district": {
            "blogLinks": [
                "https://en.wikipedia.org/wiki/Gulbarga"
            ],
            "locType": "county",
            "longitude": "77.083333",
            "latitude": "17.166667",
            "address": "Kalaburgi, Kalaburagi district, Karnataka, India",
            "closest_to": "raichur"
        },
        "bahmani": {
            "blogLinks": [
                "https://en.wikipedia.org/wiki/Gulbarga"
            ],
            "locType": "castle",
            "longitude": "76.8315008",
            "latitude": "17.3415485",
            "address": "Bahmani Fort, Alanda Road, Fort, Rauza, Kalaburagi, Gulbarga taluku, Kalaburagi district, Karnataka, 585101, India",
            "closest_to": "raichur"
        },
        "galaganatha temple": {
            "blogLinks": [
                "https://en.wikipedia.org/wiki/Pattadakal"
            ],
            "locType": "yes",
            "longitude": "75.8162171957903",
            "latitude": "15.95018615",
            "address": "Galaganatha Temple, SH14, \u0cac\u0cbe\u0c9a\u0cbf\u0ca8\u0c97\u0cc1\u0ca1\u0ccd\u0ca1, Badami taluku, Bagalkote district, Karnataka, 587211, India",
            "closest_to": "raichur"
        },
        "tungabhadra dam": {
            "blogLinks": [
                "http://wikitravel.org/en/Hampi"
            ],
            "locType": "dam",
            "longitude": "76.3339514796436",
            "latitude": "15.2639032",
            "address": "Tungabhadra Dam, Hosapete taluk, Bellary district, Karnataka, India",
            "closest_to": "raichur"
        },
        "malaprabha": {
            "blogLinks": [
                "https://en.wikipedia.org/wiki/Pattadakal",
                "http://travel.india.com/badami/places-to-visit/"
            ],
            "locType": "river",
            "longitude": "75.1982668",
            "latitude": "15.8914192",
            "address": "Malaprabha, Ramadurga taluku, Belgaum district, Karnataka, India",
            "closest_to": "badami"
        },
        "virupaksha": {
            "blogLinks": [
                "https://en.wikipedia.org/wiki/Pattadakal",
                "http://wikitravel.org/en/Hampi"
            ],
            "locType": "place_of_worship",
            "longitude": "76.4587777156223",
            "latitude": "15.3351754",
            "address": "Virupaksha Temple, Hampi Bazaar, Hampe, Hosapete taluk, Bellary district, Karnataka, 583239, India",
            "closest_to": "raichur"
        },
        "bijapur": {
            "blogLinks": [
                "https://en.wikipedia.org/wiki/Gulbarga",
                "https://www.tripoto.com/weekend-getaways/from-raichur"
            ],
            "locType": "city",
            "longitude": "75.7175387",
            "latitude": "16.8269911",
            "address": "Vijayapura, Vijayapura taluk, Bijapur district, Karnataka, 586101, India",
            "closest_to": "badami"
        },
        "tungabhadra river": {
            "blogLinks": [
                "http://samundarbaba.blogspot.in/2010/11/we-visited-hampi-badami-aihole-and.html",
                "https://www.tripoto.com/weekend-getaways/from-raichur"
            ],
            "locType": "river",
            "longitude": "76.4931607",
            "latitude": "15.3446123",
            "address": "Tungabhadra, Gangavati taluku, Koppal district, Karnataka, India",
            "closest_to": "raichur"
        },
        "kalaburagi": {
            "blogLinks": [
                "https://en.wikipedia.org/wiki/Gulbarga"
            ],
            "locType": "city",
            "longitude": "76.8334228",
            "latitude": "17.3310003",
            "address": "Kalaburagi, Gulbarga taluku, Kalaburagi district, Karnataka, 585101, India",
            "closest_to": "raichur"
        },
        "hospet junction": {
            "blogLinks": [
                "http://wikitravel.org/en/Hampi"
            ],
            "locType": "station",
            "longitude": "76.3869935",
            "latitude": "15.2865104",
            "address": "Hospet Junction, Station Road, Basavanada, Hosapete taluk, Bellary district, Karnataka, 583201, India",
            "closest_to": "raichur"
        },
        "bidar-srirangapatna": {
            "blogLinks": [
                "https://en.wikipedia.org/wiki/Gulbarga"
            ],
            "locType": "trunk",
            "longitude": "76.9151673",
            "latitude": "15.1602113",
            "address": "Bidar-Srirangapatna Road, Ballari, Bellary taluk, Bellary district, Karnataka, 5831XX, India",
            "closest_to": "raichur"
        },
        "hubli": {
            "blogLinks": [
                "https://en.wikipedia.org/wiki/Pattadakal",
                "http://wikitravel.org/en/Hampi",
                "https://www.tripoto.com/weekend-getaways/from-raichur",
                "http://www.nivalink.com/destination/badami"
            ],
            "locType": "city",
            "longitude": "75.1379848",
            "latitude": "15.3518378",
            "address": "Hubballi - \u0cb9\u0cc1\u0cac\u0ccd\u0cac\u0cb3\u0ccd\u0cb3\u0cbf, Hubballi taluku, Dharwad district, Karnataka, 580020, India",
            "closest_to": "badami"
        },
        "badami": {
            "blogLinks": [
                "https://www.distancecalculator.net/from-badami-to-raichur",
                "https://www.tripoto.com/travel-guide/badami/trips",
                "http://samundarbaba.blogspot.in/2010/11/we-visited-hampi-badami-aihole-and.html",
                "https://en.wikipedia.org/wiki/Pattadakal",
                "https://www.tripoto.com/weekend-getaways/from-raichur",
                "http://www.distancesfrom.com/hyderabad-to-Badami-Route-via-Raichur/RouteplannerHistory/18814593.aspx",
                "http://travel.india.com/badami/places-to-visit/",
                "https://www.audleytravel.com/india/places-to-go/badami",
                "http://www.nivalink.com/destination/badami",
                "http://www.distancesfrom.com/distance-from-Raichur-to-Badami/DistanceHistory/33267783.aspx"
            ],
            "locType": "town",
            "longitude": "75.6807865",
            "latitude": "15.9203874",
            "address": "Badami, Badami taluku, Bagalkote district, Karnataka, 587200, India",
            "closest_to": "raichur"
        },
        "belgaum airport": {
            "blogLinks": [
                "https://en.wikipedia.org/wiki/Pattadakal"
            ],
            "locType": "aerodrome",
            "longitude": "74.6189763983851",
            "latitude": "15.8602827",
            "address": "Belgaum Airport, SH20, Balekundri, Belagavi taluku, Belgaum district, Karnataka, 591124, India",
            "closest_to": "badami"
        },
        "anjenaya hill": {
            "blogLinks": [
                "http://wikitravel.org/en/Hampi"
            ],
            "locType": "place_of_worship",
            "longitude": "76.4065341",
            "latitude": "15.2403311",
            "address": "Anjenaya temple, Jambunatha Traditional Temple Stairs, Rajapu, Hosapete taluk, Bellary district, Karnataka, 583200, India",
            "closest_to": "raichur"
        },
        "hospet": {
            "blogLinks": [
                "http://wikitravel.org/en/Hampi"
            ],
            "locType": "town",
            "longitude": "76.3870527",
            "latitude": "15.266079",
            "address": "Hosapete, Hosapete taluk, Bellary district, Karnataka, 583200, India",
            "closest_to": "raichur"
        },
        "malaprabha river": {
            "blogLinks": [
                "http://samundarbaba.blogspot.in/2010/11/we-visited-hampi-badami-aihole-and.html",
                "https://en.wikipedia.org/wiki/Pattadakal"
            ],
            "locType": "river",
            "longitude": "75.1982668",
            "latitude": "15.8914192",
            "address": "Malaprabha, Ramadurga taluku, Belgaum district, Karnataka, India",
            "closest_to": "badami"
        },
        "yadgir": {
            "blogLinks": [
                "https://en.wikipedia.org/wiki/Gulbarga"
            ],
            "locType": "town",
            "longitude": "77.1380381",
            "latitude": "16.7689044",
            "address": "Yadgir, Yadagiri taluku, Yadagiri district, Karnataka, 585200, India",
            "closest_to": "raichur"
        },
        "raichur": {
            "blogLinks": [
                "https://www.distancecalculator.net/from-badami-to-raichur",
                "http://wikitravel.org/en/Hampi",
                "http://www.distancesfrom.com/hyderabad-to-Badami-Route-via-Raichur/RouteplannerHistory/18814593.aspx",
                "https://en.wikipedia.org/wiki/Gulbarga",
                "http://www.distancesfrom.com/distance-from-Raichur-to-Badami/DistanceHistory/33267783.aspx",
                "http://travel.india.com/articles/hyderabad-badami-reach-badami-hyderabad-road/"
            ],
            "locType": "county",
            "longitude": "77.166667",
            "latitude": "16.083333",
            "address": "Raichur, Raichur district, Karnataka, India",
            "closest_to": "raichur"
        },
        "north karnataka district": {
            "blogLinks": [
                "https://www.tripoto.com/travel-guide/badami/trips",
                "https://www.tripoto.com/weekend-getaways/from-raichur"
            ],
            "locType": "station",
            "longitude": "77.0196475",
            "latitude": "16.935745",
            "address": "Nalwar Station, Raichur - Wadi Road, Subbunayaka Tanda, Chitapura taluku, Kalaburagi district, Karnataka, India",
            "closest_to": "raichur"
        },
        "tungabhadra": {
            "blogLinks": [
                "http://samundarbaba.blogspot.in/2010/11/we-visited-hampi-badami-aihole-and.html",
                "http://wikitravel.org/en/Hampi",
                "https://www.tripoto.com/weekend-getaways/from-raichur",
                "http://indiarailinfo.com/search/badami-bdm-to-raichur-rc/3763/0/144",
                "http://distancecalculator.globefeed.com/India_Distance_Calculator.asp?state=19"
            ],
            "locType": "river",
            "longitude": "76.4931607",
            "latitude": "15.3446123",
            "address": "Tungabhadra, Gangavati taluku, Koppal district, Karnataka, India",
            "closest_to": "raichur"
        },
        "bellary": {
            "blogLinks": [
                "http://samundarbaba.blogspot.in/2010/11/we-visited-hampi-badami-aihole-and.html",
                "http://wikitravel.org/en/Hampi",
                "https://en.wikipedia.org/wiki/Gulbarga"
            ],
            "locType": "county",
            "longitude": "76.8323648",
            "latitude": "15.2485413",
            "address": "Bellary, Bellary district, Karnataka, India",
            "closest_to": "raichur"
        },
        "aihole": {
            "blogLinks": [
                "http://samundarbaba.blogspot.in/2010/11/we-visited-hampi-badami-aihole-and.html",
                "https://en.wikipedia.org/wiki/Pattadakal",
                "http://travel.india.com/badami/places-to-visit/",
                "http://www.nivalink.com/destination/badami"
            ],
            "locType": "village",
            "longitude": "75.8819129",
            "latitude": "16.0192298",
            "address": "Aihole, Hunagunda taluku, Bagalkote district, Karnataka, India",
            "closest_to": "raichur"
        },
        "hampi": {
            "blogLinks": [
                "http://samundarbaba.blogspot.in/2010/11/we-visited-hampi-badami-aihole-and.html",
                "http://wikitravel.org/en/Hampi",
                "https://www.tripoto.com/weekend-getaways/from-raichur",
                "http://www.distancesfrom.com/hyderabad-to-Badami-Route-via-Raichur/RouteplannerHistory/18814593.aspx"
            ],
            "locType": "village",
            "longitude": "76.4606199",
            "latitude": "15.3359769",
            "address": "Hampe, Hosapete taluk, Bellary district, Karnataka, 583239, India",
            "closest_to": "raichur"
        },
        "jambulinga temple": {
            "blogLinks": [
                "https://en.wikipedia.org/wiki/Pattadakal"
            ],
            "locType": "yes",
            "longitude": "75.8160313484561",
            "latitude": "15.95023405",
            "address": "Jambulinga Temple, SH14, \u0cac\u0cbe\u0c9a\u0cbf\u0ca8\u0c97\u0cc1\u0ca1\u0ccd\u0ca1, Badami taluku, Bagalkote district, Karnataka, 587211, India",
            "closest_to": "raichur"
        },
        "matanga hill": {
            "blogLinks": [
                "http://wikitravel.org/en/Hampi"
            ],
            "locType": "peak",
            "longitude": "76.4682314",
            "latitude": "15.3315267",
            "address": "Matanga Hill, Hosapete taluk, Bellary district, Karnataka, India",
            "closest_to": "raichur"
        },
        "papanatha temple": {
            "blogLinks": [
                "https://en.wikipedia.org/wiki/Pattadakal"
            ],
            "locType": "yes",
            "longitude": "75.8164391839286",
            "latitude": "15.94762935",
            "address": "Papanatha Temple, SH14, \u0cac\u0cbe\u0c9a\u0cbf\u0ca8\u0c97\u0cc1\u0ca1\u0ccd\u0ca1, Badami taluku, Bagalkote district, Karnataka, 587211, India",
            "closest_to": "raichur"
        },
        "iceland": {
            "blogLinks": [
                "http://wikitravel.org/en/Hampi"
            ],
            "locType": "restaurant",
            "longitude": "76.3885296",
            "latitude": "15.2760556",
            "address": "Iceland, Sardar Patel Road, Hosapete, Hosapete taluk, Bellary district, Karnataka, 583200, India",
            "closest_to": "raichur"
        },
        "sangameshvara": {
            "blogLinks": [
                "https://en.wikipedia.org/wiki/Pattadakal"
            ],
            "locType": "village",
            "longitude": "76.158147",
            "latitude": "14.8574503",
            "address": "Sangameshvara, Hagari Bommanahalli taluk, Bellary district, Karnataka, India",
            "closest_to": "badami"
        },
        "gulbarga": {
            "blogLinks": [
                "https://en.wikipedia.org/wiki/Gulbarga"
            ],
            "locType": "county",
            "longitude": "77.083333",
            "latitude": "17.166667",
            "address": "Kalaburgi, Kalaburagi district, Karnataka, India",
            "closest_to": "raichur"
        },
        "bagalkot": {
            "blogLinks": [
                "http://samundarbaba.blogspot.in/2010/11/we-visited-hampi-badami-aihole-and.html",
                "https://en.wikipedia.org/wiki/Pattadakal",
                "https://www.tripoto.com/weekend-getaways/from-raichur",
                "http://travel.india.com/badami/places-to-visit/"
            ],
            "locType": "city",
            "longitude": "75.6967919",
            "latitude": "16.1853166",
            "address": "Bagalakote, Bagalakote taluk, Bagalkote district, Karnataka, India",
            "closest_to": "raichur"
        },
        "bagalkot district": {
            "blogLinks": [
                "https://www.tripoto.com/weekend-getaways/from-raichur"
            ],
            "locType": "city",
            "longitude": "75.6967919",
            "latitude": "16.1853166",
            "address": "Bagalakote, Bagalakote taluk, Bagalkote district, Karnataka, India",
            "closest_to": "raichur"
        }
    },
    "raichur": {
        "icon": "https://nominatim.openstreetmap.org/images/mapicons/poi_boundary_administrative.p.20.png",
        "osm_type": "node",
        "boundingbox": [
            "15.443333",
            "16.723333",
            "76.526667",
            "77.806667"
        ],
        "display_name": "Raichur, Raichur district, Karnataka, India",
        "class": "place",
        "osm_id": "316417380",
        "type": "county",
        "licence": "Data \u00a9 OpenStreetMap contributors, ODbL 1.0. http://www.openstreetmap.org/copyright",
        "lon": "77.166667",
        "lat": "16.083333",
        "place_id": "1415432",
        "importance": 0.65
    },
    "badami": {
        "icon": "https://nominatim.openstreetmap.org/images/mapicons/poi_place_town.p.20.png",
        "osm_type": "node",
        "boundingbox": [
            "15.8803874",
            "15.9603874",
            "75.6407865",
            "75.7207865"
        ],
        "display_name": "Badami, Badami taluku, Bagalkote district, Karnataka, 587200, India",
        "class": "place",
        "osm_id": "655135229",
        "type": "town",
        "licence": "Data \u00a9 OpenStreetMap contributors, ODbL 1.0. http://www.openstreetmap.org/copyright",
        "lon": "75.6807865",
        "lat": "15.9203874",
        "place_id": "6086961",
        "importance": 0.5
    }
}