{
    "mentions": {
        "bhatkal": {
            "blogLinks": [
                "https://en.wikipedia.org/wiki/Tourism_in_Karnataka"
            ],
            "locType": "town",
            "longitude": "74.5485295",
            "latitude": "13.9952114",
            "address": "Bhatkal, Bhatkala taluk, Uttara Kannada, Karnataka, 581320, India",
            "closest_to": "tumkur"
        },
        "white house": {
            "blogLinks": [
                "http://samundarbaba.blogspot.in/2010/11/we-visited-hampi-badami-aihole-and.html"
            ],
            "locType": "residential",
            "longitude": "77.7524656144664",
            "latitude": "12.97541915",
            "address": "Prestige White Meadows, Kadugodi, Sai Layout, Bangalore Urban, Karnataka, 560066, India",
            "closest_to": "tumkur"
        },
        "ramanagara": {
            "blogLinks": [
                "http://www.mapsofindia.com/maps/karnataka/"
            ],
            "locType": "town",
            "longitude": "74.4900863",
            "latitude": "15.422047",
            "address": "Ramanagara, Khanapura taluku, Belgaum district, Karnataka, India",
            "closest_to": "badami"
        },
        "tumkur": {
            "blogLinks": [
                "https://en.wikipedia.org/wiki/Tourism_in_Karnataka",
                "http://rakeshholla.blogspot.com/2012/09/shivaganga-hills-tumkur.html",
                "http://www.sutthonabanni.com/2011/07/tumkur-district.html",
                "https://www.tripoto.com/travel-guide/tumkur",
                "http://travel.india.com/gokarna/"
            ],
            "locType": "county",
            "longitude": "77.0002445",
            "latitude": "13.4999406",
            "address": "Tumakuru, Tumkur district, Karnataka, India",
            "closest_to": "tumkur"
        },
        "kambadahalli": {
            "blogLinks": [
                "https://en.wikipedia.org/wiki/Tourism_in_Karnataka"
            ],
            "locType": "village",
            "longitude": "77.1671918",
            "latitude": "13.6843692",
            "address": "Kambadahalli, Madhugiri taluk, Tumkur district, Karnataka, India",
            "closest_to": "tumkur"
        },
        "nippani": {
            "blogLinks": [
                "https://en.wikipedia.org/wiki/Tourism_in_Karnataka"
            ],
            "locType": "town",
            "longitude": "74.3842372",
            "latitude": "16.4020402",
            "address": "Nippani, Chikodi taluk, Belgaum district, Karnataka, 591237, India",
            "closest_to": "badami"
        },
        "chikmagalur district": {
            "blogLinks": [
                "https://en.wikipedia.org/wiki/Tourism_in_Karnataka"
            ],
            "locType": "county",
            "longitude": "75.5",
            "latitude": "13.5",
            "address": "Chikmagalur, Chikkamagaluru district, Karnataka, India",
            "closest_to": "tumkur"
        },
        "chalukya": {
            "blogLinks": [
                "https://en.wikipedia.org/wiki/Tourism_in_Karnataka"
            ],
            "locType": "residential",
            "longitude": "77.5192989605445",
            "latitude": "12.9617207",
            "address": "Chalukya Nagar, Chandra Layout, GKW Layout, Bangalore Urban, Karnataka, 560072, India",
            "closest_to": "tumkur"
        },
        "mahalakshmi temple": {
            "blogLinks": [
                "http://www.buzzntravel.com/tamkur"
            ],
            "locType": "place_of_worship",
            "longitude": "75.2513776",
            "latitude": "13.7088748",
            "address": "Mahalakshmi Temple, Soppugudde Main Road, Soppugudde, Tirthahalli, Tirthahalli taluk, Shimoga district, Karnataka, 577432, India",
            "closest_to": "tumkur"
        },
        "kamala": {
            "blogLinks": [
                "https://en.wikipedia.org/wiki/Tourism_in_Karnataka"
            ],
            "locType": "school",
            "longitude": "77.5664867",
            "latitude": "12.9339482",
            "address": "Kamala Nehru Patashala (Emmanual English School), 5th A Cross Road, Yediyur, Thyagaraja Nagar, Bengaluru, Bangalore Urban, Karnataka, 560001, India",
            "closest_to": "tumkur"
        },
        "delhi": {
            "blogLinks": [
                "http://samundarbaba.blogspot.in/2010/11/we-visited-hampi-badami-aihole-and.html"
            ],
            "locType": "trunk",
            "longitude": "77.6666062",
            "latitude": "12.9212473",
            "address": "Outer Ring Road, Green Glen Layout, Iblur, Bengaluru, Bangalore Urban, Karnataka, 560001, India",
            "closest_to": "tumkur"
        },
        "kavya": {
            "blogLinks": [
                "https://www.tripoto.com/travel-guide/tumkur"
            ],
            "locType": "restaurant",
            "longitude": "77.6146254",
            "latitude": "12.9582479",
            "address": "Kavya Sagar, Palm Grove Road, Vannarpet, Austin Town, Bengaluru, Bangalore Urban, Karnataka, 560001, India",
            "closest_to": "tumkur"
        },
        "banashankari temple": {
            "blogLinks": [
                "https://en.wikipedia.org/wiki/Tourism_in_Karnataka"
            ],
            "locType": "place_of_worship",
            "longitude": "77.5731752886765",
            "latitude": "12.91568785",
            "address": "Banashankari Temple, Kanakapura Road, JP Nagar 1st Phase, Kaderenahalli, Bengaluru, Bangalore Urban, Karnataka, 560001, India",
            "closest_to": "tumkur"
        },
        "gangadhareshwar": {
            "blogLinks": [
                "http://www.buzzntravel.com/tamkur"
            ],
            "locType": "place_of_worship",
            "longitude": "77.2252408",
            "latitude": "13.171879",
            "address": "Gangadhareshwar Temple, State Highway 3, Banavadi, Magadi taluku, Ramanagara district, Karnataka, India",
            "closest_to": "tumkur"
        },
        "bangalore": {
            "blogLinks": [
                "http://travel.india.com/badami/",
                "http://www.sutthonabanni.com/2011/07/tumkur-district.html",
                "http://travel.india.com/gokarna/",
                "https://en.wikipedia.org/wiki/Tourism_in_Karnataka",
                "https://www.travelblog.org/Asia/India/Karnataka/Bangalore/Koramangala/blog-914055.html",
                "http://samundarbaba.blogspot.in/2010/11/we-visited-hampi-badami-aihole-and.html",
                "http://www.nivalink.com/destination/badami",
                "https://www.tripoto.com/travel-guide/tumkur",
                "http://www.mapsofindia.com/maps/karnataka/"
            ],
            "locType": "city",
            "longitude": "77.5912997",
            "latitude": "12.9791198",
            "address": "Bengaluru, Bangalore Urban, Karnataka, 560001, India",
            "closest_to": "tumkur"
        },
        "' river varahi": {
            "blogLinks": [
                "https://en.wikipedia.org/wiki/Tourism_in_Karnataka"
            ],
            "locType": "river",
            "longitude": "74.9489117",
            "latitude": "13.6582668",
            "address": "Varahi, \u0c95\u0cc1\u0c82\u0ca6\u0cbe\u0caa\u0cc1\u0cb0 \u0ca4\u0cbe\u0cb2\u0cc2\u0c95\u0cc1, Udupi district, Karnataka, India",
            "closest_to": "tumkur"
        },
        "irupu falls": {
            "blogLinks": [
                "https://en.wikipedia.org/wiki/Tourism_in_Karnataka"
            ],
            "locType": "attraction",
            "longitude": "75.9839484",
            "latitude": "11.9667954",
            "address": "Iruppu Falls, SH89, Taila, Virajpet taluk, Kodagu, Karnataka, 571217, India",
            "closest_to": "tumkur"
        },
        "nilgiris": {
            "blogLinks": [
                "https://en.wikipedia.org/wiki/Tourism_in_Karnataka"
            ],
            "locType": "supermarket",
            "longitude": "77.6069792",
            "latitude": "12.9725052",
            "address": "Nilgiris, Brigade Road, Tasker Town, Ashok Nagar, Bengaluru, Bangalore Urban, Karnataka, 560001, India",
            "closest_to": "tumkur"
        },
        "nagarahole national park": {
            "blogLinks": [
                "https://en.wikipedia.org/wiki/Tourism_in_Karnataka"
            ],
            "locType": "national_park",
            "longitude": "76.1537073415874",
            "latitude": "12.0600362",
            "address": "Nagarahole National Park, Virajpet taluk, Kodagu, Karnataka, India",
            "closest_to": "tumkur"
        },
        "gadag district": {
            "blogLinks": [
                "https://en.wikipedia.org/wiki/Tourism_in_Karnataka"
            ],
            "locType": "administrative",
            "longitude": "75.6807542794645",
            "latitude": "15.416337",
            "address": "Gadag district, Karnataka, India",
            "closest_to": "tumkur"
        },
        "gulbarga district": {
            "blogLinks": [
                "https://en.wikipedia.org/wiki/Tourism_in_Karnataka"
            ],
            "locType": "county",
            "longitude": "77.083333",
            "latitude": "17.166667",
            "address": "Kalaburgi, Kalaburagi district, Karnataka, India",
            "closest_to": "badami"
        },
        "gotagodi village": {
            "blogLinks": [
                "https://en.wikipedia.org/wiki/Tourism_in_Karnataka"
            ],
            "locType": "village",
            "longitude": "75.0452834",
            "latitude": "14.7634556",
            "address": "Gotagodi, Hanagal taluk, Haveri district, Karnataka, India",
            "closest_to": "tumkur"
        },
        "peenya": {
            "blogLinks": [
                "https://www.travelblog.org/Asia/India/Karnataka/Bangalore/Koramangala/blog-914055.html"
            ],
            "locType": "suburb",
            "longitude": "77.5273253",
            "latitude": "13.0329419",
            "address": "Peenya, Bengaluru, Bangalore Urban, Karnataka, 560001, India",
            "closest_to": "tumkur"
        },
        "srirangapatna": {
            "blogLinks": [
                "https://en.wikipedia.org/wiki/Tourism_in_Karnataka"
            ],
            "locType": "town",
            "longitude": "76.6850743",
            "latitude": "12.4225604",
            "address": "Srirangapatna, Srirangapattana taluk, Mandya district, Karnataka, 571438, India",
            "closest_to": "tumkur"
        },
        "maharashtra": {
            "blogLinks": [
                "https://en.wikipedia.org/wiki/Tourism_in_Karnataka",
                "http://www.mapsofindia.com/maps/karnataka/",
                "https://www.travelblog.org/Asia/India/Karnataka/Bangalore/Koramangala/blog-914055.html"
            ],
            "locType": "bank",
            "longitude": "77.5856013",
            "latitude": "12.9049455",
            "address": "Bank of Maharashtra, 24th Main, K R Layout, Puttenahalli, Bengaluru, Bangalore Urban, Karnataka, 560001, India",
            "closest_to": "tumkur"
        },
        "shimsha river": {
            "blogLinks": [
                "http://www.sutthonabanni.com/2011/07/tumkur-district.html"
            ],
            "locType": "river",
            "longitude": "76.972542",
            "latitude": "12.8027322",
            "address": "Shimsha, Kunigal taluk, Tumkur district, Karnataka, India",
            "closest_to": "tumkur"
        },
        "kamalapura - hampi": {
            "blogLinks": [
                "http://samundarbaba.blogspot.in/2010/11/we-visited-hampi-badami-aihole-and.html"
            ],
            "locType": "primary",
            "longitude": "76.4601501",
            "latitude": "15.3237031",
            "address": "Hampi Kamalapura Road, Hampe, Hosapete taluk, Bellary district, Karnataka, 583239, India",
            "closest_to": "tumkur"
        },
        "vijayanagara": {
            "blogLinks": [
                "https://en.wikipedia.org/wiki/Tourism_in_Karnataka"
            ],
            "locType": "village",
            "longitude": "74.7380455",
            "latitude": "16.3270486",
            "address": "Vijayanagara, Chikodi taluk, Belgaum district, Karnataka, India",
            "closest_to": "badami"
        },
        "varaha": {
            "blogLinks": [
                "https://en.wikipedia.org/wiki/Tourism_in_Karnataka"
            ],
            "locType": "village",
            "longitude": "75.3718812",
            "latitude": "14.390777",
            "address": "Varaha, Hirekeruru taluk, Haveri district, Karnataka, India",
            "closest_to": "tumkur"
        },
        "arabhavi": {
            "blogLinks": [
                "https://en.wikipedia.org/wiki/Tourism_in_Karnataka"
            ],
            "locType": "village",
            "longitude": "74.8213227",
            "latitude": "16.2193552",
            "address": "Arabhavi, Gokak taluku, Belgaum district, Karnataka, India",
            "closest_to": "badami"
        },
        "mekedatu": {
            "blogLinks": [
                "https://en.wikipedia.org/wiki/Tourism_in_Karnataka"
            ],
            "locType": "attraction",
            "longitude": "77.4475194",
            "latitude": "12.2584997",
            "address": "Mekedatu, SH92, Mahalli, Kanakapura taluk, Ramanagara district, Karnataka, India",
            "closest_to": "tumkur"
        },
        "ganga beach": {
            "blogLinks": [
                "http://travel.india.com/gokarna/"
            ],
            "locType": "hotel",
            "longitude": "74.3148093",
            "latitude": "14.5316743",
            "address": "Ganga Cafe, Om beach road, Gokarna, Kumata taluk, Uttara Kannada, Karnataka, 581326, India",
            "closest_to": "badami"
        },
        "mercara": {
            "blogLinks": [
                "https://en.wikipedia.org/wiki/Tourism_in_Karnataka"
            ],
            "locType": "town",
            "longitude": "75.740031",
            "latitude": "12.4204003",
            "address": "Madikeri, Madikeri taluku, Kodagu, Karnataka, India",
            "closest_to": "tumkur"
        },
        "bantwal": {
            "blogLinks": [
                "https://www.goibibo.com/routeplanner/tumkur-badami/"
            ],
            "locType": "town",
            "longitude": "75.0408618",
            "latitude": "12.8953789",
            "address": "Bantwal, Bantwal taluk, Dakshina Kannada, Karnataka, India",
            "closest_to": "tumkur"
        },
        "arasikere": {
            "blogLinks": [
                "https://en.wikipedia.org/wiki/Tourism_in_Karnataka"
            ],
            "locType": "town",
            "longitude": "76.2568436",
            "latitude": "13.3159809",
            "address": "Arasikere, Arasikere taluku, Hassan district, Karnataka, 573103, India",
            "closest_to": "tumkur"
        },
        "bahubali": {
            "blogLinks": [
                "https://en.wikipedia.org/wiki/Tourism_in_Karnataka"
            ],
            "locType": "place_of_worship",
            "longitude": "76.4846128",
            "latitude": "12.8540505",
            "address": "Bahubali Statue, SH8, Shravanabelagola, Channarayapattana taluk, Hassan district, Karnataka, 573135, India",
            "closest_to": "tumkur"
        },
        "om beach": {
            "blogLinks": [
                "http://travel.india.com/gokarna/"
            ],
            "locType": "beach",
            "longitude": "74.3254331800289",
            "latitude": "14.5190376",
            "address": "Om Beach, Om beach road, Gokarna, Kumata taluk, Uttara Kannada, Karnataka, 581326, India",
            "closest_to": "badami"
        },
        "venur": {
            "blogLinks": [
                "https://en.wikipedia.org/wiki/Tourism_in_Karnataka"
            ],
            "locType": "village",
            "longitude": "75.1443252",
            "latitude": "13.0122097",
            "address": "Venoor, Beltangadi taluk, Dakshina Kannada, Karnataka, 574242, India",
            "closest_to": "tumkur"
        },
        "hebbe falls": {
            "blogLinks": [
                "https://en.wikipedia.org/wiki/Tourism_in_Karnataka"
            ],
            "locType": "attraction",
            "longitude": "75.7253701",
            "latitude": "13.5414025",
            "address": "Hebbe falls, Kemmannagundi Road, Attigundi, Chikkamagaluru taluku, Chikkamagaluru district, Karnataka, India",
            "closest_to": "tumkur"
        },
        "kemmangundi": {
            "blogLinks": [
                "https://en.wikipedia.org/wiki/Tourism_in_Karnataka"
            ],
            "locType": "village",
            "longitude": "75.7520082",
            "latitude": "13.5463048",
            "address": "Kemmannagundi, Tarikere taluku, Chikkamagaluru district, Karnataka, India",
            "closest_to": "tumkur"
        },
        "kstdc": {
            "blogLinks": [
                "http://samundarbaba.blogspot.in/2010/11/we-visited-hampi-badami-aihole-and.html"
            ],
            "locType": "hotel",
            "longitude": "76.6450877",
            "latitude": "12.3123719",
            "address": "Hotel Mayura Hoysala, Jhansi Lakshmibai Road, Mandi Mohalla, Mysuru, Mysuru taluk, Mysuru district, Karnataka, 570001, India",
            "closest_to": "tumkur"
        },
        "durga temple": {
            "blogLinks": [
                "http://www.solobackpacker.com/2012/02/04/aihole-an-architectural-wonder-in-stones/"
            ],
            "locType": "place_of_worship",
            "longitude": "77.6125928",
            "latitude": "12.9057731",
            "address": "Durga Temple, 29th Main, Mahadeshwara Nagara, BTM Layout, Bengaluru, Bangalore Urban, Karnataka, 560001, India",
            "closest_to": "tumkur"
        },
        "bagalkot district": {
            "blogLinks": [
                "https://en.wikipedia.org/wiki/Tourism_in_Karnataka"
            ],
            "locType": "city",
            "longitude": "75.6967919",
            "latitude": "16.1853166",
            "address": "Bagalakote, Bagalakote taluk, Bagalkote district, Karnataka, India",
            "closest_to": "badami"
        },
        "north karnataka": {
            "blogLinks": [
                "https://en.wikipedia.org/wiki/Tourism_in_Karnataka",
                "https://www.travelblog.org/Asia/India/Karnataka/Bangalore/Koramangala/blog-914055.html"
            ],
            "locType": "service",
            "longitude": "77.7660547",
            "latitude": "13.0217151",
            "address": "N, Chaithanya Samarpan, Kadugodi, Kannamangala, Bangalore Urban, Karnataka, 560066, India",
            "closest_to": "tumkur"
        },
        "aihole": {
            "blogLinks": [
                "http://travel.india.com/badami/",
                "https://en.wikipedia.org/wiki/Tourism_in_Karnataka",
                "http://samundarbaba.blogspot.in/2010/11/we-visited-hampi-badami-aihole-and.html",
                "https://www.travelblog.org/Asia/India/Karnataka/Bangalore/Koramangala/blog-914055.html",
                "http://www.solobackpacker.com/2012/02/04/aihole-an-architectural-wonder-in-stones/"
            ],
            "locType": "village",
            "longitude": "75.8819129",
            "latitude": "16.0192298",
            "address": "Aihole, Hunagunda taluku, Bagalkote district, Karnataka, India",
            "closest_to": "badami"
        },
        "varur": {
            "blogLinks": [
                "https://en.wikipedia.org/wiki/Tourism_in_Karnataka"
            ],
            "locType": "village",
            "longitude": "75.1387568",
            "latitude": "15.2077105",
            "address": "Varur, Hubballi taluku, Dharwad district, Karnataka, India",
            "closest_to": "tumkur"
        },
        "hoysala": {
            "blogLinks": [
                "https://en.wikipedia.org/wiki/Tourism_in_Karnataka"
            ],
            "locType": "administrative",
            "longitude": "77.6375990817051",
            "latitude": "12.97813815",
            "address": "Hoysala Nagar, Bengaluru, Bangalore Urban, Karnataka, 560001, India",
            "closest_to": "tumkur"
        },
        "hassan district": {
            "blogLinks": [
                "https://en.wikipedia.org/wiki/Tourism_in_Karnataka"
            ],
            "locType": "administrative",
            "longitude": "76.1745460751981",
            "latitude": "13.0315068",
            "address": "Hassan district, Karnataka, India",
            "closest_to": "tumkur"
        },
        "netravati": {
            "blogLinks": [
                "https://en.wikipedia.org/wiki/Tourism_in_Karnataka"
            ],
            "locType": "river",
            "longitude": "75.1562182",
            "latitude": "12.8537655",
            "address": "Netravati, Bantwal taluk, Dakshina Kannada, Karnataka, India",
            "closest_to": "tumkur"
        },
        "shiggaon taluk": {
            "blogLinks": [
                "https://en.wikipedia.org/wiki/Tourism_in_Karnataka"
            ],
            "locType": "administrative",
            "longitude": "75.1756764988777",
            "latitude": "15.0138079",
            "address": "Shiggaon taluk, Haveri district, Karnataka, India",
            "closest_to": "tumkur"
        },
        "sagara taluk": {
            "blogLinks": [
                "https://en.wikipedia.org/wiki/Tourism_in_Karnataka"
            ],
            "locType": "administrative",
            "longitude": "74.9610874491152",
            "latitude": "14.09993045",
            "address": "Sagara taluk, Shimoga district, Karnataka, India",
            "closest_to": "tumkur"
        },
        "bagalkote": {
            "blogLinks": [
                "https://en.wikipedia.org/wiki/Tourism_in_Karnataka",
                "http://www.mapsofindia.com/maps/karnataka/"
            ],
            "locType": "administrative",
            "longitude": "75.5825586777167",
            "latitude": "16.28998085",
            "address": "Bagalkote district, Karnataka, India",
            "closest_to": "badami"
        },
        "hassan": {
            "blogLinks": [
                "https://en.wikipedia.org/wiki/Tourism_in_Karnataka"
            ],
            "locType": "town",
            "longitude": "76.0992703",
            "latitude": "13.0070817",
            "address": "Hassan, Hasana taluk, Hassan district, Karnataka, 573201, India",
            "closest_to": "tumkur"
        },
        "narayana": {
            "blogLinks": [
                "https://en.wikipedia.org/wiki/Tourism_in_Karnataka"
            ],
            "locType": "village",
            "longitude": "76.201037",
            "latitude": "13.9181889",
            "address": "Narayana Gondanahalli, Holalkere taluk, Chitradurga district, Karnataka, India",
            "closest_to": "tumkur"
        },
        "gokarna": {
            "blogLinks": [
                "https://en.wikipedia.org/wiki/Tourism_in_Karnataka",
                "http://travel.india.com/gokarna/"
            ],
            "locType": "town",
            "longitude": "74.3184418",
            "latitude": "14.5439629",
            "address": "Gokarna, Kumata taluk, Uttara Kannada, Karnataka, 581326, India",
            "closest_to": "badami"
        },
        "sharavati": {
            "blogLinks": [
                "https://en.wikipedia.org/wiki/Tourism_in_Karnataka"
            ],
            "locType": "river",
            "longitude": "74.7647294",
            "latitude": "14.2360979",
            "address": "Sharavati, Sagara taluk, Shimoga district, Karnataka, India",
            "closest_to": "tumkur"
        },
        "udupi": {
            "blogLinks": [
                "https://en.wikipedia.org/wiki/Tourism_in_Karnataka"
            ],
            "locType": "city",
            "longitude": "74.7473232",
            "latitude": "13.3419169",
            "address": "Udupi, Udupi taluku, Udupi district, Karnataka, 576101, India",
            "closest_to": "tumkur"
        },
        "manipal": {
            "blogLinks": [
                "https://en.wikipedia.org/wiki/Tourism_in_Karnataka"
            ],
            "locType": "town",
            "longitude": "74.7870308",
            "latitude": "13.3519723",
            "address": "Manipal, Udupi taluku, Udupi district, Karnataka, India",
            "closest_to": "tumkur"
        },
        "andhra pradesh": {
            "blogLinks": [
                "http://www.mapsofindia.com/maps/karnataka/",
                "http://rakeshholla.blogspot.com/2012/09/shivaganga-hills-tumkur.html"
            ],
            "locType": "hotel",
            "longitude": "79.3452447",
            "latitude": "13.6841958",
            "address": "Karnataka, West Mada Street, Srivari Temple, Tirumala, Chittoor, Andhra Pradesh, 517504, India",
            "closest_to": "tumkur"
        },
        "sannati": {
            "blogLinks": [
                "https://en.wikipedia.org/wiki/Tourism_in_Karnataka"
            ],
            "locType": "village",
            "longitude": "76.9080631",
            "latitude": "16.8293201",
            "address": "Sannati, Chitapura taluku, Kalaburagi district, Karnataka, India",
            "closest_to": "badami"
        },
        "manjusha museum": {
            "blogLinks": [
                "https://en.wikipedia.org/wiki/Tourism_in_Karnataka"
            ],
            "locType": "museum",
            "longitude": "75.3821342838196",
            "latitude": "12.95116975",
            "address": "Manjusha Museum, SH37, Dharmasthala, Beltangadi taluk, Dakshina Kannada, Karnataka, 574216, India",
            "closest_to": "tumkur"
        },
        "shivalaya": {
            "blogLinks": [
                "http://travel.india.com/badami/"
            ],
            "locType": "place_of_worship",
            "longitude": "77.645704",
            "latitude": "12.9692508",
            "address": "Sri Kanyaka Parameshwari & Shivalaya, 8th Cross Road, Old Thippasandra, Indiranagar, Bengaluru, Bangalore Urban, Karnataka, 560001, India",
            "closest_to": "tumkur"
        },
        "paradise beach": {
            "blogLinks": [
                "http://travel.india.com/gokarna/"
            ],
            "locType": "beach",
            "longitude": "74.3375798576938",
            "latitude": "14.5181133",
            "address": "Paradise Beach, Om beach road, Gokarna, Kumata taluk, Uttara Kannada, Karnataka, 581326, India",
            "closest_to": "badami"
        },
        "chandramoulishwara": {
            "blogLinks": [
                "https://en.wikipedia.org/wiki/Tourism_in_Karnataka"
            ],
            "locType": "place_of_worship",
            "longitude": "76.6290267",
            "latitude": "12.3225663",
            "address": "Chandramoulishwara Temple, Adipampa Road, Gokulam, Mysuru, Mysuru taluk, Mysuru district, Karnataka, 570001, India",
            "closest_to": "tumkur"
        },
        "goa": {
            "blogLinks": [
                "https://en.wikipedia.org/wiki/Tourism_in_Karnataka",
                "http://rakeshholla.blogspot.com/2012/09/shivaganga-hills-tumkur.html",
                "http://travel.india.com/gokarna/"
            ],
            "locType": "restaurant",
            "longitude": "77.6200027",
            "latitude": "12.9750047",
            "address": "Carnival De Goa, Bhaskaran Road, Gupta Layout, Halasuru, Bengaluru, Bangalore Urban, Karnataka, 560001, India",
            "closest_to": "tumkur"
        },
        "kudle beach": {
            "blogLinks": [
                "http://travel.india.com/gokarna/"
            ],
            "locType": "beach",
            "longitude": "74.3156783937192",
            "latitude": "14.5281015",
            "address": "Kudle Beach, Om beach road, Gokarna, Kumata taluk, Uttara Kannada, Karnataka, 581326, India",
            "closest_to": "badami"
        },
        "pattadakal": {
            "blogLinks": [
                "https://en.wikipedia.org/wiki/Tourism_in_Karnataka",
                "http://samundarbaba.blogspot.in/2010/11/we-visited-hampi-badami-aihole-and.html",
                "https://www.travelblog.org/Asia/India/Karnataka/Bangalore/Koramangala/blog-914055.html",
                "http://www.nivalink.com/destination/badami",
                "http://www.solobackpacker.com/2012/02/04/aihole-an-architectural-wonder-in-stones/"
            ],
            "locType": "attraction",
            "longitude": "75.815884048161",
            "latitude": "15.9506349",
            "address": "Pattadakal Temples, SH14, \u0cac\u0cbe\u0c9a\u0cbf\u0ca8\u0c97\u0cc1\u0ca1\u0ccd\u0ca1, Badami taluku, Bagalkote district, Karnataka, 587211, India",
            "closest_to": "tumkur"
        },
        "karnataka": {
            "blogLinks": [
                "http://travel.india.com/badami/",
                "https://www.distancecalculator.net/from-badami-to-tumkur",
                "https://www.ixigo.com/travel-guide/badami",
                "http://distancecalculator.globefeed.com/India_Distance_Calculator.asp?state=19",
                "http://www.sutthonabanni.com/2011/07/tumkur-district.html",
                "http://travel.india.com/gokarna/",
                "https://en.wikipedia.org/wiki/Tourism_in_Karnataka",
                "https://www.travelblog.org/Asia/India/Karnataka/Bangalore/Koramangala/blog-914055.html",
                "https://www.tripadvisor.in/Attractions-g297627-Activities-Karnataka.html",
                "http://rakeshholla.blogspot.com/2012/09/shivaganga-hills-tumkur.html",
                "http://samundarbaba.blogspot.in/2010/11/we-visited-hampi-badami-aihole-and.html",
                "http://www.nivalink.com/destination/badami",
                "http://www.solobackpacker.com/2012/02/04/aihole-an-architectural-wonder-in-stones/",
                "http://www.mapsofindia.com/maps/karnataka/",
                "http://www.karnatakatourism.org/"
            ],
            "locType": "atm",
            "longitude": "76.6639936",
            "latitude": "12.3084901",
            "address": "Karnataka, Shalivahana Road, Nazarbad, Mysuru, Mysuru taluk, Mysuru district, Karnataka, 570001, India",
            "closest_to": "tumkur"
        },
        "malaprabha": {
            "blogLinks": [
                "https://en.wikipedia.org/wiki/Tourism_in_Karnataka",
                "https://www.travelblog.org/Asia/India/Karnataka/Bangalore/Koramangala/blog-914055.html"
            ],
            "locType": "river",
            "longitude": "75.1982668",
            "latitude": "15.8914192",
            "address": "Malaprabha, Ramadurga taluku, Belgaum district, Karnataka, India",
            "closest_to": "badami"
        },
        "kalyani": {
            "blogLinks": [
                "https://en.wikipedia.org/wiki/Tourism_in_Karnataka"
            ],
            "locType": "water",
            "longitude": "77.6286090192686",
            "latitude": "12.8406466",
            "address": "Kalyani, Neeladri Road, Electronics City Phase 1, Bettadasana Pura, Bangalore Urban, Karnataka, 560100, India",
            "closest_to": "tumkur"
        },
        "rock garden": {
            "blogLinks": [
                "https://en.wikipedia.org/wiki/Tourism_in_Karnataka"
            ],
            "locType": "waterfall",
            "longitude": "75.6142269",
            "latitude": "12.2248591",
            "address": "Waterfalls by the Rock site, Madikeri taluku, Kodagu, Karnataka, India",
            "closest_to": "tumkur"
        },
        "pune": {
            "blogLinks": [
                "https://www.tripoto.com/travel-guide/tumkur"
            ],
            "locType": "trunk",
            "longitude": "76.9479122",
            "latitude": "17.8199745",
            "address": "Pune - Machilipatnam Highway, Kaudiyala, Basavakalyana taluku, Bidar district, Karnataka, India",
            "closest_to": "badami"
        },
        "mangalore": {
            "blogLinks": [
                "https://en.wikipedia.org/wiki/Tourism_in_Karnataka",
                "http://travel.india.com/gokarna/"
            ],
            "locType": "city",
            "longitude": "74.8430082",
            "latitude": "12.8698101",
            "address": "Mangaluru, Mangaluru taluk, Dakshina Kannada, Karnataka, 575001, India",
            "closest_to": "tumkur"
        },
        "ranganathittu bird sanctuary": {
            "blogLinks": [
                "https://en.wikipedia.org/wiki/Tourism_in_Karnataka"
            ],
            "locType": "attraction",
            "longitude": "76.6553081",
            "latitude": "12.4238524",
            "address": "Ranganathittu Bird Sanctuary, SH154, Palahalli, Srirangapattana taluk, Mandya district, Karnataka, 571438, India",
            "closest_to": "tumkur"
        },
        "shivaganga": {
            "blogLinks": [
                "http://rakeshholla.blogspot.com/2012/09/shivaganga-hills-tumkur.html"
            ],
            "locType": "village",
            "longitude": "76.2510807",
            "latitude": "14.0791346",
            "address": "Shivaganga, Holalkere taluk, Chitradurga district, Karnataka, India",
            "closest_to": "tumkur"
        },
        "nagareshwara": {
            "blogLinks": [
                "https://en.wikipedia.org/wiki/Tourism_in_Karnataka"
            ],
            "locType": "place_of_worship",
            "longitude": "77.3934679",
            "latitude": "16.8662525",
            "address": "Nagareshwara Temple, SH126, Dantapur, Yadagiri taluku, Yadagiri district, Karnataka, India",
            "closest_to": "badami"
        },
        "dharma river": {
            "blogLinks": [
                "https://en.wikipedia.org/wiki/Tourism_in_Karnataka"
            ],
            "locType": "park",
            "longitude": "77.5575864485219",
            "latitude": "12.98914885",
            "address": "Dharma Naidu Udhyanavana, 44th cross, Rajajinagar 4th Block, Rajaji Nagar, Bengaluru, Bangalore Urban, Karnataka, 560001, India",
            "closest_to": "tumkur"
        },
        "varada": {
            "blogLinks": [
                "https://en.wikipedia.org/wiki/Tourism_in_Karnataka"
            ],
            "locType": "river",
            "longitude": "75.47206",
            "latitude": "14.8717792",
            "address": "Varada, Savanura taluk, Haveri district, Karnataka, India",
            "closest_to": "tumkur"
        },
        "bagalkot": {
            "blogLinks": [
                "http://travel.india.com/badami/",
                "http://samundarbaba.blogspot.in/2010/11/we-visited-hampi-badami-aihole-and.html",
                "http://www.solobackpacker.com/2012/02/04/aihole-an-architectural-wonder-in-stones/"
            ],
            "locType": "city",
            "longitude": "75.6967919",
            "latitude": "16.1853166",
            "address": "Bagalakote, Bagalakote taluk, Bagalkote district, Karnataka, India",
            "closest_to": "badami"
        },
        "udupi hotel": {
            "blogLinks": [
                "https://www.travelblog.org/Asia/India/Karnataka/Bangalore/Koramangala/blog-914055.html"
            ],
            "locType": "hotel",
            "longitude": "74.8346487",
            "latitude": "14.6157772",
            "address": "Udupi Hotel, Nataraj Raod, Sirsi, Shirasi taluk, Uttara Kannada, Karnataka, 581400, India",
            "closest_to": "tumkur"
        },
        "devbagh beach": {
            "blogLinks": [
                "http://travel.india.com/gokarna/"
            ],
            "locType": "beach",
            "longitude": "74.1079961668745",
            "latitude": "14.8682714",
            "address": "Devbagh Beach, NH66, Majali, Karavara taluk, Uttara Kannada, Karnataka, 581352, India",
            "closest_to": "badami"
        },
        "chamarajanagar": {
            "blogLinks": [
                "https://en.wikipedia.org/wiki/Tourism_in_Karnataka",
                "http://www.mapsofindia.com/maps/karnataka/"
            ],
            "locType": "station",
            "longitude": "76.9331345",
            "latitude": "11.9346624",
            "address": "Chamarajanagar, Nanjangudu-Chamarajanagar Road, Kadahalli, Chamarajanagara taluk, Chamarajanagar district, Karnataka, 571313, India",
            "closest_to": "tumkur"
        },
        "devarayanadurga": {
            "blogLinks": [
                "http://www.buzzntravel.com/tamkur"
            ],
            "locType": "peak",
            "longitude": "77.2143445",
            "latitude": "13.3740537",
            "address": "Devarayanadurga, Tumakuru, Tumkur taluk, Tumkur district, Karnataka, 572101, India",
            "closest_to": "tumkur"
        },
        "sirigere": {
            "blogLinks": [
                "https://en.wikipedia.org/wiki/Tourism_in_Karnataka"
            ],
            "locType": "village",
            "longitude": "76.2051907",
            "latitude": "14.2840739",
            "address": "Sirigere, Chitradurga taluku, Chitradurga district, Karnataka, India",
            "closest_to": "tumkur"
        },
        "belgaum fort": {
            "blogLinks": [
                "https://en.wikipedia.org/wiki/Tourism_in_Karnataka"
            ],
            "locType": "locality",
            "longitude": "74.5255651",
            "latitude": "15.8581696",
            "address": "Belgaum Fort, Belagavi, Belagavi taluku, Belgaum district, Karnataka, 590001, India",
            "closest_to": "badami"
        },
        "tungabhadra": {
            "blogLinks": [
                "https://en.wikipedia.org/wiki/Tourism_in_Karnataka",
                "http://samundarbaba.blogspot.in/2010/11/we-visited-hampi-badami-aihole-and.html"
            ],
            "locType": "river",
            "longitude": "76.4931607",
            "latitude": "15.3446123",
            "address": "Tungabhadra, Gangavati taluku, Koppal district, Karnataka, India",
            "closest_to": "tumkur"
        },
        "kudremukh national park": {
            "blogLinks": [
                "https://en.wikipedia.org/wiki/Tourism_in_Karnataka"
            ],
            "locType": "national_park",
            "longitude": "75.1828713712862",
            "latitude": "13.25397485",
            "address": "Kudremukh National Park, SH66, Sringeri taluku, Chikkamagaluru district, Karnataka, India",
            "closest_to": "tumkur"
        },
        "gavi": {
            "blogLinks": [
                "http://rakeshholla.blogspot.com/2012/09/shivaganga-hills-tumkur.html"
            ],
            "locType": "place_of_worship",
            "longitude": "77.5628973",
            "latitude": "12.9481567",
            "address": "Gavi Gangadhareshwara Temple, 3rd Main Road, Yediyur, Hanumantha Nagar, Bengaluru, Bangalore Urban, Karnataka, 560001, India",
            "closest_to": "tumkur"
        },
        "hampi": {
            "blogLinks": [
                "https://www.ixigo.com/travel-guide/badami",
                "http://distancecalculator.globefeed.com/India_Distance_Calculator.asp?state=19",
                "https://en.wikipedia.org/wiki/Tourism_in_Karnataka",
                "https://www.tripadvisor.in/Attractions-g297627-Activities-Karnataka.html",
                "http://rakeshholla.blogspot.com/2012/09/shivaganga-hills-tumkur.html",
                "http://samundarbaba.blogspot.in/2010/11/we-visited-hampi-badami-aihole-and.html",
                "http://www.solobackpacker.com/2012/02/04/aihole-an-architectural-wonder-in-stones/",
                "http://www.karnatakatourism.org/"
            ],
            "locType": "village",
            "longitude": "76.4606199",
            "latitude": "15.3359769",
            "address": "Hampe, Hosapete taluk, Bellary district, Karnataka, 583239, India",
            "closest_to": "tumkur"
        },
        "district bagalkot": {
            "blogLinks": [
                "https://en.wikipedia.org/wiki/Tourism_in_Karnataka"
            ],
            "locType": "commercial",
            "longitude": "75.6736388363024",
            "latitude": "16.16028195",
            "address": "District Commissioner's Office, Bagalkot, Navanagara, Bagalakote, Bagalakote taluk, Bagalkote district, Karnataka, India",
            "closest_to": "badami"
        },
        "lakshmi narashima": {
            "blogLinks": [
                "http://samundarbaba.blogspot.in/2010/11/we-visited-hampi-badami-aihole-and.html"
            ],
            "locType": "house",
            "longitude": "77.525118",
            "latitude": "12.9803328",
            "address": "Lakshmi Narashima Enterprises, 2334/1, 4th Main Road, Saraswathi Nagar, Sampige Layout, Prashanth Nagar, Bangalore Urban, Karnataka, 560010, India",
            "closest_to": "tumkur"
        },
        "nataraja": {
            "blogLinks": [
                "http://samundarbaba.blogspot.in/2010/11/we-visited-hampi-badami-aihole-and.html",
                "https://www.travelblog.org/Asia/India/Karnataka/Bangalore/Koramangala/blog-914055.html"
            ],
            "locType": "cinema",
            "longitude": "77.5730381173154",
            "latitude": "12.9900332",
            "address": "Nataraja, Sirur Park Road, Vyalikaval, Seshadripuram, Bengaluru, Bangalore Urban, Karnataka, 560001, India",
            "closest_to": "tumkur"
        },
        "kumta": {
            "blogLinks": [
                "https://en.wikipedia.org/wiki/Tourism_in_Karnataka",
                "http://rakeshholla.blogspot.com/2012/09/shivaganga-hills-tumkur.html",
                "http://travel.india.com/gokarna/"
            ],
            "locType": "town",
            "longitude": "74.4107617",
            "latitude": "14.4261647",
            "address": "Kumta, Kumata taluk, Uttara Kannada, Karnataka, India",
            "closest_to": "tumkur"
        },
        "netrani island of uttara kannada": {
            "blogLinks": [
                "https://en.wikipedia.org/wiki/Tourism_in_Karnataka"
            ],
            "locType": "island",
            "longitude": "74.3272086675849",
            "latitude": "14.0174924",
            "address": "Netrani, Uttara Kannada, Karnataka, India",
            "closest_to": "tumkur"
        },
        "kagal": {
            "blogLinks": [
                "https://en.wikipedia.org/wiki/Tourism_in_Karnataka"
            ],
            "locType": "grass",
            "longitude": "74.3575302591262",
            "latitude": "14.5055819",
            "address": "Kagal Fort, Birkodi Village, Kumata taluk, Uttara Kannada, Karnataka, India",
            "closest_to": "badami"
        },
        "unchalli falls": {
            "blogLinks": [
                "https://en.wikipedia.org/wiki/Tourism_in_Karnataka"
            ],
            "locType": "waterfall",
            "longitude": "74.7477592",
            "latitude": "14.4097755",
            "address": "\u0c89\u0c82\u0c9a\u0cb3\u0ccd\u0cb3\u0cbf \u0c9c\u0cb2\u0caa\u0cbe\u0ca4, Siddapura taluk, Uttara Kannada, Karnataka, India",
            "closest_to": "tumkur"
        },
        "subramanya": {
            "blogLinks": [
                "https://en.wikipedia.org/wiki/Tourism_in_Karnataka"
            ],
            "locType": "commercial",
            "longitude": "77.6015800913134",
            "latitude": "12.9251206",
            "address": "Subramanya Arcade, Marenahalli, Bengaluru, Bangalore Urban, Karnataka, 560001, India",
            "closest_to": "tumkur"
        },
        "kanakapura road": {
            "blogLinks": [
                "https://en.wikipedia.org/wiki/Tourism_in_Karnataka"
            ],
            "locType": "trunk",
            "longitude": "77.5733483",
            "latitude": "12.9064528",
            "address": "Kanakapura Road, Rajotsava Nagar, Kaderenahalli, Bengaluru, Bangalore Urban, Karnataka, 560001, India",
            "closest_to": "tumkur"
        },
        "agastya lake": {
            "blogLinks": [
                "https://www.goibibo.com/routeplanner/tumkur-badami/"
            ],
            "locType": "residential",
            "longitude": "77.7512485332492",
            "latitude": "12.9796965",
            "address": "Agastya Guru Palatia Apartments, Kadugodi, Prashanth Extension, Bangalore Urban, Karnataka, 56066, India",
            "closest_to": "tumkur"
        },
        "sangameshwara": {
            "blogLinks": [
                "https://en.wikipedia.org/wiki/Tourism_in_Karnataka"
            ],
            "locType": "village",
            "longitude": "74.87651",
            "latitude": "15.184341",
            "address": "Sangameshwara, Kalaghatagi taluku, Dharwad district, Karnataka, India",
            "closest_to": "tumkur"
        },
        "mandya district": {
            "blogLinks": [
                "https://en.wikipedia.org/wiki/Tourism_in_Karnataka"
            ],
            "locType": "administrative",
            "longitude": "76.7302318329607",
            "latitude": "12.6336348",
            "address": "Mandya district, Karnataka, India",
            "closest_to": "tumkur"
        },
        "itagi": {
            "blogLinks": [
                "https://en.wikipedia.org/wiki/Tourism_in_Karnataka"
            ],
            "locType": "village",
            "longitude": "75.6701043",
            "latitude": "14.550374",
            "address": "Itagi, Ranebennuru taluk, Haveri district, Karnataka, India",
            "closest_to": "tumkur"
        },
        "mookambika": {
            "blogLinks": [
                "https://en.wikipedia.org/wiki/Tourism_in_Karnataka"
            ],
            "locType": "place_of_worship",
            "longitude": "74.8145296",
            "latitude": "13.8638043",
            "address": "Mukambika Devasthana, NH766C;SH26, Halkal, \u0c95\u0cc1\u0c82\u0ca6\u0cbe\u0caa\u0cc1\u0cb0 \u0ca4\u0cbe\u0cb2\u0cc2\u0c95\u0cc1, Udupi district, Karnataka, 576220, India",
            "closest_to": "tumkur"
        },
        "chola": {
            "blogLinks": [
                "https://en.wikipedia.org/wiki/Tourism_in_Karnataka"
            ],
            "locType": "yes",
            "longitude": "76.098782",
            "latitude": "13.0023906",
            "address": "Chola Gold Loan, Bengaluru - Mangaluru Road, Ravindra Nagar, Santhe Pete, Hassan, Hasana taluk, Hassan district, Karnataka, 573201, India",
            "closest_to": "tumkur"
        },
        "dharwad": {
            "blogLinks": [
                "https://en.wikipedia.org/wiki/Tourism_in_Karnataka",
                "http://www.mapsofindia.com/maps/karnataka/"
            ],
            "locType": "city",
            "longitude": "75.0066516",
            "latitude": "15.4540505",
            "address": "Dharwad, Dharawada taluku, Dharwad district, Karnataka, 580001, India",
            "closest_to": "badami"
        },
        "kaveri": {
            "blogLinks": [
                "https://en.wikipedia.org/wiki/Tourism_in_Karnataka",
                "http://www.sutthonabanni.com/2011/07/tumkur-district.html"
            ],
            "locType": "river",
            "longitude": "77.0635531",
            "latitude": "12.1687878",
            "address": "Kaveri, Kollegala taluk, Chamarajanagar district, Karnataka, India",
            "closest_to": "tumkur"
        },
        "gokak": {
            "blogLinks": [
                "https://en.wikipedia.org/wiki/Tourism_in_Karnataka"
            ],
            "locType": "town",
            "longitude": "74.8224338",
            "latitude": "16.1693033",
            "address": "Gokak, Gokak taluku, Belgaum district, Karnataka, 591307, India",
            "closest_to": "badami"
        },
        "vitthala": {
            "blogLinks": [
                "http://samundarbaba.blogspot.in/2010/11/we-visited-hampi-badami-aihole-and.html"
            ],
            "locType": "footway",
            "longitude": "76.4705005",
            "latitude": "15.3376716",
            "address": "Way to Vitthala Temple, Hampe, Hosapete taluk, Bellary district, Karnataka, 583239, India",
            "closest_to": "tumkur"
        },
        "malaprabha river": {
            "blogLinks": [
                "http://samundarbaba.blogspot.in/2010/11/we-visited-hampi-badami-aihole-and.html",
                "http://www.solobackpacker.com/2012/02/04/aihole-an-architectural-wonder-in-stones/"
            ],
            "locType": "river",
            "longitude": "75.1982668",
            "latitude": "15.8914192",
            "address": "Malaprabha, Ramadurga taluku, Belgaum district, Karnataka, India",
            "closest_to": "badami"
        },
        "vishnu": {
            "blogLinks": [
                "https://en.wikipedia.org/wiki/Tourism_in_Karnataka"
            ],
            "locType": "residential",
            "longitude": "77.7198022157059",
            "latitude": "12.95388635",
            "address": "Vishnu Residency Apartments, Thubarahalli, Siddapura, Bangalore Urban, Karnataka, 560066, India",
            "closest_to": "tumkur"
        },
        "koppal": {
            "blogLinks": [
                "https://en.wikipedia.org/wiki/Tourism_in_Karnataka",
                "http://www.mapsofindia.com/maps/karnataka/"
            ],
            "locType": "town",
            "longitude": "76.1547421",
            "latitude": "15.3484144",
            "address": "Koppala, Koppala taluku, Koppal district, Karnataka, 583231, India",
            "closest_to": "tumkur"
        },
        "yeshwanthpur": {
            "blogLinks": [
                "https://www.tripoto.com/travel-guide/tumkur"
            ],
            "locType": "marketplace",
            "longitude": "77.5451161845771",
            "latitude": "13.0159579",
            "address": "Yeshwanthpur Yard market, Shankarnagar Main Road, Goragunte Palya, Nandini Layout, Bengaluru, Bangalore Urban, Karnataka, 560001, India",
            "closest_to": "tumkur"
        },
        "karwar": {
            "blogLinks": [
                "https://en.wikipedia.org/wiki/Tourism_in_Karnataka"
            ],
            "locType": "town",
            "longitude": "74.1319229",
            "latitude": "14.8120931",
            "address": "Karwar, Karavara taluk, Uttara Kannada, Karnataka, 581300, India",
            "closest_to": "badami"
        },
        "virupaksha temple": {
            "blogLinks": [
                "https://en.wikipedia.org/wiki/Tourism_in_Karnataka"
            ],
            "locType": "place_of_worship",
            "longitude": "76.4587777156223",
            "latitude": "15.3351754",
            "address": "Virupaksha Temple, Hampi Bazaar, Hampe, Hosapete taluk, Bellary district, Karnataka, 583239, India",
            "closest_to": "tumkur"
        },
        "south": {
            "blogLinks": [
                "https://en.wikipedia.org/wiki/Tourism_in_Karnataka"
            ],
            "locType": "residential",
            "longitude": "77.8040874",
            "latitude": "13.2942848",
            "address": "s, Vijayapura, Devanahalli taluk, Bangalore Rural, Karnataka, 562135, India",
            "closest_to": "tumkur"
        },
        "belavadi": {
            "blogLinks": [
                "https://en.wikipedia.org/wiki/Tourism_in_Karnataka"
            ],
            "locType": "village",
            "longitude": "75.3760773",
            "latitude": "13.5284899",
            "address": "Belavadi, Koppa taluk, Chikkamagaluru district, Karnataka, India",
            "closest_to": "tumkur"
        },
        "belgaum": {
            "blogLinks": [
                "https://en.wikipedia.org/wiki/Tourism_in_Karnataka"
            ],
            "locType": "county",
            "longitude": "74.75",
            "latitude": "16.333333",
            "address": "Belgaum, Belgaum district, Karnataka, India",
            "closest_to": "badami"
        },
        "mangalore international airport": {
            "blogLinks": [
                "http://travel.india.com/gokarna/"
            ],
            "locType": "aerodrome",
            "longitude": "74.887492668144",
            "latitude": "12.95518575",
            "address": "Mangalore International Airport, Airport Entry Road, Gandhinagar, Kenjar, Mangaluru taluk, Dakshina Kannada, Karnataka, 575015, India",
            "closest_to": "tumkur"
        },
        "lakkundi": {
            "blogLinks": [
                "https://en.wikipedia.org/wiki/Tourism_in_Karnataka"
            ],
            "locType": "village",
            "longitude": "76.4084687",
            "latitude": "16.5255464",
            "address": "Lakkundi, Muddebihala taluku, Bijapur district, Karnataka, India",
            "closest_to": "badami"
        },
        "rt nagar": {
            "blogLinks": [
                "http://samundarbaba.blogspot.in/2010/11/we-visited-hampi-badami-aihole-and.html"
            ],
            "locType": "post_office",
            "longitude": "77.5928265",
            "latitude": "13.0216684",
            "address": "RT Nagar, RT Nagar Main Road, RMV Stage II - 1st Block, Rabindranath Tagore Nagar, Bengaluru, Bangalore Urban, Karnataka, 560001, India",
            "closest_to": "tumkur"
        },
        "kalasa": {
            "blogLinks": [
                "https://en.wikipedia.org/wiki/Tourism_in_Karnataka"
            ],
            "locType": "town",
            "longitude": "75.3582366",
            "latitude": "13.2322235",
            "address": "Kalasa, Mudigere taluk, Chikkamagaluru district, Karnataka, 577124, India",
            "closest_to": "tumkur"
        },
        "mysore district": {
            "blogLinks": [
                "https://en.wikipedia.org/wiki/Tourism_in_Karnataka"
            ],
            "locType": "city",
            "longitude": "76.6553609",
            "latitude": "12.3051828",
            "address": "Mysuru, Mysuru taluk, Mysuru district, Karnataka, 570001, India",
            "closest_to": "tumkur"
        },
        "bellary district": {
            "blogLinks": [
                "https://en.wikipedia.org/wiki/Tourism_in_Karnataka"
            ],
            "locType": "administrative",
            "longitude": "76.7137978546465",
            "latitude": "15.20597305",
            "address": "Bellary district, Karnataka, India",
            "closest_to": "tumkur"
        },
        "bannerghatta national park": {
            "blogLinks": [
                "https://en.wikipedia.org/wiki/Tourism_in_Karnataka"
            ],
            "locType": "national_park",
            "longitude": "77.5722783830694",
            "latitude": "12.77900335",
            "address": "Bannerghatta National Park, Anekal Road, Begihalli, Bangalore Urban, Karnataka, 560076, India",
            "closest_to": "tumkur"
        },
        "kuknur": {
            "blogLinks": [
                "https://en.wikipedia.org/wiki/Tourism_in_Karnataka"
            ],
            "locType": "village",
            "longitude": "75.9934934",
            "latitude": "15.4902753",
            "address": "Kukanura, Yelaburga taluku, Koppal district, Karnataka, 583232, India",
            "closest_to": "tumkur"
        },
        "tamil nadu": {
            "blogLinks": [
                "https://en.wikipedia.org/wiki/Tourism_in_Karnataka",
                "http://www.mapsofindia.com/maps/karnataka/",
                "http://rakeshholla.blogspot.com/2012/09/shivaganga-hills-tumkur.html",
                "https://www.travelblog.org/Asia/India/Karnataka/Bangalore/Koramangala/blog-914055.html"
            ],
            "locType": "bank",
            "longitude": "76.9514152",
            "latitude": "11.0025894",
            "address": "KARNATAKA BANK, Diwan Bhadur Road, Five Corner, RS Puram, Coimbatore, Coimbatore district, Tamil Nadu, 641001, India",
            "closest_to": "tumkur"
        },
        "almatti dam": {
            "blogLinks": [
                "https://www.travelblog.org/Asia/India/Karnataka/Bangalore/Koramangala/blog-914055.html"
            ],
            "locType": "canal",
            "longitude": "75.9517801",
            "latitude": "16.3648934",
            "address": "Almatti Left Bank Canal, Basavana Bagevadi Taluku, Bijapur district, Karnataka, India",
            "closest_to": "badami"
        },
        "karkala": {
            "blogLinks": [
                "https://en.wikipedia.org/wiki/Tourism_in_Karnataka"
            ],
            "locType": "town",
            "longitude": "74.9959586",
            "latitude": "13.2112826",
            "address": "Karkala, Karkala taluk, Udupi district, Karnataka, 574104, India",
            "closest_to": "tumkur"
        },
        "gudavi": {
            "blogLinks": [
                "https://en.wikipedia.org/wiki/Tourism_in_Karnataka"
            ],
            "locType": "village",
            "longitude": "75.009649",
            "latitude": "14.4400296",
            "address": "Gudavi, Soraba taluk, Shimoga district, Karnataka, India",
            "closest_to": "tumkur"
        },
        "mahabaleshwar temple": {
            "blogLinks": [
                "http://travel.india.com/gokarna/"
            ],
            "locType": "place_of_worship",
            "longitude": "77.5899443",
            "latitude": "12.962625",
            "address": "Mahabaleshwar Temple, Mission Road (Kalinga Rao Road), Sampangirama Nagar, Shanti Nagar, Bengaluru, Bangalore Urban, Karnataka, 560001, India",
            "closest_to": "tumkur"
        },
        "hubli": {
            "blogLinks": [
                "https://en.wikipedia.org/wiki/Tourism_in_Karnataka",
                "http://www.nivalink.com/destination/badami",
                "http://www.solobackpacker.com/2012/02/04/aihole-an-architectural-wonder-in-stones/",
                "http://travel.india.com/gokarna/"
            ],
            "locType": "city",
            "longitude": "75.1379848",
            "latitude": "15.3518378",
            "address": "Hubballi - \u0cb9\u0cc1\u0cac\u0ccd\u0cac\u0cb3\u0ccd\u0cb3\u0cbf, Hubballi taluku, Dharwad district, Karnataka, 580020, India",
            "closest_to": "tumkur"
        },
        "shimoga district": {
            "blogLinks": [
                "https://en.wikipedia.org/wiki/Tourism_in_Karnataka"
            ],
            "locType": "administrative",
            "longitude": "75.1312533993886",
            "latitude": "14.0558284",
            "address": "Shimoga district, Karnataka, India",
            "closest_to": "tumkur"
        },
        "kerala": {
            "blogLinks": [
                "http://www.mapsofindia.com/maps/karnataka/",
                "http://rakeshholla.blogspot.com/2012/09/shivaganga-hills-tumkur.html"
            ],
            "locType": "restaurant",
            "longitude": "77.6382683",
            "latitude": "12.9726449",
            "address": "New Life Kerala Mess, Sai Baba Mandira Road, Mottappanapalaya, Indiranagar, Bengaluru, Bangalore Urban, Karnataka, 560001, India",
            "closest_to": "tumkur"
        },
        "uttara kannada": {
            "blogLinks": [
                "https://en.wikipedia.org/wiki/Tourism_in_Karnataka",
                "http://www.nivalink.com/destination/badami"
            ],
            "locType": "administrative",
            "longitude": "74.4729163045979",
            "latitude": "14.6726379",
            "address": "Uttara Kannada, Karnataka, India",
            "closest_to": "tumkur"
        },
        "malpe": {
            "blogLinks": [
                "https://en.wikipedia.org/wiki/Tourism_in_Karnataka"
            ],
            "locType": "village",
            "longitude": "74.7036914",
            "latitude": "13.3507423",
            "address": "Malpe, Udupi taluku, Udupi district, Karnataka, India",
            "closest_to": "tumkur"
        },
        "india": {
            "blogLinks": [
                "https://www.distancecalculator.net/from-badami-to-tumkur",
                "http://distancecalculator.globefeed.com/India_Distance_Calculator.asp?state=19",
                "http://www.sutthonabanni.com/2011/07/tumkur-district.html",
                "http://travel.india.com/gokarna/",
                "http://www.buzzntravel.com/tamkur",
                "https://en.wikipedia.org/wiki/Tourism_in_Karnataka",
                "https://www.travelblog.org/Asia/India/Karnataka/Bangalore/Koramangala/blog-914055.html",
                "http://rakeshholla.blogspot.com/2012/09/shivaganga-hills-tumkur.html",
                "http://samundarbaba.blogspot.in/2010/11/we-visited-hampi-badami-aihole-and.html",
                "http://www.nivalink.com/destination/badami",
                "http://www.solobackpacker.com/2012/02/04/aihole-an-architectural-wonder-in-stones/",
                "http://www.mapsofindia.com/maps/karnataka/"
            ],
            "locType": "administrative",
            "longitude": "75.7223521",
            "latitude": "14.5203896",
            "address": "Karnataka, India",
            "closest_to": "tumkur"
        },
        "dattatreya": {
            "blogLinks": [
                "https://en.wikipedia.org/wiki/Tourism_in_Karnataka"
            ],
            "locType": "hamlet",
            "longitude": "75.7539724",
            "latitude": "13.4315216",
            "address": "Inam Dattatreya Pitha, Chikkamagaluru taluku, Chikkamagaluru district, Karnataka, India",
            "closest_to": "tumkur"
        },
        "bengal": {
            "blogLinks": [
                "https://www.travelblog.org/Asia/India/Karnataka/Bangalore/Koramangala/blog-914055.html"
            ],
            "locType": "industrial",
            "longitude": "77.7517038151245",
            "latitude": "13.0492646",
            "address": "Bengal Lamps, Konadasapura, Bangalore Urban, Karnataka, 560066, India",
            "closest_to": "tumkur"
        },
        "bellary": {
            "blogLinks": [
                "https://en.wikipedia.org/wiki/Tourism_in_Karnataka",
                "http://www.mapsofindia.com/maps/karnataka/",
                "http://samundarbaba.blogspot.in/2010/11/we-visited-hampi-badami-aihole-and.html",
                "http://www.solobackpacker.com/2012/02/04/aihole-an-architectural-wonder-in-stones/"
            ],
            "locType": "county",
            "longitude": "76.8323648",
            "latitude": "15.2485413",
            "address": "Bellary, Bellary district, Karnataka, India",
            "closest_to": "tumkur"
        },
        "nagarahole": {
            "blogLinks": [
                "https://en.wikipedia.org/wiki/Tourism_in_Karnataka"
            ],
            "locType": "river",
            "longitude": "76.2286805",
            "latitude": "12.0229466",
            "address": "Nagarahole, Heggadadevanakote taluk, Mysuru district, Karnataka, India",
            "closest_to": "tumkur"
        },
        "koppal district": {
            "blogLinks": [
                "https://en.wikipedia.org/wiki/Tourism_in_Karnataka"
            ],
            "locType": "administrative",
            "longitude": "76.310639117029",
            "latitude": "15.57825725",
            "address": "Koppal district, Karnataka, India",
            "closest_to": "tumkur"
        },
        "mandya": {
            "blogLinks": [
                "https://en.wikipedia.org/wiki/Tourism_in_Karnataka",
                "http://www.mapsofindia.com/maps/karnataka/"
            ],
            "locType": "town",
            "longitude": "76.8937392",
            "latitude": "12.5217836",
            "address": "Mandya, Mandya taluk, Mandya district, Karnataka, 571401, India",
            "closest_to": "tumkur"
        },
        "anegundi": {
            "blogLinks": [
                "https://en.wikipedia.org/wiki/Tourism_in_Karnataka"
            ],
            "locType": "village",
            "longitude": "76.4924232",
            "latitude": "15.3509583",
            "address": "Anegundi, Gangavati taluku, Koppal district, Karnataka, India",
            "closest_to": "tumkur"
        },
        "siddheshwara": {
            "blogLinks": [
                "https://en.wikipedia.org/wiki/Tourism_in_Karnataka"
            ],
            "locType": "pharmacy",
            "longitude": "77.5876527",
            "latitude": "13.0797146",
            "address": "Siddheshwara Medicals, Judicial Layout, Allalasandra, Bangalore, 7th Main Road, Judicial Layout, Bengaluru, Bangalore Urban, Karnataka, 560001, India",
            "closest_to": "tumkur"
        },
        "kabini": {
            "blogLinks": [
                "https://en.wikipedia.org/wiki/Tourism_in_Karnataka"
            ],
            "locType": "river",
            "longitude": "76.4152088",
            "latitude": "12.0140065",
            "address": "Kabini, Heggadadevanakote taluk, Mysuru district, Karnataka, India",
            "closest_to": "tumkur"
        },
        "bankapura": {
            "blogLinks": [
                "https://en.wikipedia.org/wiki/Tourism_in_Karnataka"
            ],
            "locType": "town",
            "longitude": "75.2639298",
            "latitude": "14.9217443",
            "address": "Bankapura, Shiggaon taluk, Haveri district, Karnataka, 581202, India",
            "closest_to": "tumkur"
        },
        "mahabaleshwara temple": {
            "blogLinks": [
                "http://travel.india.com/gokarna/"
            ],
            "locType": "place_of_worship",
            "longitude": "77.5899749843004",
            "latitude": "12.96264945",
            "address": "Mahabaleshwara Temple, Mission Road (Kalinga Rao Road ), Sampangirama Nagar, Shanti Nagar, Bengaluru, Bangalore Urban, Karnataka, 560001, India",
            "closest_to": "tumkur"
        },
        "anshi national park": {
            "blogLinks": [
                "https://en.wikipedia.org/wiki/Tourism_in_Karnataka",
                "http://travel.india.com/gokarna/"
            ],
            "locType": "national_park",
            "longitude": "74.3934408094182",
            "latitude": "14.9994424",
            "address": "Anshi National Park, SH46, Bidoli, Joida taluk, Uttara Kannada, Karnataka, India",
            "closest_to": "badami"
        },
        "sagara": {
            "blogLinks": [
                "https://en.wikipedia.org/wiki/Tourism_in_Karnataka"
            ],
            "locType": "town",
            "longitude": "75.0262551",
            "latitude": "14.1666594",
            "address": "Sagara, Sagara taluk, Shimoga district, Karnataka, 577400, India",
            "closest_to": "tumkur"
        },
        "haveri": {
            "blogLinks": [
                "https://en.wikipedia.org/wiki/Tourism_in_Karnataka",
                "http://www.mapsofindia.com/maps/karnataka/"
            ],
            "locType": "town",
            "longitude": "75.3996731",
            "latitude": "14.7874825",
            "address": "Haveri, Haveri taluku, Haveri district, Karnataka, 581110, India",
            "closest_to": "tumkur"
        },
        "hospet": {
            "blogLinks": [
                "http://www.solobackpacker.com/2012/02/04/aihole-an-architectural-wonder-in-stones/"
            ],
            "locType": "town",
            "longitude": "76.3870527",
            "latitude": "15.266079",
            "address": "Hosapete, Hosapete taluk, Bellary district, Karnataka, 583200, India",
            "closest_to": "tumkur"
        },
        "kodagu": {
            "blogLinks": [
                "https://en.wikipedia.org/wiki/Tourism_in_Karnataka",
                "http://www.mapsofindia.com/maps/karnataka/"
            ],
            "locType": "administrative",
            "longitude": "75.6677235950852",
            "latitude": "12.38117345",
            "address": "Kodagu, Karnataka, India",
            "closest_to": "tumkur"
        },
        "shimoga": {
            "blogLinks": [
                "https://en.wikipedia.org/wiki/Tourism_in_Karnataka"
            ],
            "locType": "city",
            "longitude": "75.569737",
            "latitude": "13.9311723",
            "address": "Shivamogga, Shivamogga taluku, Shimoga district, Karnataka, 577200, India",
            "closest_to": "tumkur"
        },
        "gadag": {
            "blogLinks": [
                "https://en.wikipedia.org/wiki/Tourism_in_Karnataka",
                "http://www.mapsofindia.com/maps/karnataka/"
            ],
            "locType": "town",
            "longitude": "75.6300786",
            "latitude": "15.4263647",
            "address": "Gadag, Gadag taluk, Gadag district, Karnataka, 582101, India",
            "closest_to": "tumkur"
        },
        "haveri district": {
            "blogLinks": [
                "https://en.wikipedia.org/wiki/Tourism_in_Karnataka"
            ],
            "locType": "administrative",
            "longitude": "75.3845674304742",
            "latitude": "14.714635",
            "address": "Haveri district, Karnataka, India",
            "closest_to": "tumkur"
        },
        "south karnataka": {
            "blogLinks": [
                "https://en.wikipedia.org/wiki/Tourism_in_Karnataka"
            ],
            "locType": "residential",
            "longitude": "77.8040874",
            "latitude": "13.2942848",
            "address": "s, Vijayapura, Devanahalli taluk, Bangalore Rural, Karnataka, 562135, India",
            "closest_to": "tumkur"
        },
        "shivanasamudra": {
            "blogLinks": [
                "https://en.wikipedia.org/wiki/Tourism_in_Karnataka"
            ],
            "locType": "village",
            "longitude": "77.1703215",
            "latitude": "12.2719056",
            "address": "Shivanasamudra, Kollegala taluk, Chamarajanagar district, Karnataka, India",
            "closest_to": "tumkur"
        },
        "chikkaballapur": {
            "blogLinks": [
                "http://www.mapsofindia.com/maps/karnataka/"
            ],
            "locType": "town",
            "longitude": "77.7306866",
            "latitude": "13.4352549",
            "address": "Chikkaballapura, Chikkaballapura taluk, Chikkaballapura district, Karnataka, 562101, India",
            "closest_to": "tumkur"
        },
        "gokarna beach": {
            "blogLinks": [
                "http://travel.india.com/gokarna/"
            ],
            "locType": "beach",
            "longitude": "74.3109489488919",
            "latitude": "14.5516537",
            "address": "Gokarna Beach, Gokarna Road, Ganji Gadde, Kumata taluk, Uttara Kannada, Karnataka, 581326, India",
            "closest_to": "badami"
        },
        "lokapura": {
            "blogLinks": [
                "https://en.wikipedia.org/wiki/Tourism_in_Karnataka"
            ],
            "locType": "town",
            "longitude": "75.3685939",
            "latitude": "16.1627427",
            "address": "Lokapura, Mudhola taluku, Bagalkote district, Karnataka, 587122, India",
            "closest_to": "badami"
        },
        "kanaganahalli": {
            "blogLinks": [
                "https://en.wikipedia.org/wiki/Tourism_in_Karnataka"
            ],
            "locType": "village",
            "longitude": "76.5876958",
            "latitude": "12.5588444",
            "address": "Kanaganahalli, Pandavapura taluk, Mandya district, Karnataka, India",
            "closest_to": "tumkur"
        },
        "orissa": {
            "blogLinks": [
                "http://samundarbaba.blogspot.in/2010/11/we-visited-hampi-badami-aihole-and.html"
            ],
            "locType": "restaurant",
            "longitude": "77.6448007",
            "latitude": "12.9622425",
            "address": "Little Orissa, 18th Main Road, Babasaheb Colony, Kodihalli, Bengaluru, Bangalore Urban, Karnataka, 560001, India",
            "closest_to": "tumkur"
        },
        "lushington falls": {
            "blogLinks": [
                "https://en.wikipedia.org/wiki/Tourism_in_Karnataka"
            ],
            "locType": "waterfall",
            "longitude": "74.7477592",
            "latitude": "14.4097755",
            "address": "\u0c89\u0c82\u0c9a\u0cb3\u0ccd\u0cb3\u0cbf \u0c9c\u0cb2\u0caa\u0cbe\u0ca4, Siddapura taluk, Uttara Kannada, Karnataka, India",
            "closest_to": "tumkur"
        },
        "half-moon beach": {
            "blogLinks": [
                "http://travel.india.com/gokarna/"
            ],
            "locType": "beach",
            "longitude": "74.3310971256284",
            "latitude": "14.5179028",
            "address": "Half Moon Beach, Om beach road, Gokarna, Kumata taluk, Uttara Kannada, Karnataka, 581326, India",
            "closest_to": "badami"
        },
        "varadaraja": {
            "blogLinks": [
                "https://en.wikipedia.org/wiki/Tourism_in_Karnataka"
            ],
            "locType": "fuel",
            "longitude": "77.5542736",
            "latitude": "13.005885",
            "address": "Varadaraja Petrol / Gas Station, Dr. Rajkumar Road, Rajajinagar 1st Block, Subrahmanya Nagar, Bengaluru, Bangalore Urban, Karnataka, 560001, India",
            "closest_to": "tumkur"
        },
        "banavasi": {
            "blogLinks": [
                "https://en.wikipedia.org/wiki/Tourism_in_Karnataka"
            ],
            "locType": "town",
            "longitude": "75.0129845",
            "latitude": "14.5389738",
            "address": "Banavasi, Shirasi taluk, Uttara Kannada, Karnataka, India",
            "closest_to": "tumkur"
        },
        "mastikatte": {
            "blogLinks": [
                "https://en.wikipedia.org/wiki/Tourism_in_Karnataka"
            ],
            "locType": "village",
            "longitude": "74.4604101",
            "latitude": "14.6857168",
            "address": "Mastikatte, Ankola taluk, Uttara Kannada, Karnataka, India",
            "closest_to": "badami"
        },
        "dakshina kannada": {
            "blogLinks": [
                "https://en.wikipedia.org/wiki/Tourism_in_Karnataka",
                "http://www.mapsofindia.com/maps/karnataka/"
            ],
            "locType": "administrative",
            "longitude": "75.1008028650794",
            "latitude": "12.8114089",
            "address": "Dakshina Kannada, Karnataka, India",
            "closest_to": "tumkur"
        },
        "bidar district": {
            "blogLinks": [
                "https://en.wikipedia.org/wiki/Tourism_in_Karnataka"
            ],
            "locType": "administrative",
            "longitude": "77.2496344350342",
            "latitude": "18.0158574",
            "address": "Bidar district, Karnataka, India",
            "closest_to": "badami"
        },
        "kudalasangama": {
            "blogLinks": [
                "https://en.wikipedia.org/wiki/Tourism_in_Karnataka"
            ],
            "locType": "village",
            "longitude": "76.0604244",
            "latitude": "16.2033992",
            "address": "Kudala Sangama, Hunagunda taluku, Bagalkote district, Karnataka, India",
            "closest_to": "badami"
        },
        "shravanabelagola": {
            "blogLinks": [
                "https://en.wikipedia.org/wiki/Tourism_in_Karnataka"
            ],
            "locType": "town",
            "longitude": "76.4869997",
            "latitude": "12.8581305",
            "address": "Shravanabelagola, Channarayapattana taluk, Hassan district, Karnataka, 573135, India",
            "closest_to": "tumkur"
        },
        "kabini river": {
            "blogLinks": [
                "https://en.wikipedia.org/wiki/Tourism_in_Karnataka"
            ],
            "locType": "canal",
            "longitude": "76.6477184",
            "latitude": "12.0780998",
            "address": "Kabini right bank canal, Nanjanagudu taluk, Mysuru district, Karnataka, India",
            "closest_to": "tumkur"
        },
        "bijapur": {
            "blogLinks": [
                "https://en.wikipedia.org/wiki/Tourism_in_Karnataka",
                "https://www.travelblog.org/Asia/India/Karnataka/Bangalore/Koramangala/blog-914055.html"
            ],
            "locType": "city",
            "longitude": "75.7175387",
            "latitude": "16.8269911",
            "address": "Vijayapura, Vijayapura taluk, Bijapur district, Karnataka, 586101, India",
            "closest_to": "badami"
        },
        "kodachadri": {
            "blogLinks": [
                "https://en.wikipedia.org/wiki/Tourism_in_Karnataka"
            ],
            "locType": "peak",
            "longitude": "74.8705395",
            "latitude": "13.8565758",
            "address": "Kodachadri, \u0c95\u0cc1\u0c82\u0ca6\u0cbe\u0caa\u0cc1\u0cb0 \u0ca4\u0cbe\u0cb2\u0cc2\u0c95\u0cc1, Udupi district, Karnataka, India",
            "closest_to": "tumkur"
        },
        "lakshmeshwar": {
            "blogLinks": [
                "https://en.wikipedia.org/wiki/Tourism_in_Karnataka"
            ],
            "locType": "bus_station",
            "longitude": "75.4741167",
            "latitude": "15.12373",
            "address": "Lakshmeshwar KSRTC Bus stand, SH6, Bastibana, Lakshmeshvara, Shirahatti taluku, Gadag district, Karnataka, 582116, India",
            "closest_to": "tumkur"
        },
        "tungabhadra river": {
            "blogLinks": [
                "http://samundarbaba.blogspot.in/2010/11/we-visited-hampi-badami-aihole-and.html"
            ],
            "locType": "river",
            "longitude": "76.4931607",
            "latitude": "15.3446123",
            "address": "Tungabhadra, Gangavati taluku, Koppal district, Karnataka, India",
            "closest_to": "tumkur"
        },
        "ghataprabha river": {
            "blogLinks": [
                "https://en.wikipedia.org/wiki/Tourism_in_Karnataka"
            ],
            "locType": "river",
            "longitude": "74.9165235",
            "latitude": "16.2124344",
            "address": "Ghataprabha, Gokak taluku, Belgaum district, Karnataka, India",
            "closest_to": "badami"
        },
        "east": {
            "blogLinks": [
                "https://en.wikipedia.org/wiki/Tourism_in_Karnataka"
            ],
            "locType": "restaurant",
            "longitude": "77.6601401",
            "latitude": "12.8504319",
            "address": "East, 43, Velankani Drive, Electronics City Phase 1, Doddathoguru, Bangalore Urban, Karnataka, 560100, India",
            "closest_to": "tumkur"
        },
        "nagarhole national park": {
            "blogLinks": [
                "https://en.wikipedia.org/wiki/Tourism_in_Karnataka"
            ],
            "locType": "national_park",
            "longitude": "76.1537073415874",
            "latitude": "12.0600362",
            "address": "Nagarahole National Park, Virajpet taluk, Kodagu, Karnataka, India",
            "closest_to": "tumkur"
        },
        "mahabaleshwara": {
            "blogLinks": [
                "http://travel.india.com/gokarna/"
            ],
            "locType": "place_of_worship",
            "longitude": "77.5899749843004",
            "latitude": "12.96264945",
            "address": "Mahabaleshwara Temple, Mission Road (Kalinga Rao Road ), Sampangirama Nagar, Shanti Nagar, Bengaluru, Bangalore Urban, Karnataka, 560001, India",
            "closest_to": "tumkur"
        },
        "badami": {
            "blogLinks": [
                "http://travel.india.com/badami/",
                "https://www.ixigo.com/travel-guide/badami",
                "http://www.buzzntravel.com/tamkur",
                "https://en.wikipedia.org/wiki/Tourism_in_Karnataka",
                "https://www.travelblog.org/Asia/India/Karnataka/Bangalore/Koramangala/blog-914055.html",
                "http://samundarbaba.blogspot.in/2010/11/we-visited-hampi-badami-aihole-and.html",
                "http://www.nivalink.com/destination/badami",
                "http://www.solobackpacker.com/2012/02/04/aihole-an-architectural-wonder-in-stones/"
            ],
            "locType": "town",
            "longitude": "75.6807865",
            "latitude": "15.9203874",
            "address": "Badami, Badami taluku, Bagalkote district, Karnataka, 587200, India",
            "closest_to": "tumkur"
        },
        "bhadra river": {
            "blogLinks": [
                "https://en.wikipedia.org/wiki/Tourism_in_Karnataka"
            ],
            "locType": "river",
            "longitude": "75.527118",
            "latitude": "13.4888356",
            "address": "Bhadra, Chikkamagaluru taluku, Chikkamagaluru district, Karnataka, India",
            "closest_to": "tumkur"
        },
        "nethrani island": {
            "blogLinks": [
                "https://en.wikipedia.org/wiki/Tourism_in_Karnataka"
            ],
            "locType": "island",
            "longitude": "74.3272086675849",
            "latitude": "14.0174924",
            "address": "Netrani, Uttara Kannada, Karnataka, India",
            "closest_to": "tumkur"
        },
        "bankpur fort": {
            "blogLinks": [
                "https://en.wikipedia.org/wiki/Tourism_in_Karnataka"
            ],
            "locType": "archaeological_site",
            "longitude": "75.2512090188504",
            "latitude": "14.9231815",
            "address": "Bankapura Fort, SH137, Guddada Channapura, Shiggaon taluk, Haveri district, Karnataka, 581202, India",
            "closest_to": "tumkur"
        },
        "bagalkot district of north karnataka": {
            "blogLinks": [
                "http://samundarbaba.blogspot.in/2010/11/we-visited-hampi-badami-aihole-and.html"
            ],
            "locType": "city",
            "longitude": "75.6967919",
            "latitude": "16.1853166",
            "address": "Bagalakote, Bagalakote taluk, Bagalkote district, Karnataka, India",
            "closest_to": "badami"
        },
        "afzalpur": {
            "blogLinks": [
                "https://en.wikipedia.org/wiki/Tourism_in_Karnataka"
            ],
            "locType": "town",
            "longitude": "76.3605783",
            "latitude": "17.2005764",
            "address": "Afzalpur, Afzalpura taluku, Kalaburagi district, Karnataka, 585301, India",
            "closest_to": "badami"
        },
        "raichur": {
            "blogLinks": [
                "http://www.mapsofindia.com/maps/karnataka/"
            ],
            "locType": "county",
            "longitude": "77.166667",
            "latitude": "16.083333",
            "address": "Raichur, Raichur district, Karnataka, India",
            "closest_to": "tumkur"
        },
        "narasimha swamy temple": {
            "blogLinks": [
                "https://en.wikipedia.org/wiki/Tourism_in_Karnataka"
            ],
            "locType": "place_of_worship",
            "longitude": "76.2427318",
            "latitude": "13.0943931",
            "address": "Narasimha Swamy Temple, Attavara Mudigere Road, Attavara, Hasana taluk, Hassan district, Karnataka, India",
            "closest_to": "tumkur"
        },
        "gangadhareshwara": {
            "blogLinks": [
                "http://rakeshholla.blogspot.com/2012/09/shivaganga-hills-tumkur.html"
            ],
            "locType": "place_of_worship",
            "longitude": "77.5628973",
            "latitude": "12.9481567",
            "address": "Gavi Gangadhareshwara Temple, 3rd Main Road, Yediyur, Hanumantha Nagar, Bengaluru, Bangalore Urban, Karnataka, 560001, India",
            "closest_to": "tumkur"
        },
        "mumbai": {
            "blogLinks": [
                "http://samundarbaba.blogspot.in/2010/11/we-visited-hampi-badami-aihole-and.html",
                "http://www.sutthonabanni.com/2011/07/tumkur-district.html"
            ],
            "locType": "restaurant",
            "longitude": "77.5718472",
            "latitude": "13.0002869",
            "address": "Mumbai Spice, 18/2, 10th Cross, Malleswaram, Vyalikaval, Malleswaram, Bengaluru, Bangalore Urban, Karnataka, 560003, India",
            "closest_to": "tumkur"
        },
        "shirali": {
            "blogLinks": [
                "https://en.wikipedia.org/wiki/Tourism_in_Karnataka"
            ],
            "locType": "village",
            "longitude": "74.5286591",
            "latitude": "14.0280925",
            "address": "Shirali, Bhatkala taluk, Uttara Kannada, Karnataka, 581354, India",
            "closest_to": "tumkur"
        },
        "coastal karnataka": {
            "blogLinks": [
                "https://en.wikipedia.org/wiki/Tourism_in_Karnataka"
            ],
            "locType": "industrial",
            "longitude": "74.8137275833157",
            "latitude": "12.96014675",
            "address": "Bharat Petroleum Mangalore Coastal Installation, Baikampady, Mangaluru taluk, Dakshina Kannada, Karnataka, 575014, India",
            "closest_to": "tumkur"
        },
        "chitradurga": {
            "blogLinks": [
                "https://en.wikipedia.org/wiki/Tourism_in_Karnataka",
                "http://www.mapsofindia.com/maps/karnataka/",
                "https://www.travelblog.org/Asia/India/Karnataka/Bangalore/Koramangala/blog-914055.html"
            ],
            "locType": "town",
            "longitude": "76.4005122",
            "latitude": "14.2266443",
            "address": "Chitradurga, Chitradurga taluku, Chitradurga district, Karnataka, 577500, India",
            "closest_to": "tumkur"
        },
        "naganur": {
            "blogLinks": [
                "https://en.wikipedia.org/wiki/Tourism_in_Karnataka"
            ],
            "locType": "village",
            "longitude": "74.4824431",
            "latitude": "16.073351",
            "address": "Naganur, Hukkeri taluku, Belgaum district, Karnataka, India",
            "closest_to": "badami"
        },
        "gokarna road": {
            "blogLinks": [
                "http://travel.india.com/gokarna/"
            ],
            "locType": "primary",
            "longitude": "74.358586",
            "latitude": "14.5697148",
            "address": "Gokarna Road, Torke, Kumata taluk, Uttara Kannada, Karnataka, 581344, India",
            "closest_to": "badami"
        },
        "bagamandala": {
            "blogLinks": [
                "https://en.wikipedia.org/wiki/Tourism_in_Karnataka"
            ],
            "locType": "primary",
            "longitude": "75.748408",
            "latitude": "12.388062",
            "address": "Madikeri - Bagamandala ,Tala Kaveri Road, Mekeri, Madikeri taluku, Kodagu, Karnataka, India",
            "closest_to": "tumkur"
        },
        "gulbarga": {
            "blogLinks": [
                "https://en.wikipedia.org/wiki/Tourism_in_Karnataka",
                "http://www.mapsofindia.com/maps/karnataka/"
            ],
            "locType": "county",
            "longitude": "77.083333",
            "latitude": "17.166667",
            "address": "Kalaburgi, Kalaburagi district, Karnataka, India",
            "closest_to": "badami"
        },
        "hyderabad": {
            "blogLinks": [
                "http://www.solobackpacker.com/2012/02/04/aihole-an-architectural-wonder-in-stones/"
            ],
            "locType": "primary",
            "longitude": "77.5344002",
            "latitude": "17.9003114",
            "address": "Hyderabad Road, Old City, Bidar, Bidar taluku, Bidar district, Karnataka, 585400, India",
            "closest_to": "badami"
        },
        "varanasi": {
            "blogLinks": [
                "http://travel.india.com/gokarna/"
            ],
            "locType": "village",
            "longitude": "77.6860657",
            "latitude": "13.0304962",
            "address": "Varanasi, Bangalore Urban, Karnataka, India",
            "closest_to": "tumkur"
        },
        "surya temple": {
            "blogLinks": [
                "http://www.solobackpacker.com/2012/02/04/aihole-an-architectural-wonder-in-stones/"
            ],
            "locType": "place_of_worship",
            "longitude": "77.6386171367774",
            "latitude": "12.9548321",
            "address": "Surya Narayana Swamy Temple, 7th Cross, Domlur 1st Stage, Domlur, Bengaluru, Bangalore Urban, Karnataka, 560071, India",
            "closest_to": "tumkur"
        },
        "bandipur national park": {
            "blogLinks": [
                "https://en.wikipedia.org/wiki/Tourism_in_Karnataka"
            ],
            "locType": "national_park",
            "longitude": "76.4314968740264",
            "latitude": "11.76682425",
            "address": "Bandipur National Park, Kozhikode - Kollegal Highway, Gundlupet taluk, Chamarajanagar district, Karnataka, India",
            "closest_to": "tumkur"
        }
    },
    "tumkur": {
        "icon": "https://nominatim.openstreetmap.org/images/mapicons/poi_boundary_administrative.p.20.png",
        "osm_type": "node",
        "boundingbox": [
            "12.8599406",
            "14.1399406",
            "76.3602445",
            "77.6402445"
        ],
        "display_name": "Tumakuru, Tumkur district, Karnataka, India",
        "class": "place",
        "osm_id": "316417304",
        "type": "county",
        "licence": "Data \u00a9 OpenStreetMap contributors, ODbL 1.0. http://www.openstreetmap.org/copyright",
        "lon": "77.0002445",
        "lat": "13.4999406",
        "place_id": "1397122",
        "importance": 0.65
    },
    "badami": {
        "icon": "https://nominatim.openstreetmap.org/images/mapicons/poi_place_town.p.20.png",
        "osm_type": "node",
        "boundingbox": [
            "15.8803874",
            "15.9603874",
            "75.6407865",
            "75.7207865"
        ],
        "display_name": "Badami, Badami taluku, Bagalkote district, Karnataka, 587200, India",
        "class": "place",
        "osm_id": "655135229",
        "type": "town",
        "licence": "Data \u00a9 OpenStreetMap contributors, ODbL 1.0. http://www.openstreetmap.org/copyright",
        "lon": "75.6807865",
        "lat": "15.9203874",
        "place_id": "6086961",
        "importance": 0.5
    }
}