{
    "mentions": {
        "kittur": {
            "blogLinks": [
                "https://en.wikipedia.org/wiki/Belgaum"
            ],
            "locType": "town",
            "longitude": "74.7876971",
            "latitude": "15.5957166",
            "address": "Kitturu, Bailahongala taluku, Belgaum district, Karnataka, 591115, India",
            "closest_to": "belgaum"
        },
        "virupaksha": {
            "blogLinks": [
                "http://www.mapsofindia.com/karnataka/places-to-visit-in-hampi.html"
            ],
            "locType": "place_of_worship",
            "longitude": "76.4587777156223",
            "latitude": "15.3351754",
            "address": "Virupaksha Temple, Hampi Bazaar, Hampe, Hosapete taluk, Bellary district, Karnataka, 583239, India",
            "closest_to": "badami"
        },
        "bijapur": {
            "blogLinks": [
                "http://www.tourism-of-india.com/bijapur/"
            ],
            "locType": "city",
            "longitude": "75.7175387",
            "latitude": "16.8269911",
            "address": "Vijayapura, Vijayapura taluk, Bijapur district, Karnataka, 586101, India",
            "closest_to": "badami"
        },
        "badami taluk": {
            "blogLinks": [
                "https://en.wikipedia.org/wiki/Badami"
            ],
            "locType": "primary",
            "longitude": "75.6395312",
            "latitude": "15.4389959",
            "address": "Pala Badami Road, Betageri, Gadag, Gadag taluk, Gadag district, Karnataka, 582102, India",
            "closest_to": "badami"
        },
        "amboli": {
            "blogLinks": [
                "https://en.wikipedia.org/wiki/Belgaum"
            ],
            "locType": "village",
            "longitude": "74.4340839",
            "latitude": "15.6456171",
            "address": "Amboli, Khanapura taluku, Belgaum district, Karnataka, India",
            "closest_to": "belgaum"
        },
        "belagavi": {
            "blogLinks": [
                "https://www.makemytrip.com/blog/a-state-of-fairs-in-karnataka",
                "https://en.wikipedia.org/wiki/Belgaum"
            ],
            "locType": "county",
            "longitude": "74.75",
            "latitude": "16.333333",
            "address": "Belgaum, Belgaum district, Karnataka, India",
            "closest_to": "belgaum"
        },
        "gadag": {
            "blogLinks": [
                "http://www.solobackpacker.com/2011/06/11/travelling-solo-to-north-karnataka-badami/",
                "http://www.tourism-of-india.com/bijapur/"
            ],
            "locType": "town",
            "longitude": "75.6300786",
            "latitude": "15.4263647",
            "address": "Gadag, Gadag taluk, Gadag district, Karnataka, 582101, India",
            "closest_to": "badami"
        },
        "hampi": {
            "blogLinks": [
                "http://www.mapsofindia.com/karnataka/places-to-visit-in-hampi.html",
                "http://www.karnatakatourism.org/",
                "http://journeymart.com/de/india/karnataka/sightseeing/default.aspx"
            ],
            "locType": "village",
            "longitude": "76.4606199",
            "latitude": "15.3359769",
            "address": "Hampe, Hosapete taluk, Bellary district, Karnataka, 583239, India",
            "closest_to": "badami"
        },
        "hubli": {
            "blogLinks": [
                "http://www.solobackpacker.com/2011/06/11/travelling-solo-to-north-karnataka-badami/",
                "http://www.hellotravel.com/india/badami",
                "http://www.mapsofindia.com/karnataka/places-to-visit-in-hampi.html",
                "http://www.indianholiday.com/weekend-getaways/short-trip-badami.html",
                "https://en.wikipedia.org/wiki/Badami",
                "http://www.mapsofindia.com/maps/karnataka/travel-to-badami.html",
                "http://www.tourism-of-india.com/bijapur/",
                "http://www.nivalink.com/destination/badami",
                "https://en.wikipedia.org/wiki/Belgaum"
            ],
            "locType": "city",
            "longitude": "75.1379848",
            "latitude": "15.3518378",
            "address": "Hubballi - \u0cb9\u0cc1\u0cac\u0ccd\u0cac\u0cb3\u0ccd\u0cb3\u0cbf, Hubballi taluku, Dharwad district, Karnataka, 580020, India",
            "closest_to": "badami"
        },
        "khanapur road": {
            "blogLinks": [
                "https://en.wikipedia.org/wiki/Belgaum"
            ],
            "locType": "primary",
            "longitude": "74.5069034",
            "latitude": "15.8370976",
            "address": "Khanapur Road, Angol, Belagavi, Belagavi taluku, Belgaum district, Karnataka, 590001, India",
            "closest_to": "belgaum"
        },
        "badami": {
            "blogLinks": [
                "http://www.solobackpacker.com/2011/06/11/travelling-solo-to-north-karnataka-badami/",
                "http://www.hellotravel.com/india/badami",
                "https://en.wikipedia.org/wiki/Badami",
                "http://www.indianholiday.com/weekend-getaways/short-trip-badami.html",
                "http://www.mapsofindia.com/maps/karnataka/travel-to-badami.html",
                "http://www.nivalink.com/destination/badami",
                "https://www.ixigo.com/from-by-road/belgaum-to-badami-by-road",
                "https://en.wikipedia.org/wiki/Belgaum"
            ],
            "locType": "town",
            "longitude": "75.6807865",
            "latitude": "15.9203874",
            "address": "Badami, Badami taluku, Bagalkote district, Karnataka, 587200, India",
            "closest_to": "belgaum"
        },
        "gol gumbaz": {
            "blogLinks": [
                "http://www.tourism-of-india.com/bijapur/"
            ],
            "locType": "attraction",
            "longitude": "75.7360929",
            "latitude": "16.8300223",
            "address": "Gol Gumbaz, Station Road, Ibrahimpura, Vijayapura, Vijayapura taluk, Bijapur district, Karnataka, 586101, India",
            "closest_to": "badami"
        },
        "belgaum airport": {
            "blogLinks": [
                "https://en.wikipedia.org/wiki/Belgaum"
            ],
            "locType": "aerodrome",
            "longitude": "74.6189763983851",
            "latitude": "15.8602827",
            "address": "Belgaum Airport, SH20, Balekundri, Belagavi taluku, Belgaum district, Karnataka, 591124, India",
            "closest_to": "belgaum"
        },
        "fort road": {
            "blogLinks": [
                "https://en.wikipedia.org/wiki/Belgaum"
            ],
            "locType": "unclassified",
            "longitude": "76.1512395",
            "latitude": "15.3428261",
            "address": "Fort Road, Bhagyanagara, Koppala, Koppala taluku, Koppal district, Karnataka, 583231, India",
            "closest_to": "badami"
        },
        "dharwad": {
            "blogLinks": [
                "https://en.wikipedia.org/wiki/Belgaum"
            ],
            "locType": "city",
            "longitude": "75.0066516",
            "latitude": "15.4540505",
            "address": "Dharwad, Dharawada taluku, Dharwad district, Karnataka, 580001, India",
            "closest_to": "belgaum"
        },
        "panaji": {
            "blogLinks": [
                "https://en.wikipedia.org/wiki/Belgaum"
            ],
            "locType": "trunk",
            "longitude": "74.4876784",
            "latitude": "15.4422981",
            "address": "Belgaum - Panaji Highway, Londa, Khanapura taluku, Belgaum district, Karnataka, India",
            "closest_to": "belgaum"
        },
        "hampi bazaar": {
            "blogLinks": [
                "http://www.mapsofindia.com/karnataka/places-to-visit-in-hampi.html"
            ],
            "locType": "unclassified",
            "longitude": "76.4621571",
            "latitude": "15.3347585",
            "address": "Hampi Bazaar, Hampe, Hosapete taluk, Bellary district, Karnataka, 583239, India",
            "closest_to": "badami"
        },
        "anegondi": {
            "blogLinks": [
                "http://www.mapsofindia.com/karnataka/places-to-visit-in-hampi.html"
            ],
            "locType": "village",
            "longitude": "76.4924232",
            "latitude": "15.3509583",
            "address": "Anegundi, Gangavati taluku, Koppal district, Karnataka, India",
            "closest_to": "badami"
        },
        "bagalkot district of karnataka": {
            "blogLinks": [
                "http://www.solobackpacker.com/2011/06/11/travelling-solo-to-north-karnataka-badami/"
            ],
            "locType": "city",
            "longitude": "75.6967919",
            "latitude": "16.1853166",
            "address": "Bagalakote, Bagalakote taluk, Bagalkote district, Karnataka, India",
            "closest_to": "belgaum"
        },
        "hubli airport": {
            "blogLinks": [
                "http://www.indianholiday.com/weekend-getaways/short-trip-badami.html"
            ],
            "locType": "aerodrome",
            "longitude": "75.0860974",
            "latitude": "15.3598315",
            "address": "Hubli Airport, \u0c97\u0ccb\u0c95\u0cc1\u0cb2 \u0cb0\u0ccb\u0ca1\u0ccd, Padmaraj Nagar, Gokul, Hubballi taluku, Dharwad district, Karnataka, 580030, India",
            "closest_to": "badami"
        },
        "aihole": {
            "blogLinks": [
                "https://en.wikipedia.org/wiki/Badami",
                "http://www.tourism-of-india.com/bijapur/"
            ],
            "locType": "village",
            "longitude": "75.8819129",
            "latitude": "16.0192298",
            "address": "Aihole, Hunagunda taluku, Bagalkote district, Karnataka, India",
            "closest_to": "badami"
        },
        "athani": {
            "blogLinks": [
                "https://en.wikipedia.org/wiki/Belgaum"
            ],
            "locType": "administrative",
            "longitude": "75.0610457789688",
            "latitude": "16.7339495",
            "address": "Athani taluku, Belgaum district, Karnataka, India",
            "closest_to": "belgaum"
        },
        "markandeya": {
            "blogLinks": [
                "https://en.wikipedia.org/wiki/Belgaum"
            ],
            "locType": "river",
            "longitude": "74.5774895",
            "latitude": "15.9707453",
            "address": "Markandeya, Belagavi taluku, Belgaum district, Karnataka, India",
            "closest_to": "belgaum"
        },
        "jambulinga temple": {
            "blogLinks": [
                "http://www.mapsofindia.com/maps/karnataka/travel-to-badami.html"
            ],
            "locType": "yes",
            "longitude": "75.8160313484561",
            "latitude": "15.95023405",
            "address": "Jambulinga Temple, SH14, \u0cac\u0cbe\u0c9a\u0cbf\u0ca8\u0c97\u0cc1\u0ca1\u0ccd\u0ca1, Badami taluku, Bagalkote district, Karnataka, 587211, India",
            "closest_to": "badami"
        },
        "machche": {
            "blogLinks": [
                "https://en.wikipedia.org/wiki/Belgaum"
            ],
            "locType": "village",
            "longitude": "74.4840647",
            "latitude": "15.7915932",
            "address": "Machche, Belagavi taluku, Belgaum district, Karnataka, India",
            "closest_to": "belgaum"
        },
        "virupaksha temple": {
            "blogLinks": [
                "http://www.mapsofindia.com/karnataka/places-to-visit-in-hampi.html"
            ],
            "locType": "place_of_worship",
            "longitude": "76.4587777156223",
            "latitude": "15.3351754",
            "address": "Virupaksha Temple, Hampi Bazaar, Hampe, Hosapete taluk, Bellary district, Karnataka, 583239, India",
            "closest_to": "badami"
        },
        "tungabhadra river": {
            "blogLinks": [
                "http://www.mapsofindia.com/karnataka/places-to-visit-in-hampi.html"
            ],
            "locType": "river",
            "longitude": "76.4931607",
            "latitude": "15.3446123",
            "address": "Tungabhadra, Gangavati taluku, Koppal district, Karnataka, India",
            "closest_to": "badami"
        },
        "pattadakal": {
            "blogLinks": [
                "http://www.nivalink.com/destination/badami",
                "http://www.solobackpacker.com/2011/06/11/travelling-solo-to-north-karnataka-badami/",
                "http://journeymart.com/de/india/karnataka/sightseeing/default.aspx"
            ],
            "locType": "attraction",
            "longitude": "75.815884048161",
            "latitude": "15.9506349",
            "address": "Pattadakal Temples, SH14, \u0cac\u0cbe\u0c9a\u0cbf\u0ca8\u0c97\u0cc1\u0ca1\u0ccd\u0ca1, Badami taluku, Bagalkote district, Karnataka, 587211, India",
            "closest_to": "badami"
        },
        "hubli railway station": {
            "blogLinks": [
                "http://www.indianholiday.com/weekend-getaways/short-trip-badami.html"
            ],
            "locType": "bus_station",
            "longitude": "75.1455962",
            "latitude": "15.3523233",
            "address": "Hubli Railway Station, Station Road, J C Nagar, Kamaripet, Hubballi - \u0cb9\u0cc1\u0cac\u0ccd\u0cac\u0cb3\u0ccd\u0cb3\u0cbf, Hubballi taluku, Dharwad district, Karnataka, 580020, India",
            "closest_to": "badami"
        },
        "bagalkot": {
            "blogLinks": [
                "http://www.solobackpacker.com/2011/06/11/travelling-solo-to-north-karnataka-badami/",
                "http://www.hellotravel.com/india/badami",
                "https://en.wikipedia.org/wiki/Badami",
                "http://www.indianholiday.com/weekend-getaways/short-trip-badami.html",
                "http://www.mapsofindia.com/maps/karnataka/travel-to-badami.html",
                "https://www.makemytrip.com/blog/a-state-of-fairs-in-karnataka",
                "https://en.wikipedia.org/wiki/Belgaum"
            ],
            "locType": "city",
            "longitude": "75.6967919",
            "latitude": "16.1853166",
            "address": "Bagalakote, Bagalakote taluk, Bagalkote district, Karnataka, India",
            "closest_to": "belgaum"
        },
        "belgaum": {
            "blogLinks": [
                "http://www.mapsofindia.com/maps/karnataka/travel-to-badami.html",
                "https://en.wikipedia.org/wiki/Belgaum"
            ],
            "locType": "county",
            "longitude": "74.75",
            "latitude": "16.333333",
            "address": "Belgaum, Belgaum district, Karnataka, India",
            "closest_to": "belgaum"
        },
        "ganeshpur": {
            "blogLinks": [
                "https://en.wikipedia.org/wiki/Belgaum"
            ],
            "locType": "secondary",
            "longitude": "74.4970226",
            "latitude": "15.8613093",
            "address": "Ganeshpur Road, Cantonment, Belagavi, Belagavi taluku, Belgaum district, Karnataka, 590001, India",
            "closest_to": "belgaum"
        },
        "ugar": {
            "blogLinks": [
                "https://en.wikipedia.org/wiki/Belgaum"
            ],
            "locType": "station",
            "longitude": "74.8213532",
            "latitude": "16.6701722",
            "address": "Ugar Khurd, SH73, Pharidakhanavadi, Athani taluku, Belgaum district, Karnataka, India",
            "closest_to": "belgaum"
        },
        "bagalkot district": {
            "blogLinks": [
                "https://en.wikipedia.org/wiki/Badami"
            ],
            "locType": "city",
            "longitude": "75.6967919",
            "latitude": "16.1853166",
            "address": "Bagalakote, Bagalakote taluk, Bagalkote district, Karnataka, India",
            "closest_to": "belgaum"
        }
    },
    "belgaum": {
        "icon": "https://nominatim.openstreetmap.org/images/mapicons/poi_boundary_administrative.p.20.png",
        "osm_type": "node",
        "boundingbox": [
            "15.693333",
            "16.973333",
            "74.11",
            "75.39"
        ],
        "display_name": "Belgaum, Belgaum district, Karnataka, India",
        "class": "place",
        "osm_id": "316417174",
        "type": "county",
        "licence": "Data \u00a9 OpenStreetMap contributors, ODbL 1.0. http://www.openstreetmap.org/copyright",
        "lon": "74.75",
        "lat": "16.333333",
        "place_id": "1393576",
        "importance": 0.65
    },
    "badami": {
        "icon": "https://nominatim.openstreetmap.org/images/mapicons/poi_place_town.p.20.png",
        "osm_type": "node",
        "boundingbox": [
            "15.8803874",
            "15.9603874",
            "75.6407865",
            "75.7207865"
        ],
        "display_name": "Badami, Badami taluku, Bagalkote district, Karnataka, 587200, India",
        "class": "place",
        "osm_id": "655135229",
        "type": "town",
        "licence": "Data \u00a9 OpenStreetMap contributors, ODbL 1.0. http://www.openstreetmap.org/copyright",
        "lon": "75.6807865",
        "lat": "15.9203874",
        "place_id": "6086961",
        "importance": 0.5
    }
}