{
    "fremont": {
        "class": "place",
        "licence": "Data \u00a9 OpenStreetMap contributors, ODbL 1.0. http://www.openstreetmap.org/copyright",
        "lon": "-121.9885718",
        "lat": "37.5482697",
        "boundingbox": [
            "37.4539501",
            "37.6066739",
            "-122.1509872",
            "-121.8701127"
        ],
        "importance": 0.70373394703995,
        "osm_type": "relation",
        "icon": "https://nominatim.openstreetmap.org/images/mapicons/poi_place_city.p.20.png",
        "osm_id": "111943",
        "display_name": "Fremont, Alameda County, California, United States of America",
        "type": "city",
        "place_id": "159050638"
    },
    "bakersfield": {
        "class": "place",
        "licence": "Data \u00a9 OpenStreetMap contributors, ODbL 1.0. http://www.openstreetmap.org/copyright",
        "lon": "-119.0194638",
        "lat": "35.3738712",
        "boundingbox": [
            "35.193979",
            "35.447975",
            "-119.2650329",
            "-118.7723409"
        ],
        "importance": 0.74358237824296,
        "osm_type": "relation",
        "icon": "https://nominatim.openstreetmap.org/images/mapicons/poi_place_city.p.20.png",
        "osm_id": "113006",
        "display_name": "Bakersfield, Kern County, California, United States of America",
        "type": "city",
        "place_id": "158454478"
    },
    "mentions": {
        "san diego": {
            "closest_to": "bakersfield",
            "locType": "city",
            "address": "San Diego, San Diego County, California, United States of America",
            "latitude": "32.7174209",
            "longitude": "-117.1627713",
            "blogLinks": [
                "http://gocalifornia.about.com/od/topcalifornia/ss/California-Weekend-Getaways-A-to-Z.htm"
            ]
        },
        "monterey bay": {
            "closest_to": "fremont",
            "locType": "bay",
            "address": "Monterey Bay, Monterey County, California, United States of America",
            "latitude": "36.7999557",
            "longitude": "-121.9010667",
            "blogLinks": [
                "http://gocalifornia.about.com/od/topcalifornia/ss/California-Weekend-Getaways-A-to-Z.htm"
            ]
        },
        "california avenue3318 california ave": {
            "closest_to": "bakersfield",
            "locType": "secondary",
            "address": "California Avenue, Riverside, Riverside County, California, 92503, United States of America",
            "latitude": "33.9365505",
            "longitude": "-117.4341747",
            "blogLinks": [
                "http://www.yellowpages.com/bakersfield-ca/fremont"
            ]
        },
        "cambria": {
            "closest_to": "fremont",
            "locType": "administrative",
            "address": "Cambria, San Luis Obispo County, California, United States of America",
            "latitude": "35.5641381",
            "longitude": "-121.0807467",
            "blogLinks": [
                "https://www.tripadvisor.com/ShowTopic-g28926-i29-k5349841-Bakersfield_to_San_Fransico_drive-California.html",
                "http://gocalifornia.about.com/od/topcalifornia/ss/California-Weekend-Getaways-A-to-Z.htm"
            ]
        },
        "japantown": {
            "closest_to": "fremont",
            "locType": "neighbourhood",
            "address": "Japantown, SF, California, 94115, United States of America",
            "latitude": "37.7855789",
            "longitude": "-122.4298088",
            "blogLinks": [
                "http://gocalifornia.about.com/od/topcalifornia/ss/California-Weekend-Getaways-A-to-Z.htm"
            ]
        },
        "springville": {
            "closest_to": "fremont",
            "locType": "administrative",
            "address": "Springville, Wilson Drive, Springville, Tulare County, California, United States of America",
            "latitude": "36.123081",
            "longitude": "-118.839739899248",
            "blogLinks": [
                "https://www.tripadvisor.com/ShowTopic-g28926-i29-k5349841-Bakersfield_to_San_Fransico_drive-California.html"
            ]
        },
        "ojai valley": {
            "closest_to": "bakersfield",
            "locType": "city",
            "address": "Ojai, Ventura County, California, United States of America",
            "latitude": "34.4480495",
            "longitude": "-119.2428889",
            "blogLinks": [
                "http://www.california-blog.com/"
            ]
        },
        "kearny": {
            "closest_to": "bakersfield",
            "locType": "village",
            "address": "Kearny Mesa, San Diego County, California, United States of America",
            "latitude": "32.8288522",
            "longitude": "-117.1420072",
            "blogLinks": [
                "http://gocalifornia.about.com/od/topcalifornia/ss/California-Weekend-Getaways-A-to-Z.htm"
            ]
        },
        "bradley": {
            "closest_to": "fremont",
            "locType": "administrative",
            "address": "Bradley, Dixie Street, Bradley, Monterey County, California, United States of America",
            "latitude": "35.862856",
            "longitude": "-120.803695455663",
            "blogLinks": [
                "https://www.tripadvisor.com/ShowTopic-g28926-i29-k5349841-Bakersfield_to_San_Fransico_drive-California.html"
            ]
        },
        "fremont": {
            "closest_to": "fremont",
            "locType": "city",
            "address": "Fremont, Alameda County, California, United States of America",
            "latitude": "37.5482697",
            "longitude": "-121.9885718",
            "blogLinks": [
                "http://www.distancesfrom.com/us/map-from-Fremont-to-Bakersfield/MapHistory/15565528.aspx",
                "http://www.distancesfrom.com/us/Trip-Cost-from-Bakersfield-to-Fremont/TripCostHistory/15565534.aspx",
                "http://www.distancesfrom.com/us/directions-from-Fremont-to-Bakersfield/DirectionHistory/15565528.aspx",
                "http://www.distancesfrom.com/us/travel-from-Bakersfield-to-Fremont/TravelFromHistory/15565534.aspx",
                "http://www.distancesfrom.com/us/how-far-is-Bakersfield-from-Fremont/HowFarHistory/15565528.aspx",
                "http://www.distancesfrom.com/us/directions-from-Bakersfield-to-Fremont/DirectionHistory/15565534.aspx",
                "http://www.distancesfrom.com/us/map-from-Bakersfield-to-Fremont/MapHistory/15565534.aspx",
                "http://www.distancesfrom.com/us/how-far-is-Fremont-from-Bakersfield/HowFarHistory/15565534.aspx",
                "http://www.distancesfrom.com/us/distance-from-Fremont-to-Bakersfield/DistanceHistory/15565528.aspx"
            ]
        },
        "bakersfield": {
            "closest_to": "fremont",
            "locType": "city",
            "address": "Bakersfield, Kern County, California, United States of America",
            "latitude": "35.3738712",
            "longitude": "-119.0194638",
            "blogLinks": [
                "http://www.timeanddate.com/worldclock/distances.html?n=127",
                "http://www.distancesfrom.com/us/map-from-Fremont-to-Bakersfield/MapHistory/15565528.aspx",
                "http://www.distancesfrom.com/us/Trip-Cost-from-Bakersfield-to-Fremont/TripCostHistory/15565534.aspx",
                "http://www.distancesfrom.com/us/directions-from-Fremont-to-Bakersfield/DirectionHistory/15565528.aspx",
                "https://www.tripadvisor.com/ShowTopic-g28926-i29-k5349841-Bakersfield_to_San_Fransico_drive-California.html",
                "http://www.california-blog.com/",
                "http://www.distancesfrom.com/us/travel-from-Bakersfield-to-Fremont/TravelFromHistory/15565534.aspx",
                "https://www.distancecalculator.net/from-fremont-to-bakersfield",
                "http://www.visitbakersfield.com/visitors/",
                "http://gocalifornia.about.com/od/topcalifornia/ss/California-Weekend-Getaways-A-to-Z.htm",
                "http://www.distancesfrom.com/us/how-far-is-Bakersfield-from-Fremont/HowFarHistory/15565528.aspx",
                "http://www.distancesfrom.com/us/directions-from-Bakersfield-to-Fremont/DirectionHistory/15565534.aspx",
                "http://www.yellowpages.com/bakersfield-ca/fremont",
                "http://www.timeanddate.com/worldclock/distances.html?n=224",
                "http://www.distancesfrom.com/us/map-from-Bakersfield-to-Fremont/MapHistory/15565534.aspx",
                "http://www.distancesfrom.com/us/how-far-is-Fremont-from-Bakersfield/HowFarHistory/15565534.aspx",
                "http://www.distancesfrom.com/us/distance-from-Fremont-to-Bakersfield/DistanceHistory/15565528.aspx"
            ]
        },
        "mount san jacinto ca": {
            "closest_to": "bakersfield",
            "locType": "city",
            "address": "San Jacinto, Riverside County, California, United States of America",
            "latitude": "33.7839084",
            "longitude": "-116.9586349",
            "blogLinks": [
                "http://www.california-blog.com/"
            ]
        },
        "san bernardino": {
            "closest_to": "bakersfield",
            "locType": "city",
            "address": "San Bernardino, San Bernardino County, California, United States of America",
            "latitude": "34.1083449",
            "longitude": "-117.2897651",
            "blogLinks": [
                "http://gocalifornia.about.com/od/topcalifornia/ss/California-Weekend-Getaways-A-to-Z.htm"
            ]
        },
        "mount palomar ca": {
            "closest_to": "bakersfield",
            "locType": "bank",
            "address": "California Bank & Trust, 2501, Palomar Airport Road, Carlsbad, San Diego County, California, 92011, United States of America",
            "latitude": "33.1278146",
            "longitude": "-117.270809764613",
            "blogLinks": [
                "http://www.california-blog.com/"
            ]
        },
        "balboa peninsula": {
            "closest_to": "bakersfield",
            "locType": "suburb",
            "address": "Balboa Peninsula, Newport Beach, Orange County, California, United States of America",
            "latitude": "33.5975",
            "longitude": "-117.8860521",
            "blogLinks": [
                "http://gocalifornia.about.com/od/topcalifornia/ss/California-Weekend-Getaways-A-to-Z.htm"
            ]
        },
        "san diego.los angeles": {
            "closest_to": "bakersfield",
            "locType": "university",
            "address": "California Baptist University, Magnolia Avenue, Riverside, Riverside County, California, 92879, United States of America",
            "latitude": "33.9282867",
            "longitude": "-117.427248540447",
            "blogLinks": [
                "http://gocalifornia.about.com/od/topcalifornia/ss/California-Weekend-Getaways-A-to-Z.htm"
            ]
        },
        "mount san gorgonio ca": {
            "closest_to": "bakersfield",
            "locType": "secondary",
            "address": "San Gorgonio Avenue, Banning, Riverside County, California, 92220, United States of America",
            "latitude": "33.9121294",
            "longitude": "-116.8766731",
            "blogLinks": [
                "http://www.california-blog.com/"
            ]
        },
        "jamestown": {
            "closest_to": "fremont",
            "locType": "administrative",
            "address": "Jamestown, Golden Oaks Drive, Volponi Acres, Tuolumne County, California, 95327, United States of America",
            "latitude": "37.9588565",
            "longitude": "-120.404431068133",
            "blogLinks": [
                "https://www.tripadvisor.com/ShowTopic-g28926-i29-k5349841-Bakersfield_to_San_Fransico_drive-California.html"
            ]
        },
        "grass valley": {
            "closest_to": "fremont",
            "locType": "city",
            "address": "Grass Valley, Nevada County, California, United States of America",
            "latitude": "39.2086655",
            "longitude": "-121.053122977412",
            "blogLinks": [
                "https://www.tripadvisor.com/ShowTopic-g28926-i29-k5349841-Bakersfield_to_San_Fransico_drive-California.html"
            ]
        },
        "san francisco": {
            "closest_to": "fremont",
            "locType": "city",
            "address": "SF, California, United States of America",
            "latitude": "37.7792808",
            "longitude": "-122.4192362",
            "blogLinks": [
                "https://www.tripadvisor.com/ShowTopic-g28926-i29-k5349841-Bakersfield_to_San_Fransico_drive-California.html",
                "http://www.timeanddate.com/worldclock/distances.html?n=224",
                "http://gocalifornia.about.com/od/topcalifornia/ss/California-Weekend-Getaways-A-to-Z.htm"
            ]
        },
        "tomales bay": {
            "closest_to": "fremont",
            "locType": "path",
            "address": "Tomales Bay, Bivalve, Marin County, California, 94948, United States of America",
            "latitude": "38.0812158",
            "longitude": "-122.8225806",
            "blogLinks": [
                "http://gocalifornia.about.com/od/topcalifornia/ss/California-Weekend-Getaways-A-to-Z.htm"
            ]
        },
        "presidio": {
            "closest_to": "bakersfield",
            "locType": "residential",
            "address": "Presidio, Simi Valley, Ventura County, California, 93063, United States of America",
            "latitude": "34.299701",
            "longitude": "-118.7127949",
            "blogLinks": [
                "http://gocalifornia.about.com/od/topcalifornia/ss/California-Weekend-Getaways-A-to-Z.htm"
            ]
        },
        "' death valley": {
            "closest_to": "bakersfield",
            "locType": "desert",
            "address": "Death Valley, Timbisha, Inyo County, California, 92328, United States of America",
            "latitude": "36.42404725",
            "longitude": "-116.914043572057",
            "blogLinks": [
                "http://gocalifornia.about.com/od/topcalifornia/ss/California-Weekend-Getaways-A-to-Z.htm"
            ]
        },
        "bakersfield route": {
            "closest_to": "fremont",
            "locType": "city",
            "address": "Bakersfield, Kern County, California, United States of America",
            "latitude": "35.3738712",
            "longitude": "-119.0194638",
            "blogLinks": [
                "http://www.distancesfrom.com/us/directions-from-Fremont-to-Bakersfield/DirectionHistory/15565528.aspx"
            ]
        },
        "asilomar beach": {
            "closest_to": "fremont",
            "locType": "park",
            "address": "Asilomar State Beach, Sunset Drive, Pacific Grove, Monterey County, California, 93950, United States of America",
            "latitude": "36.6241141",
            "longitude": "-121.940055839932",
            "blogLinks": [
                "http://gocalifornia.about.com/od/topcalifornia/ss/California-Weekend-Getaways-A-to-Z.htm"
            ]
        },
        "moonstone beach": {
            "closest_to": "fremont",
            "locType": "path",
            "address": "Moonstone Beach, Cambria, San Luis Obispo County, California, CA 93428, United States of America",
            "latitude": "35.573855",
            "longitude": "-121.1128747",
            "blogLinks": [
                "http://gocalifornia.about.com/od/topcalifornia/ss/California-Weekend-Getaways-A-to-Z.htm"
            ]
        },
        "badwater": {
            "closest_to": "bakersfield",
            "locType": "locality",
            "address": "Badwater, Inyo County, California, United States of America",
            "latitude": "36.2296742",
            "longitude": "-116.7669938",
            "blogLinks": [
                "http://gocalifornia.about.com/od/topcalifornia/ss/California-Weekend-Getaways-A-to-Z.htm"
            ]
        },
        "cholame": {
            "closest_to": "fremont",
            "locType": "hamlet",
            "address": "Cholame, San Luis Obispo County, California, United States of America",
            "latitude": "35.7238556",
            "longitude": "-120.2965383",
            "blogLinks": [
                "https://www.tripadvisor.com/ShowTopic-g28926-i29-k5349841-Bakersfield_to_San_Fransico_drive-California.html"
            ]
        },
        "ontario": {
            "closest_to": "bakersfield",
            "locType": "city",
            "address": "Ontario, San Bernardino County, California, United States of America",
            "latitude": "34.065846",
            "longitude": "-117.6484303",
            "blogLinks": [
                "http://www.california-blog.com/"
            ]
        },
        "nevada": {
            "closest_to": "fremont",
            "locType": "administrative",
            "address": "Nevada County, California, United States of America",
            "latitude": "39.3540335",
            "longitude": "-120.8089842",
            "blogLinks": [
                "http://gocalifornia.about.com/od/topcalifornia/ss/California-Weekend-Getaways-A-to-Z.htm"
            ]
        },
        "shasta country": {
            "closest_to": "bakersfield",
            "locType": "residential",
            "address": "Shasta Lane, Indian Wells Country Club, Indian Wells, Riverside County, California, 92210, United States of America",
            "latitude": "33.7193126",
            "longitude": "-116.318828",
            "blogLinks": [
                "http://gocalifornia.about.com/od/topcalifornia/ss/California-Weekend-Getaways-A-to-Z.htm"
            ]
        },
        "america": {
            "closest_to": "fremont",
            "locType": "residential",
            "address": "America, Kings County, California, 93246, United States of America",
            "latitude": "36.2573198",
            "longitude": "-119.8948706",
            "blogLinks": [
                "http://gocalifornia.about.com/od/topcalifornia/ss/California-Weekend-Getaways-A-to-Z.htm"
            ]
        },
        "monastery beach": {
            "closest_to": "fremont",
            "locType": "beach",
            "address": "Monastery Beach, Cabrillo Highway, Carmel Highlands, Monterey County, California, 93923, United States of America",
            "latitude": "36.5243631",
            "longitude": "-121.9257984755",
            "blogLinks": [
                "http://gocalifornia.about.com/od/topcalifornia/ss/California-Weekend-Getaways-A-to-Z.htm"
            ]
        },
        "redondo": {
            "closest_to": "bakersfield",
            "locType": "residential",
            "address": "El Redondo, Redondo Beach, Los Angeles County, California, 90277, United States of America",
            "latitude": "33.8431924",
            "longitude": "-118.3846996",
            "blogLinks": [
                "http://gocalifornia.about.com/od/topcalifornia/ss/California-Weekend-Getaways-A-to-Z.htm"
            ]
        },
        "lake san antonio": {
            "closest_to": "fremont",
            "locType": "water",
            "address": "Lake San Antonio, Lynch Road, Pleyto, Monterey County, California, 93426, United States of America",
            "latitude": "35.84337785",
            "longitude": "-120.959199367235",
            "blogLinks": [
                "http://gocalifornia.about.com/od/topcalifornia/ss/California-Weekend-Getaways-A-to-Z.htm"
            ]
        },
        "redondo beach": {
            "closest_to": "bakersfield",
            "locType": "city",
            "address": "Redondo Beach, Los Angeles County, California, United States of America",
            "latitude": "33.8455911",
            "longitude": "-118.3886765",
            "blogLinks": [
                "http://gocalifornia.about.com/od/topcalifornia/ss/California-Weekend-Getaways-A-to-Z.htm"
            ]
        },
        "shaver lake": {
            "closest_to": "fremont",
            "locType": "administrative",
            "address": "Shaver Lake, Huntington Lake Road, Rock Haven, Fresno County, California, 93664, United States of America",
            "latitude": "37.09684",
            "longitude": "-119.320258225573",
            "blogLinks": [
                "https://www.tripadvisor.com/ShowTopic-g28926-i29-k5349841-Bakersfield_to_San_Fransico_drive-California.html"
            ]
        },
        "point lobos": {
            "closest_to": "fremont",
            "locType": "service",
            "address": "Point Lobos, Carmel Highlands, Monterey County, California, 93921, United States of America",
            "latitude": "36.5157454",
            "longitude": "-121.946368069847",
            "blogLinks": [
                "http://gocalifornia.about.com/od/topcalifornia/ss/California-Weekend-Getaways-A-to-Z.htm"
            ]
        },
        "palos verdes peninsula ca": {
            "closest_to": "bakersfield",
            "locType": "school",
            "address": "Palos Verdes Peninsula High School, Hawthorne Boulevard, Rolling Hills Estates, Los Angeles County, California, 90274, United States of America",
            "latitude": "33.77984925",
            "longitude": "-118.372196730215",
            "blogLinks": [
                "http://www.california-blog.com/"
            ]
        },
        "los gatos": {
            "closest_to": "fremont",
            "locType": "administrative",
            "address": "Los Gatos, Santa Clara County, California, United States of America",
            "latitude": "37.226611",
            "longitude": "-121.9746796",
            "blogLinks": [
                "http://gocalifornia.about.com/od/topcalifornia/ss/California-Weekend-Getaways-A-to-Z.htm"
            ]
        },
        "sebastopol": {
            "closest_to": "fremont",
            "locType": "city",
            "address": "Sebastopol, Sonoma County, California, United States of America",
            "latitude": "38.4021359",
            "longitude": "-122.8238805",
            "blogLinks": [
                "http://gocalifornia.about.com/od/topcalifornia/ss/California-Weekend-Getaways-A-to-Z.htm"
            ]
        },
        "pacific": {
            "closest_to": "fremont",
            "locType": "hamlet",
            "address": "Pacific, El Dorado County, California, United States of America",
            "latitude": "38.7601815",
            "longitude": "-120.507146",
            "blogLinks": [
                "http://gocalifornia.about.com/od/topcalifornia/ss/California-Weekend-Getaways-A-to-Z.htm"
            ]
        },
        "theater.la jolla": {
            "closest_to": "bakersfield",
            "locType": "neighbourhood",
            "address": "Theater District, La Jolla, San Diego, San Diego County, California, 92037, United States of America",
            "latitude": "32.8714796",
            "longitude": "-117.24078452988",
            "blogLinks": [
                "http://gocalifornia.about.com/od/topcalifornia/ss/California-Weekend-Getaways-A-to-Z.htm"
            ]
        },
        "yosemite": {
            "closest_to": "fremont",
            "locType": "attraction",
            "address": "Yosemite, Village Drive, Yosemite Village, Yosemite Valley, Mariposa County, California, United States of America",
            "latitude": "37.7488554",
            "longitude": "-119.5893389",
            "blogLinks": [
                "https://www.tripadvisor.com/ShowTopic-g28926-i29-k5349841-Bakersfield_to_San_Fransico_drive-California.html"
            ]
        },
        "hollywood bowl": {
            "closest_to": "bakersfield",
            "locType": "theatre",
            "address": "Hollywood Bowl, Los Tilos Road, Whitley Heights, LA, Los Angeles County, California, 90068, United States of America",
            "latitude": "34.1121836",
            "longitude": "-118.339277261641",
            "blogLinks": [
                "http://gocalifornia.about.com/od/topcalifornia/ss/California-Weekend-Getaways-A-to-Z.htm"
            ]
        },
        "ca": {
            "closest_to": "fremont",
            "locType": "postcode",
            "address": "Piedmont, Alameda County, California, ca, United States of America",
            "latitude": "37.8242285466918",
            "longitude": "-122.232613735941",
            "blogLinks": [
                "http://www.distancesfrom.com/us/map-from-Fremont-to-Bakersfield/MapHistory/15565528.aspx",
                "http://www.distancesfrom.com/us/Trip-Cost-from-Bakersfield-to-Fremont/TripCostHistory/15565534.aspx",
                "http://www.distancesfrom.com/us/directions-from-Fremont-to-Bakersfield/DirectionHistory/15565528.aspx",
                "http://www.distancesfrom.com/us/travel-from-Bakersfield-to-Fremont/TravelFromHistory/15565534.aspx",
                "http://www.distancesfrom.com/us/how-far-is-Bakersfield-from-Fremont/HowFarHistory/15565528.aspx",
                "http://www.distancesfrom.com/us/directions-from-Bakersfield-to-Fremont/DirectionHistory/15565534.aspx",
                "http://www.distancesfrom.com/us/map-from-Bakersfield-to-Fremont/MapHistory/15565534.aspx",
                "http://www.distancesfrom.com/us/how-far-is-Fremont-from-Bakersfield/HowFarHistory/15565534.aspx",
                "http://www.distancesfrom.com/us/distance-from-Fremont-to-Bakersfield/DistanceHistory/15565528.aspx"
            ]
        },
        "mariposa": {
            "closest_to": "fremont",
            "locType": "administrative",
            "address": "Mariposa County, California, United States of America",
            "latitude": "37.570148",
            "longitude": "-119.9036591",
            "blogLinks": [
                "https://www.tripadvisor.com/ShowTopic-g28926-i29-k5349841-Bakersfield_to_San_Fransico_drive-California.html"
            ]
        },
        "morro bay": {
            "closest_to": "fremont",
            "locType": "city",
            "address": "Morro Bay, San Luis Obispo County, California, United States of America",
            "latitude": "35.3658075",
            "longitude": "-120.8499012",
            "blogLinks": [
                "http://gocalifornia.about.com/od/topcalifornia/ss/California-Weekend-Getaways-A-to-Z.htm"
            ]
        },
        "natural bridge.santa cruz": {
            "closest_to": "fremont",
            "locType": "parking",
            "address": "Lookout Parking, Crespi Court, Westside, Santa Cruz, Santa Cruz County, California, 95060, United States of America",
            "latitude": "36.9495007",
            "longitude": "-122.056642291684",
            "blogLinks": [
                "http://gocalifornia.about.com/od/topcalifornia/ss/California-Weekend-Getaways-A-to-Z.htm"
            ]
        },
        "sonoma": {
            "closest_to": "fremont",
            "locType": "administrative",
            "address": "Sonoma County, California, United States of America",
            "latitude": "38.5110803",
            "longitude": "-122.8473387",
            "blogLinks": [
                "http://gocalifornia.about.com/od/topcalifornia/ss/California-Weekend-Getaways-A-to-Z.htm"
            ]
        },
        "morro rock": {
            "closest_to": "fremont",
            "locType": "peak",
            "address": "Morro Rock, Morro Bay, San Luis Obispo County, California, United States of America",
            "latitude": "35.369669",
            "longitude": "-120.8676993",
            "blogLinks": [
                "http://gocalifornia.about.com/od/topcalifornia/ss/California-Weekend-Getaways-A-to-Z.htm"
            ]
        },
        "mono lake ca": {
            "closest_to": "fremont",
            "locType": "water",
            "address": "Mono Lake, Mono County, California, United States of America",
            "latitude": "38.0077189",
            "longitude": "-118.967033937845",
            "blogLinks": [
                "http://www.california-blog.com/"
            ]
        },
        "monterey aquarium": {
            "closest_to": "fremont",
            "locType": "aquarium",
            "address": "MBA, 886, Cannery Row, Monterey, Monterey County, California, 93940, United States of America",
            "latitude": "36.61809095",
            "longitude": "-121.901680002002",
            "blogLinks": [
                "https://www.tripadvisor.com/ShowTopic-g28926-i29-k5349841-Bakersfield_to_San_Fransico_drive-California.html"
            ]
        },
        "russian river": {
            "closest_to": "fremont",
            "locType": "river",
            "address": "Russian River, Sonoma County, California, United States of America",
            "latitude": "38.4825985",
            "longitude": "-123.0082118",
            "blogLinks": [
                "http://gocalifornia.about.com/od/topcalifornia/ss/California-Weekend-Getaways-A-to-Z.htm"
            ]
        },
        "morongo valley": {
            "closest_to": "bakersfield",
            "locType": "administrative",
            "address": "Morongo Valley, Vista Drive, Morongo Valley, San Bernardino County, California, 92256, United States of America",
            "latitude": "34.0537585",
            "longitude": "-116.596723958419",
            "blogLinks": [
                "http://www.california-blog.com/"
            ]
        },
        "monrovia": {
            "closest_to": "bakersfield",
            "locType": "city",
            "address": "Monrovia, Los Angeles County, California, United States of America",
            "latitude": "34.1483499",
            "longitude": "-118.0014516",
            "blogLinks": [
                "http://www.california-blog.com/"
            ]
        },
        "riverside national cemetery": {
            "closest_to": "bakersfield",
            "locType": "cemetery",
            "address": "Riverside National Cemetery, 22495, Alessandro, Riverside County, California, 92518, United States of America",
            "latitude": "33.87692125",
            "longitude": "-117.270726607134",
            "blogLinks": [
                "http://www.california-blog.com/"
            ]
        },
        "carmel": {
            "closest_to": "fremont",
            "locType": "residential",
            "address": "Carmel, Roseville, Placer County, California, 95747, United States of America",
            "latitude": "38.75511285",
            "longitude": "-121.353308848273",
            "blogLinks": [
                "http://gocalifornia.about.com/od/topcalifornia/ss/California-Weekend-Getaways-A-to-Z.htm"
            ]
        },
        "santa cruz": {
            "closest_to": "fremont",
            "locType": "city",
            "address": "Santa Cruz, Santa Cruz County, California, United States of America",
            "latitude": "36.9735903",
            "longitude": "-122.0260569",
            "blogLinks": [
                "https://www.tripadvisor.com/ShowTopic-g28926-i29-k5349841-Bakersfield_to_San_Fransico_drive-California.html",
                "http://gocalifornia.about.com/od/topcalifornia/ss/California-Weekend-Getaways-A-to-Z.htm"
            ]
        },
        "sonora": {
            "closest_to": "fremont",
            "locType": "city",
            "address": "Sonora, Tuolumne County, California, United States of America",
            "latitude": "37.9840911",
            "longitude": "-120.382138",
            "blogLinks": [
                "https://www.tripadvisor.com/ShowTopic-g28926-i29-k5349841-Bakersfield_to_San_Fransico_drive-California.html"
            ]
        },
        "sierra nevada": {
            "closest_to": "fremont",
            "locType": "residential",
            "address": "Sierra, Wolf, Nevada County, California, 95949, United States of America",
            "latitude": "39.097593",
            "longitude": "-121.1396689",
            "blogLinks": [
                "https://www.tripadvisor.com/ShowTopic-g28926-i29-k5349841-Bakersfield_to_San_Fransico_drive-California.html"
            ]
        },
        "old town": {
            "closest_to": "bakersfield",
            "locType": "locality",
            "address": "Old Town, Golden Hills, Kern County, California, United States of America",
            "latitude": "35.142943",
            "longitude": "-118.4954422",
            "blogLinks": [
                "http://gocalifornia.about.com/od/topcalifornia/ss/California-Weekend-Getaways-A-to-Z.htm"
            ]
        },
        "mojave desert ca": {
            "closest_to": "bakersfield",
            "locType": "desert",
            "address": "Mojave Desert, Utility Road, San Bernardino County, California, United States of America",
            "latitude": "35.1456319",
            "longitude": "-115.548963686646",
            "blogLinks": [
                "http://www.california-blog.com/"
            ]
        },
        "san jose": {
            "closest_to": "fremont",
            "locType": "city",
            "address": "San Jos\u00e9, Santa Clara County, California, United States of America",
            "latitude": "37.3361905",
            "longitude": "-121.8905832",
            "blogLinks": [
                "http://www.distancesfrom.com/us/how-far-is-Bakersfield-from-Fremont/HowFarHistory/15565528.aspx",
                "http://gocalifornia.about.com/od/topcalifornia/ss/California-Weekend-Getaways-A-to-Z.htm"
            ]
        },
        "pacific grove": {
            "closest_to": "fremont",
            "locType": "city",
            "address": "Pacific Grove, Monterey County, California, United States of America",
            "latitude": "36.6174432",
            "longitude": "-121.9155905",
            "blogLinks": [
                "http://gocalifornia.about.com/od/topcalifornia/ss/California-Weekend-Getaways-A-to-Z.htm"
            ]
        },
        "monterey bay aquarium": {
            "closest_to": "fremont",
            "locType": "aquarium",
            "address": "MBA, 886, Cannery Row, Monterey, Monterey County, California, 93940, United States of America",
            "latitude": "36.61809095",
            "longitude": "-121.901680002002",
            "blogLinks": [
                "http://gocalifornia.about.com/od/topcalifornia/ss/California-Weekend-Getaways-A-to-Z.htm"
            ]
        },
        "sierra camp": {
            "closest_to": "fremont",
            "locType": "hamlet",
            "address": "Camp Sierra, Fresno County, California, United States of America",
            "latitude": "37.1905014",
            "longitude": "-119.2598455",
            "blogLinks": [
                "http://gocalifornia.about.com/od/topcalifornia/ss/California-Weekend-Getaways-A-to-Z.htm"
            ]
        },
        "reno/tahoe": {
            "closest_to": "fremont",
            "locType": "residential",
            "address": "Reno Avenue, South Lake Tahoe, El Dorado County, California, 96150, United States of America",
            "latitude": "38.9228218",
            "longitude": "-119.9810715",
            "blogLinks": [
                "http://gocalifornia.about.com/od/topcalifornia/ss/California-Weekend-Getaways-A-to-Z.htm"
            ]
        },
        "salinas": {
            "closest_to": "fremont",
            "locType": "city",
            "address": "Salinas, Monterey County, California, United States of America",
            "latitude": "36.6744117",
            "longitude": "-121.6550371",
            "blogLinks": [
                "https://www.tripadvisor.com/ShowTopic-g28926-i29-k5349841-Bakersfield_to_San_Fransico_drive-California.html"
            ]
        },
        "monterey peninsula": {
            "closest_to": "fremont",
            "locType": "aerodrome",
            "address": "Monterey Regional Airport, Airport Road, Seaside, Del Monte Heights, Monterey County, California, 93940, United States of America",
            "latitude": "36.5878734",
            "longitude": "-121.843618374407",
            "blogLinks": [
                "http://gocalifornia.about.com/od/topcalifornia/ss/California-Weekend-Getaways-A-to-Z.htm"
            ]
        },
        "mendocino botanical garden": {
            "closest_to": "fremont",
            "locType": "garden",
            "address": "Mendocino Coast Botanical Gardens, 18220, Shore Trail, Noyo, Mendocino County, California, 95420, United States of America",
            "latitude": "39.4083606",
            "longitude": "-123.815650611292",
            "blogLinks": [
                "http://gocalifornia.about.com/od/topcalifornia/ss/California-Weekend-Getaways-A-to-Z.htm"
            ]
        },
        "sierras": {
            "closest_to": "fremont",
            "locType": "residential",
            "address": "The Sierras Apartments, Winton, Merced County, California, 95388, United States of America",
            "latitude": "37.39153875",
            "longitude": "-120.612206560096",
            "blogLinks": [
                "http://gocalifornia.about.com/od/topcalifornia/ss/California-Weekend-Getaways-A-to-Z.htm"
            ]
        },
        "beverly hills": {
            "closest_to": "bakersfield",
            "locType": "city",
            "address": "Beverly Hills, Los Angeles County, California, United States of America",
            "latitude": "34.0736204",
            "longitude": "-118.4003562",
            "blogLinks": [
                "http://gocalifornia.about.com/od/topcalifornia/ss/California-Weekend-Getaways-A-to-Z.htm"
            ]
        },
        "angels camp": {
            "closest_to": "fremont",
            "locType": "village",
            "address": "Angels Camp, Calaveras County, California, United States of America",
            "latitude": "38.0682555",
            "longitude": "-120.5396455",
            "blogLinks": [
                "https://www.tripadvisor.com/ShowTopic-g28926-i29-k5349841-Bakersfield_to_San_Fransico_drive-California.html"
            ]
        },
        "tehachapi": {
            "closest_to": "bakersfield",
            "locType": "administrative",
            "address": "Tehachapi, Kern County, California, United States of America",
            "latitude": "35.1321878",
            "longitude": "-118.4489738",
            "blogLinks": [
                "http://www.yellowpages.com/bakersfield-ca/fremont"
            ]
        },
        "santa cruz mountains": {
            "closest_to": "fremont",
            "locType": "mountain_range",
            "address": "Santa Cruz Mountains, Santa Clara County, California, United States of America",
            "latitude": "37.2188403",
            "longitude": "-122.0712855",
            "blogLinks": [
                "http://gocalifornia.about.com/od/topcalifornia/ss/California-Weekend-Getaways-A-to-Z.htm"
            ]
        },
        "north lake ca": {
            "closest_to": "fremont",
            "locType": "water",
            "address": "North Lake, Chain of Lakes Drive East, Sunset District, SF, California, 94122, United States of America",
            "latitude": "37.76958295",
            "longitude": "-122.501983281136",
            "blogLinks": [
                "http://www.california-blog.com/"
            ]
        },
        "usa": {
            "closest_to": "fremont",
            "locType": "administrative",
            "address": "California, United States of America",
            "latitude": "36.7014631",
            "longitude": "-118.7559973",
            "blogLinks": [
                "http://www.distancesfrom.com/us/map-from-Fremont-to-Bakersfield/MapHistory/15565528.aspx",
                "http://www.distancesfrom.com/us/Trip-Cost-from-Bakersfield-to-Fremont/TripCostHistory/15565534.aspx",
                "http://www.distancesfrom.com/us/directions-from-Fremont-to-Bakersfield/DirectionHistory/15565528.aspx",
                "http://www.distancesfrom.com/us/travel-from-Bakersfield-to-Fremont/TravelFromHistory/15565534.aspx",
                "http://www.distancesfrom.com/us/how-far-is-Bakersfield-from-Fremont/HowFarHistory/15565528.aspx",
                "http://www.distancesfrom.com/us/directions-from-Bakersfield-to-Fremont/DirectionHistory/15565534.aspx",
                "http://www.distancesfrom.com/us/map-from-Bakersfield-to-Fremont/MapHistory/15565534.aspx",
                "http://www.distancesfrom.com/us/how-far-is-Fremont-from-Bakersfield/HowFarHistory/15565534.aspx",
                "http://www.distancesfrom.com/us/distance-from-Fremont-to-Bakersfield/DistanceHistory/15565528.aspx"
            ]
        },
        "sequoia national park": {
            "closest_to": "fremont",
            "locType": "national_park",
            "address": "Sequoia National Park, Black Rock Pass Trail, Mineral King, Tulare County, California, United States of America",
            "latitude": "36.49584065",
            "longitude": "-118.559919284386",
            "blogLinks": [
                "http://gocalifornia.about.com/od/topcalifornia/ss/California-Weekend-Getaways-A-to-Z.htm"
            ]
        },
        "mission soledad": {
            "closest_to": "fremont",
            "locType": "place_of_worship",
            "address": "Mission Soledad, 36641, Fort Romie Road, Los Coche Adobe, Fort Romie, Monterey County, California, 93960, United States of America",
            "latitude": "36.4046865",
            "longitude": "-121.3560421",
            "blogLinks": [
                "https://www.tripadvisor.com/ShowTopic-g28926-i29-k5349841-Bakersfield_to_San_Fransico_drive-California.html"
            ]
        },
        "lake county": {
            "closest_to": "fremont",
            "locType": "administrative",
            "address": "Lake County, California, United States of America",
            "latitude": "39.0505411",
            "longitude": "-122.7776555",
            "blogLinks": [
                "http://gocalifornia.about.com/od/topcalifornia/ss/California-Weekend-Getaways-A-to-Z.htm"
            ]
        },
        "chinatown.los angeles": {
            "closest_to": "bakersfield",
            "locType": "station",
            "address": "Chinatown, College Street, Naud Junction, Little Tokyo Historic District, LA, Los Angeles County, California, 90012, United States of America",
            "latitude": "34.0638128",
            "longitude": "-118.2359234",
            "blogLinks": [
                "http://gocalifornia.about.com/od/topcalifornia/ss/California-Weekend-Getaways-A-to-Z.htm"
            ]
        },
        "mission bay ca": {
            "closest_to": "fremont",
            "locType": "neighbourhood",
            "address": "Mission Bay, SF, California, 94158, United States of America",
            "latitude": "37.7707742",
            "longitude": "-122.3911711",
            "blogLinks": [
                "http://www.california-blog.com/"
            ]
        },
        "california highway one": {
            "closest_to": "fremont",
            "locType": "yes",
            "address": "One California Street Building, 1, California Street, Financial District, SF, California, 94121, United States of America",
            "latitude": "37.7931799",
            "longitude": "-122.397168822203",
            "blogLinks": [
                "http://gocalifornia.about.com/od/topcalifornia/ss/California-Weekend-Getaways-A-to-Z.htm"
            ]
        },
        "fresno": {
            "closest_to": "fremont",
            "locType": "city",
            "address": "Fresno, Fresno County, California, United States of America",
            "latitude": "36.748793",
            "longitude": "-119.714839601149",
            "blogLinks": [
                "https://www.tripadvisor.com/ShowTopic-g28926-i29-k5349841-Bakersfield_to_San_Fransico_drive-California.html",
                "http://gocalifornia.about.com/od/topcalifornia/ss/California-Weekend-Getaways-A-to-Z.htm"
            ]
        },
        "hollywood": {
            "closest_to": "bakersfield",
            "locType": "suburb",
            "address": "Hollywood, LA, Los Angeles County, California, United States of America",
            "latitude": "34.1028268",
            "longitude": "-118.3299898",
            "blogLinks": [
                "http://gocalifornia.about.com/od/topcalifornia/ss/California-Weekend-Getaways-A-to-Z.htm"
            ]
        },
        "santa ynez valley": {
            "closest_to": "bakersfield",
            "locType": "administrative",
            "address": "Santa Ynez, Stadium Place, Santa Ynez, Santa Barbara County, California, 93463, United States of America",
            "latitude": "34.608637",
            "longitude": "-120.104677321497",
            "blogLinks": [
                "http://gocalifornia.about.com/od/topcalifornia/ss/California-Weekend-Getaways-A-to-Z.htm"
            ]
        },
        "jolon": {
            "closest_to": "fremont",
            "locType": "hamlet",
            "address": "Jolon, Monterey County, California, United States of America",
            "latitude": "35.9708004",
            "longitude": "-121.1760321",
            "blogLinks": [
                "https://www.tripadvisor.com/ShowTopic-g28926-i29-k5349841-Bakersfield_to_San_Fransico_drive-California.html"
            ]
        },
        "pinecrest": {
            "closest_to": "fremont",
            "locType": "hamlet",
            "address": "Pinecrest, Nevada County, California, United States of America",
            "latitude": "39.1626734",
            "longitude": "-120.9682776",
            "blogLinks": [
                "https://www.tripadvisor.com/ShowTopic-g28926-i29-k5349841-Bakersfield_to_San_Fransico_drive-California.html"
            ]
        },
        "healdsburg": {
            "closest_to": "fremont",
            "locType": "city",
            "address": "Healdsburg, Sonoma County, California, United States of America",
            "latitude": "38.6106812",
            "longitude": "-122.8701379",
            "blogLinks": [
                "http://gocalifornia.about.com/od/topcalifornia/ss/California-Weekend-Getaways-A-to-Z.htm"
            ]
        },
        "old town san diego": {
            "closest_to": "bakersfield",
            "locType": "hamlet",
            "address": "Old Town San Diego, San Diego County, California, United States of America",
            "latitude": "32.7542167",
            "longitude": "-117.1969792",
            "blogLinks": [
                "http://www.california-blog.com/"
            ]
        },
        "kern county": {
            "closest_to": "bakersfield",
            "locType": "administrative",
            "address": "Kern County, California, United States of America",
            "latitude": "35.3145701",
            "longitude": "-118.7538221",
            "blogLinks": [
                "http://www.visitbakersfield.com/visitors/"
            ]
        },
        "mount lassen": {
            "closest_to": "fremont",
            "locType": "peak",
            "address": "Lassen Peak, Shasta County, California, United States of America",
            "latitude": "40.4881308",
            "longitude": "-121.5049199",
            "blogLinks": [
                "http://gocalifornia.about.com/od/topcalifornia/ss/California-Weekend-Getaways-A-to-Z.htm"
            ]
        },
        "us": {
            "closest_to": "fremont",
            "locType": "administrative",
            "address": "California, United States of America",
            "latitude": "36.7014631",
            "longitude": "-118.7559973",
            "blogLinks": [
                "https://www.tripadvisor.com/ShowTopic-g28926-i29-k5349841-Bakersfield_to_San_Fransico_drive-California.html",
                "http://distancecalculator.globefeed.com/US_Distance_Calculator.asp?state=CA",
                "http://gocalifornia.about.com/od/topcalifornia/ss/California-Weekend-Getaways-A-to-Z.htm",
                "http://www.yellowpages.com/bakersfield-ca/fremont"
            ]
        },
        "lake tahoe": {
            "closest_to": "fremont",
            "locType": "water",
            "address": "Lake Tahoe, Placer County, California, United States of America",
            "latitude": "39.0888982",
            "longitude": "-120.050511752934",
            "blogLinks": [
                "http://gocalifornia.about.com/od/topcalifornia/ss/California-Weekend-Getaways-A-to-Z.htm"
            ]
        },
        "sacramento": {
            "closest_to": "fremont",
            "locType": "city",
            "address": "Sacramento, Sacramento County, California, United States of America",
            "latitude": "38.5815719",
            "longitude": "-121.4943995",
            "blogLinks": [
                "http://gocalifornia.about.com/od/topcalifornia/ss/California-Weekend-Getaways-A-to-Z.htm"
            ]
        },
        "nevada city": {
            "closest_to": "fremont",
            "locType": "city",
            "address": "Nevada City, Nevada County, California, United States of America",
            "latitude": "39.2615606",
            "longitude": "-121.0160593",
            "blogLinks": [
                "https://www.tripadvisor.com/ShowTopic-g28926-i29-k5349841-Bakersfield_to_San_Fransico_drive-California.html"
            ]
        },
        "cities.long beach": {
            "closest_to": "bakersfield",
            "locType": "yes",
            "address": "Gateway Cities Council, Jackson Street, Paramount, Los Angeles County, California, 90723, United States of America",
            "latitude": "33.8851632",
            "longitude": "-118.160416016831",
            "blogLinks": [
                "http://gocalifornia.about.com/od/topcalifornia/ss/California-Weekend-Getaways-A-to-Z.htm"
            ]
        },
        "santa barbara": {
            "closest_to": "bakersfield",
            "locType": "city",
            "address": "Santa Barbara, Santa Barbara County, California, United States of America",
            "latitude": "34.4221319",
            "longitude": "-119.7026672",
            "blogLinks": [
                "http://gocalifornia.about.com/od/topcalifornia/ss/California-Weekend-Getaways-A-to-Z.htm"
            ]
        },
        "san juan bautista": {
            "closest_to": "fremont",
            "locType": "city",
            "address": "San Juan Bautista, San Benito County, California, United States of America",
            "latitude": "36.8455173",
            "longitude": "-121.5379893",
            "blogLinks": [
                "https://www.tripadvisor.com/ShowTopic-g28926-i29-k5349841-Bakersfield_to_San_Fransico_drive-California.html"
            ]
        },
        "palm springs": {
            "closest_to": "bakersfield",
            "locType": "city",
            "address": "Palm Springs, Riverside County, California, United States of America",
            "latitude": "33.8246269",
            "longitude": "-116.5403029",
            "blogLinks": [
                "http://gocalifornia.about.com/od/topcalifornia/ss/California-Weekend-Getaways-A-to-Z.htm"
            ]
        },
        "laguna beach": {
            "closest_to": "bakersfield",
            "locType": "city",
            "address": "Laguna Beach, Orange County, California, United States of America",
            "latitude": "33.5420888",
            "longitude": "-117.7834146",
            "blogLinks": [
                "http://gocalifornia.about.com/od/topcalifornia/ss/California-Weekend-Getaways-A-to-Z.htm"
            ]
        },
        "newport beach ca": {
            "closest_to": "bakersfield",
            "locType": "city",
            "address": "Newport Beach, Orange County, California, United States of America",
            "latitude": "33.6170092",
            "longitude": "-117.92944",
            "blogLinks": [
                "http://www.california-blog.com/"
            ]
        },
        "san simeon": {
            "closest_to": "fremont",
            "locType": "hamlet",
            "address": "San Simeon, San Luis Obispo County, California, United States of America",
            "latitude": "35.6438587",
            "longitude": "-121.1907532",
            "blogLinks": [
                "https://www.tripadvisor.com/ShowTopic-g28926-i29-k5349841-Bakersfield_to_San_Fransico_drive-California.html"
            ]
        },
        "pacific ocean": {
            "closest_to": "fremont",
            "locType": "cliff",
            "address": "Pacific Ocean, Cabrillo Highway, Monterey County, California, 93920, United States of America",
            "latitude": "36.16305775",
            "longitude": "-121.678715787326",
            "blogLinks": [
                "http://gocalifornia.about.com/od/topcalifornia/ss/California-Weekend-Getaways-A-to-Z.htm"
            ]
        },
        "calistoga": {
            "closest_to": "fremont",
            "locType": "city",
            "address": "Calistoga, Napa County, California, United States of America",
            "latitude": "38.582615",
            "longitude": "-122.583325948608",
            "blogLinks": [
                "http://gocalifornia.about.com/od/topcalifornia/ss/California-Weekend-Getaways-A-to-Z.htm"
            ]
        },
        "national park": {
            "closest_to": "fremont",
            "locType": "attraction",
            "address": "Yosemite, Village Drive, Yosemite Village, Yosemite Valley, Mariposa County, California, United States of America",
            "latitude": "37.7488554",
            "longitude": "-119.5893389",
            "blogLinks": [
                "http://gocalifornia.about.com/od/topcalifornia/ss/California-Weekend-Getaways-A-to-Z.htm"
            ]
        },
        "pasadena": {
            "closest_to": "bakersfield",
            "locType": "city",
            "address": "Pasadena, Los Angeles County, California, United States of America",
            "latitude": "34.1476452",
            "longitude": "-118.1444778",
            "blogLinks": [
                "http://gocalifornia.about.com/od/topcalifornia/ss/California-Weekend-Getaways-A-to-Z.htm"
            ]
        },
        "mount baldy ca": {
            "closest_to": "bakersfield",
            "locType": "hamlet",
            "address": "Mount Baldy, Los Angeles County, California, United States of America",
            "latitude": "34.2361168",
            "longitude": "-117.6600552",
            "blogLinks": [
                "http://www.california-blog.com/"
            ]
        },
        "modesto": {
            "closest_to": "fremont",
            "locType": "city",
            "address": "Modesto, Stanislaus County, California, United States of America",
            "latitude": "37.6390972",
            "longitude": "-120.9968781",
            "blogLinks": [
                "http://gocalifornia.about.com/od/topcalifornia/ss/California-Weekend-Getaways-A-to-Z.htm"
            ]
        },
        "delano": {
            "closest_to": "fremont",
            "locType": "administrative",
            "address": "Delano, Kern County, California, United States of America",
            "latitude": "35.7688425",
            "longitude": "-119.2470535",
            "blogLinks": [
                "http://www.yellowpages.com/bakersfield-ca/fremont"
            ]
        },
        "long beach": {
            "closest_to": "bakersfield",
            "locType": "city",
            "address": "Long Beach, Los Angeles County, California, United States of America",
            "latitude": "33.78538945",
            "longitude": "-118.158049215311",
            "blogLinks": [
                "http://gocalifornia.about.com/od/topcalifornia/ss/California-Weekend-Getaways-A-to-Z.htm"
            ]
        },
        "santa rosa": {
            "closest_to": "fremont",
            "locType": "city",
            "address": "Santa Rosa, Sonoma County, California, United States of America",
            "latitude": "38.4404675",
            "longitude": "-122.7144313",
            "blogLinks": [
                "http://gocalifornia.about.com/od/topcalifornia/ss/California-Weekend-Getaways-A-to-Z.htm"
            ]
        },
        "king city": {
            "closest_to": "fremont",
            "locType": "city",
            "address": "King City, Monterey County, California, United States of America",
            "latitude": "36.2127439",
            "longitude": "-121.1260286",
            "blogLinks": [
                "https://www.tripadvisor.com/ShowTopic-g28926-i29-k5349841-Bakersfield_to_San_Fransico_drive-California.html"
            ]
        },
        "morro bay ca": {
            "closest_to": "fremont",
            "locType": "city",
            "address": "Morro Bay, San Luis Obispo County, California, United States of America",
            "latitude": "35.3658075",
            "longitude": "-120.8499012",
            "blogLinks": [
                "http://www.california-blog.com/"
            ]
        },
        "united states": {
            "closest_to": "fremont",
            "locType": "administrative",
            "address": "California, United States of America",
            "latitude": "36.7014631",
            "longitude": "-118.7559973",
            "blogLinks": [
                "https://www.distancecalculator.net/from-fremont-to-bakersfield",
                "https://www.tripadvisor.com/Attractions-g32037-Activities-Bakersfield_California.html",
                "http://gocalifornia.about.com/od/topcalifornia/ss/California-Weekend-Getaways-A-to-Z.htm"
            ]
        },
        "monterey peninsula ca": {
            "closest_to": "fremont",
            "locType": "aerodrome",
            "address": "Monterey Regional Airport, Airport Road, Seaside, Del Monte Heights, Monterey County, California, 93940, United States of America",
            "latitude": "36.5878734",
            "longitude": "-121.843618374407",
            "blogLinks": [
                "http://www.california-blog.com/"
            ]
        },
        "mendocino": {
            "closest_to": "fremont",
            "locType": "administrative",
            "address": "Mendocino County, California, United States of America",
            "latitude": "39.3176491",
            "longitude": "-123.4126398",
            "blogLinks": [
                "http://gocalifornia.about.com/od/topcalifornia/ss/California-Weekend-Getaways-A-to-Z.htm"
            ]
        },
        "monterey bay aquarium ca": {
            "closest_to": "fremont",
            "locType": "aquarium",
            "address": "MBA, 886, Cannery Row, Monterey, Monterey County, California, 93940, United States of America",
            "latitude": "36.61809095",
            "longitude": "-121.901680002002",
            "blogLinks": [
                "http://www.california-blog.com/"
            ]
        },
        "monterey": {
            "closest_to": "fremont",
            "locType": "city",
            "address": "Monterey, Monterey County, California, United States of America",
            "latitude": "36.5844165",
            "longitude": "-121.866792846206",
            "blogLinks": [
                "https://www.tripadvisor.com/ShowTopic-g28926-i29-k5349841-Bakersfield_to_San_Fransico_drive-California.html",
                "http://gocalifornia.about.com/od/topcalifornia/ss/California-Weekend-Getaways-A-to-Z.htm"
            ]
        },
        "los angeles": {
            "closest_to": "bakersfield",
            "locType": "city",
            "address": "LA, Los Angeles County, California, United States of America",
            "latitude": "34.0543942",
            "longitude": "-118.2439408",
            "blogLinks": [
                "https://www.tripadvisor.com/ShowTopic-g28926-i29-k5349841-Bakersfield_to_San_Fransico_drive-California.html",
                "http://gocalifornia.about.com/od/topcalifornia/ss/California-Weekend-Getaways-A-to-Z.htm"
            ]
        },
        "burbank": {
            "closest_to": "bakersfield",
            "locType": "city",
            "address": "Burbank, Los Angeles County, California, United States of America",
            "latitude": "34.1816482",
            "longitude": "-118.3258553",
            "blogLinks": [
                "http://gocalifornia.about.com/od/topcalifornia/ss/California-Weekend-Getaways-A-to-Z.htm"
            ]
        },
        "big sur coast": {
            "closest_to": "fremont",
            "locType": "art",
            "address": "Coast Gallery Big Sur, Cabrillo Highway, Posts, Monterey County, California, 93920, United States of America",
            "latitude": "36.2019303",
            "longitude": "-121.7255471",
            "blogLinks": [
                "http://gocalifornia.about.com/od/topcalifornia/ss/California-Weekend-Getaways-A-to-Z.htm"
            ]
        },
        "classic california": {
            "closest_to": "bakersfield",
            "locType": "unclassified",
            "address": "Classic, Woodbury, Irvine, Orange County, California, 92676, United States of America",
            "latitude": "33.6996713",
            "longitude": "-117.7399365",
            "blogLinks": [
                "http://gocalifornia.about.com/od/topcalifornia/ss/California-Weekend-Getaways-A-to-Z.htm"
            ]
        },
        "napa": {
            "closest_to": "fremont",
            "locType": "city",
            "address": "Napa, Napa County, California, United States of America",
            "latitude": "38.2971367",
            "longitude": "-122.2855292",
            "blogLinks": [
                "http://gocalifornia.about.com/od/topcalifornia/ss/California-Weekend-Getaways-A-to-Z.htm"
            ]
        },
        "lebec": {
            "closest_to": "bakersfield",
            "locType": "administrative",
            "address": "Lebec, Ridge Route Drive, Lebec, Kern County, California, 93243, United States of America",
            "latitude": "34.8401975",
            "longitude": "-118.892844953761",
            "blogLinks": [
                "http://www.yellowpages.com/bakersfield-ca/fremont"
            ]
        },
        "morro rock ca": {
            "closest_to": "fremont",
            "locType": "peak",
            "address": "Morro Rock, Morro Bay, San Luis Obispo County, California, United States of America",
            "latitude": "35.369669",
            "longitude": "-120.8676993",
            "blogLinks": [
                "http://www.california-blog.com/"
            ]
        },
        "columbia": {
            "closest_to": "fremont",
            "locType": "administrative",
            "address": "Columbia, Maiden Lane, Columbia, Tuolumne County, California, 95310, United States of America",
            "latitude": "38.03227005",
            "longitude": "-120.402418618899",
            "blogLinks": [
                "https://www.tripadvisor.com/ShowTopic-g28926-i29-k5349841-Bakersfield_to_San_Fransico_drive-California.html"
            ]
        },
        "ventura": {
            "closest_to": "bakersfield",
            "locType": "administrative",
            "address": "Ventura County, California, United States of America",
            "latitude": "34.4458248",
            "longitude": "-119.0779358",
            "blogLinks": [
                "http://gocalifornia.about.com/od/topcalifornia/ss/California-Weekend-Getaways-A-to-Z.htm"
            ]
        },
        "lake tahoe/reno": {
            "closest_to": "fremont",
            "locType": "dam",
            "address": "Lake Tahoe Dam, Placer County, California, United States of America",
            "latitude": "39.1670768",
            "longitude": "-120.1440332",
            "blogLinks": [
                "http://gocalifornia.about.com/od/topcalifornia/ss/California-Weekend-Getaways-A-to-Z.htm"
            ]
        },
        "oaks": {
            "closest_to": "fremont",
            "locType": "hamlet",
            "address": "The Oaks, Mendocino County, California, United States of America",
            "latitude": "38.9046249",
            "longitude": "-123.2261176",
            "blogLinks": [
                "http://gocalifornia.about.com/od/topcalifornia/ss/California-Weekend-Getaways-A-to-Z.htm"
            ]
        },
        "west hollywood": {
            "closest_to": "bakersfield",
            "locType": "city",
            "address": "West Hollywood, Los Angeles County, California, United States of America",
            "latitude": "34.0900091",
            "longitude": "-118.3617442",
            "blogLinks": [
                "http://gocalifornia.about.com/od/topcalifornia/ss/California-Weekend-Getaways-A-to-Z.htm"
            ]
        },
        "pebble beach ca": {
            "closest_to": "fremont",
            "locType": "hamlet",
            "address": "Pebble Beach, Monterey County, California, United States of America",
            "latitude": "36.5664874",
            "longitude": "-121.9466112",
            "blogLinks": [
                "http://www.california-blog.com/"
            ]
        },
        "la": {
            "closest_to": "fremont",
            "locType": "administrative",
            "address": "California, United States of America",
            "latitude": "36.7014631",
            "longitude": "-118.7559973",
            "blogLinks": [
                "http://www.distancesfrom.com/us/distance-from-Fremont-to-Bakersfield/DistanceHistory/15565528.aspx",
                "http://gocalifornia.about.com/od/topcalifornia/ss/California-Weekend-Getaways-A-to-Z.htm"
            ]
        },
        "columbus": {
            "closest_to": "bakersfield",
            "locType": "residential",
            "address": "Columbus, Laguna Niguel, Orange County, California, 92677, United States of America",
            "latitude": "33.5188188",
            "longitude": "-117.6826955",
            "blogLinks": [
                "http://gocalifornia.about.com/od/topcalifornia/ss/California-Weekend-Getaways-A-to-Z.htm"
            ]
        },
        "paso robles": {
            "closest_to": "fremont",
            "locType": "city",
            "address": "Paso Robles, San Luis Obispo County, California, United States of America",
            "latitude": "35.6267654",
            "longitude": "-120.6912455",
            "blogLinks": [
                "https://www.tripadvisor.com/ShowTopic-g28926-i29-k5349841-Bakersfield_to_San_Fransico_drive-California.html"
            ]
        },
        "san andreas fault": {
            "closest_to": "fremont",
            "locType": "fault",
            "address": "San Andreas Fault, Franciscan Loop Trail, Los Trancos Woods, San Mateo County, California, United States of America",
            "latitude": "37.3266078",
            "longitude": "-122.1794844",
            "blogLinks": [
                "http://gocalifornia.about.com/od/topcalifornia/ss/California-Weekend-Getaways-A-to-Z.htm"
            ]
        },
        "moreno valley ca": {
            "closest_to": "bakersfield",
            "locType": "city",
            "address": "Moreno Valley, Riverside County, California, United States of America",
            "latitude": "33.937517",
            "longitude": "-117.2305943",
            "blogLinks": [
                "http://www.california-blog.com/"
            ]
        },
        "little tokyo": {
            "closest_to": "bakersfield",
            "locType": "neighbourhood",
            "address": "Little Tokyo, Little Tokyo Historic District, LA, Los Angeles County, California, 90013, United States of America",
            "latitude": "34.0482697",
            "longitude": "-118.2417215",
            "blogLinks": [
                "http://gocalifornia.about.com/od/topcalifornia/ss/California-Weekend-Getaways-A-to-Z.htm"
            ]
        },
        "newport beach": {
            "closest_to": "bakersfield",
            "locType": "city",
            "address": "Newport Beach, Orange County, California, United States of America",
            "latitude": "33.6170092",
            "longitude": "-117.92944",
            "blogLinks": [
                "http://gocalifornia.about.com/od/topcalifornia/ss/California-Weekend-Getaways-A-to-Z.htm"
            ]
        },
        "san luis obispo": {
            "closest_to": "fremont",
            "locType": "city",
            "address": "San Luis Obispo, San Luis Obispo County, California, United States of America",
            "latitude": "35.2827525",
            "longitude": "-120.6596155",
            "blogLinks": [
                "https://www.tripadvisor.com/Attractions-g32037-Activities-Bakersfield_California.html"
            ]
        },
        "napa valley ca": {
            "closest_to": "fremont",
            "locType": "secondary",
            "address": "California Boulevard, Napa, Napa County, California, 94558, United States of America",
            "latitude": "38.2972603",
            "longitude": "-122.3002947",
            "blogLinks": [
                "http://www.california-blog.com/"
            ]
        },
        "northern california": {
            "closest_to": "bakersfield",
            "locType": "locality",
            "address": "Northern Frontier, San Diego, San Diego County, California, United States of America",
            "latitude": "32.7349196",
            "longitude": "-117.1545973",
            "blogLinks": [
                "http://gocalifornia.about.com/od/topcalifornia/ss/California-Weekend-Getaways-A-to-Z.htm"
            ]
        },
        "america bakersfield": {
            "closest_to": "fremont",
            "locType": "hotel",
            "address": "Extended Stay America - Bakersfield - California Avenue, Golden State Freeway, Bakersfield, Kern County, California, 93301:93304, United States of America",
            "latitude": "35.3699137",
            "longitude": "-119.041664684749",
            "blogLinks": [
                "http://www.yellowpages.com/bakersfield-ca/fremont"
            ]
        },
        "pismo beach": {
            "closest_to": "fremont",
            "locType": "city",
            "address": "Pismo Beach, San Luis Obispo County, California, United States of America",
            "latitude": "35.1427533",
            "longitude": "-120.6412826",
            "blogLinks": [
                "https://www.tripadvisor.com/ShowTopic-g28926-i29-k5349841-Bakersfield_to_San_Fransico_drive-California.html"
            ]
        },
        "orange county": {
            "closest_to": "bakersfield",
            "locType": "administrative",
            "address": "Orange County, California, United States of America",
            "latitude": "33.7500378",
            "longitude": "-117.870493",
            "blogLinks": [
                "http://gocalifornia.about.com/od/topcalifornia/ss/California-Weekend-Getaways-A-to-Z.htm"
            ]
        },
        "palm springs air museum ca": {
            "closest_to": "bakersfield",
            "locType": "museum",
            "address": "Palm Springs Air Museum, 745, North Gene Autry Trail, Palm Springs, Riverside County, California, 92262, United States of America",
            "latitude": "33.83250375",
            "longitude": "-116.504677958796",
            "blogLinks": [
                "http://www.california-blog.com/"
            ]
        },
        "san joaquin valley": {
            "closest_to": "fremont",
            "locType": "administrative",
            "address": "San Joaquin County, California, United States of America",
            "latitude": "37.9372901",
            "longitude": "-121.2773718",
            "blogLinks": [
                "https://www.tripadvisor.com/ShowTopic-g28926-i29-k5349841-Bakersfield_to_San_Fransico_drive-California.html"
            ]
        },
        "kern river": {
            "closest_to": "fremont",
            "locType": "river",
            "address": "Kern River, Tulare County, California, United States of America",
            "latitude": "36.6816956",
            "longitude": "-118.4124188",
            "blogLinks": [
                "http://www.california-blog.com/"
            ]
        },
        "sonoma county": {
            "closest_to": "fremont",
            "locType": "administrative",
            "address": "Sonoma County, California, United States of America",
            "latitude": "38.5110803",
            "longitude": "-122.8473387",
            "blogLinks": [
                "http://gocalifornia.about.com/od/topcalifornia/ss/California-Weekend-Getaways-A-to-Z.htm"
            ]
        },
        "malibu": {
            "closest_to": "bakersfield",
            "locType": "residential",
            "address": "Malibu, Palm Springs, Riverside County, California, 92264, United States of America",
            "latitude": "33.7932142",
            "longitude": "-116.5023561",
            "blogLinks": [
                "http://gocalifornia.about.com/od/topcalifornia/ss/California-Weekend-Getaways-A-to-Z.htm"
            ]
        }
    }
}