{
    "bangalore": {
        "icon": "https://nominatim.openstreetmap.org/images/mapicons/poi_place_city.p.20.png",
        "osm_type": "node",
        "boundingbox": [
            "12.8191198",
            "13.1391198",
            "77.4312997",
            "77.7512997"
        ],
        "display_name": "Bengaluru, Bangalore Urban, Karnataka, 560001, India",
        "class": "place",
        "osm_id": "3401391999",
        "type": "city",
        "licence": "Data \u00a9 OpenStreetMap contributors, ODbL 1.0. http://www.openstreetmap.org/copyright",
        "lon": "77.5912997",
        "lat": "12.9791198",
        "place_id": "46592958",
        "importance": 0.8183333454045
    },
    "mentions": {
        "manjarabad fort": {
            "blogLinks": [
                "http://www.mygola.com/road-trip-from-bangalore-to-chikmagalur/q9090"
            ],
            "locType": "attraction",
            "longitude": "75.7580572896098",
            "latitude": "12.9173302",
            "address": "Manjarabad Fort, SH27, Hullahalli, Sakaleshapura taluk, Hassan district, Karnataka, 573134, India",
            "closest_to": "chikmagalur"
        },
        "tumkur": {
            "blogLinks": [
                "https://planettrekkerblog.com/2016/08/17/drive-from-bangalore-to-chikmagalur/comment-page-1/",
                "http://wikitravel.org/en/Chikmagalur"
            ],
            "locType": "county",
            "longitude": "77.0002445",
            "latitude": "13.4999406",
            "address": "Tumakuru, Tumkur district, Karnataka, India",
            "closest_to": "chikmagalur"
        },
        "taj gateway": {
            "blogLinks": [
                "https://www.thrillophilia.com/resorts-in-chikmagalur"
            ],
            "locType": "hotel",
            "longitude": "75.1090312636848",
            "latitude": "15.38227215",
            "address": "Hotel Taj Gateway Lakeside, Pune Bangalore Road, Navanagar, Amaragol, Hubballi taluku, Dharwad district, Karnataka, 580025, India",
            "closest_to": "chikmagalur"
        },
        "india": {
            "blogLinks": [
                "https://www.triphobo.com/blog/places-to-visit-chikmagalur",
                "https://www.mekanagadde.com/tourist-places-nearby-to-visit/",
                "http://wikitravel.org/en/Chikmagalur",
                "https://planettrekkerblog.com/2016/08/17/drive-from-bangalore-to-chikmagalur/comment-page-1/",
                "http://www.nivalink.com/destination/chikmagalur",
                "http://myrecenttrips.blogspot.com/2013/07/chikmagalur.html"
            ],
            "locType": "administrative",
            "longitude": "75.7223521",
            "latitude": "14.5203896",
            "address": "Karnataka, India",
            "closest_to": "chikmagalur"
        },
        "rose garden": {
            "blogLinks": [
                "https://www.thrillophilia.com/places-to-visit-in-chikmagalur",
                "https://www.thrillophilia.com/resorts-in-chikmagalur"
            ],
            "locType": "garden",
            "longitude": "77.590382853852",
            "latitude": "12.97371325",
            "address": "Rose Garden, Dr B R Ambedkar Veedhi, Shantala Nagar, Gandhinagar, Bengaluru, Bangalore Urban, Karnataka, 560001, India",
            "closest_to": "bangalore"
        },
        "dattagiri hill range": {
            "blogLinks": [
                "https://www.triphobo.com/blog/places-to-visit-chikmagalur"
            ],
            "locType": "peak",
            "longitude": "75.7606996",
            "latitude": "13.4210884",
            "address": "Baba Budangiri, Chikkamagaluru, Chikkamagaluru taluku, Chikkamagaluru district, Karnataka, 577101, India",
            "closest_to": "chikmagalur"
        },
        "jaladarshini": {
            "blogLinks": [
                "https://www.thrillophilia.com/places-to-visit-in-chikmagalur",
                "https://www.thrillophilia.com/resorts-in-chikmagalur"
            ],
            "locType": "hamlet",
            "longitude": "77.5696419",
            "latitude": "13.0307999",
            "address": "Jaladarshini Layout, Bangalore Urban, Karnataka, India",
            "closest_to": "chikmagalur"
        },
        "tunga river": {
            "blogLinks": [
                "https://www.thrillophilia.com/places-to-visit-in-chikmagalur"
            ],
            "locType": "river",
            "longitude": "75.3221835",
            "latitude": "13.6632221",
            "address": "Tunga, Tirthahalli taluk, Shimoga district, Karnataka, India",
            "closest_to": "chikmagalur"
        },
        "shringeri": {
            "blogLinks": [
                "https://www.thrillophilia.com/places-to-visit-in-chikmagalur"
            ],
            "locType": "village",
            "longitude": "75.0621168",
            "latitude": "14.7221214",
            "address": "Shringeri, Hanagal taluk, Haveri district, Karnataka, India",
            "closest_to": "chikmagalur"
        },
        "subramanya": {
            "blogLinks": [
                "https://www.mekanagadde.com/tourist-places-nearby-to-visit/"
            ],
            "locType": "commercial",
            "longitude": "77.6015800913134",
            "latitude": "12.9251206",
            "address": "Subramanya Arcade, Marenahalli, Bengaluru, Bangalore Urban, Karnataka, 560001, India",
            "closest_to": "bangalore"
        },
        "sullia": {
            "blogLinks": [
                "https://www.mekanagadde.com/tourist-places-nearby-to-visit/"
            ],
            "locType": "town",
            "longitude": "75.3907575",
            "latitude": "12.5576644",
            "address": "Sulya, Sulya taluk, Dakshina Kannada, Karnataka, 574239, India",
            "closest_to": "chikmagalur"
        },
        "halebid": {
            "blogLinks": [
                "http://www.mygola.com/road-trip-from-bangalore-to-chikmagalur/q9090"
            ],
            "locType": "village",
            "longitude": "75.9918793",
            "latitude": "13.2167959",
            "address": "Halebidu, Beluru taluk, Hassan district, Karnataka, 573121, India",
            "closest_to": "chikmagalur"
        },
        "kannur": {
            "blogLinks": [
                "http://www.nivalink.com/destination/chikmagalur"
            ],
            "locType": "construction",
            "longitude": "74.8858161",
            "latitude": "12.8487602",
            "address": "Netravati bridge - Kannur Bypass Road (Proposed), Padil, Bajal, Mangaluru taluk, Dakshina Kannada, Karnataka, 575007, India",
            "closest_to": "chikmagalur"
        },
        "kundapura": {
            "blogLinks": [
                "http://www.nivalink.com/destination/chikmagalur"
            ],
            "locType": "town",
            "longitude": "74.6915722",
            "latitude": "13.6250993",
            "address": "Kundapura, \u0c95\u0cc1\u0c82\u0ca6\u0cbe\u0caa\u0cc1\u0cb0 \u0ca4\u0cbe\u0cb2\u0cc2\u0c95\u0cc1, Udupi district, Karnataka, 576200, India",
            "closest_to": "chikmagalur"
        },
        "amrutapura": {
            "blogLinks": [
                "http://wikitravel.org/en/Chikmagalur"
            ],
            "locType": "village",
            "longitude": "75.8535015",
            "latitude": "13.7425193",
            "address": "Amrutapura, Tarikere taluku, Chikkamagaluru district, Karnataka, India",
            "closest_to": "chikmagalur"
        },
        "lakshminarayana temple": {
            "blogLinks": [
                "https://www.triphobo.com/blog/places-to-visit-chikmagalur"
            ],
            "locType": "place_of_worship",
            "longitude": "76.4786794480367",
            "latitude": "12.64241745",
            "address": "Sri Lakshminarayana Swami Temple, SH85, Kattaraghatta, Krishnarajapete taluk, Mandya district, Karnataka, India",
            "closest_to": "chikmagalur"
        },
        "hebbe": {
            "blogLinks": [
                "https://www.triphobo.com/blog/places-to-visit-chikmagalur",
                "http://wikitravel.org/en/Chikmagalur"
            ],
            "locType": "attraction",
            "longitude": "75.7253701",
            "latitude": "13.5414025",
            "address": "Hebbe falls, Kemmannagundi Road, Attigundi, Chikkamagaluru taluku, Chikkamagaluru district, Karnataka, India",
            "closest_to": "chikmagalur"
        },
        "mudigere": {
            "blogLinks": [
                "https://www.thrillophilia.com/places-to-visit-in-chikmagalur",
                "https://www.thrillophilia.com/resorts-in-chikmagalur"
            ],
            "locType": "village",
            "longitude": "76.0185988",
            "latitude": "13.0093567",
            "address": "Mudigere, Aluru taluk, Hassan district, Karnataka, India",
            "closest_to": "chikmagalur"
        },
        "sri krishnarajendra hill station": {
            "blogLinks": [
                "https://www.thrillophilia.com/places-to-visit-in-chikmagalur",
                "http://www.nivalink.com/destination/chikmagalur"
            ],
            "locType": "park",
            "longitude": "77.583027619944",
            "latitude": "12.96370475",
            "address": "Silver Jubilee Park, Narasimharaja Road, Ganigarpet, Kalasipalya, Bengaluru, Bangalore Urban, Karnataka, 560001, India",
            "closest_to": "chikmagalur"
        },
        "udipi": {
            "blogLinks": [
                "http://www.nivalink.com/destination/chikmagalur"
            ],
            "locType": "restaurant",
            "longitude": "77.652888",
            "latitude": "12.9530588",
            "address": "Udipi Park, 2nd Cross Road, Muniyappa Layout, Murugeshpalaya, Belure Ambedkar Nagar, Bangalore Urban, Karnataka, 560067, India",
            "closest_to": "bangalore"
        },
        "coorg": {
            "blogLinks": [
                "https://www.thrillophilia.com/places-to-visit-in-chikmagalur",
                "https://rajeshchaunsali.wordpress.com/2013/10/16/chikmagalur-trip/"
            ],
            "locType": "town",
            "longitude": "75.740031",
            "latitude": "12.4204003",
            "address": "Madikeri, Madikeri taluku, Kodagu, Karnataka, India",
            "closest_to": "chikmagalur"
        },
        "maradi": {
            "blogLinks": [
                "https://www.thrillophilia.com/resorts-in-chikmagalur",
                "http://wikitravel.org/en/Chikmagalur"
            ],
            "locType": "village",
            "longitude": "76.0757799",
            "latitude": "12.8130205",
            "address": "Maradi, Arakalagudu taluk, Hassan district, Karnataka, India",
            "closest_to": "chikmagalur"
        },
        "hoysaleswara": {
            "blogLinks": [
                "https://www.mekanagadde.com/tourist-places-nearby-to-visit/"
            ],
            "locType": "place_of_worship",
            "longitude": "75.9941649",
            "latitude": "13.2127193",
            "address": "Hoysaleswara Temple, SH21, Halebidu, Beluru taluk, Hassan district, Karnataka, 573121, India",
            "closest_to": "chikmagalur"
        },
        "vedavati": {
            "blogLinks": [
                "http://wikitravel.org/en/Chikmagalur"
            ],
            "locType": "river",
            "longitude": "76.1347937",
            "latitude": "13.6048777",
            "address": "Vedavati, Kaduru taluk, Chikkamagaluru district, Karnataka, India",
            "closest_to": "chikmagalur"
        },
        "hemavati": {
            "blogLinks": [
                "http://wikitravel.org/en/Chikmagalur"
            ],
            "locType": "river",
            "longitude": "76.0723187",
            "latitude": "12.8179996",
            "address": "Hemavati, Hasana taluk, Hassan district, Karnataka, India",
            "closest_to": "chikmagalur"
        },
        "dharmasthala temple": {
            "blogLinks": [
                "https://www.mekanagadde.com/tourist-places-nearby-to-visit/"
            ],
            "locType": "townhall",
            "longitude": "77.5682163",
            "latitude": "12.9433356",
            "address": "Sri Dharmasthala Manjunathaswamy Kalyana Mantapa, Bull Temple Road, Yediyur, Hanumantha Nagar, Bengaluru, Bangalore Urban, Karnataka, 560001, India",
            "closest_to": "chikmagalur"
        },
        "upsouth": {
            "blogLinks": [
                "https://planettrekkerblog.com/2016/08/17/drive-from-bangalore-to-chikmagalur/comment-page-1/"
            ],
            "locType": "restaurant",
            "longitude": "77.5934403",
            "latitude": "12.9170404",
            "address": "UpSouth, Marenahalli Road, Jayanagar 9th Block, Marenahalli, Bengaluru, Bangalore Urban, Karnataka, 560001, India",
            "closest_to": "bangalore"
        },
        "brahmagiri": {
            "blogLinks": [
                "https://www.thrillophilia.com/places-to-visit-in-chikmagalur"
            ],
            "locType": "peak",
            "longitude": "75.490746",
            "latitude": "12.3868578",
            "address": "Brahmagiri, Madikeri taluku, Kodagu, Karnataka, India",
            "closest_to": "chikmagalur"
        },
        "bababudangiri": {
            "blogLinks": [
                "https://www.thrillophilia.com/places-to-visit-in-chikmagalur"
            ],
            "locType": "tertiary",
            "longitude": "75.7486618",
            "latitude": "13.4297401",
            "address": "Bababudangiri Road, Inam Dattatreya Pitha, Chikkamagaluru taluku, Chikkamagaluru district, Karnataka, India",
            "closest_to": "chikmagalur"
        },
        "halebidu": {
            "blogLinks": [
                "http://www.nivalink.com/destination/chikmagalur",
                "https://rajeshchaunsali.wordpress.com/2013/10/16/chikmagalur-trip/"
            ],
            "locType": "village",
            "longitude": "76.4607075",
            "latitude": "12.359893",
            "address": "Halebidu, Hunasuru taluk, Mysuru district, Karnataka, India",
            "closest_to": "chikmagalur"
        },
        "gorur dam - gorur": {
            "blogLinks": [
                "http://www.mygola.com/road-trip-from-bangalore-to-chikmagalur/q9090"
            ],
            "locType": "village",
            "longitude": "76.0644435",
            "latitude": "12.8238999",
            "address": "Gorur, Hasana taluk, Hassan district, Karnataka, 573120, India",
            "closest_to": "chikmagalur"
        },
        "sakleshpur": {
            "blogLinks": [
                "http://www.mygola.com/road-trip-from-bangalore-to-chikmagalur/q9090",
                "https://www.mekanagadde.com/tourist-places-nearby-to-visit/"
            ],
            "locType": "town",
            "longitude": "75.7862318",
            "latitude": "12.9434349",
            "address": "Sakaleshpura, Sakaleshapura taluk, Hassan district, Karnataka, 573134, India",
            "closest_to": "chikmagalur"
        },
        "basaralu": {
            "blogLinks": [
                "https://www.triphobo.com/blog/places-to-visit-chikmagalur"
            ],
            "locType": "village",
            "longitude": "76.81836",
            "latitude": "12.7090838",
            "address": "Basaralu, Mandya taluk, Mandya district, Karnataka, India",
            "closest_to": "chikmagalur"
        },
        "kikkeri": {
            "blogLinks": [
                "https://www.triphobo.com/blog/places-to-visit-chikmagalur"
            ],
            "locType": "village",
            "longitude": "76.4257051",
            "latitude": "12.7632226",
            "address": "Kikkeri, Krishnarajapete taluk, Mandya district, Karnataka, India",
            "closest_to": "chikmagalur"
        },
        "nehru nagara": {
            "blogLinks": [
                "https://planettrekkerblog.com/2016/08/17/drive-from-bangalore-to-chikmagalur/comment-page-1/"
            ],
            "locType": "tertiary",
            "longitude": "77.5208272",
            "latitude": "12.9127444",
            "address": "Jawaharlal Nehru Road, AGS Layout, Patanagere, Bangalore Urban, Karnataka, 560098, India",
            "closest_to": "chikmagalur"
        },
        "gowdahalli": {
            "blogLinks": [
                "http://wikitravel.org/en/Chikmagalur"
            ],
            "locType": "village",
            "longitude": "75.5981999",
            "latitude": "13.0422415",
            "address": "Gowdahalli, Mudigere taluk, Chikkamagaluru district, Karnataka, India",
            "closest_to": "chikmagalur"
        },
        "silent valley resort": {
            "blogLinks": [
                "https://www.thrillophilia.com/resorts-in-chikmagalur"
            ],
            "locType": "hotel",
            "longitude": "76.5819054",
            "latitude": "12.3459371",
            "address": "Silent Shores Resort, Krishnaraja Sagara Road, Kurgalli, Bastipura, Srirangapattana taluk, Mandya district, Karnataka, 570027, India",
            "closest_to": "chikmagalur"
        },
        "kalhatti": {
            "blogLinks": [
                "https://www.triphobo.com/blog/places-to-visit-chikmagalur",
                "https://rajeshchaunsali.wordpress.com/2013/10/16/chikmagalur-trip/"
            ],
            "locType": "waterfall",
            "longitude": "75.7889882",
            "latitude": "13.5499877",
            "address": "Kallathgiri falls, Tarikere taluku, Chikkamagaluru district, Karnataka, India",
            "closest_to": "chikmagalur"
        },
        "silent valley": {
            "blogLinks": [
                "https://planettrekkerblog.com/2016/08/17/drive-from-bangalore-to-chikmagalur/comment-page-1/",
                "https://www.thrillophilia.com/resorts-in-chikmagalur"
            ],
            "locType": "hotel",
            "longitude": "76.5819054",
            "latitude": "12.3459371",
            "address": "Silent Shores Resort, Krishnaraja Sagara Road, Kurgalli, Bastipura, Srirangapattana taluk, Mandya district, Karnataka, 570027, India",
            "closest_to": "chikmagalur"
        },
        "lakkavalli": {
            "blogLinks": [
                "http://wikitravel.org/en/Chikmagalur"
            ],
            "locType": "village",
            "longitude": "75.1078097",
            "latitude": "14.5841018",
            "address": "Lakkavalli, Soraba taluk, Shimoga district, Karnataka, India",
            "closest_to": "chikmagalur"
        },
        "attigundi": {
            "blogLinks": [
                "https://www.thrillophilia.com/places-to-visit-in-chikmagalur",
                "https://www.thrillophilia.com/resorts-in-chikmagalur"
            ],
            "locType": "village",
            "longitude": "75.7415646",
            "latitude": "13.428683",
            "address": "Attigundi, Chikkamagaluru taluku, Chikkamagaluru district, Karnataka, India",
            "closest_to": "chikmagalur"
        },
        "hoysala": {
            "blogLinks": [
                "https://rajeshchaunsali.wordpress.com/2013/10/16/chikmagalur-trip/"
            ],
            "locType": "administrative",
            "longitude": "77.6375990817051",
            "latitude": "12.97813815",
            "address": "Hoysala Nagar, Bengaluru, Bangalore Urban, Karnataka, 560001, India",
            "closest_to": "bangalore"
        },
        "chikkamagalur": {
            "blogLinks": [
                "http://www.nivalink.com/destination/chikmagalur"
            ],
            "locType": "station",
            "longitude": "75.789501",
            "latitude": "13.3030706",
            "address": "Chikkamagalur, SH57, Hosamane Badavane, Hiremagaluru, Chikkamagaluru taluku, Chikkamagaluru district, Karnataka, 577101, India",
            "closest_to": "chikmagalur"
        },
        "hassan district": {
            "blogLinks": [
                "https://www.mekanagadde.com/tourist-places-nearby-to-visit/"
            ],
            "locType": "administrative",
            "longitude": "76.1745460751981",
            "latitude": "13.0315068",
            "address": "Hassan district, Karnataka, India",
            "closest_to": "chikmagalur"
        },
        "chikkamagaluru": {
            "blogLinks": [
                "https://www.mekanagadde.com/tourist-places-nearby-to-visit/",
                "http://wikitravel.org/en/Chikmagalur"
            ],
            "locType": "city",
            "longitude": "75.7738743",
            "latitude": "13.318014",
            "address": "Chikkamagaluru, Chikkamagaluru taluku, Chikkamagaluru district, Karnataka, 577101, India",
            "closest_to": "chikmagalur"
        },
        "south karnataka": {
            "blogLinks": [
                "http://wikitravel.org/en/Chikmagalur"
            ],
            "locType": "residential",
            "longitude": "77.8040874",
            "latitude": "13.2942848",
            "address": "s, Vijayapura, Devanahalli taluk, Bangalore Rural, Karnataka, 562135, India",
            "closest_to": "bangalore"
        },
        "shantigrama": {
            "blogLinks": [
                "http://www.mygola.com/road-trip-from-bangalore-to-chikmagalur/q9090"
            ],
            "locType": "village",
            "longitude": "76.2166763",
            "latitude": "12.983428",
            "address": "Shantigrama, Hasana taluk, Hassan district, Karnataka, India",
            "closest_to": "chikmagalur"
        },
        "north kerala": {
            "blogLinks": [
                "http://www.nivalink.com/destination/chikmagalur"
            ],
            "locType": "restaurant",
            "longitude": "77.6382683",
            "latitude": "12.9726449",
            "address": "New Life Kerala Mess, Sai Baba Mandira Road, Mottappanapalaya, Indiranagar, Bengaluru, Bangalore Urban, Karnataka, 560001, India",
            "closest_to": "bangalore"
        },
        "manjunatha": {
            "blogLinks": [
                "https://www.mekanagadde.com/tourist-places-nearby-to-visit/"
            ],
            "locType": "residential",
            "longitude": "74.8543195",
            "latitude": "12.8847787",
            "address": "Manjunatha Colony Road, Bikarnakatte, Nanthoor, Mangaluru, Mangaluru taluk, Dakshina Kannada, Karnataka, 575001, India",
            "closest_to": "chikmagalur"
        },
        "rock garden": {
            "blogLinks": [
                "https://www.thrillophilia.com/places-to-visit-in-chikmagalur"
            ],
            "locType": "waterfall",
            "longitude": "75.6142269",
            "latitude": "12.2248591",
            "address": "Waterfalls by the Rock site, Madikeri taluku, Kodagu, Karnataka, India",
            "closest_to": "chikmagalur"
        },
        "kudremukha": {
            "blogLinks": [
                "https://www.triphobo.com/blog/places-to-visit-chikmagalur"
            ],
            "locType": "peak",
            "longitude": "75.2748196",
            "latitude": "13.1255691",
            "address": "Kudremukha, Mudigere taluk, Chikkamagaluru district, Karnataka, India",
            "closest_to": "chikmagalur"
        },
        "horanadu": {
            "blogLinks": [
                "http://wikitravel.org/en/Chikmagalur"
            ],
            "locType": "town",
            "longitude": "75.3445161",
            "latitude": "13.2761199",
            "address": "Horanadu, Mudigere taluk, Chikkamagaluru district, Karnataka, 577181, India",
            "closest_to": "chikmagalur"
        },
        "kudremukh": {
            "blogLinks": [
                "https://www.thrillophilia.com/places-to-visit-in-chikmagalur",
                "https://www.triphobo.com/blog/places-to-visit-chikmagalur",
                "http://wikitravel.org/en/Chikmagalur"
            ],
            "locType": "village",
            "longitude": "75.2523304",
            "latitude": "13.2144007",
            "address": "Kudremukha, Mudigere taluk, Chikkamagaluru district, Karnataka, India",
            "closest_to": "chikmagalur"
        },
        "bangalore hassan highway": {
            "blogLinks": [
                "https://planettrekkerblog.com/2016/08/17/drive-from-bangalore-to-chikmagalur/comment-page-1/"
            ],
            "locType": "trunk",
            "longitude": "76.4863319",
            "latitude": "12.9211499",
            "address": "Bangalore Mangalore Highway, Hosakoppalu, Channarayapattana taluk, Hassan district, Karnataka, India",
            "closest_to": "chikmagalur"
        },
        "market road": {
            "blogLinks": [
                "https://www.makemytrip.com/blog/chikmagalur-weekend-getaway"
            ],
            "locType": "residential",
            "longitude": "77.5775898",
            "latitude": "12.9505358",
            "address": "Market Road, Mavalli, VV Puram, Bengaluru, Bangalore Urban, Karnataka, 560001, India",
            "closest_to": "chikmagalur"
        },
        "sharadamba temple": {
            "blogLinks": [
                "https://www.thrillophilia.com/places-to-visit-in-chikmagalur"
            ],
            "locType": "place_of_worship",
            "longitude": "77.5656194",
            "latitude": "12.9321898",
            "address": "Sharadamba Temple, 7th Main Road, Yediyur, Thyagaraja Nagar, Bengaluru, Bangalore Urban, Karnataka, 560001, India",
            "closest_to": "chikmagalur"
        },
        "nagamangala": {
            "blogLinks": [
                "https://www.triphobo.com/blog/places-to-visit-chikmagalur"
            ],
            "locType": "town",
            "longitude": "76.7542189",
            "latitude": "12.8196077",
            "address": "Nagamangala, Nagamangala taluk, Mandya district, Karnataka, 571432, India",
            "closest_to": "chikmagalur"
        },
        "chennakesava": {
            "blogLinks": [
                "https://planettrekkerblog.com/2016/08/17/drive-from-bangalore-to-chikmagalur/comment-page-1/",
                "https://www.mekanagadde.com/tourist-places-nearby-to-visit/"
            ],
            "locType": "place_of_worship",
            "longitude": "75.8603311",
            "latitude": "13.1629239",
            "address": "Chennakesava Temple, NH73, Navilahalli, Beluru taluk, Hassan district, Karnataka, India",
            "closest_to": "chikmagalur"
        },
        "south bangalore": {
            "blogLinks": [
                "https://planettrekkerblog.com/2016/08/17/drive-from-bangalore-to-chikmagalur/comment-page-1/"
            ],
            "locType": "residential",
            "longitude": "77.8040586",
            "latitude": "13.2930913",
            "address": "s, Vijayapura, Devanahalli taluk, Bangalore Rural, Karnataka, 562135, India",
            "closest_to": "bangalore"
        },
        "west bengal": {
            "blogLinks": [
                "http://myrecenttrips.blogspot.com/2013/07/chikmagalur.html"
            ],
            "locType": "industrial",
            "longitude": "77.7517038151245",
            "latitude": "13.0492646",
            "address": "Bengal Lamps, Konadasapura, Bangalore Urban, Karnataka, 560066, India",
            "closest_to": "bangalore"
        },
        "ganapathi": {
            "blogLinks": [
                "https://www.mekanagadde.com/tourist-places-nearby-to-visit/"
            ],
            "locType": "clockmaker",
            "longitude": "77.6297861",
            "latitude": "13.0015272",
            "address": "Ganapathi, 4th Cross Road, MSO Colony, Cooke Town, Bengaluru, Bangalore Urban, Karnataka, 560001, India",
            "closest_to": "bangalore"
        },
        "kalaseshwara temple": {
            "blogLinks": [
                "http://www.nivalink.com/destination/chikmagalur"
            ],
            "locType": "place_of_worship",
            "longitude": "75.363446975",
            "latitude": "13.23228505",
            "address": "Kalaseshwara Temple, SH66, Kalasa, Mudigere taluk, Chikkamagaluru district, Karnataka, 577124, India",
            "closest_to": "chikmagalur"
        },
        "kemmannagundi": {
            "blogLinks": [
                "http://wikitravel.org/en/Chikmagalur"
            ],
            "locType": "village",
            "longitude": "75.7520082",
            "latitude": "13.5463048",
            "address": "Kemmannagundi, Tarikere taluku, Chikkamagaluru district, Karnataka, India",
            "closest_to": "chikmagalur"
        },
        "kemmangundi": {
            "blogLinks": [
                "https://www.thrillophilia.com/places-to-visit-in-chikmagalur",
                "https://www.thrillophilia.com/resorts-in-chikmagalur"
            ],
            "locType": "village",
            "longitude": "75.7520082",
            "latitude": "13.5463048",
            "address": "Kemmannagundi, Tarikere taluku, Chikkamagaluru district, Karnataka, India",
            "closest_to": "chikmagalur"
        },
        "bangalore": {
            "blogLinks": [
                "https://www.triphobo.com/blog/places-to-visit-chikmagalur",
                "https://www.makemytrip.com/blog/chikmagalur-weekend-getaway",
                "https://www.thrillophilia.com/places-to-visit-in-chikmagalur",
                "https://www.mekanagadde.com/tourist-places-nearby-to-visit/",
                "https://www.thrillophilia.com/resorts-in-chikmagalur",
                "http://www.mygola.com/road-trip-from-bangalore-to-chikmagalur/q9090",
                "http://wikitravel.org/en/Chikmagalur",
                "https://planettrekkerblog.com/2016/08/17/drive-from-bangalore-to-chikmagalur/comment-page-1/",
                "http://www.nivalink.com/destination/chikmagalur",
                "http://myrecenttrips.blogspot.com/2013/07/chikmagalur.html",
                "https://rajeshchaunsali.wordpress.com/2013/10/16/chikmagalur-trip/"
            ],
            "locType": "city",
            "longitude": "77.5912997",
            "latitude": "12.9791198",
            "address": "Bengaluru, Bangalore Urban, Karnataka, 560001, India",
            "closest_to": "chikmagalur"
        },
        "hosaholalu": {
            "blogLinks": [
                "https://www.triphobo.com/blog/places-to-visit-chikmagalur"
            ],
            "locType": "village",
            "longitude": "76.4802552",
            "latitude": "12.6417678",
            "address": "Hosaholalu, Krishnarajapete taluk, Mandya district, Karnataka, India",
            "closest_to": "chikmagalur"
        },
        "nelamangala": {
            "blogLinks": [
                "https://planettrekkerblog.com/2016/08/17/drive-from-bangalore-to-chikmagalur/comment-page-1/",
                "http://www.mygola.com/road-trip-from-bangalore-to-chikmagalur/q9090"
            ],
            "locType": "town",
            "longitude": "77.3963586",
            "latitude": "13.0953024",
            "address": "Nelamangala, Nelamangala taluk, Bangalore Rural, Karnataka, India",
            "closest_to": "chikmagalur"
        },
        "kalhatti falls": {
            "blogLinks": [
                "https://www.thrillophilia.com/places-to-visit-in-chikmagalur"
            ],
            "locType": "waterfall",
            "longitude": "75.7889882",
            "latitude": "13.5499877",
            "address": "Kallathgiri falls, Tarikere taluku, Chikkamagaluru district, Karnataka, India",
            "closest_to": "chikmagalur"
        },
        "tungabhadra river": {
            "blogLinks": [
                "https://www.thrillophilia.com/places-to-visit-in-chikmagalur"
            ],
            "locType": "river",
            "longitude": "76.4931607",
            "latitude": "15.3446123",
            "address": "Tungabhadra, Gangavati taluku, Koppal district, Karnataka, India",
            "closest_to": "chikmagalur"
        },
        "karnataka": {
            "blogLinks": [
                "https://www.triphobo.com/blog/places-to-visit-chikmagalur",
                "https://www.thrillophilia.com/places-to-visit-in-chikmagalur",
                "https://www.mekanagadde.com/tourist-places-nearby-to-visit/",
                "https://www.thrillophilia.com/resorts-in-chikmagalur",
                "http://www.mygola.com/road-trip-from-bangalore-to-chikmagalur/q9090",
                "http://wikitravel.org/en/Chikmagalur",
                "https://www.ixigo.com/places-to-visit-see-in-chikmagalur-lp-1137712",
                "https://planettrekkerblog.com/2016/08/17/drive-from-bangalore-to-chikmagalur/comment-page-1/",
                "http://www.nivalink.com/destination/chikmagalur",
                "http://myrecenttrips.blogspot.com/2013/07/chikmagalur.html",
                "https://rajeshchaunsali.wordpress.com/2013/10/16/chikmagalur-trip/"
            ],
            "locType": "atm",
            "longitude": "76.6639936",
            "latitude": "12.3084901",
            "address": "Karnataka, Shalivahana Road, Nazarbad, Mysuru, Mysuru taluk, Mysuru district, Karnataka, 570001, India",
            "closest_to": "chikmagalur"
        },
        "chikmagalur": {
            "blogLinks": [
                "https://www.triphobo.com/blog/places-to-visit-chikmagalur",
                "https://www.makemytrip.com/blog/chikmagalur-weekend-getaway",
                "https://www.thrillophilia.com/places-to-visit-in-chikmagalur",
                "https://www.mekanagadde.com/tourist-places-nearby-to-visit/",
                "https://www.thrillophilia.com/resorts-in-chikmagalur",
                "http://wikitravel.org/en/Chikmagalur",
                "https://www.ixigo.com/places-to-visit-see-in-chikmagalur-lp-1137712",
                "http://www.nivalink.com/destination/chikmagalur",
                "http://myrecenttrips.blogspot.com/2013/07/chikmagalur.html",
                "https://rajeshchaunsali.wordpress.com/2013/10/16/chikmagalur-trip/"
            ],
            "locType": "county",
            "longitude": "75.5",
            "latitude": "13.5",
            "address": "Chikmagalur, Chikkamagaluru district, Karnataka, India",
            "closest_to": "chikmagalur"
        },
        "mangalore": {
            "blogLinks": [
                "https://www.mekanagadde.com/tourist-places-nearby-to-visit/",
                "http://www.mygola.com/road-trip-from-bangalore-to-chikmagalur/q9090",
                "http://wikitravel.org/en/Chikmagalur",
                "https://planettrekkerblog.com/2016/08/17/drive-from-bangalore-to-chikmagalur/comment-page-1/",
                "http://www.nivalink.com/destination/chikmagalur",
                "https://rajeshchaunsali.wordpress.com/2013/10/16/chikmagalur-trip/"
            ],
            "locType": "city",
            "longitude": "74.8430082",
            "latitude": "12.8698101",
            "address": "Mangaluru, Mangaluru taluk, Dakshina Kannada, Karnataka, 575001, India",
            "closest_to": "chikmagalur"
        },
        "veerabhadreshwara temple": {
            "blogLinks": [
                "https://www.triphobo.com/blog/places-to-visit-chikmagalur"
            ],
            "locType": "place_of_worship",
            "longitude": "75.4155774",
            "latitude": "13.149129",
            "address": "Veerabhadreshwara Temple, Trek to Ballalaryandurga and Bandaje falls, Sunkasale, Mudigere taluk, Chikkamagaluru district, Karnataka, India",
            "closest_to": "chikmagalur"
        },
        "bhadra river": {
            "blogLinks": [
                "https://www.thrillophilia.com/places-to-visit-in-chikmagalur",
                "http://www.nivalink.com/destination/chikmagalur"
            ],
            "locType": "river",
            "longitude": "75.527118",
            "latitude": "13.4888356",
            "address": "Bhadra, Chikkamagaluru taluku, Chikkamagaluru district, Karnataka, India",
            "closest_to": "chikmagalur"
        },
        "sakleshpur chikmagalur": {
            "blogLinks": [
                "https://www.mekanagadde.com/tourist-places-nearby-to-visit/"
            ],
            "locType": "town",
            "longitude": "75.7862318",
            "latitude": "12.9434349",
            "address": "Sakaleshpura, Sakaleshapura taluk, Hassan district, Karnataka, 573134, India",
            "closest_to": "chikmagalur"
        },
        "kadur": {
            "blogLinks": [
                "http://wikitravel.org/en/Chikmagalur"
            ],
            "locType": "trunk",
            "longitude": "75.7820095",
            "latitude": "13.3283654",
            "address": "Mudigere-Kadur Road, Basavannahalli, Chikkamagaluru, Chikkamagaluru taluku, Chikkamagaluru district, Karnataka, 577101, India",
            "closest_to": "chikmagalur"
        },
        "mumbai": {
            "blogLinks": [
                "http://www.mygola.com/road-trip-from-bangalore-to-chikmagalur/q9090"
            ],
            "locType": "restaurant",
            "longitude": "77.5718472",
            "latitude": "13.0002869",
            "address": "Mumbai Spice, 18/2, 10th Cross, Malleswaram, Vyalikaval, Malleswaram, Bengaluru, Bangalore Urban, Karnataka, 560003, India",
            "closest_to": "chikmagalur"
        },
        "kudremukh national park": {
            "blogLinks": [
                "https://www.thrillophilia.com/places-to-visit-in-chikmagalur",
                "https://www.triphobo.com/blog/places-to-visit-chikmagalur"
            ],
            "locType": "national_park",
            "longitude": "75.1828713712862",
            "latitude": "13.25397485",
            "address": "Kudremukh National Park, SH66, Sringeri taluku, Chikkamagaluru district, Karnataka, India",
            "closest_to": "chikmagalur"
        },
        "manikyadhara": {
            "blogLinks": [
                "http://wikitravel.org/en/Chikmagalur"
            ],
            "locType": "attraction",
            "longitude": "75.7701434",
            "latitude": "13.4220248",
            "address": "Manikyadhara, Bababudangiri Road, Inam Dattatreya Pitha, Chikkamagaluru taluku, Chikkamagaluru district, Karnataka, India",
            "closest_to": "chikmagalur"
        },
        "dakshina kannada district": {
            "blogLinks": [
                "https://www.mekanagadde.com/tourist-places-nearby-to-visit/"
            ],
            "locType": "county",
            "longitude": "74.9813132",
            "latitude": "12.9324457",
            "address": "Dakshina Kannada, Karnataka, India",
            "closest_to": "chikmagalur"
        },
        "south-west": {
            "blogLinks": [
                "https://planettrekkerblog.com/2016/08/17/drive-from-bangalore-to-chikmagalur/comment-page-1/"
            ],
            "locType": "administrative",
            "longitude": "75.7223521",
            "latitude": "14.5203896",
            "address": "Karnataka, India",
            "closest_to": "chikmagalur"
        },
        "maddur": {
            "blogLinks": [
                "https://www.triphobo.com/blog/places-to-visit-chikmagalur"
            ],
            "locType": "town",
            "longitude": "77.0456404",
            "latitude": "12.5851916",
            "address": "Maddur, Madduru taluk, Mandya district, Karnataka, 571428, India",
            "closest_to": "chikmagalur"
        },
        "belur": {
            "blogLinks": [
                "https://planettrekkerblog.com/2016/08/17/drive-from-bangalore-to-chikmagalur/comment-page-1/",
                "http://www.nivalink.com/destination/chikmagalur",
                "http://www.mygola.com/road-trip-from-bangalore-to-chikmagalur/q9090",
                "http://wikitravel.org/en/Chikmagalur"
            ],
            "locType": "town",
            "longitude": "75.8634851",
            "latitude": "13.1645671",
            "address": "Belur, Beluru taluk, Hassan district, Karnataka, 573115, India",
            "closest_to": "chikmagalur"
        },
        "kaimara": {
            "blogLinks": [
                "http://wikitravel.org/en/Chikmagalur"
            ],
            "locType": "village",
            "longitude": "75.7448654",
            "latitude": "13.3713857",
            "address": "Kaimara, Chikkamagaluru taluku, Chikkamagaluru district, Karnataka, India",
            "closest_to": "chikmagalur"
        },
        "annapoorna": {
            "blogLinks": [
                "https://www.mekanagadde.com/tourist-places-nearby-to-visit/"
            ],
            "locType": "yes",
            "longitude": "74.7952585267652",
            "latitude": "13.3434791",
            "address": "Annapoorna, Malpe - Manipal Road, End Point, Manipal, Udupi taluku, Udupi district, Karnataka, 576102, India",
            "closest_to": "chikmagalur"
        },
        "kannada": {
            "blogLinks": [
                "https://www.mekanagadde.com/tourist-places-nearby-to-visit/"
            ],
            "locType": "administrative",
            "longitude": "75.1008028650794",
            "latitude": "12.8114089",
            "address": "Dakshina Kannada, Karnataka, India",
            "closest_to": "chikmagalur"
        },
        "rameshwara": {
            "blogLinks": [
                "http://www.nivalink.com/destination/chikmagalur"
            ],
            "locType": "place_of_worship",
            "longitude": "77.5678621969321",
            "latitude": "12.99365815",
            "address": "Rameshwara Temple, Kranthikavi Sarvagnya Road, Rajajinagar 4th Block, Sriramapura, Bengaluru, Bangalore Urban, Karnataka, 560001, India",
            "closest_to": "chikmagalur"
        },
        "ooty": {
            "blogLinks": [
                "http://www.nivalink.com/destination/chikmagalur"
            ],
            "locType": "primary",
            "longitude": "76.6586807",
            "latitude": "12.2774807",
            "address": "Ooty Road, Vidyaranyapuram, Mysuru, Mysuru taluk, Mysuru district, Karnataka, 570001, India",
            "closest_to": "chikmagalur"
        },
        "yagachi": {
            "blogLinks": [
                "http://wikitravel.org/en/Chikmagalur",
                "https://rajeshchaunsali.wordpress.com/2013/10/16/chikmagalur-trip/"
            ],
            "locType": "river",
            "longitude": "75.950911",
            "latitude": "13.0658494",
            "address": "Yagachi, Beluru taluk, Hassan district, Karnataka, India",
            "closest_to": "chikmagalur"
        }
    },
    "chikmagalur": {
        "icon": "https://nominatim.openstreetmap.org/images/mapicons/poi_boundary_administrative.p.20.png",
        "osm_type": "node",
        "boundingbox": [
            "12.86",
            "14.14",
            "74.86",
            "76.14"
        ],
        "display_name": "Chikmagalur, Chikkamagaluru district, Karnataka, India",
        "class": "place",
        "osm_id": "316417001",
        "type": "county",
        "licence": "Data \u00a9 OpenStreetMap contributors, ODbL 1.0. http://www.openstreetmap.org/copyright",
        "lon": "75.5",
        "lat": "13.5",
        "place_id": "1426840",
        "importance": 0.65
    }
}