{
    "bangalore": {
        "icon": "https://nominatim.openstreetmap.org/images/mapicons/poi_place_city.p.20.png",
        "osm_type": "node",
        "boundingbox": [
            "12.8191198",
            "13.1391198",
            "77.4312997",
            "77.7512997"
        ],
        "display_name": "Bengaluru, Bangalore Urban, Karnataka, 560001, India",
        "class": "place",
        "osm_id": "3401391999",
        "type": "city",
        "licence": "Data \u00a9 OpenStreetMap contributors, ODbL 1.0. http://www.openstreetmap.org/copyright",
        "lon": "77.5912997",
        "lat": "12.9791198",
        "place_id": "46592958",
        "importance": 0.8183333454045
    },
    "tumkur": {
        "icon": "https://nominatim.openstreetmap.org/images/mapicons/poi_boundary_administrative.p.20.png",
        "osm_type": "node",
        "boundingbox": [
            "12.8599406",
            "14.1399406",
            "76.3602445",
            "77.6402445"
        ],
        "display_name": "Tumakuru, Tumkur district, Karnataka, India",
        "class": "place",
        "osm_id": "316417304",
        "type": "county",
        "licence": "Data \u00a9 OpenStreetMap contributors, ODbL 1.0. http://www.openstreetmap.org/copyright",
        "lon": "77.0002445",
        "lat": "13.4999406",
        "place_id": "1397122",
        "importance": 0.65
    },
    "mentions": {
        "bengaluru": {
            "blogLinks": [
                "https://www.propertywala.com/dodda_tumkur_bangalore"
            ],
            "locType": "city",
            "longitude": "77.5912997",
            "latitude": "12.9791198",
            "address": "Bengaluru, Bangalore Urban, Karnataka, 560001, India",
            "closest_to": "tumkur"
        },
        "mahabaleshwar temple": {
            "blogLinks": [
                "http://travel.india.com/gokarna/"
            ],
            "locType": "place_of_worship",
            "longitude": "77.5899443",
            "latitude": "12.962625",
            "address": "Mahabaleshwar Temple, Mission Road (Kalinga Rao Road), Sampangirama Nagar, Shanti Nagar, Bengaluru, Bangalore Urban, Karnataka, 560001, India",
            "closest_to": "bangalore"
        },
        "north bangalore": {
            "blogLinks": [
                "http://praveenpn.com/blog/2011/01/05/bangalore-to-goa-by-car/"
            ],
            "locType": "service",
            "longitude": "77.7660547",
            "latitude": "13.0217151",
            "address": "N, Chaithanya Samarpan, Kadugodi, Kannamangala, Bangalore Urban, Karnataka, 560066, India",
            "closest_to": "bangalore"
        },
        "windsor": {
            "blogLinks": [
                "http://www.tripwip.com/shivaganga-a-sunday-in-the-sun/"
            ],
            "locType": "pub",
            "longitude": "77.6392137",
            "latitude": "12.9698614",
            "address": "Windsor, 12th Main Road, HAL 2nd Stage, Indiranagar, Bengaluru, Bangalore Urban, Karnataka, 560001, India",
            "closest_to": "bangalore"
        },
        "bangalore international": {
            "blogLinks": [
                "http://travel.india.com/explore/wildlife-sanctuaries-in-karnataka/"
            ],
            "locType": "school",
            "longitude": "77.6467233975225",
            "latitude": "13.0471784",
            "address": "Bangalore International School, Hennur Bagalur Road, Poojappa Layout, Agara, Geddalahalli, Bangalore Urban, Karnataka, 560 077, India",
            "closest_to": "tumkur"
        },
        "hindupur": {
            "blogLinks": [
                "https://www.quora.com/What-are-the-best-places-around-Bangalore-for-bike-rides"
            ],
            "locType": "primary",
            "longitude": "77.5237128",
            "latitude": "13.3580171",
            "address": "Hindupur ByPass Road, Bachchahalli, Doddaballapura taluk, Bangalore Rural, Karnataka, India",
            "closest_to": "tumkur"
        },
        "tumkur": {
            "blogLinks": [
                "http://www.tripwip.com/shivaganga-a-sunday-in-the-sun/",
                "https://www.makemytrip.com/routeplanner/bangalore-tumkur.html",
                "https://www.propertywala.com/dodda_tumkur_bangalore",
                "http://www.trodly.com/india/destination-6070/tumkur",
                "https://www.tripoto.com/travel-guide/tumkur",
                "http://tumkurplaces.blogspot.com/"
            ],
            "locType": "county",
            "longitude": "77.0002445",
            "latitude": "13.4999406",
            "address": "Tumakuru, Tumkur district, Karnataka, India",
            "closest_to": "tumkur"
        },
        "bellary road": {
            "blogLinks": [
                "https://www.quora.com/What-are-the-best-places-around-Bangalore-for-bike-rides"
            ],
            "locType": "trunk",
            "longitude": "77.5915237",
            "latitude": "13.0465345",
            "address": "Bellary Road, Kanaka Nagar, Hebbal, Bengaluru, Bangalore Urban, Karnataka, 560001, India",
            "closest_to": "tumkur"
        },
        "shivajinagar": {
            "blogLinks": [
                "https://www.propertywala.com/dodda_tumkur_bangalore"
            ],
            "locType": "suburb",
            "longitude": "77.6075416",
            "latitude": "12.986391",
            "address": "Shivajinagar, Bengaluru, Bangalore Urban, Karnataka, 560001, India",
            "closest_to": "bangalore"
        },
        "kanakapura": {
            "blogLinks": [
                "https://www.quora.com/What-are-the-best-places-around-Bangalore-for-bike-rides"
            ],
            "locType": "town",
            "longitude": "77.4199095",
            "latitude": "12.5450268",
            "address": "Kanakapura, Kanakapura taluk, Ramanagara district, Karnataka, 562117, India",
            "closest_to": "bangalore"
        },
        "dodda tumkur": {
            "blogLinks": [
                "https://www.propertywala.com/dodda_tumkur_bangalore"
            ],
            "locType": "river",
            "longitude": "77.26651",
            "latitude": "13.5595357",
            "address": "Dodda Halla, Koratagere taluku, Tumkur district, Karnataka, India",
            "closest_to": "tumkur"
        },
        "airport": {
            "blogLinks": [
                "http://www.tripwip.com/shivaganga-a-sunday-in-the-sun/"
            ],
            "locType": "aerodrome",
            "longitude": "77.6706174862667",
            "latitude": "12.95146575",
            "address": "HAL Airport, Kariyammana Agrahara Road, Annasandra Palya, Yemalur, Belure Ambedkar Nagar, Bangalore Urban, Karnataka, 560017, India",
            "closest_to": "bangalore"
        },
        "outer ring road": {
            "blogLinks": [
                "http://k-khanabadosh.blogspot.com/2013/01/the-nh7-road-trip-bangalore-to-hyderabad.html"
            ],
            "locType": "trunk",
            "longitude": "77.6632088",
            "latitude": "12.9210769",
            "address": "Outer Ring Road, Green Glen Layout, Iblur, Bengaluru, Bangalore Urban, Karnataka, 560001, India",
            "closest_to": "bangalore"
        },
        "maharastra": {
            "blogLinks": [
                "http://praveenpn.com/blog/2011/01/05/bangalore-to-goa-by-car/"
            ],
            "locType": "atm",
            "longitude": "77.606263",
            "latitude": "12.9132591",
            "address": "Maharastra Bank, 7th Main Road, BTM Layout 2nd Stage, BTM Layout, Bengaluru, Bangalore Urban, Karnataka, 560001, India",
            "closest_to": "bangalore"
        },
        "gangadhareshwar": {
            "blogLinks": [
                "http://www.buzzntravel.com/tamkur"
            ],
            "locType": "place_of_worship",
            "longitude": "77.2252408",
            "latitude": "13.171879",
            "address": "Gangadhareshwar Temple, State Highway 3, Banavadi, Magadi taluku, Ramanagara district, Karnataka, India",
            "closest_to": "tumkur"
        },
        "goa": {
            "blogLinks": [
                "https://www.tripoto.com/trip/bangalore-to-goa-road-trip-itinerary",
                "http://praveenpn.com/blog/2011/01/05/bangalore-to-goa-by-car/",
                "http://travel.india.com/gokarna/"
            ],
            "locType": "restaurant",
            "longitude": "77.6200027",
            "latitude": "12.9750047",
            "address": "Carnival De Goa, Bhaskaran Road, Gupta Layout, Halasuru, Bengaluru, Bangalore Urban, Karnataka, 560001, India",
            "closest_to": "bangalore"
        },
        "turahalli forest": {
            "blogLinks": [
                "https://www.quora.com/What-are-the-best-places-around-Bangalore-for-bike-rides"
            ],
            "locType": "forest",
            "longitude": "77.5255717803964",
            "latitude": "12.88274975",
            "address": "Turahalli Forest, Vajrahalli, Chikkegowdanpalya, Bangalore Urban, Karnataka, 560062, India",
            "closest_to": "bangalore"
        },
        "delhi": {
            "blogLinks": [
                "http://www.tripwip.com/shivaganga-a-sunday-in-the-sun/"
            ],
            "locType": "trunk",
            "longitude": "77.6666062",
            "latitude": "12.9212473",
            "address": "Outer Ring Road, Green Glen Layout, Iblur, Bengaluru, Bangalore Urban, Karnataka, 560001, India",
            "closest_to": "bangalore"
        },
        "ragihalli": {
            "blogLinks": [
                "http://travel.india.com/explore/wildlife-sanctuaries-in-karnataka/"
            ],
            "locType": "village",
            "longitude": "77.5745803",
            "latitude": "12.7386426",
            "address": "Ragihalli, Bangalore Urban, Karnataka, India",
            "closest_to": "bangalore"
        },
        "kanakpura": {
            "blogLinks": [
                "https://www.quora.com/What-are-the-best-places-around-Bangalore-for-bike-rides"
            ],
            "locType": "yes",
            "longitude": "77.5438085908703",
            "latitude": "12.8866679",
            "address": "H 902, Mantri Tranquil, Gubbalala, Off Kanakpura Road, Bengaluru - 61, Subramanyapura Main Road, Singapore Gardens, Uttarahalli, Gubbalala, Bangalore Urban, Karnataka, 560086, India",
            "closest_to": "bangalore"
        },
        "kavya": {
            "blogLinks": [
                "https://www.tripoto.com/travel-guide/tumkur"
            ],
            "locType": "restaurant",
            "longitude": "77.6146254",
            "latitude": "12.9582479",
            "address": "Kavya Sagar, Palm Grove Road, Vannarpet, Austin Town, Bengaluru, Bangalore Urban, Karnataka, 560001, India",
            "closest_to": "bangalore"
        },
        "kamat": {
            "blogLinks": [
                "https://www.tripoto.com/trip/bangalore-to-goa-road-trip-itinerary"
            ],
            "locType": "restaurant",
            "longitude": "77.5798273",
            "latitude": "12.9491655",
            "address": "Kamat, National High School Road, Mavalli, VV Puram, Bengaluru, Bangalore Urban, Karnataka, 560001, India",
            "closest_to": "bangalore"
        },
        "bangalore": {
            "blogLinks": [
                "http://www.tripwip.com/shivaganga-a-sunday-in-the-sun/",
                "http://www.hivayking.in/blog/2012/08/nh4-between-bangalore-punemumbai/",
                "http://praveenpn.com/blog/2011/01/05/bangalore-to-goa-by-car/",
                "https://www.makemytrip.com/routeplanner/bangalore-tumkur.html",
                "http://travel.india.com/gokarna/",
                "http://www.theweekendleader.com/Travel/1823/bangalore-15.html",
                "http://travel.india.com/explore/wildlife-sanctuaries-in-karnataka/",
                "https://www.propertywala.com/dodda_tumkur_bangalore",
                "http://www.trodly.com/india/destination-6070/tumkur",
                "https://www.tripoto.com/travel-guide/tumkur",
                "http://k-khanabadosh.blogspot.com/2013/01/the-nh7-road-trip-bangalore-to-hyderabad.html",
                "http://tumkurplaces.blogspot.com/",
                "https://www.quora.com/What-are-the-best-places-around-Bangalore-for-bike-rides",
                "https://www.tripoto.com/trip/bangalore-to-goa-road-trip-itinerary",
                "http://www.karnatakatourism.org/"
            ],
            "locType": "city",
            "longitude": "77.5912997",
            "latitude": "12.9791198",
            "address": "Bengaluru, Bangalore Urban, Karnataka, 560001, India",
            "closest_to": "tumkur"
        },
        "ulsoor lake": {
            "blogLinks": [
                "http://www.theweekendleader.com/Travel/1823/bangalore-15.html"
            ],
            "locType": "water",
            "longitude": "77.6191669052984",
            "latitude": "12.9823891",
            "address": "Halasuru lake, Annaswamy Mudaliar Road, Kothandram Layout, Halasuru, Bengaluru, Bangalore Urban, Karnataka, 560001, India",
            "closest_to": "bangalore"
        },
        "yeshwanthpur": {
            "blogLinks": [
                "https://www.tripoto.com/travel-guide/tumkur"
            ],
            "locType": "marketplace",
            "longitude": "77.5451161845771",
            "latitude": "13.0159579",
            "address": "Yeshwanthpur Yard market, Shankarnagar Main Road, Goragunte Palya, Nandini Layout, Bengaluru, Bangalore Urban, Karnataka, 560001, India",
            "closest_to": "tumkur"
        },
        "tirupati": {
            "blogLinks": [
                "https://www.quora.com/What-are-the-best-places-around-Bangalore-for-bike-rides"
            ],
            "locType": "village",
            "longitude": "76.2727455",
            "latitude": "13.3289007",
            "address": "Malekallu Tirupathi, Arasikere taluku, Hassan district, Karnataka, India",
            "closest_to": "tumkur"
        },
        "nanjundeshwara": {
            "blogLinks": [
                "http://www.buzzntravel.com/tamkur"
            ],
            "locType": "bar",
            "longitude": "77.6001886",
            "latitude": "12.9112404",
            "address": "Sri Nanjundeshwara bar and restaurant, Bannerghatta Road, MICO Layout, Marenahalli, Bengaluru, Bangalore Urban, Karnataka, 560001, India",
            "closest_to": "bangalore"
        },
        "ramanagar": {
            "blogLinks": [
                "https://www.quora.com/What-are-the-best-places-around-Bangalore-for-bike-rides"
            ],
            "locType": "primary",
            "longitude": "77.3418018",
            "latitude": "12.649356",
            "address": "Ramanagar-Kanakapura Road, Avverahalli, Ramanagara taluk, Ramanagara district, Karnataka, 562159, India",
            "closest_to": "bangalore"
        },
        "tumkur road": {
            "blogLinks": [
                "https://www.propertywala.com/dodda_tumkur_bangalore"
            ],
            "locType": "trunk",
            "longitude": "77.5360458",
            "latitude": "13.0311896",
            "address": "Tumkur Road, Goragunte Palya, Peenya, Bengaluru, Bangalore Urban, Karnataka, 560001, India",
            "closest_to": "tumkur"
        },
        "dasarahalli": {
            "blogLinks": [
                "https://www.propertywala.com/dodda_tumkur_bangalore"
            ],
            "locType": "village",
            "longitude": "77.6115282",
            "latitude": "13.0562455",
            "address": "Dasarahalli, Bangalore Urban, Karnataka, India",
            "closest_to": "tumkur"
        },
        "kanakapura taluk": {
            "blogLinks": [
                "https://www.quora.com/What-are-the-best-places-around-Bangalore-for-bike-rides"
            ],
            "locType": "administrative",
            "longitude": "77.4224204245398",
            "latitude": "12.5199223",
            "address": "Kanakapura taluk, Ramanagara district, Karnataka, India",
            "closest_to": "bangalore"
        },
        "lakshmi narasimha swamy temple": {
            "blogLinks": [
                "https://www.propertywala.com/dodda_tumkur_bangalore"
            ],
            "locType": "place_of_worship",
            "longitude": "77.6270726",
            "latitude": "13.0188187",
            "address": "Lakshmi Narasimha Swamy Temple, 5th Main Road, Shampura, Hennur, Bengaluru, Bangalore Urban, Karnataka, 560001, India",
            "closest_to": "bangalore"
        },
        "peenya": {
            "blogLinks": [
                "https://www.propertywala.com/dodda_tumkur_bangalore"
            ],
            "locType": "suburb",
            "longitude": "77.5273253",
            "latitude": "13.0329419",
            "address": "Peenya, Bengaluru, Bangalore Urban, Karnataka, 560001, India",
            "closest_to": "tumkur"
        },
        "manchanabele": {
            "blogLinks": [
                "https://www.quora.com/What-are-the-best-places-around-Bangalore-for-bike-rides"
            ],
            "locType": "village",
            "longitude": "77.3344212",
            "latitude": "12.8668921",
            "address": "Manchanabele, Magadi taluku, Ramanagara district, Karnataka, India",
            "closest_to": "tumkur"
        },
        "shimsha river": {
            "blogLinks": [
                "http://tumkurplaces.blogspot.com/"
            ],
            "locType": "river",
            "longitude": "76.972542",
            "latitude": "12.8027322",
            "address": "Shimsha, Kunigal taluk, Tumkur district, Karnataka, India",
            "closest_to": "tumkur"
        },
        "bangalore railway": {
            "blogLinks": [
                "http://travel.india.com/explore/wildlife-sanctuaries-in-karnataka/"
            ],
            "locType": "railway",
            "longitude": "77.6182271274845",
            "latitude": "13.001147",
            "address": "Bangalore East Railway Station, Cox Town, Bengaluru, Bangalore Urban, Karnataka, 560001, India",
            "closest_to": "bangalore"
        },
        "wonderla": {
            "blogLinks": [
                "http://www.theweekendleader.com/Travel/1823/bangalore-15.html"
            ],
            "locType": "bus_stop",
            "longitude": "77.4026822",
            "latitude": "12.8382986",
            "address": "Wonderla, Wonder La Road, Manchanayakanahalli, Ramanagara taluk, Ramanagara district, Karnataka, India",
            "closest_to": "tumkur"
        },
        "koratagere": {
            "blogLinks": [
                "http://tumkurplaces.blogspot.com/"
            ],
            "locType": "town",
            "longitude": "77.2358911",
            "latitude": "13.5215422",
            "address": "Koratagere, Koratagere taluku, Tumkur district, Karnataka, 572129, India",
            "closest_to": "tumkur"
        },
        "mahabaleshwara": {
            "blogLinks": [
                "http://travel.india.com/gokarna/"
            ],
            "locType": "place_of_worship",
            "longitude": "77.5899749843004",
            "latitude": "12.96264945",
            "address": "Mahabaleshwara Temple, Mission Road (Kalinga Rao Road ), Sampangirama Nagar, Shanti Nagar, Bengaluru, Bangalore Urban, Karnataka, 560001, India",
            "closest_to": "bangalore"
        },
        "gulmohar": {
            "blogLinks": [
                "https://www.quora.com/What-are-the-best-places-around-Bangalore-for-bike-rides"
            ],
            "locType": "residential",
            "longitude": "77.745811757371",
            "latitude": "12.9841671",
            "address": "MIMS Gulmohar Villas, Kadugodi, Prashanth Extension, Bangalore Urban, Karnataka, 56066, India",
            "closest_to": "bangalore"
        },
        "gopalakrishna": {
            "blogLinks": [
                "http://tumkurplaces.blogspot.com/"
            ],
            "locType": "yes",
            "longitude": "77.6091761",
            "latitude": "12.97359615",
            "address": "Gopalakrishna Complex, Residency Cross Road, Tasker Town, Ashok Nagar, Bengaluru, Bangalore Urban, Karnataka, 560001, India",
            "closest_to": "bangalore"
        },
        "kerala": {
            "blogLinks": [
                "https://www.quora.com/What-are-the-best-places-around-Bangalore-for-bike-rides",
                "http://travel.india.com/explore/wildlife-sanctuaries-in-karnataka/"
            ],
            "locType": "restaurant",
            "longitude": "77.6382683",
            "latitude": "12.9726449",
            "address": "New Life Kerala Mess, Sai Baba Mandira Road, Mottappanapalaya, Indiranagar, Bengaluru, Bangalore Urban, Karnataka, 560001, India",
            "closest_to": "bangalore"
        },
        "nandi hills": {
            "blogLinks": [
                "https://www.quora.com/What-are-the-best-places-around-Bangalore-for-bike-rides",
                "http://www.theweekendleader.com/Travel/1823/bangalore-15.html"
            ],
            "locType": "hotel",
            "longitude": "77.7194741670394",
            "latitude": "13.268142",
            "address": "Nandi Upahara, Nandhi Hills Road, Kottige Thimmanahalli, Devanahalli taluk, Bangalore Rural, Karnataka, India",
            "closest_to": "tumkur"
        },
        "bidadi": {
            "blogLinks": [
                "http://www.theweekendleader.com/Travel/1823/bangalore-15.html"
            ],
            "locType": "town",
            "longitude": "77.3869947",
            "latitude": "12.7988507",
            "address": "Bidadi, Ramanagara taluk, Ramanagara district, Karnataka, India",
            "closest_to": "bangalore"
        },
        "chunchi falls": {
            "blogLinks": [
                "https://www.quora.com/What-are-the-best-places-around-Bangalore-for-bike-rides"
            ],
            "locType": "waterfall",
            "longitude": "77.4459464",
            "latitude": "12.3515083",
            "address": "Chunchi Falls, Kanakapura taluk, Ramanagara district, Karnataka, India",
            "closest_to": "bangalore"
        },
        "hitech city": {
            "blogLinks": [
                "http://k-khanabadosh.blogspot.com/2013/01/the-nh7-road-trip-bangalore-to-hyderabad.html"
            ],
            "locType": "pharmacy",
            "longitude": "77.6548332",
            "latitude": "12.8701786",
            "address": "SRS Hitech Diagnostic Laboratory, 736, Hosa Road, AECS Layout, A block, Kudlu, Konappana Agrahara, Bangalore Urban, Karnataka, 560100, India",
            "closest_to": "bangalore"
        },
        "national park": {
            "blogLinks": [
                "https://www.quora.com/What-are-the-best-places-around-Bangalore-for-bike-rides"
            ],
            "locType": "national_park",
            "longitude": "77.5722783830694",
            "latitude": "12.77900335",
            "address": "Bannerghatta National Park, Anekal Road, Begihalli, Bangalore Urban, Karnataka, 560076, India",
            "closest_to": "bangalore"
        },
        "bengal": {
            "blogLinks": [
                "http://travel.india.com/explore/wildlife-sanctuaries-in-karnataka/"
            ],
            "locType": "industrial",
            "longitude": "77.7517038151245",
            "latitude": "13.0492646",
            "address": "Bengal Lamps, Konadasapura, Bangalore Urban, Karnataka, 560066, India",
            "closest_to": "bangalore"
        },
        "magadi": {
            "blogLinks": [
                "https://www.quora.com/What-are-the-best-places-around-Bangalore-for-bike-rides"
            ],
            "locType": "town",
            "longitude": "77.2242281",
            "latitude": "12.9567353",
            "address": "Magadi, Magadi taluku, Ramanagara district, Karnataka, 562120, India",
            "closest_to": "tumkur"
        },
        "hesaraghatta": {
            "blogLinks": [
                "https://www.propertywala.com/dodda_tumkur_bangalore"
            ],
            "locType": "village",
            "longitude": "77.4783628",
            "latitude": "13.1393984",
            "address": "Hesaraghatta, Bangalore Urban, Karnataka, India",
            "closest_to": "tumkur"
        },
        "mumbai": {
            "blogLinks": [
                "http://praveenpn.com/blog/2011/01/05/bangalore-to-goa-by-car/",
                "http://www.theweekendleader.com/Travel/1823/bangalore-15.html"
            ],
            "locType": "restaurant",
            "longitude": "77.5718472",
            "latitude": "13.0002869",
            "address": "Mumbai Spice, 18/2, 10th Cross, Malleswaram, Vyalikaval, Malleswaram, Bengaluru, Bangalore Urban, Karnataka, 560003, India",
            "closest_to": "tumkur"
        },
        "devarayanadurga": {
            "blogLinks": [
                "http://www.buzzntravel.com/tamkur"
            ],
            "locType": "peak",
            "longitude": "77.2143445",
            "latitude": "13.3740537",
            "address": "Devarayanadurga, Tumakuru, Tumkur taluk, Tumkur district, Karnataka, 572101, India",
            "closest_to": "tumkur"
        },
        "yediyur": {
            "blogLinks": [
                "http://www.trodly.com/india/destination-6070/tumkur"
            ],
            "locType": "village",
            "longitude": "77.6957681",
            "latitude": "13.1312237",
            "address": "Yediyur, Bangalore Urban, Karnataka, India",
            "closest_to": "tumkur"
        },
        "calcutta": {
            "blogLinks": [
                "https://www.tripoto.com/trip/bangalore-to-goa-road-trip-itinerary"
            ],
            "locType": "restaurant",
            "longitude": "77.6031547",
            "latitude": "12.9753406",
            "address": "Oh! Calcutta, Church Street, Tasker Town, Ashok Nagar, Bengaluru, Bangalore Urban, Karnataka, 560001, India",
            "closest_to": "bangalore"
        },
        "siddaganga": {
            "blogLinks": [
                "http://www.trodly.com/india/destination-6070/tumkur"
            ],
            "locType": "locality",
            "longitude": "77.1484965",
            "latitude": "13.3192795",
            "address": "Siddaganga Matha, Tumakuru, Tumkur taluk, Tumkur district, Karnataka, 572101, India",
            "closest_to": "tumkur"
        },
        "india bengaluru": {
            "blogLinks": [
                "https://www.quora.com/What-are-the-best-places-around-Bangalore-for-bike-rides"
            ],
            "locType": "courthouse",
            "longitude": "77.5925914",
            "latitude": "12.977944",
            "address": "Karnataka High Court, Dr B R Ambedkar Veedhi, Shantala Nagar, Gandhinagar, Bengaluru, Bangalore Urban, Karnataka, 560001, India",
            "closest_to": "bangalore"
        },
        "yamuna expressway": {
            "blogLinks": [
                "http://k-khanabadosh.blogspot.com/2013/01/the-nh7-road-trip-bangalore-to-hyderabad.html"
            ],
            "locType": "unclassified",
            "longitude": "77.5777875",
            "latitude": "12.9857254",
            "address": "Yamuna Bai Road, Balepet, High Grounds, Bengaluru, Bangalore Urban, Karnataka, 560001, India",
            "closest_to": "tumkur"
        },
        "mahabaleshwara temple": {
            "blogLinks": [
                "http://travel.india.com/gokarna/"
            ],
            "locType": "place_of_worship",
            "longitude": "77.5899749843004",
            "latitude": "12.96264945",
            "address": "Mahabaleshwara Temple, Mission Road (Kalinga Rao Road ), Sampangirama Nagar, Shanti Nagar, Bengaluru, Bangalore Urban, Karnataka, 560001, India",
            "closest_to": "bangalore"
        },
        "sangama": {
            "blogLinks": [
                "https://www.quora.com/What-are-the-best-places-around-Bangalore-for-bike-rides"
            ],
            "locType": "attraction",
            "longitude": "77.4320447",
            "latitude": "12.2880428",
            "address": "Sangam, SH92, Mahalli, Kanakapura taluk, Ramanagara district, Karnataka, India",
            "closest_to": "bangalore"
        },
        "varanasi": {
            "blogLinks": [
                "http://k-khanabadosh.blogspot.com/2013/01/the-nh7-road-trip-bangalore-to-hyderabad.html",
                "http://travel.india.com/gokarna/"
            ],
            "locType": "village",
            "longitude": "77.6860657",
            "latitude": "13.0304962",
            "address": "Varanasi, Bangalore Urban, Karnataka, India",
            "closest_to": "bangalore"
        },
        "singapore": {
            "blogLinks": [
                "http://www.theweekendleader.com/Travel/1823/bangalore-15.html"
            ],
            "locType": "neighbourhood",
            "longitude": "77.5483703",
            "latitude": "12.8861812",
            "address": "Singapore Gardens, Vajrahalli, Bengaluru, Bangalore Urban, Karnataka, 560001, India",
            "closest_to": "bangalore"
        },
        "bangalore east": {
            "blogLinks": [
                "http://praveenpn.com/blog/2011/01/05/bangalore-to-goa-by-car/"
            ],
            "locType": "city",
            "longitude": "77.5912997",
            "latitude": "12.9791198",
            "address": "Bengaluru, Bangalore Urban, Karnataka, 560001, India",
            "closest_to": "tumkur"
        }
    }
}