{
    "sirsi": {
        "osm_id": "245628312",
        "display_name": "Sirsi, Shirasi taluk, Uttara Kannada, Karnataka, 581400, India",
        "importance": 0.5,
        "place_id": "630058",
        "class": "place",
        "boundingbox": [
            "14.5792362",
            "14.6592362",
            "74.7988611",
            "74.8788611"
        ],
        "type": "town",
        "lon": "74.8388611",
        "licence": "Data \u00a9 OpenStreetMap contributors, ODbL 1.0. http://www.openstreetmap.org/copyright",
        "osm_type": "node",
        "lat": "14.6192362",
        "icon": "https://nominatim.openstreetmap.org/images/mapicons/poi_place_town.p.20.png"
    },
    "mentions": {
        "ganapathi lake": {
            "locType": "water",
            "blogLinks": [
                "https://en.wikipedia.org/wiki/Sagara,_Karnataka"
            ],
            "longitude": "75.0337898302367",
            "closest_to": "sirsi",
            "latitude": "14.1660665",
            "address": "Ganapathi Lake, J. C. Road, Sagara, Sagara taluk, Shimoga district, Karnataka, 577400, India"
        },
        "majali": {
            "locType": "village",
            "blogLinks": [
                "https://www.tripoto.com/places-to-visit/india/uttara-kannada"
            ],
            "longitude": "74.1084739",
            "closest_to": "sirsi",
            "latitude": "14.8949815",
            "address": "Majali, Karavara taluk, Uttara Kannada, Karnataka, India"
        },
        "kamat hotel": {
            "locType": "restaurant",
            "blogLinks": [
                "http://praveenpn.com/blog/2011/01/05/bangalore-to-goa-by-car/"
            ],
            "longitude": "75.0131542",
            "closest_to": "sirsi",
            "latitude": "15.4595482",
            "address": "Kamat Hotel, Subhas Road, Saidapur, Kamalapura, Dharwad, Dharawada taluku, Dharwad district, Karnataka, 580001, India"
        },
        "kudle beach": {
            "locType": "beach",
            "blogLinks": [
                "https://www.tripoto.com/places-to-visit/india/uttara-kannada"
            ],
            "longitude": "74.3156783937192",
            "closest_to": "sirsi",
            "latitude": "14.5281015",
            "address": "Kudle Beach, Om beach road, Gokarna, Kumata taluk, Uttara Kannada, Karnataka, 581326, India"
        },
        "hubli-karwar": {
            "locType": "trunk",
            "blogLinks": [
                "http://praveenpn.com/blog/2011/01/05/bangalore-to-goa-by-car/"
            ],
            "longitude": "76.36038",
            "closest_to": "sirsi",
            "latitude": "15.2639568",
            "address": "Hubli-Karwar Road, Amaravati, Hosapete taluk, Bellary district, Karnataka, 583225, India"
        },
        "honnavar": {
            "locType": "town",
            "blogLinks": [
                "http://praveenpn.com/blog/2011/01/05/bangalore-to-goa-by-car/",
                "https://en.wikipedia.org/wiki/Sagara,_Karnataka"
            ],
            "longitude": "74.4446716",
            "closest_to": "sirsi",
            "latitude": "14.2810827",
            "address": "Honnavar, Honnavara taluku, Uttara Kannada, Karnataka, 581334, India"
        },
        "ramanagara": {
            "locType": "town",
            "blogLinks": [
                "http://www.distancecalculator.net/from-belgaum-to-sirsi"
            ],
            "longitude": "74.4900863",
            "closest_to": "sirsi",
            "latitude": "15.422047",
            "address": "Ramanagara, Khanapura taluku, Belgaum district, Karnataka, India"
        },
        "margao": {
            "locType": "bank",
            "blogLinks": [
                "http://praveenpn.com/blog/2011/01/05/bangalore-to-goa-by-car/"
            ],
            "longitude": "73.9583411",
            "closest_to": "sirsi",
            "latitude": "15.2740083",
            "address": "Karnataka bank, NH66, Aquem, Fatorda, Margao, South Goa, Goa, 403600, India"
        },
        "bhatkal": {
            "locType": "town",
            "blogLinks": [
                "https://www.tripadvisor.in/ShowUserReviews-g2294723-d2629489-r432885441-Vadiraj_Mutt-Sirsi_Karnataka.html",
                "https://en.wikipedia.org/wiki/Sagara,_Karnataka"
            ],
            "longitude": "74.5485295",
            "closest_to": "sirsi",
            "latitude": "13.9952114",
            "address": "Bhatkal, Bhatkala taluk, Uttara Kannada, Karnataka, 581320, India"
        },
        "keladi": {
            "locType": "village",
            "blogLinks": [
                "https://en.wikipedia.org/wiki/Sagara,_Karnataka"
            ],
            "longitude": "75.0165753",
            "closest_to": "sirsi",
            "latitude": "14.2214761",
            "address": "Keladi, Sagara taluk, Shimoga district, Karnataka, India"
        },
        "jog falls": {
            "locType": "locality",
            "blogLinks": [
                "https://en.wikipedia.org/wiki/Sagara,_Karnataka"
            ],
            "longitude": "74.8128715",
            "closest_to": "sirsi",
            "latitude": "14.2276106",
            "address": "Jog Falls, Joga - Kargal, Sagara taluk, Shimoga district, Karnataka, India"
        },
        "koppal": {
            "locType": "town",
            "blogLinks": [
                "http://www.mapsofindia.com/maps/karnataka/"
            ],
            "longitude": "76.1547421",
            "closest_to": "sirsi",
            "latitude": "15.3484144",
            "address": "Koppala, Koppala taluku, Koppal district, Karnataka, 583231, India"
        },
        "hosanagar": {
            "locType": "marketplace",
            "blogLinks": [
                "https://en.wikipedia.org/wiki/Sagara,_Karnataka"
            ],
            "longitude": "75.0631116",
            "closest_to": "sirsi",
            "latitude": "13.9166601",
            "address": "Hosanagar Santhe Market, Nehru Road, Kaluru, Hosanagara taluk, Shimoga district, Karnataka, 577418, India"
        },
        "belgaum fort": {
            "locType": "locality",
            "blogLinks": [
                "http://www.nivalink.com/destination/belgaum"
            ],
            "longitude": "74.5255651",
            "closest_to": "sirsi",
            "latitude": "15.8581696",
            "address": "Belgaum Fort, Belagavi, Belagavi taluku, Belgaum district, Karnataka, 590001, India"
        },
        "marikamba temple": {
            "locType": "place_of_worship",
            "blogLinks": [
                "https://en.wikipedia.org/wiki/Sagara,_Karnataka"
            ],
            "longitude": "74.8103631279317",
            "closest_to": "sirsi",
            "latitude": "13.8626958",
            "address": "Marikamba Temple, NH766C;SH26, Halkal, \u0c95\u0cc1\u0c82\u0ca6\u0cbe\u0caa\u0cc1\u0cb0 \u0ca4\u0cbe\u0cb2\u0cc2\u0c95\u0cc1, Udupi district, Karnataka, 576220, India"
        },
        "belgaum": {
            "locType": "county",
            "blogLinks": [
                "http://www.nivalink.com/destination/belgaum"
            ],
            "longitude": "74.75",
            "closest_to": "sirsi",
            "latitude": "16.333333",
            "address": "Belgaum, Belgaum district, Karnataka, India"
        },
        "manjuguni": {
            "locType": "village",
            "blogLinks": [
                "https://www.tripadvisor.in/ShowUserReviews-g2294723-d2629489-r432885441-Vadiraj_Mutt-Sirsi_Karnataka.html"
            ],
            "longitude": "74.3028963",
            "closest_to": "sirsi",
            "latitude": "14.6024185",
            "address": "Manjuguni, Ankola taluk, Uttara Kannada, Karnataka, India"
        },
        "kalaseshwara temple": {
            "locType": "place_of_worship",
            "blogLinks": [
                "http://www.nivalink.com/destination/yellapur"
            ],
            "longitude": "75.363446975",
            "closest_to": "sirsi",
            "latitude": "13.23228505",
            "address": "Kalaseshwara Temple, SH66, Kalasa, Mudigere taluk, Chikkamagaluru district, Karnataka, 577124, India"
        },
        "honnali": {
            "locType": "town",
            "blogLinks": [
                "https://en.wikipedia.org/wiki/Sagara,_Karnataka"
            ],
            "longitude": "75.6457434",
            "closest_to": "sirsi",
            "latitude": "14.2389785",
            "address": "Honnali, Honnali taluku, Davanagere district, Karnataka, 577217, India"
        },
        "kumta railway station": {
            "locType": "station",
            "blogLinks": [
                "https://www.tripadvisor.in/ShowUserReviews-g2294723-d2629489-r432885441-Vadiraj_Mutt-Sirsi_Karnataka.html",
                "http://www.ticketgoose.com/bus-tickets/sirsi-to-belgaum"
            ],
            "longitude": "74.4210018",
            "closest_to": "sirsi",
            "latitude": "14.4371302",
            "address": "Kumta, NH66, Manaki, Kumata taluk, Uttara Kannada, Karnataka, India"
        },
        "linganamakki": {
            "locType": "village",
            "blogLinks": [
                "https://en.wikipedia.org/wiki/Sagara,_Karnataka"
            ],
            "longitude": "74.8292508",
            "closest_to": "sirsi",
            "latitude": "14.1731954",
            "address": "Linganamakki, Sagara taluk, Shimoga district, Karnataka, India"
        },
        "hubli airport": {
            "locType": "aerodrome",
            "blogLinks": [
                "https://www.tripadvisor.in/ShowUserReviews-g2294723-d2629489-r432885441-Vadiraj_Mutt-Sirsi_Karnataka.html",
                "http://www.ticketgoose.com/bus-tickets/sirsi-to-belgaum"
            ],
            "longitude": "75.0860974",
            "closest_to": "sirsi",
            "latitude": "15.3598315",
            "address": "Hubli Airport, \u0c97\u0ccb\u0c95\u0cc1\u0cb2 \u0cb0\u0ccb\u0ca1\u0ccd, Padmaraj Nagar, Gokul, Hubballi taluku, Dharwad district, Karnataka, 580030, India"
        },
        "kumta": {
            "locType": "town",
            "blogLinks": [
                "https://en.wikipedia.org/wiki/Sirsi,_Karnataka",
                "https://www.tripadvisor.in/ShowUserReviews-g2294723-d2629489-r432885441-Vadiraj_Mutt-Sirsi_Karnataka.html",
                "https://www.tripoto.com/places-to-visit/india/uttara-kannada"
            ],
            "longitude": "74.4107617",
            "closest_to": "sirsi",
            "latitude": "14.4261647",
            "address": "Kumta, Kumata taluk, Uttara Kannada, Karnataka, India"
        },
        "om beach": {
            "locType": "beach",
            "blogLinks": [
                "https://www.tripoto.com/places-to-visit/india/uttara-kannada"
            ],
            "longitude": "74.3254331800289",
            "closest_to": "sirsi",
            "latitude": "14.5190376",
            "address": "Om Beach, Om beach road, Gokarna, Kumata taluk, Uttara Kannada, Karnataka, 581326, India"
        },
        "shivamogga": {
            "locType": "city",
            "blogLinks": [
                "https://en.wikipedia.org/wiki/Sagara,_Karnataka"
            ],
            "longitude": "75.569737",
            "closest_to": "sirsi",
            "latitude": "13.9311723",
            "address": "Shivamogga, Shivamogga taluku, Shimoga district, Karnataka, 577200, India"
        },
        "kundapura": {
            "locType": "town",
            "blogLinks": [
                "http://www.nivalink.com/destination/yellapur"
            ],
            "longitude": "74.6915722",
            "closest_to": "sirsi",
            "latitude": "13.6250993",
            "address": "Kundapura, \u0c95\u0cc1\u0c82\u0ca6\u0cbe\u0caa\u0cc1\u0cb0 \u0ca4\u0cbe\u0cb2\u0cc2\u0c95\u0cc1, Udupi district, Karnataka, 576200, India"
        },
        "hosagadde": {
            "locType": "locality",
            "blogLinks": [
                "https://en.wikipedia.org/wiki/Sagara,_Karnataka"
            ],
            "longitude": "74.7527463",
            "closest_to": "sirsi",
            "latitude": "14.3274092",
            "address": "Hosagadde, Kelaginamane, Siddapura taluk, Uttara Kannada, Karnataka, India"
        },
        "ratnagiri highway": {
            "locType": "secondary",
            "blogLinks": [
                "http://www.nivalink.com/destination/belgaum"
            ],
            "longitude": "75.7727724",
            "closest_to": "sirsi",
            "latitude": "13.3292344",
            "address": "Ratnagiri Road, Basavannahalli, Chikkamagaluru, Chikkamagaluru taluku, Chikkamagaluru district, Karnataka, 577101, India"
        },
        "bhairaveshwara shikhara": {
            "locType": "peak",
            "blogLinks": [
                "http://www.nivalink.com/destination/yellapur"
            ],
            "longitude": "74.5674551",
            "closest_to": "sirsi",
            "latitude": "14.5902071",
            "address": "Bhairaveshwara Shikhara, Kumata taluk, Uttara Kannada, Karnataka, India"
        },
        "bankapura": {
            "locType": "town",
            "blogLinks": [
                "http://praveenpn.com/blog/2011/01/05/bangalore-to-goa-by-car/"
            ],
            "longitude": "75.2639298",
            "closest_to": "sirsi",
            "latitude": "14.9217443",
            "address": "Bankapura, Shiggaon taluk, Haveri district, Karnataka, 581202, India"
        },
        "sahyadri": {
            "locType": "school",
            "blogLinks": [
                "https://en.wikipedia.org/wiki/Sirsi,_Karnataka"
            ],
            "longitude": "75.2317987800043",
            "closest_to": "sirsi",
            "latitude": "13.6983273",
            "address": "Sahyadri Polytechnic, SH1, Seebinakere, Sankadahole, Tirthahalli taluk, Shimoga district, Karnataka, 577432, India"
        },
        "karwar": {
            "locType": "town",
            "blogLinks": [
                "http://praveenpn.com/blog/2011/01/05/bangalore-to-goa-by-car/",
                "https://en.wikipedia.org/wiki/Sirsi,_Karnataka",
                "https://www.tripadvisor.in/ShowUserReviews-g2294723-d2629489-r432885441-Vadiraj_Mutt-Sirsi_Karnataka.html",
                "https://www.tripoto.com/places-to-visit/india/uttara-kannada",
                "https://en.wikipedia.org/wiki/Sagara,_Karnataka"
            ],
            "longitude": "74.1319229",
            "closest_to": "sirsi",
            "latitude": "14.8120931",
            "address": "Karwar, Karavara taluk, Uttara Kannada, Karnataka, 581300, India"
        },
        "belgaum railway station": {
            "locType": "station",
            "blogLinks": [
                "http://www.ticketgoose.com/bus-tickets/sirsi-to-belgaum"
            ],
            "longitude": "74.509065",
            "closest_to": "sirsi",
            "latitude": "15.8489677",
            "address": "Belgaum, Belgaum - Panaji Highway, Cantonment, Belagavi, Belagavi taluku, Belgaum district, Karnataka, 590001, India"
        },
        "amboli": {
            "locType": "village",
            "blogLinks": [
                "http://www.nivalink.com/destination/belgaum"
            ],
            "longitude": "74.4340839",
            "closest_to": "sirsi",
            "latitude": "15.6456171",
            "address": "Amboli, Khanapura taluku, Belgaum district, Karnataka, India"
        },
        "india": {
            "locType": "administrative",
            "blogLinks": [
                "http://praveenpn.com/blog/2011/01/05/bangalore-to-goa-by-car/",
                "https://www.tripadvisor.in/ShowUserReviews-g2294723-d2629489-r432885441-Vadiraj_Mutt-Sirsi_Karnataka.html",
                "http://www.distancesfrom.com/in/travel-time-from-Belgaum-to-Hulikal-via-Sirsi-Sagara/TravelTimeHistory/4914946.aspx",
                "http://www.mapsofindia.com/maps/karnataka/",
                "http://distancecalculator.globefeed.com/India_Distance_Calculator.asp?state=19",
                "http://www.nivalink.com/destination/yellapur",
                "http://www.distancecalculator.net/from-belgaum-to-sirsi",
                "https://www.tripadvisor.com/Attractions-g2294723-Activities-Sirsi_Karnataka.html",
                "https://en.wikipedia.org/wiki/Sagara,_Karnataka",
                "http://www.distancesfrom.com/distance-from-Kolhapur-to-Sirsi---Hubli---Belgaum-Rd-Tadas/DistanceHistory/29211594.aspx",
                "http://www.distancesfrom.com/in/directions-from-Sirsi-to-Belgaum-via-Hubli-Dharwad/DirectionHistory/13794627.aspx",
                "https://en.wikipedia.org/wiki/Sirsi,_Karnataka"
            ],
            "longitude": "75.7223521",
            "closest_to": "sirsi",
            "latitude": "14.5203896",
            "address": "Karnataka, India"
        },
        "bankapur": {
            "locType": "town",
            "blogLinks": [
                "http://praveenpn.com/blog/2011/01/05/bangalore-to-goa-by-car/"
            ],
            "longitude": "75.2639298",
            "closest_to": "sirsi",
            "latitude": "14.9217443",
            "address": "Bankapura, Shiggaon taluk, Haveri district, Karnataka, 581202, India"
        },
        "half moon": {
            "locType": "restaurant",
            "blogLinks": [
                "https://www.tripoto.com/places-to-visit/india/uttara-kannada"
            ],
            "longitude": "74.3317205",
            "closest_to": "sirsi",
            "latitude": "14.5181286",
            "address": "Half Moon Garden Caf\u00e9, Om beach road, Gokarna, Kumata taluk, Uttara Kannada, Karnataka, 581326, India"
        },
        "marikamba": {
            "locType": "place_of_worship",
            "blogLinks": [
                "https://en.wikipedia.org/wiki/Sirsi,_Karnataka",
                "http://www.nivalink.com/destination/yellapur",
                "http://www.ticketgoose.com/bus-tickets/sirsi-to-belgaum"
            ],
            "longitude": "74.8103631279317",
            "closest_to": "sirsi",
            "latitude": "13.8626958",
            "address": "Marikamba Temple, NH766C;SH26, Halkal, \u0c95\u0cc1\u0c82\u0ca6\u0cbe\u0caa\u0cc1\u0cb0 \u0ca4\u0cbe\u0cb2\u0cc2\u0c95\u0cc1, Udupi district, Karnataka, 576220, India"
        },
        "udupi district": {
            "locType": "administrative",
            "blogLinks": [
                "https://www.tripoto.com/places-to-visit/india/uttara-kannada"
            ],
            "longitude": "74.7469037178649",
            "closest_to": "sirsi",
            "latitude": "13.49007305",
            "address": "Udupi district, Karnataka, India"
        },
        "linganamakki dam": {
            "locType": "dam",
            "blogLinks": [
                "https://www.tripoto.com/places-to-visit/india/uttara-kannada"
            ],
            "longitude": "74.8464623767123",
            "closest_to": "sirsi",
            "latitude": "14.1758978",
            "address": "Linganamakki Dam, Sagara taluk, Shimoga district, Karnataka, India"
        },
        "river kali": {
            "locType": "river",
            "blogLinks": [
                "https://www.tripoto.com/places-to-visit/india/uttara-kannada"
            ],
            "longitude": "74.5802901",
            "closest_to": "sirsi",
            "latitude": "15.0145378",
            "address": "Kali, Joida taluk, Uttara Kannada, Karnataka, India"
        },
        "mundgod": {
            "locType": "village",
            "blogLinks": [
                "http://praveenpn.com/blog/2011/01/05/bangalore-to-goa-by-car/",
                "http://www.nivalink.com/destination/yellapur"
            ],
            "longitude": "75.0371451",
            "closest_to": "sirsi",
            "latitude": "14.9705105",
            "address": "Mundgod, Mundagoda taluk, Uttara Kannada, Karnataka, 581349, India"
        },
        "sagara": {
            "locType": "town",
            "blogLinks": [
                "https://en.wikipedia.org/wiki/Sagara,_Karnataka"
            ],
            "longitude": "75.0262551",
            "closest_to": "sirsi",
            "latitude": "14.1666594",
            "address": "Sagara, Sagara taluk, Shimoga district, Karnataka, 577400, India"
        },
        "half moon beach": {
            "locType": "beach",
            "blogLinks": [
                "https://www.tripoto.com/places-to-visit/india/uttara-kannada"
            ],
            "longitude": "74.3310971256284",
            "closest_to": "sirsi",
            "latitude": "14.5179028",
            "address": "Half Moon Beach, Om beach road, Gokarna, Kumata taluk, Uttara Kannada, Karnataka, 581326, India"
        },
        "banavasi": {
            "locType": "town",
            "blogLinks": [
                "https://en.wikipedia.org/wiki/Sirsi,_Karnataka",
                "https://en.wikipedia.org/wiki/Sagara,_Karnataka"
            ],
            "longitude": "75.0129845",
            "closest_to": "sirsi",
            "latitude": "14.5389738",
            "address": "Banavasi, Shirasi taluk, Uttara Kannada, Karnataka, India"
        },
        "sagar": {
            "locType": "town",
            "blogLinks": [
                "https://en.wikipedia.org/wiki/Sagara,_Karnataka"
            ],
            "longitude": "75.0262551",
            "closest_to": "sirsi",
            "latitude": "14.1666594",
            "address": "Sagara, Sagara taluk, Shimoga district, Karnataka, 577400, India"
        },
        "urdu": {
            "locType": "recreation_ground",
            "blogLinks": [
                "https://en.wikipedia.org/wiki/Sirsi,_Karnataka"
            ],
            "longitude": "75.636575371858",
            "closest_to": "sirsi",
            "latitude": "14.6180369",
            "address": "Urdu Ground, Ranebennur, Ranebennuru taluk, Haveri district, Karnataka, 581115, India"
        },
        "uttara kannada": {
            "locType": "administrative",
            "blogLinks": [
                "https://en.wikipedia.org/wiki/Sirsi,_Karnataka"
            ],
            "longitude": "74.4729163045979",
            "closest_to": "sirsi",
            "latitude": "14.6726379",
            "address": "Uttara Kannada, Karnataka, India"
        },
        "haveri": {
            "locType": "town",
            "blogLinks": [
                "https://www.tripoto.com/places-to-visit/india/uttara-kannada"
            ],
            "longitude": "75.3996731",
            "closest_to": "sirsi",
            "latitude": "14.7874825",
            "address": "Haveri, Haveri taluku, Haveri district, Karnataka, 581110, India"
        },
        "belgaum airport": {
            "locType": "aerodrome",
            "blogLinks": [
                "http://www.ticketgoose.com/bus-tickets/sirsi-to-belgaum"
            ],
            "longitude": "74.6189763983851",
            "closest_to": "sirsi",
            "latitude": "15.8602827",
            "address": "Belgaum Airport, SH20, Balekundri, Belagavi taluku, Belgaum district, Karnataka, 591124, India"
        },
        "hubli-dharwad": {
            "locType": "city",
            "blogLinks": [
                "http://www.distancesfrom.com/in/travel-time-from-Belgaum-to-Hulikal-via-Sirsi-Sagara/TravelTimeHistory/4914946.aspx",
                "http://www.distancesfrom.com/distance-from-Kolhapur-to-Sirsi---Hubli---Belgaum-Rd-Tadas/DistanceHistory/29211594.aspx",
                "http://www.distancesfrom.com/in/travel-from-Sirsi-to-Belgaum-via-Hubli-Dharwad/TravelFromHistory/13794627.aspx",
                "http://www.distancesfrom.com/in/directions-from-Sirsi-to-Belgaum-via-Hubli-Dharwad/DirectionHistory/13794627.aspx",
                "http://www.distancesfrom.com/in/flight-time-from-Sirsi-to-Belgaum-via-Hubli-Dharwad/FlightTimeHistory/13794627.aspx",
                "http://www.karnatakatourism.org/"
            ],
            "longitude": "75.1379848",
            "closest_to": "sirsi",
            "latitude": "15.3518378",
            "address": "Hubballi - \u0cb9\u0cc1\u0cac\u0ccd\u0cac\u0cb3\u0ccd\u0cb3\u0cbf, Hubballi taluku, Dharwad district, Karnataka, 580020, India"
        },
        "gokarna": {
            "locType": "town",
            "blogLinks": [
                "https://www.tripoto.com/places-to-visit/india/uttara-kannada",
                "https://en.wikipedia.org/wiki/Sagara,_Karnataka"
            ],
            "longitude": "74.3184418",
            "closest_to": "sirsi",
            "latitude": "14.5439629",
            "address": "Gokarna, Kumata taluk, Uttara Kannada, Karnataka, 581326, India"
        },
        "sharavati river": {
            "locType": "river",
            "blogLinks": [
                "https://en.wikipedia.org/wiki/Sagara,_Karnataka"
            ],
            "longitude": "74.7647294",
            "closest_to": "sirsi",
            "latitude": "14.2360979",
            "address": "Sharavati, Sagara taluk, Shimoga district, Karnataka, India"
        },
        "yellapur": {
            "locType": "town",
            "blogLinks": [
                "http://praveenpn.com/blog/2011/01/05/bangalore-to-goa-by-car/"
            ],
            "longitude": "74.7061458",
            "closest_to": "sirsi",
            "latitude": "14.9622518",
            "address": "Yellapura, Yallapura taluk, Uttara Kannada, Karnataka, 581359, India"
        },
        "uttara kannada district": {
            "locType": "county",
            "blogLinks": [
                "https://www.tripoto.com/places-to-visit/india/uttara-kannada"
            ],
            "longitude": "74.583333",
            "closest_to": "sirsi",
            "latitude": "14.883333",
            "address": "Uttara Kannada, Karnataka, India"
        },
        "jog road": {
            "locType": "locality",
            "blogLinks": [
                "https://en.wikipedia.org/wiki/Sagara,_Karnataka"
            ],
            "longitude": "74.8128715",
            "closest_to": "sirsi",
            "latitude": "14.2276106",
            "address": "Jog Falls, Joga - Kargal, Sagara taluk, Shimoga district, Karnataka, India"
        },
        "kudle": {
            "locType": "hotel",
            "blogLinks": [
                "https://www.tripoto.com/places-to-visit/india/uttara-kannada"
            ],
            "longitude": "74.3178853",
            "closest_to": "sirsi",
            "latitude": "14.5290707",
            "address": "Kudle Ocean Front resort, Om beach road, Gokarna, Kumata taluk, Uttara Kannada, Karnataka, 581326, India"
        },
        "aghanashini river": {
            "locType": "river",
            "blogLinks": [
                "http://www.ticketgoose.com/bus-tickets/sirsi-to-belgaum"
            ],
            "longitude": "74.3985687",
            "closest_to": "sirsi",
            "latitude": "14.4947118",
            "address": "Aghanashini, Kumata taluk, Uttara Kannada, Karnataka, India"
        },
        "kadur": {
            "locType": "trunk",
            "blogLinks": [
                "https://en.wikipedia.org/wiki/Sagara,_Karnataka"
            ],
            "longitude": "75.7820095",
            "closest_to": "sirsi",
            "latitude": "13.3283654",
            "address": "Mudigere-Kadur Road, Basavannahalli, Chikkamagaluru, Chikkamagaluru taluku, Chikkamagaluru district, Karnataka, 577101, India"
        },
        "sharavati": {
            "locType": "river",
            "blogLinks": [
                "https://en.wikipedia.org/wiki/Sagara,_Karnataka"
            ],
            "longitude": "74.7647294",
            "closest_to": "sirsi",
            "latitude": "14.2360979",
            "address": "Sharavati, Sagara taluk, Shimoga district, Karnataka, India"
        },
        "hubli karwar": {
            "locType": "trunk",
            "blogLinks": [
                "http://praveenpn.com/blog/2011/01/05/bangalore-to-goa-by-car/"
            ],
            "longitude": "76.36038",
            "closest_to": "sirsi",
            "latitude": "15.2639568",
            "address": "Hubli-Karwar Road, Amaravati, Hosapete taluk, Bellary district, Karnataka, 583225, India"
        },
        "dandeli": {
            "locType": "town",
            "blogLinks": [
                "https://www.tripadvisor.in/ShowUserReviews-g2294723-d2629489-r432885441-Vadiraj_Mutt-Sirsi_Karnataka.html",
                "http://www.nivalink.com/destination/belgaum"
            ],
            "longitude": "74.6236037",
            "closest_to": "sirsi",
            "latitude": "15.2490284",
            "address": "Dandeli, Haliyala taluku, Uttara Kannada, Karnataka, 581325, India"
        },
        "sagar taluk": {
            "locType": "town",
            "blogLinks": [
                "https://en.wikipedia.org/wiki/Sagara,_Karnataka"
            ],
            "longitude": "75.0262551",
            "closest_to": "sirsi",
            "latitude": "14.1666594",
            "address": "Sagara, Sagara taluk, Shimoga district, Karnataka, 577400, India"
        },
        "dharwad": {
            "locType": "city",
            "blogLinks": [
                "https://en.wikipedia.org/wiki/Sirsi,_Karnataka",
                "https://www.tripadvisor.in/ShowUserReviews-g2294723-d2629489-r432885441-Vadiraj_Mutt-Sirsi_Karnataka.html",
                "http://www.mapsofindia.com/maps/karnataka/"
            ],
            "longitude": "75.0066516",
            "closest_to": "sirsi",
            "latitude": "15.4540505",
            "address": "Dharwad, Dharawada taluku, Dharwad district, Karnataka, 580001, India"
        },
        "ranebennur": {
            "locType": "town",
            "blogLinks": [
                "https://en.wikipedia.org/wiki/Sagara,_Karnataka"
            ],
            "longitude": "75.6341529",
            "closest_to": "sirsi",
            "latitude": "14.6165795",
            "address": "Ranebennur, Ranebennuru taluk, Haveri district, Karnataka, 581115, India"
        },
        "paradise beach": {
            "locType": "beach",
            "blogLinks": [
                "https://www.tripoto.com/places-to-visit/india/uttara-kannada"
            ],
            "longitude": "74.3375798576938",
            "closest_to": "sirsi",
            "latitude": "14.5181133",
            "address": "Paradise Beach, Om beach road, Gokarna, Kumata taluk, Uttara Kannada, Karnataka, 581326, India"
        },
        "gadag": {
            "locType": "town",
            "blogLinks": [
                "http://www.mapsofindia.com/maps/karnataka/"
            ],
            "longitude": "75.6300786",
            "closest_to": "sirsi",
            "latitude": "15.4263647",
            "address": "Gadag, Gadag taluk, Gadag district, Karnataka, 582101, India"
        },
        "unchalli falls": {
            "locType": "waterfall",
            "blogLinks": [
                "https://en.wikipedia.org/wiki/Sirsi,_Karnataka"
            ],
            "longitude": "74.7477592",
            "closest_to": "sirsi",
            "latitude": "14.4097755",
            "address": "\u0c89\u0c82\u0c9a\u0cb3\u0ccd\u0cb3\u0cbf \u0c9c\u0cb2\u0caa\u0cbe\u0ca4, Siddapura taluk, Uttara Kannada, Karnataka, India"
        },
        "soraba": {
            "locType": "village",
            "blogLinks": [
                "https://en.wikipedia.org/wiki/Sagara,_Karnataka"
            ],
            "longitude": "75.0921749",
            "closest_to": "sirsi",
            "latitude": "14.3794806",
            "address": "Soraba, Soraba taluk, Shimoga district, Karnataka, 577429, India"
        },
        "gokak": {
            "locType": "town",
            "blogLinks": [
                "http://www.nivalink.com/destination/belgaum"
            ],
            "longitude": "74.8224338",
            "closest_to": "sirsi",
            "latitude": "16.1693033",
            "address": "Gokak, Gokak taluku, Belgaum district, Karnataka, 591307, India"
        },
        "hubli": {
            "locType": "city",
            "blogLinks": [
                "http://praveenpn.com/blog/2011/01/05/bangalore-to-goa-by-car/",
                "https://www.tripadvisor.in/ShowUserReviews-g2294723-d2629489-r432885441-Vadiraj_Mutt-Sirsi_Karnataka.html",
                "http://www.nivalink.com/destination/belgaum",
                "http://www.nivalink.com/destination/yellapur",
                "http://www.distancesfrom.com/distance-from-Kolhapur-to-Sirsi---Hubli---Belgaum-Rd-Tadas/DistanceHistory/29211594.aspx",
                "https://en.wikipedia.org/wiki/Sagara,_Karnataka",
                "http://www.distancesfrom.com/in/travel-from-Sirsi-to-Belgaum-via-Hubli-Dharwad/TravelFromHistory/13794627.aspx",
                "http://www.ticketgoose.com/bus-tickets/sirsi-to-belgaum",
                "https://www.tripoto.com/places-to-visit/india/uttara-kannada",
                "https://en.wikipedia.org/wiki/Sirsi,_Karnataka"
            ],
            "longitude": "75.1379848",
            "closest_to": "sirsi",
            "latitude": "15.3518378",
            "address": "Hubballi - \u0cb9\u0cc1\u0cac\u0ccd\u0cac\u0cb3\u0ccd\u0cb3\u0cbf, Hubballi taluku, Dharwad district, Karnataka, 580020, India"
        },
        "varada": {
            "locType": "river",
            "blogLinks": [
                "http://www.nivalink.com/destination/yellapur"
            ],
            "longitude": "75.47206",
            "closest_to": "sirsi",
            "latitude": "14.8717792",
            "address": "Varada, Savanura taluk, Haveri district, Karnataka, India"
        },
        "udupi": {
            "locType": "city",
            "blogLinks": [
                "https://en.wikipedia.org/wiki/Sirsi,_Karnataka",
                "https://www.tripadvisor.in/ShowUserReviews-g2294723-d2629489-r432885441-Vadiraj_Mutt-Sirsi_Karnataka.html",
                "https://en.wikipedia.org/wiki/Sagara,_Karnataka"
            ],
            "longitude": "74.7473232",
            "closest_to": "sirsi",
            "latitude": "13.3419169",
            "address": "Udupi, Udupi taluku, Udupi district, Karnataka, 576101, India"
        },
        "hubli road": {
            "locType": "trunk",
            "blogLinks": [
                "https://en.wikipedia.org/wiki/Sirsi,_Karnataka"
            ],
            "longitude": "75.6212485",
            "closest_to": "sirsi",
            "latitude": "15.4223718",
            "address": "Hubli Road, Betageri, Gadag, Gadag taluk, Gadag district, Karnataka, 582102, India"
        },
        "sorab road": {
            "locType": "unclassified",
            "blogLinks": [
                "https://en.wikipedia.org/wiki/Sagara,_Karnataka"
            ],
            "longitude": "75.0293897",
            "closest_to": "sirsi",
            "latitude": "14.1747341",
            "address": "Sorab Road, Sagara, Sagara taluk, Shimoga district, Karnataka, 577400, India"
        },
        "mallikarjuna temple": {
            "locType": "place_of_worship",
            "blogLinks": [
                "https://en.wikipedia.org/wiki/Sagara,_Karnataka"
            ],
            "longitude": "75.7213492",
            "closest_to": "sirsi",
            "latitude": "15.9321101",
            "address": "Mallikarjuna Temple, SH135, Nelavagi, Badami taluku, Bagalkote district, Karnataka, India"
        }
    },
    "belgaum": {
        "osm_id": "316417174",
        "display_name": "Belgaum, Belgaum district, Karnataka, India",
        "importance": 0.65,
        "place_id": "1393576",
        "class": "place",
        "boundingbox": [
            "15.693333",
            "16.973333",
            "74.11",
            "75.39"
        ],
        "type": "county",
        "lon": "74.75",
        "licence": "Data \u00a9 OpenStreetMap contributors, ODbL 1.0. http://www.openstreetmap.org/copyright",
        "osm_type": "node",
        "lat": "16.333333",
        "icon": "https://nominatim.openstreetmap.org/images/mapicons/poi_boundary_administrative.p.20.png"
    }
}