{
    "mentions": {
        "bijapur": {
            "locType": "city",
            "blogLinks": [
                "https://www.yatra.com/india-tourism/karnataka",
                "http://www.mapsofindia.com/maps/karnataka/"
            ],
            "longitude": "75.7175387",
            "closest_to": "bellary",
            "latitude": "16.8269911",
            "address": "Vijayapura, Vijayapura taluk, Bijapur district, Karnataka, 586101, India"
        },
        "delhi": {
            "locType": "trunk",
            "blogLinks": [
                "https://en.wikipedia.org/wiki/Bellary",
                "https://www.ahataxis.com/Ludhiana-to-Bellary-taxi"
            ],
            "longitude": "77.6666062",
            "closest_to": "belur",
            "latitude": "12.9212473",
            "address": "Outer Ring Road, Green Glen Layout, Iblur, Bengaluru, Bangalore Urban, Karnataka, 560001, India"
        },
        "hoysaleswara temple": {
            "locType": "place_of_worship",
            "blogLinks": [
                "http://www.holidayiq.com/Halebid-and-Belur-Sightseeing-651.html"
            ],
            "longitude": "75.9941649",
            "closest_to": "belur",
            "latitude": "13.2127193",
            "address": "Hoysaleswara Temple, SH21, Halebidu, Beluru taluk, Hassan district, Karnataka, 573121, India"
        },
        "maruthi temple": {
            "locType": "place_of_worship",
            "blogLinks": [
                "http://www.srsbooking.com/buses/16/Bangalore-to-Bellary/"
            ],
            "longitude": "76.744623",
            "closest_to": "bellary",
            "latitude": "16.737121",
            "address": "Maruthi Temple, SH16, Gogipet, \u0cb0\u0cac\u0ccd\u0cac\u0ca8\u0cb9\u0cb3\u0ccd\u0cb3\u0cbf, Shahapura taluku, Yadagiri district, Karnataka, 585309, India"
        },
        "koppal": {
            "locType": "town",
            "blogLinks": [
                "http://www.srsbooking.com/buses/16/Bangalore-to-Bellary/",
                "http://www.mapsofindia.com/maps/karnataka/"
            ],
            "longitude": "76.1547421",
            "closest_to": "belur",
            "latitude": "15.3484144",
            "address": "Koppala, Koppala taluku, Koppal district, Karnataka, 583231, India"
        },
        "jawaharlal nehru planetarium": {
            "locType": "attraction",
            "blogLinks": [
                "http://www.srsbooking.com/buses/16/Bangalore-to-Bellary/"
            ],
            "longitude": "77.5896190500592",
            "closest_to": "belur",
            "latitude": "12.98484655",
            "address": "Jawaharlal Nehru Planetarium, Raj Bhavan Road, Shantala Nagar, Vasantnagar, Bengaluru, Bangalore Urban, Karnataka, 560001, India"
        },
        "bangalore city": {
            "locType": "city",
            "blogLinks": [
                "http://www.srsbooking.com/buses/16/Bangalore-to-Bellary/"
            ],
            "longitude": "77.5912997",
            "closest_to": "belur",
            "latitude": "12.9791198",
            "address": "Bengaluru, Bangalore Urban, Karnataka, 560001, India"
        },
        "bangalore": {
            "locType": "city",
            "blogLinks": [
                "http://www.mapsofindia.com/karnataka/places-to-visit-in-halebid.html",
                "http://www.srsbooking.com/buses/16/Bangalore-to-Bellary/",
                "https://www.tripoto.com/trip/8-destinations-in-karnataka-popular-for-their-history-359222",
                "https://en.wikipedia.org/wiki/Bellary",
                "https://www.yatra.com/india-tourism/karnataka",
                "http://www.distancesfrom.com/in/travel-from-Bangalore-to-Bellary-via-Hospet-KSRTC-Bus-Stand/TravelFromHistory/33178386.aspx",
                "http://www.distancesfrom.com/in/Bangalore-to-Gulbarga-Route-via-Bellary/RouteplannerHistory/710240.aspx",
                "https://www.distancecalculator.net/from-bellary-to-belur",
                "http://www.hoparoundindia.com/karnataka/city-guides/bellary.aspx",
                "https://www.ahataxis.com/Ludhiana-to-Bellary-taxi"
            ],
            "longitude": "77.5912997",
            "closest_to": "belur",
            "latitude": "12.9791198",
            "address": "Bengaluru, Bangalore Urban, Karnataka, 560001, India"
        },
        "karnatka": {
            "locType": "bank",
            "blogLinks": [
                "https://en.wikipedia.org/wiki/Bellary"
            ],
            "longitude": "77.5679508",
            "closest_to": "belur",
            "latitude": "12.9500847",
            "address": "Karnatka Rajya Kaigarika Sahakari Bank, Bull Temple Road, Mavalli, Chamarajapete, Bengaluru, Bangalore Urban, Karnataka, 560001, India"
        },
        "jindal vijaynagar airport": {
            "locType": "aerodrome",
            "blogLinks": [
                "https://en.wikipedia.org/wiki/Bellary"
            ],
            "longitude": "76.6334746",
            "closest_to": "belur",
            "latitude": "15.1743056",
            "address": "Jindal Vijaynagar Airport, Kudligi Road, Vaddu, Sanduru taluk, Bellary district, Karnataka, 583123, India"
        },
        "dharawada": {
            "locType": "county",
            "blogLinks": [
                "http://www.srsbooking.com/buses/16/Bangalore-to-Bellary/"
            ],
            "longitude": "75.333333",
            "closest_to": "bellary",
            "latitude": "15.5",
            "address": "Dharawad, Dharwad district, Karnataka, India"
        },
        "bellary airport": {
            "locType": "aerodrome",
            "blogLinks": [
                "https://en.wikipedia.org/wiki/Bellary"
            ],
            "longitude": "76.8813908",
            "closest_to": "belur",
            "latitude": "15.1615409",
            "address": "Bellary Airport, Hosapete Road, Ballari, Bellary taluk, Bellary district, Karnataka, 583104, India"
        },
        "emirates": {
            "locType": "restaurant",
            "blogLinks": [
                "https://www.yatra.com/india-tourism/karnataka"
            ],
            "longitude": "77.5572955",
            "closest_to": "belur",
            "latitude": "13.0192135",
            "address": "Emirates, Rahman Khan Road, Rajajinagar 1st Block, Yeshwantpur, Deewanarapalya, Bangalore Urban, Karnataka, 560022, India"
        },
        "halebid": {
            "locType": "village",
            "blogLinks": [
                "https://www.yatra.com/india-tourism/karnataka",
                "http://www.mapsofindia.com/karnataka/places-to-visit-in-halebid.html",
                "http://www.holidayiq.com/Halebid-and-Belur-Sightseeing-651.html",
                "https://www.tripoto.com/trip/8-destinations-in-karnataka-popular-for-their-history-359222"
            ],
            "longitude": "75.9918793",
            "closest_to": "belur",
            "latitude": "13.2167959",
            "address": "Halebidu, Beluru taluk, Hassan district, Karnataka, 573121, India"
        },
        "belur": {
            "locType": "town",
            "blogLinks": [
                "https://www.tripoto.com/trip/8-destinations-in-karnataka-popular-for-their-history-359222"
            ],
            "longitude": "75.8634851",
            "closest_to": "belur",
            "latitude": "13.1645671",
            "address": "Belur, Beluru taluk, Hassan district, Karnataka, 573115, India"
        },
        "oxford": {
            "locType": "books",
            "blogLinks": [
                "https://en.wikipedia.org/wiki/Bellary"
            ],
            "longitude": "77.7178402",
            "closest_to": "belur",
            "latitude": "12.9660236",
            "address": "Oxford, I T P L Main Road, Kundalahalli Colony, AECS Layout, Sitaramapalya, Bangalore Urban, Karnataka, 560048, India"
        },
        "bellary": {
            "locType": "county",
            "blogLinks": [
                "http://www.mapsofindia.com/maps/karnataka/",
                "http://www.distancecalculator.net/from-bellary-to-chintamani",
                "http://www.distancesfrom.com/in/Trip-Cost-from-Bellary-to-Kasapuram/TripCostHistory/33691824.aspx",
                "http://www.hoparoundindia.com/karnataka/attractions/bellary.aspx",
                "http://www.srsbooking.com/buses/16/Bangalore-to-Bellary/",
                "https://en.wikipedia.org/wiki/Bellary",
                "https://www.yatra.com/india-tourism/karnataka",
                "http://www.distancesfrom.com/in/travel-from-Bangalore-to-Bellary-via-Hospet-KSRTC-Bus-Stand/TravelFromHistory/33178386.aspx",
                "http://www.distancesfrom.com/in/Bangalore-to-Gulbarga-Route-via-Bellary/RouteplannerHistory/710240.aspx",
                "https://www.distancecalculator.net/from-bellary-to-belur",
                "http://www.distancesfrom.com/in/how-far-is-Devasamudra-from-Bellary/HowFarHistory/33126425.aspx",
                "http://www.hoparoundindia.com/karnataka/city-guides/bellary.aspx",
                "https://www.ahataxis.com/Ludhiana-to-Bellary-taxi"
            ],
            "longitude": "76.8323648",
            "closest_to": "belur",
            "latitude": "15.2485413",
            "address": "Bellary, Bellary district, Karnataka, India"
        },
        "chennakeshava temple": {
            "locType": "place_of_worship",
            "blogLinks": [
                "http://www.holidayiq.com/Halebid-and-Belur-Sightseeing-651.html"
            ],
            "longitude": "76.1294164",
            "closest_to": "belur",
            "latitude": "13.3748908",
            "address": "Chennakeshava Temple, NH73, Arakere, Arasikere taluku, Hassan district, Karnataka, 573112, India"
        },
        "tumkur": {
            "locType": "county",
            "blogLinks": [
                "https://www.yatra.com/india-tourism/karnataka",
                "http://www.mapsofindia.com/maps/karnataka/"
            ],
            "longitude": "77.0002445",
            "closest_to": "belur",
            "latitude": "13.4999406",
            "address": "Tumakuru, Tumkur district, Karnataka, India"
        },
        "pattadakal": {
            "locType": "attraction",
            "blogLinks": [
                "https://www.tripoto.com/trip/8-destinations-in-karnataka-popular-for-their-history-359222"
            ],
            "longitude": "75.815884048161",
            "closest_to": "bellary",
            "latitude": "15.9506349",
            "address": "Pattadakal Temples, SH14, \u0cac\u0cbe\u0c9a\u0cbf\u0ca8\u0c97\u0cc1\u0ca1\u0ccd\u0ca1, Badami taluku, Bagalkote district, Karnataka, 587211, India"
        },
        "mundargi": {
            "locType": "hamlet",
            "blogLinks": [
                "https://en.wikipedia.org/wiki/Bellary"
            ],
            "longitude": "77.1777795",
            "closest_to": "bellary",
            "latitude": "16.7700414",
            "address": "Mundargi Thanda, Yadagiri taluku, Yadagiri district, Karnataka, India"
        },
        "mangalore international airport": {
            "locType": "aerodrome",
            "blogLinks": [
                "https://www.yatra.com/india-tourism/karnataka"
            ],
            "longitude": "74.887492668144",
            "closest_to": "belur",
            "latitude": "12.95518575",
            "address": "Mangalore International Airport, Airport Entry Road, Gandhinagar, Kenjar, Mangaluru taluk, Dakshina Kannada, Karnataka, 575015, India"
        },
        "anantapur": {
            "locType": "yes",
            "blogLinks": [
                "https://en.wikipedia.org/wiki/Bellary",
                "http://www.hoparoundindia.com/karnataka/city-guides/bellary.aspx",
                "http://www.srsbooking.com/buses/16/Bangalore-to-Bellary/"
            ],
            "longitude": "77.7596024",
            "closest_to": "belur",
            "latitude": "13.7972948",
            "address": "RTO Karnataka, Srinagar - Kanyakumari Highway, Paragodu, Bagepalli taluk, Chikkaballapura district, Karnataka, 561207, India"
        },
        "mumbai": {
            "locType": "restaurant",
            "blogLinks": [
                "https://en.wikipedia.org/wiki/Bellary"
            ],
            "longitude": "77.5718472",
            "closest_to": "belur",
            "latitude": "13.0002869",
            "address": "Mumbai Spice, 18/2, 10th Cross, Malleswaram, Vyalikaval, Malleswaram, Bengaluru, Bangalore Urban, Karnataka, 560003, India"
        },
        "dakshina kannada": {
            "locType": "administrative",
            "blogLinks": [
                "http://www.mapsofindia.com/maps/karnataka/"
            ],
            "longitude": "75.1008028650794",
            "closest_to": "belur",
            "latitude": "12.8114089",
            "address": "Dakshina Kannada, Karnataka, India"
        },
        "davanagere": {
            "locType": "city",
            "blogLinks": [
                "http://www.srsbooking.com/buses/16/Bangalore-to-Bellary/"
            ],
            "longitude": "75.9206361",
            "closest_to": "belur",
            "latitude": "14.4661266",
            "address": "Davanagere, Davanagere taluku, Davanagere district, Karnataka, 577000, India"
        },
        "gulbarga": {
            "locType": "county",
            "blogLinks": [
                "http://www.distancesfrom.com/in/Bangalore-to-Gulbarga-Route-via-Bellary/RouteplannerHistory/710240.aspx",
                "http://www.mapsofindia.com/maps/karnataka/"
            ],
            "longitude": "77.083333",
            "closest_to": "bellary",
            "latitude": "17.166667",
            "address": "Kalaburgi, Kalaburagi district, Karnataka, India"
        },
        "pattabhirama temple": {
            "locType": "place_of_worship",
            "blogLinks": [
                "http://www.hoparoundindia.com/karnataka/attractions/bellary.aspx"
            ],
            "longitude": "77.5866621",
            "closest_to": "belur",
            "latitude": "12.9245786",
            "address": "Pattabhirama Temple, 34 C Cross Road, Jayanagar 4th Block, Jayanagar, Bengaluru, Bangalore Urban, Karnataka, 560001, India"
        },
        "sanduru": {
            "locType": "town",
            "blogLinks": [
                "https://en.wikipedia.org/wiki/Bellary"
            ],
            "longitude": "76.5435934",
            "closest_to": "belur",
            "latitude": "15.084389",
            "address": "Sanduru, Sanduru taluk, Bellary district, Karnataka, 583119, India"
        },
        "river yagachi": {
            "locType": "river",
            "blogLinks": [
                "http://www.holidayiq.com/Halebid-and-Belur-Sightseeing-651.html"
            ],
            "longitude": "75.950911",
            "closest_to": "belur",
            "latitude": "13.0658494",
            "address": "Yagachi, Beluru taluk, Hassan district, Karnataka, India"
        },
        "river kaveri": {
            "locType": "river",
            "blogLinks": [
                "http://www.holidayiq.com/Halebid-and-Belur-Sightseeing-651.html"
            ],
            "longitude": "77.0635531",
            "closest_to": "belur",
            "latitude": "12.1687878",
            "address": "Kaveri, Kollegala taluk, Chamarajanagar district, Karnataka, India"
        },
        "goa": {
            "locType": "restaurant",
            "blogLinks": [
                "https://en.wikipedia.org/wiki/Bellary",
                "https://www.ahataxis.com/Ludhiana-to-Bellary-taxi"
            ],
            "longitude": "77.6200027",
            "closest_to": "belur",
            "latitude": "12.9750047",
            "address": "Carnival De Goa, Bhaskaran Road, Gupta Layout, Halasuru, Bengaluru, Bangalore Urban, Karnataka, 560001, India"
        },
        "basavanagudi": {
            "locType": "village",
            "blogLinks": [
                "http://www.srsbooking.com/buses/16/Bangalore-to-Bellary/"
            ],
            "longitude": "75.7339359",
            "closest_to": "belur",
            "latitude": "13.8345913",
            "address": "Basavanagudi, Bhadravati taluk, Shimoga district, Karnataka, India"
        },
        "new city": {
            "locType": "supermarket",
            "blogLinks": [
                "https://en.wikipedia.org/wiki/Bellary"
            ],
            "longitude": "77.6736268",
            "closest_to": "belur",
            "latitude": "12.9851864",
            "address": "New City Super Market, Kaggadasspura Main Road, Putanna Garden, C V Raman Nagar, A Narayanapura, Bangalore Urban, Karnataka, 560093, India"
        },
        "sanganakallu": {
            "locType": "village",
            "blogLinks": [
                "https://en.wikipedia.org/wiki/Bellary"
            ],
            "longitude": "76.9671823",
            "closest_to": "belur",
            "latitude": "15.1738536",
            "address": "Sanganakallu, Bellary taluk, Bellary district, Karnataka, India"
        },
        "bahubali": {
            "locType": "place_of_worship",
            "blogLinks": [
                "http://www.mapsofindia.com/karnataka/places-to-visit-in-halebid.html"
            ],
            "longitude": "76.4846128",
            "closest_to": "belur",
            "latitude": "12.8540505",
            "address": "Bahubali Statue, SH8, Shravanabelagola, Channarayapattana taluk, Hassan district, Karnataka, 573135, India"
        },
        "hosapete": {
            "locType": "town",
            "blogLinks": [
                "http://www.distancesfrom.com/in/travel-from-Bangalore-to-Bellary-via-Hospet-KSRTC-Bus-Stand/TravelFromHistory/33178386.aspx"
            ],
            "longitude": "76.3870527",
            "closest_to": "belur",
            "latitude": "15.266079",
            "address": "Hosapete, Hosapete taluk, Bellary district, Karnataka, 583200, India"
        },
        "udupi": {
            "locType": "city",
            "blogLinks": [
                "http://www.mapsofindia.com/maps/karnataka/"
            ],
            "longitude": "74.7473232",
            "closest_to": "belur",
            "latitude": "13.3419169",
            "address": "Udupi, Udupi taluku, Udupi district, Karnataka, 576101, India"
        },
        "hampi": {
            "locType": "village",
            "blogLinks": [
                "https://www.tripoto.com/trip/8-destinations-in-karnataka-popular-for-their-history-359222"
            ],
            "longitude": "76.4606199",
            "closest_to": "belur",
            "latitude": "15.3359769",
            "address": "Hampe, Hosapete taluk, Bellary district, Karnataka, 583239, India"
        },
        "hadagali": {
            "locType": "village",
            "blogLinks": [
                "https://en.wikipedia.org/wiki/Bellary"
            ],
            "longitude": "75.9370122",
            "closest_to": "bellary",
            "latitude": "16.8109502",
            "address": "Hadagali, Vijayapura taluk, Bijapur district, Karnataka, India"
        },
        "dharwad": {
            "locType": "city",
            "blogLinks": [
                "https://www.yatra.com/india-tourism/karnataka",
                "http://www.hoparoundindia.com/karnataka/city-guides/bellary.aspx",
                "http://www.mapsofindia.com/maps/karnataka/"
            ],
            "longitude": "75.0066516",
            "closest_to": "bellary",
            "latitude": "15.4540505",
            "address": "Dharwad, Dharawada taluku, Dharwad district, Karnataka, 580001, India"
        },
        "mangalore": {
            "locType": "city",
            "blogLinks": [
                "https://en.wikipedia.org/wiki/Bellary",
                "https://www.yatra.com/india-tourism/karnataka"
            ],
            "longitude": "74.8430082",
            "closest_to": "belur",
            "latitude": "12.8698101",
            "address": "Mangaluru, Mangaluru taluk, Dakshina Kannada, Karnataka, 575001, India"
        },
        "gadag": {
            "locType": "town",
            "blogLinks": [
                "http://www.srsbooking.com/buses/16/Bangalore-to-Bellary/",
                "http://www.mapsofindia.com/maps/karnataka/"
            ],
            "longitude": "75.6300786",
            "closest_to": "belur",
            "latitude": "15.4263647",
            "address": "Gadag, Gadag taluk, Gadag district, Karnataka, 582101, India"
        },
        "chikkaballapur": {
            "locType": "town",
            "blogLinks": [
                "http://www.mapsofindia.com/maps/karnataka/"
            ],
            "longitude": "77.7306866",
            "closest_to": "belur",
            "latitude": "13.4352549",
            "address": "Chikkaballapura, Chikkaballapura taluk, Chikkaballapura district, Karnataka, 562101, India"
        },
        "venkatappa art gallery": {
            "locType": "museum",
            "blogLinks": [
                "http://www.srsbooking.com/buses/16/Bangalore-to-Bellary/"
            ],
            "longitude": "77.5952077",
            "closest_to": "belur",
            "latitude": "12.9742592",
            "address": "Venkatappa Art Gallery, Kasturba Road, Shantala Nagar, MacIvor Town, Bengaluru, Bangalore Urban, Karnataka, 560001, India"
        },
        "ranganathittu bird sanctuary": {
            "locType": "attraction",
            "blogLinks": [
                "https://www.yatra.com/india-tourism/karnataka"
            ],
            "longitude": "76.6553081",
            "closest_to": "belur",
            "latitude": "12.4238524",
            "address": "Ranganathittu Bird Sanctuary, SH154, Palahalli, Srirangapattana taluk, Mandya district, Karnataka, 571438, India"
        },
        "hindupur": {
            "locType": "primary",
            "blogLinks": [
                "https://en.wikipedia.org/wiki/Bellary"
            ],
            "longitude": "77.5237128",
            "closest_to": "belur",
            "latitude": "13.3580171",
            "address": "Hindupur ByPass Road, Bachchahalli, Doddaballapura taluk, Bangalore Rural, Karnataka, India"
        },
        "tumakuru": {
            "locType": "county",
            "blogLinks": [
                "https://en.wikipedia.org/wiki/Bellary"
            ],
            "longitude": "77.0002445",
            "closest_to": "belur",
            "latitude": "13.4999406",
            "address": "Tumakuru, Tumkur district, Karnataka, India"
        },
        "bangalore palace": {
            "locType": "attraction",
            "blogLinks": [
                "https://www.yatra.com/india-tourism/karnataka"
            ],
            "longitude": "77.5920094892276",
            "closest_to": "belur",
            "latitude": "12.9985963",
            "address": "Bangalore Palace, Jayamahal Road, Jayamahal Extension, Jayamahal, Bengaluru, Bangalore Urban, Karnataka, 560001, India"
        },
        "chennakesava temple": {
            "locType": "place_of_worship",
            "blogLinks": [
                "http://www.holidayiq.com/Halebid-and-Belur-Sightseeing-651.html"
            ],
            "longitude": "75.8603311",
            "closest_to": "belur",
            "latitude": "13.1629239",
            "address": "Chennakesava Temple, NH73, Navilahalli, Beluru taluk, Hassan district, Karnataka, India"
        },
        "hassan district of karnataka": {
            "locType": "administrative",
            "blogLinks": [
                "http://www.holidayiq.com/Halebid-and-Belur-Sightseeing-651.html"
            ],
            "longitude": "76.1745460751981",
            "closest_to": "belur",
            "latitude": "13.0315068",
            "address": "Hassan district, Karnataka, India"
        },
        "silicon valley": {
            "locType": "residential",
            "blogLinks": [
                "http://www.srsbooking.com/buses/16/Bangalore-to-Bellary/"
            ],
            "longitude": "77.6053133563105",
            "closest_to": "belur",
            "latitude": "13.1650062",
            "address": "RK Estates : Silicon Valley Layout, Vidyanagar, Bengaluru, Bangalore Urban, Karnataka, 560001, India"
        },
        "kannada": {
            "locType": "administrative",
            "blogLinks": [
                "https://en.wikipedia.org/wiki/Bellary",
                "http://www.hoparoundindia.com/karnataka/city-guides/bellary.aspx"
            ],
            "longitude": "75.1008028650794",
            "closest_to": "belur",
            "latitude": "12.8114089",
            "address": "Dakshina Kannada, Karnataka, India"
        },
        "ballari district": {
            "locType": "city",
            "blogLinks": [
                "https://en.wikipedia.org/wiki/Bellary"
            ],
            "longitude": "76.9125211",
            "closest_to": "belur",
            "latitude": "15.1467299",
            "address": "Ballari, Bellary taluk, Bellary district, Karnataka, India"
        },
        "chitradurga": {
            "locType": "town",
            "blogLinks": [
                "https://en.wikipedia.org/wiki/Bellary",
                "https://www.yatra.com/india-tourism/karnataka",
                "http://www.hoparoundindia.com/karnataka/city-guides/bellary.aspx",
                "http://www.srsbooking.com/buses/16/Bangalore-to-Bellary/",
                "http://www.mapsofindia.com/maps/karnataka/"
            ],
            "longitude": "76.4005122",
            "closest_to": "belur",
            "latitude": "14.2266443",
            "address": "Chitradurga, Chitradurga taluku, Chitradurga district, Karnataka, 577500, India"
        },
        "chamarajanagar": {
            "locType": "station",
            "blogLinks": [
                "http://www.mapsofindia.com/maps/karnataka/"
            ],
            "longitude": "76.9331345",
            "closest_to": "belur",
            "latitude": "11.9346624",
            "address": "Chamarajanagar, Nanjangudu-Chamarajanagar Road, Kadahalli, Chamarajanagara taluk, Chamarajanagar district, Karnataka, 571313, India"
        },
        "kodagu": {
            "locType": "administrative",
            "blogLinks": [
                "http://www.mapsofindia.com/maps/karnataka/"
            ],
            "longitude": "75.6677235950852",
            "closest_to": "belur",
            "latitude": "12.38117345",
            "address": "Kodagu, Karnataka, India"
        },
        "aihole": {
            "locType": "village",
            "blogLinks": [
                "https://www.tripoto.com/trip/8-destinations-in-karnataka-popular-for-their-history-359222"
            ],
            "longitude": "75.8819129",
            "closest_to": "bellary",
            "latitude": "16.0192298",
            "address": "Aihole, Hunagunda taluku, Bagalkote district, Karnataka, India"
        },
        "uttara kannada": {
            "locType": "administrative",
            "blogLinks": [
                "https://en.wikipedia.org/wiki/Bellary"
            ],
            "longitude": "74.4729163045979",
            "closest_to": "belur",
            "latitude": "14.6726379",
            "address": "Uttara Kannada, Karnataka, India"
        },
        "tungabhadra": {
            "locType": "river",
            "blogLinks": [
                "http://www.hoparoundindia.com/karnataka/attractions/bellary.aspx"
            ],
            "longitude": "76.4931607",
            "closest_to": "belur",
            "latitude": "15.3446123",
            "address": "Tungabhadra, Gangavati taluku, Koppal district, Karnataka, India"
        },
        "varanasi": {
            "locType": "village",
            "blogLinks": [
                "https://en.wikipedia.org/wiki/Bellary"
            ],
            "longitude": "77.6860657",
            "closest_to": "belur",
            "latitude": "13.0304962",
            "address": "Varanasi, Bangalore Urban, Karnataka, India"
        },
        "ballari": {
            "locType": "city",
            "blogLinks": [
                "https://en.wikipedia.org/wiki/Bellary"
            ],
            "longitude": "76.9125211",
            "closest_to": "belur",
            "latitude": "15.1467299",
            "address": "Ballari, Bellary taluk, Bellary district, Karnataka, India"
        },
        "punjab": {
            "locType": "restaurant",
            "blogLinks": [
                "https://www.ahataxis.com/Ludhiana-to-Bellary-taxi"
            ],
            "longitude": "77.6607309",
            "closest_to": "belur",
            "latitude": "12.9937763",
            "address": "Punjab, Swamy Vivekananda Road, Darga Mohalla, Udaya Nagar, Benniganahalli, Bangalore Urban, Karnataka, 560016, India"
        },
        "cubbon park": {
            "locType": "station",
            "blogLinks": [
                "https://www.yatra.com/india-tourism/karnataka"
            ],
            "longitude": "77.5977565",
            "closest_to": "belur",
            "latitude": "12.9808487",
            "address": "Cubbon Park, Cubbon Road, Tasker Town, Shivajinagar, Bengaluru, Bangalore Urban, Karnataka, 560001, India"
        },
        "bagalkote": {
            "locType": "administrative",
            "blogLinks": [
                "http://www.mapsofindia.com/maps/karnataka/"
            ],
            "longitude": "75.5825586777167",
            "closest_to": "bellary",
            "latitude": "16.28998085",
            "address": "Bagalkote district, Karnataka, India"
        },
        "tirupati": {
            "locType": "village",
            "blogLinks": [
                "https://en.wikipedia.org/wiki/Bellary"
            ],
            "longitude": "76.2727455",
            "closest_to": "belur",
            "latitude": "13.3289007",
            "address": "Malekallu Tirupathi, Arasikere taluku, Hassan district, Karnataka, India"
        },
        "hong kong": {
            "locType": "restaurant",
            "blogLinks": [
                "https://www.yatra.com/india-tourism/karnataka"
            ],
            "longitude": "77.6768991",
            "closest_to": "belur",
            "latitude": "13.020749",
            "address": "Hong Kong Noodles, Kalkere Main road, Ramamurthy Nagar, Varanasi, Bangalore Urban, Karnataka, 600042, India"
        },
        "lalbagh botanical gardens": {
            "locType": "attraction",
            "blogLinks": [
                "http://www.srsbooking.com/buses/16/Bangalore-to-Bellary/"
            ],
            "longitude": "77.5869868789796",
            "closest_to": "belur",
            "latitude": "12.9489367",
            "address": "Lalbagh Botanical Gardens, Siddapura Road, Mavalli, Someshwaranagar, Bengaluru, Bangalore Urban, Karnataka, 560001, India"
        },
        "middle east": {
            "locType": "school",
            "blogLinks": [
                "https://www.yatra.com/india-tourism/karnataka"
            ],
            "longitude": "77.3394684",
            "closest_to": "belur",
            "latitude": "13.1487605",
            "address": "Government Middle And Primary School, NH48, Dodderi, Nelamangala taluk, Bangalore Rural, Karnataka, India"
        },
        "black lake": {
            "locType": "bar",
            "blogLinks": [
                "https://en.wikipedia.org/wiki/Bellary"
            ],
            "longitude": "77.6411436",
            "closest_to": "belur",
            "latitude": "12.9698964",
            "address": "The Black Rabbit, 100 Feet Road( S K Karim Khan Road), Appareddipalaya, Indiranagar, Bengaluru, Bangalore Urban, Karnataka, 560001, India"
        },
        "dubai": {
            "locType": "gift",
            "blogLinks": [
                "https://www.yatra.com/india-tourism/karnataka"
            ],
            "longitude": "77.6067717",
            "closest_to": "belur",
            "latitude": "12.9737065",
            "address": "Dubai Plaza, Rest House Road, Shantala Nagar, Ashok Nagar, Bengaluru, Bangalore Urban, Karnataka, 560001, India"
        },
        "india": {
            "locType": "administrative",
            "blogLinks": [
                "http://www.mapsofindia.com/maps/karnataka/",
                "http://www.distancecalculator.net/from-bellary-to-chintamani",
                "http://www.distancesfrom.com/in/Trip-Cost-from-Bellary-to-Kasapuram/TripCostHistory/33691824.aspx",
                "http://www.srsbooking.com/buses/16/Bangalore-to-Bellary/",
                "https://en.wikipedia.org/wiki/Bellary",
                "https://www.yatra.com/india-tourism/karnataka",
                "http://www.distancesfrom.com/in/travel-from-Bangalore-to-Bellary-via-Hospet-KSRTC-Bus-Stand/TravelFromHistory/33178386.aspx",
                "http://www.distancesfrom.com/in/Bangalore-to-Gulbarga-Route-via-Bellary/RouteplannerHistory/710240.aspx",
                "https://www.distancecalculator.net/from-bellary-to-belur",
                "http://www.distancesfrom.com/in/how-far-is-Devasamudra-from-Bellary/HowFarHistory/33126425.aspx",
                "http://travel.india.com/articles/11-places-to-visit-in-karnataka/",
                "https://www.ahataxis.com/Ludhiana-to-Bellary-taxi"
            ],
            "longitude": "75.7223521",
            "closest_to": "belur",
            "latitude": "14.5203896",
            "address": "Karnataka, India"
        },
        "central jail of bellary": {
            "locType": "prison",
            "blogLinks": [
                "https://en.wikipedia.org/wiki/Bellary"
            ],
            "longitude": "76.9253840594437",
            "closest_to": "belur",
            "latitude": "15.15050865",
            "address": "Ballari Central Jail, Jail Road, Ballari, Bellary taluk, Bellary district, Karnataka, 583101, India"
        },
        "kurnool": {
            "locType": "hotel",
            "blogLinks": [
                "https://en.wikipedia.org/wiki/Bellary",
                "http://www.hoparoundindia.com/karnataka/city-guides/bellary.aspx",
                "http://www.srsbooking.com/buses/16/Bangalore-to-Bellary/"
            ],
            "longitude": "77.4217916",
            "closest_to": "bellary",
            "latitude": "15.9394081",
            "address": "Karnataka Guest House, Jadcherla - Hagari Road, Kurnool, Andhra Pradesh, India"
        },
        "kuntala": {
            "locType": "village",
            "blogLinks": [
                "http://www.srsbooking.com/buses/16/Bangalore-to-Bellary/"
            ],
            "longitude": "74.7928708",
            "closest_to": "belur",
            "latitude": "13.2920912",
            "address": "Kuntala Nagar, Udupi taluku, Udupi district, Karnataka, India"
        },
        "raichur": {
            "locType": "county",
            "blogLinks": [
                "https://en.wikipedia.org/wiki/Bellary",
                "https://www.yatra.com/india-tourism/karnataka",
                "http://www.hoparoundindia.com/karnataka/city-guides/bellary.aspx",
                "http://www.srsbooking.com/buses/16/Bangalore-to-Bellary/",
                "http://www.mapsofindia.com/maps/karnataka/"
            ],
            "longitude": "77.166667",
            "closest_to": "bellary",
            "latitude": "16.083333",
            "address": "Raichur, Raichur district, Karnataka, India"
        },
        "kerala": {
            "locType": "restaurant",
            "blogLinks": [
                "https://www.yatra.com/india-tourism/karnataka",
                "http://www.mapsofindia.com/maps/karnataka/"
            ],
            "longitude": "77.6382683",
            "closest_to": "belur",
            "latitude": "12.9726449",
            "address": "New Life Kerala Mess, Sai Baba Mandira Road, Mottappanapalaya, Indiranagar, Bengaluru, Bangalore Urban, Karnataka, 560001, India"
        },
        "new delhi": {
            "locType": "college",
            "blogLinks": [
                "https://en.wikipedia.org/wiki/Bellary"
            ],
            "longitude": "76.6142178649055",
            "closest_to": "belur",
            "latitude": "12.30911465",
            "address": "Regional Institute of Education, Chaduranga Road, Jayalakshmipuram, Mysuru, Mysuru taluk, Mysuru district, Karnataka, 570001, India"
        },
        "maharashtra": {
            "locType": "bank",
            "blogLinks": [
                "https://en.wikipedia.org/wiki/Bellary",
                "https://www.yatra.com/india-tourism/karnataka",
                "http://www.mapsofindia.com/maps/karnataka/"
            ],
            "longitude": "77.5856013",
            "closest_to": "belur",
            "latitude": "12.9049455",
            "address": "Bank of Maharashtra, 24th Main, K R Layout, Puttenahalli, Bengaluru, Bangalore Urban, Karnataka, 560001, India"
        },
        "southern india": {
            "locType": "commercial",
            "blogLinks": [
                "https://www.yatra.com/india-tourism/karnataka"
            ],
            "longitude": "77.6227757667762",
            "closest_to": "belur",
            "latitude": "12.92588785",
            "address": "Survey Of India - Southern Zone, Madivala, Bengaluru, Bangalore Urban, Karnataka, 560001, India"
        },
        "district hospital": {
            "locType": "hospital",
            "blogLinks": [
                "https://en.wikipedia.org/wiki/Bellary"
            ],
            "longitude": "74.7423038",
            "closest_to": "belur",
            "latitude": "13.3340175",
            "address": "District Hospital, Nairkere Road, Ambalapadi, Udupi, Udupi taluku, Udupi district, Karnataka, 576101, India"
        },
        "singapore": {
            "locType": "neighbourhood",
            "blogLinks": [
                "https://www.yatra.com/india-tourism/karnataka"
            ],
            "longitude": "77.5483703",
            "closest_to": "belur",
            "latitude": "12.8861812",
            "address": "Singapore Gardens, Vajrahalli, Bengaluru, Bangalore Urban, Karnataka, 560001, India"
        },
        "bannerghatta national park": {
            "locType": "national_park",
            "blogLinks": [
                "http://www.srsbooking.com/buses/16/Bangalore-to-Bellary/"
            ],
            "longitude": "77.5722783830694",
            "closest_to": "belur",
            "latitude": "12.77900335",
            "address": "Bannerghatta National Park, Anekal Road, Begihalli, Bangalore Urban, Karnataka, 560076, India"
        },
        "toranagallu": {
            "locType": "village",
            "blogLinks": [
                "https://en.wikipedia.org/wiki/Bellary"
            ],
            "longitude": "76.6780987",
            "closest_to": "belur",
            "latitude": "15.1959663",
            "address": "Toranagallu, Sanduru taluk, Bellary district, Karnataka, 583123, India"
        },
        "chintamani": {
            "locType": "town",
            "blogLinks": [
                "https://en.wikipedia.org/wiki/Bellary",
                "http://www.distancecalculator.net/from-bellary-to-chintamani"
            ],
            "longitude": "78.0551726",
            "closest_to": "belur",
            "latitude": "13.3995093",
            "address": "Chintamani, Chintamani taluk, Chikkaballapura district, Karnataka, India"
        },
        "devasamudra": {
            "locType": "village",
            "blogLinks": [
                "https://www.yatra.com/india-tourism/karnataka",
                "http://www.distancesfrom.com/in/how-far-is-Devasamudra-from-Bellary/HowFarHistory/33126425.aspx"
            ],
            "longitude": "76.6322135",
            "closest_to": "bellary",
            "latitude": "15.3545285",
            "address": "Devasamudra, Hosapete taluk, Bellary district, Karnataka, India"
        },
        "koppala": {
            "locType": "town",
            "blogLinks": [
                "http://www.srsbooking.com/buses/16/Bangalore-to-Bellary/"
            ],
            "longitude": "76.1547421",
            "closest_to": "belur",
            "latitude": "15.3484144",
            "address": "Koppala, Koppala taluku, Koppal district, Karnataka, 583231, India"
        },
        "madras": {
            "locType": "station",
            "blogLinks": [
                "https://en.wikipedia.org/wiki/Bellary"
            ],
            "longitude": "77.6449595",
            "closest_to": "belur",
            "latitude": "12.9859442",
            "address": "Swami Vivekananda Road, Swamy Vivekananda Road (Old Madras Road), Sudgunte Palya, Baiyyappanahalli, Benniganahalli, Bangalore Urban, Karnataka, 560016, India"
        },
        "davangere": {
            "locType": "commercial",
            "blogLinks": [
                "http://www.hoparoundindia.com/karnataka/city-guides/bellary.aspx"
            ],
            "longitude": "75.9197507909343",
            "closest_to": "belur",
            "latitude": "14.4664457",
            "address": "Davangere City Corporation Offices, K.B. Extension, Davanagere, Davanagere taluku, Davanagere district, Karnataka, 577000, India"
        },
        "karnataka": {
            "locType": "atm",
            "blogLinks": [
                "http://www.distancesfrom.com/in/Trip-Cost-from-Bellary-to-Kasapuram/TripCostHistory/33691824.aspx",
                "http://www.srsbooking.com/buses/16/Bangalore-to-Bellary/",
                "https://www.tripoto.com/trip/8-destinations-in-karnataka-popular-for-their-history-359222",
                "https://en.wikipedia.org/wiki/Bellary",
                "https://www.yatra.com/india-tourism/karnataka",
                "http://www.distancesfrom.com/in/travel-from-Bangalore-to-Bellary-via-Hospet-KSRTC-Bus-Stand/TravelFromHistory/33178386.aspx",
                "http://www.distancesfrom.com/in/Bangalore-to-Gulbarga-Route-via-Bellary/RouteplannerHistory/710240.aspx",
                "http://www.distancesfrom.com/in/how-far-is-Devasamudra-from-Bellary/HowFarHistory/33126425.aspx",
                "http://www.hoparoundindia.com/karnataka/city-guides/bellary.aspx",
                "http://travel.india.com/articles/11-places-to-visit-in-karnataka/",
                "http://www.mapsofindia.com/maps/karnataka/"
            ],
            "longitude": "76.6639936",
            "closest_to": "belur",
            "latitude": "12.3084901",
            "address": "Karnataka, Shalivahana Road, Nazarbad, Mysuru, Mysuru taluk, Mysuru district, Karnataka, 570001, India"
        },
        "bellary fort": {
            "locType": "castle",
            "blogLinks": [
                "http://www.hoparoundindia.com/karnataka/attractions/bellary.aspx",
                "https://www.ahataxis.com/Ludhiana-to-Bellary-taxi"
            ],
            "longitude": "76.9090283",
            "closest_to": "belur",
            "latitude": "15.1481211",
            "address": "Upper Hill Outer Fort Wall, Uphill Fort Entry Road, Ballari, Bellary taluk, Bellary district, Karnataka, 5831XX, India"
        },
        "hubli": {
            "locType": "city",
            "blogLinks": [
                "https://en.wikipedia.org/wiki/Bellary",
                "https://www.yatra.com/india-tourism/karnataka"
            ],
            "longitude": "75.1379848",
            "closest_to": "bellary",
            "latitude": "15.3518378",
            "address": "Hubballi - \u0cb9\u0cc1\u0cac\u0ccd\u0cac\u0cb3\u0ccd\u0cb3\u0cbf, Hubballi taluku, Dharwad district, Karnataka, 580020, India"
        },
        "vijayanagar": {
            "locType": "station",
            "blogLinks": [
                "http://www.hoparoundindia.com/karnataka/attractions/bellary.aspx"
            ],
            "longitude": "77.5375757",
            "closest_to": "belur",
            "latitude": "12.9713392",
            "address": "Vijayanagar, Chord Road, Marenahalli, Vijaya Nagar, Binny Layout, Bangalore Urban, Karnataka, 560040, India"
        },
        "mandya": {
            "locType": "town",
            "blogLinks": [
                "http://www.mapsofindia.com/maps/karnataka/"
            ],
            "longitude": "76.8937392",
            "closest_to": "belur",
            "latitude": "12.5217836",
            "address": "Mandya, Mandya taluk, Mandya district, Karnataka, 571401, India"
        },
        "yagachi dam": {
            "locType": "dam",
            "blogLinks": [
                "http://www.holidayiq.com/Halebid-and-Belur-Sightseeing-651.html"
            ],
            "longitude": "75.8678438",
            "closest_to": "belur",
            "latitude": "13.1812074",
            "address": "Yagachi Dam, Beluru taluk, Hassan district, Karnataka, India"
        },
        "ramanagara": {
            "locType": "town",
            "blogLinks": [
                "http://www.mapsofindia.com/maps/karnataka/"
            ],
            "longitude": "74.4900863",
            "closest_to": "bellary",
            "latitude": "15.422047",
            "address": "Ramanagara, Khanapura taluku, Belgaum district, Karnataka, India"
        }
    },
    "belur": {
        "osm_id": "245618812",
        "display_name": "Belur, Beluru taluk, Hassan district, Karnataka, 573115, India",
        "importance": 0.5,
        "place_id": "633330",
        "class": "place",
        "boundingbox": [
            "13.1245671",
            "13.2045671",
            "75.8234851",
            "75.9034851"
        ],
        "type": "town",
        "lon": "75.8634851",
        "licence": "Data \u00a9 OpenStreetMap contributors, ODbL 1.0. http://www.openstreetmap.org/copyright",
        "osm_type": "node",
        "lat": "13.1645671",
        "icon": "https://nominatim.openstreetmap.org/images/mapicons/poi_place_town.p.20.png"
    },
    "bellary": {
        "osm_id": "316417114",
        "display_name": "Bellary, Bellary district, Karnataka, India",
        "importance": 0.65,
        "place_id": "1393549",
        "class": "place",
        "boundingbox": [
            "14.6085413",
            "15.8885413",
            "76.1923648",
            "77.4723648"
        ],
        "type": "county",
        "lon": "76.8323648",
        "licence": "Data \u00a9 OpenStreetMap contributors, ODbL 1.0. http://www.openstreetmap.org/copyright",
        "osm_type": "node",
        "lat": "15.2485413",
        "icon": "https://nominatim.openstreetmap.org/images/mapicons/poi_boundary_administrative.p.20.png"
    }
}