{
    "mentions": {
        "bijapur": {
            "locType": "city",
            "blogLinks": [
                "http://www.mapsofindia.com/maps/karnataka/"
            ],
            "longitude": "75.7175387",
            "closest_to": "bellary",
            "latitude": "16.8269911",
            "address": "Vijayapura, Vijayapura taluk, Bijapur district, Karnataka, 586101, India"
        },
        "vittala": {
            "locType": "yes",
            "blogLinks": [
                "https://www.tripoto.com/travel-guide/bellary/places-to-visit"
            ],
            "longitude": "76.6237847175927",
            "closest_to": "sringeri",
            "latitude": "12.30129655",
            "address": "Vijaya Vittala PU College, Sahukar Chennaiah Road, Sarasvatipuram, Mysuru, Mysuru taluk, Mysuru district, Karnataka, 570001, India"
        },
        "ramanagara": {
            "locType": "town",
            "blogLinks": [
                "http://www.mapsofindia.com/maps/karnataka/"
            ],
            "longitude": "74.4900863",
            "closest_to": "sringeri",
            "latitude": "15.422047",
            "address": "Ramanagara, Khanapura taluku, Belgaum district, Karnataka, India"
        },
        "kigga": {
            "locType": "village",
            "blogLinks": [
                "http://wikitravel.org/en/Shringeri",
                "https://www.makemytrip.com/routeplanner/how-to-reach-sringeri.html",
                "http://www.mapsofindia.com/karnataka/travel-to-sringeri.html"
            ],
            "longitude": "75.1903656777356",
            "closest_to": "sringeri",
            "latitude": "13.41691525",
            "address": "Kigga, Sringeri taluku, Chikkamagaluru district, Karnataka, 577139, India"
        },
        "gadag": {
            "locType": "town",
            "blogLinks": [
                "http://www.mapsofindia.com/maps/karnataka/"
            ],
            "longitude": "75.6300786",
            "closest_to": "sringeri",
            "latitude": "15.4263647",
            "address": "Gadag, Gadag taluk, Gadag district, Karnataka, 582101, India"
        },
        "kigga village": {
            "locType": "village",
            "blogLinks": [
                "http://wikitravel.org/en/Shringeri"
            ],
            "longitude": "75.1903656777356",
            "closest_to": "sringeri",
            "latitude": "13.41691525",
            "address": "Kigga, Sringeri taluku, Chikkamagaluru district, Karnataka, 577139, India"
        },
        "koppal": {
            "locType": "town",
            "blogLinks": [
                "http://www.mapsofindia.com/maps/karnataka/"
            ],
            "longitude": "76.1547421",
            "closest_to": "sringeri",
            "latitude": "15.3484144",
            "address": "Koppala, Koppala taluku, Koppal district, Karnataka, 583231, India"
        },
        "lakshmi temple": {
            "locType": "place_of_worship",
            "blogLinks": [
                "https://www.tripoto.com/travel-guide/bellary/places-to-visit"
            ],
            "longitude": "74.9916",
            "closest_to": "sringeri",
            "latitude": "15.459122",
            "address": "Lakshmi Temple, SH34, Channabasaveshwara Layout, Kamalapura, Dharwad, Dharawada taluku, Dharwad district, Karnataka, 580001, India"
        },
        "lakshmi": {
            "locType": "cinema",
            "blogLinks": [
                "https://www.tripoto.com/travel-guide/bellary/places-to-visit"
            ],
            "longitude": "77.6075298044091",
            "closest_to": "sringeri",
            "latitude": "12.9251835",
            "address": "Lakshmi, Tavarekere Main Road, Sadgunte Palya, Madivala, Bengaluru, Bangalore Urban, Karnataka, 560001, India"
        },
        "bharathi street": {
            "locType": "suburb",
            "blogLinks": [
                "http://wikitravel.org/en/Shringeri",
                "http://www.mapsofindia.com/karnataka/travel-to-sringeri.html"
            ],
            "longitude": "77.5112326",
            "closest_to": "sringeri",
            "latitude": "12.9433485",
            "address": "Jnana Bharathi, Bengaluru, Bangalore Urban, Karnataka, 560001, India"
        },
        "bangalore": {
            "locType": "city",
            "blogLinks": [
                "https://en.wikipedia.org/wiki/Bellary",
                "http://www.mapsofindia.com/karnataka/travel-to-sringeri.html",
                "http://wikitravel.org/en/Shringeri",
                "http://www.godakshin.com/travel-guides/4-exciting-places-visit-around-bangalore-732.html",
                "http://www.godakshin.com/travel-guides/bangalore-tourist-attractions",
                "https://www.tripoto.com/travel-guide/bellary/places-to-visit"
            ],
            "longitude": "77.5912997",
            "closest_to": "sringeri",
            "latitude": "12.9791198",
            "address": "Bengaluru, Bangalore Urban, Karnataka, 560001, India"
        },
        "karnatka": {
            "locType": "bank",
            "blogLinks": [
                "https://en.wikipedia.org/wiki/Bellary"
            ],
            "longitude": "77.5679508",
            "closest_to": "sringeri",
            "latitude": "12.9500847",
            "address": "Karnatka Rajya Kaigarika Sahakari Bank, Bull Temple Road, Mavalli, Chamarajapete, Bengaluru, Bangalore Urban, Karnataka, 560001, India"
        },
        "hemakuta hill": {
            "locType": "peak",
            "blogLinks": [
                "https://www.tripoto.com/travel-guide/bellary/places-to-visit"
            ],
            "longitude": "76.4602971",
            "closest_to": "sringeri",
            "latitude": "15.332915",
            "address": "Hemakuta Hill, Hosapete taluk, Bellary district, Karnataka, India"
        },
        "kalinga": {
            "locType": "primary",
            "blogLinks": [
                "https://www.tripoto.com/travel-guide/bellary/places-to-visit"
            ],
            "longitude": "77.5907477",
            "closest_to": "sringeri",
            "latitude": "12.9625615",
            "address": "Mission Road (Kalinga Rao Road), Sampangirama Nagar, Shanti Nagar, Bengaluru, Bangalore Urban, Karnataka, 560001, India"
        },
        "sri vidyashankara temple": {
            "locType": "place_of_worship",
            "blogLinks": [
                "http://www.godakshin.com/?q=travel-guides/sringeri-sightseeing-173.html"
            ],
            "longitude": "75.2514472909836",
            "closest_to": "sringeri",
            "latitude": "13.41567005",
            "address": "Sri Vidyashankara Swamy Temple, Sri Vidyateertha Setu, Sringeri, Sringeri taluku, Chikkamagaluru district, Karnataka, 577592, India"
        },
        "bellary airport": {
            "locType": "aerodrome",
            "blogLinks": [
                "https://en.wikipedia.org/wiki/Bellary"
            ],
            "longitude": "76.8813908",
            "closest_to": "sringeri",
            "latitude": "15.1615409",
            "address": "Bellary Airport, Hosapete Road, Ballari, Bellary taluk, Bellary district, Karnataka, 583104, India"
        },
        "vijayanagara": {
            "locType": "village",
            "blogLinks": [
                "https://en.wikipedia.org/wiki/Bellary"
            ],
            "longitude": "74.7380455",
            "closest_to": "bellary",
            "latitude": "16.3270486",
            "address": "Vijayanagara, Chikodi taluk, Belgaum district, Karnataka, India"
        },
        "queens": {
            "locType": "clinic",
            "blogLinks": [
                "https://www.tripoto.com/travel-guide/bellary/places-to-visit"
            ],
            "longitude": "77.5874909",
            "closest_to": "sringeri",
            "latitude": "12.9903369",
            "address": "Queens Nursing Home, Cunningham Road, Chakravarty Layout, Vasantnagar, Bengaluru, Bangalore Urban, Karnataka, 560001, India"
        },
        "karnataka": {
            "locType": "atm",
            "blogLinks": [
                "https://www.tripoto.com/travel-guide/bellary/places-to-visit",
                "https://www.tripoto.com/trip/karnataka-one-state-many-worlds-2-565ed43147a04",
                "http://www.karnatakatourism.org/",
                "http://distancecalculator.globefeed.com/India_Distance_Calculator.asp?state=19",
                "https://en.wikipedia.org/wiki/Bellary",
                "http://www.mapsofindia.com/karnataka/travel-to-sringeri.html",
                "http://www.godakshin.com/?q=travel-guides/sringeri-sightseeing-173.html",
                "http://www.godakshin.com/travel-guides/4-exciting-places-visit-around-bangalore-732.html",
                "http://www.godakshin.com/travel-guides/bangalore-tourist-attractions",
                "http://www.mapsofindia.com/maps/karnataka/"
            ],
            "longitude": "76.6639936",
            "closest_to": "sringeri",
            "latitude": "12.3084901",
            "address": "Karnataka, Shalivahana Road, Nazarbad, Mysuru, Mysuru taluk, Mysuru district, Karnataka, 570001, India"
        },
        "horanadu": {
            "locType": "town",
            "blogLinks": [
                "https://www.makemytrip.com/routeplanner/how-to-reach-sringeri.html",
                "http://www.mapsofindia.com/karnataka/travel-to-sringeri.html"
            ],
            "longitude": "75.3445161",
            "closest_to": "sringeri",
            "latitude": "13.2761199",
            "address": "Horanadu, Mudigere taluk, Chikkamagaluru district, Karnataka, 577181, India"
        },
        "karwar": {
            "locType": "town",
            "blogLinks": [
                "https://en.wikipedia.org/wiki/Bellary"
            ],
            "longitude": "74.1319229",
            "closest_to": "sringeri",
            "latitude": "14.8120931",
            "address": "Karwar, Karavara taluk, Uttara Kannada, Karnataka, 581300, India"
        },
        "bellary": {
            "locType": "county",
            "blogLinks": [
                "https://www.tripoto.com/travel-guide/bellary/places-to-visit",
                "https://en.wikipedia.org/wiki/Bellary",
                "http://www.mapsofindia.com/maps/karnataka/"
            ],
            "longitude": "76.8323648",
            "closest_to": "sringeri",
            "latitude": "15.2485413",
            "address": "Bellary, Bellary district, Karnataka, India"
        },
        "kundapura": {
            "locType": "town",
            "blogLinks": [
                "http://wikitravel.org/en/Shringeri"
            ],
            "longitude": "74.6915722",
            "closest_to": "sringeri",
            "latitude": "13.6250993",
            "address": "Kundapura, \u0c95\u0cc1\u0c82\u0ca6\u0cbe\u0caa\u0cc1\u0cb0 \u0ca4\u0cbe\u0cb2\u0cc2\u0c95\u0cc1, Udupi district, Karnataka, 576200, India"
        },
        "tumkur": {
            "locType": "county",
            "blogLinks": [
                "http://www.mapsofindia.com/maps/karnataka/"
            ],
            "longitude": "77.0002445",
            "closest_to": "sringeri",
            "latitude": "13.4999406",
            "address": "Tumakuru, Tumkur district, Karnataka, India"
        },
        "mundargi": {
            "locType": "hamlet",
            "blogLinks": [
                "https://en.wikipedia.org/wiki/Bellary"
            ],
            "longitude": "77.1777795",
            "closest_to": "bellary",
            "latitude": "16.7700414",
            "address": "Mundargi Thanda, Yadagiri taluku, Yadagiri district, Karnataka, India"
        },
        "mangalore international airport": {
            "locType": "aerodrome",
            "blogLinks": [
                "http://www.mapsofindia.com/karnataka/travel-to-sringeri.html"
            ],
            "longitude": "74.887492668144",
            "closest_to": "sringeri",
            "latitude": "12.95518575",
            "address": "Mangalore International Airport, Airport Entry Road, Gandhinagar, Kenjar, Mangaluru taluk, Dakshina Kannada, Karnataka, 575015, India"
        },
        "anantapur": {
            "locType": "yes",
            "blogLinks": [
                "https://en.wikipedia.org/wiki/Bellary"
            ],
            "longitude": "77.7596024",
            "closest_to": "bellary",
            "latitude": "13.7972948",
            "address": "RTO Karnataka, Srinagar - Kanyakumari Highway, Paragodu, Bagepalli taluk, Chikkaballapura district, Karnataka, 561207, India"
        },
        "lakshmi narasimha temple": {
            "locType": "place_of_worship",
            "blogLinks": [
                "https://www.tripoto.com/travel-guide/bellary/places-to-visit"
            ],
            "longitude": "76.4751415",
            "closest_to": "sringeri",
            "latitude": "13.0109781",
            "address": "Lakshmi Narasimha Temple, SH147, Nuggehalli, Channarayapattana taluk, Hassan district, Karnataka, India"
        },
        "mumbai": {
            "locType": "restaurant",
            "blogLinks": [
                "http://wikitravel.org/en/Shringeri",
                "https://en.wikipedia.org/wiki/Bellary",
                "http://www.mapsofindia.com/karnataka/travel-to-sringeri.html",
                "https://www.tripoto.com/travel-guide/bellary/places-to-visit"
            ],
            "longitude": "77.5718472",
            "closest_to": "sringeri",
            "latitude": "13.0002869",
            "address": "Mumbai Spice, 18/2, 10th Cross, Malleswaram, Vyalikaval, Malleswaram, Bengaluru, Bangalore Urban, Karnataka, 560003, India"
        },
        "dakshina kannada": {
            "locType": "administrative",
            "blogLinks": [
                "http://www.mapsofindia.com/maps/karnataka/"
            ],
            "longitude": "75.1008028650794",
            "closest_to": "sringeri",
            "latitude": "12.8114089",
            "address": "Dakshina Kannada, Karnataka, India"
        },
        "vitthala": {
            "locType": "footway",
            "blogLinks": [
                "https://www.tripoto.com/travel-guide/bellary/places-to-visit"
            ],
            "longitude": "76.4705005",
            "closest_to": "sringeri",
            "latitude": "15.3376716",
            "address": "Way to Vitthala Temple, Hampe, Hosapete taluk, Bellary district, Karnataka, 583239, India"
        },
        "dr. rajkumar park": {
            "locType": "park",
            "blogLinks": [
                "https://en.wikipedia.org/wiki/Bellary"
            ],
            "longitude": "77.5574645707685",
            "closest_to": "sringeri",
            "latitude": "12.9519632",
            "address": "Dr Rajkumar Park, Pipeline Road, Srinagar, Bengaluru, Bangalore Urban, Karnataka, 560001, India"
        },
        "gulbarga": {
            "locType": "county",
            "blogLinks": [
                "http://www.mapsofindia.com/maps/karnataka/"
            ],
            "longitude": "77.083333",
            "closest_to": "bellary",
            "latitude": "17.166667",
            "address": "Kalaburgi, Kalaburagi district, Karnataka, India"
        },
        "sanduru": {
            "locType": "town",
            "blogLinks": [
                "https://en.wikipedia.org/wiki/Bellary"
            ],
            "longitude": "76.5435934",
            "closest_to": "sringeri",
            "latitude": "15.084389",
            "address": "Sanduru, Sanduru taluk, Bellary district, Karnataka, 583119, India"
        },
        "kurnool": {
            "locType": "hotel",
            "blogLinks": [
                "https://en.wikipedia.org/wiki/Bellary"
            ],
            "longitude": "77.4217916",
            "closest_to": "bellary",
            "latitude": "15.9394081",
            "address": "Karnataka Guest House, Jadcherla - Hagari Road, Kurnool, Andhra Pradesh, India"
        },
        "kerala": {
            "locType": "restaurant",
            "blogLinks": [
                "http://www.godakshin.com/travel-guides/bangalore-tourist-attractions",
                "http://www.mapsofindia.com/maps/karnataka/"
            ],
            "longitude": "77.6382683",
            "closest_to": "sringeri",
            "latitude": "12.9726449",
            "address": "New Life Kerala Mess, Sai Baba Mandira Road, Mottappanapalaya, Indiranagar, Bengaluru, Bangalore Urban, Karnataka, 560001, India"
        },
        "hospet": {
            "locType": "town",
            "blogLinks": [
                "https://www.tripoto.com/travel-guide/bellary/places-to-visit"
            ],
            "longitude": "76.3870527",
            "closest_to": "sringeri",
            "latitude": "15.266079",
            "address": "Hosapete, Hosapete taluk, Bellary district, Karnataka, 583200, India"
        },
        "goa": {
            "locType": "restaurant",
            "blogLinks": [
                "https://en.wikipedia.org/wiki/Bellary"
            ],
            "longitude": "77.6200027",
            "closest_to": "sringeri",
            "latitude": "12.9750047",
            "address": "Carnival De Goa, Bhaskaran Road, Gupta Layout, Halasuru, Bengaluru, Bangalore Urban, Karnataka, 560001, India"
        },
        "pampa": {
            "locType": "secondary",
            "blogLinks": [
                "https://www.tripoto.com/travel-guide/bellary/places-to-visit"
            ],
            "longitude": "77.5719518",
            "closest_to": "sringeri",
            "latitude": "12.9581179",
            "address": "Pampa Mahakavi Road, Ranasingpet, Kalasipalya, Bengaluru, Bangalore Urban, Karnataka, 560001, India"
        },
        "toranagallu": {
            "locType": "village",
            "blogLinks": [
                "https://en.wikipedia.org/wiki/Bellary"
            ],
            "longitude": "76.6780987",
            "closest_to": "sringeri",
            "latitude": "15.1959663",
            "address": "Toranagallu, Sanduru taluk, Bellary district, Karnataka, 583123, India"
        },
        "jindal vijaynagar airport": {
            "locType": "aerodrome",
            "blogLinks": [
                "https://en.wikipedia.org/wiki/Bellary"
            ],
            "longitude": "76.6334746",
            "closest_to": "sringeri",
            "latitude": "15.1743056",
            "address": "Jindal Vijaynagar Airport, Kudligi Road, Vaddu, Sanduru taluk, Bellary district, Karnataka, 583123, India"
        },
        "bagalkot": {
            "locType": "city",
            "blogLinks": [
                "https://www.tripoto.com/trip/karnataka-one-state-many-worlds-2-565ed43147a04"
            ],
            "longitude": "75.6967919",
            "closest_to": "bellary",
            "latitude": "16.1853166",
            "address": "Bagalakote, Bagalakote taluk, Bagalkote district, Karnataka, India"
        },
        "udupi": {
            "locType": "city",
            "blogLinks": [
                "http://www.mapsofindia.com/maps/karnataka/"
            ],
            "longitude": "74.7473232",
            "closest_to": "sringeri",
            "latitude": "13.3419169",
            "address": "Udupi, Udupi taluku, Udupi district, Karnataka, 576101, India"
        },
        "kakkabe": {
            "locType": "village",
            "blogLinks": [
                "https://www.tripoto.com/travel-guide/bellary/places-to-visit"
            ],
            "longitude": "75.6444603",
            "closest_to": "sringeri",
            "latitude": "12.2571817",
            "address": "Kakkabe, Madikeri taluku, Kodagu, Karnataka, India"
        },
        "sanganakallu": {
            "locType": "village",
            "blogLinks": [
                "https://en.wikipedia.org/wiki/Bellary"
            ],
            "longitude": "76.9671823",
            "closest_to": "bellary",
            "latitude": "15.1738536",
            "address": "Sanganakallu, Bellary taluk, Bellary district, Karnataka, India"
        },
        "river tungabhadra": {
            "locType": "river",
            "blogLinks": [
                "https://www.tripoto.com/travel-guide/bellary/places-to-visit"
            ],
            "longitude": "76.4931607",
            "closest_to": "sringeri",
            "latitude": "15.3446123",
            "address": "Tungabhadra, Gangavati taluku, Koppal district, Karnataka, India"
        },
        "talakadu": {
            "locType": "village",
            "blogLinks": [
                "http://www.godakshin.com/travel-guides/4-exciting-places-visit-around-bangalore-732.html"
            ],
            "longitude": "77.0293979",
            "closest_to": "sringeri",
            "latitude": "12.1919942",
            "address": "Talakadu, Tirumakudalu Narasipura taluk, Mysuru district, Karnataka, India"
        },
        "kadur": {
            "locType": "trunk",
            "blogLinks": [
                "http://wikitravel.org/en/Shringeri"
            ],
            "longitude": "75.7820095",
            "closest_to": "sringeri",
            "latitude": "13.3283654",
            "address": "Mudigere-Kadur Road, Basavannahalli, Chikkamagaluru, Chikkamagaluru taluku, Chikkamagaluru district, Karnataka, 577101, India"
        },
        "sringeri": {
            "locType": "town",
            "blogLinks": [
                "http://www.godakshin.com/?q=travel-guides/sringeri-sightseeing-173.html",
                "http://wikitravel.org/en/Shringeri",
                "http://www.sringeri.co.in/Reach.php",
                "http://www.mapsofindia.com/karnataka/travel-to-sringeri.html",
                "https://www.tripoto.com/trip/karnataka-one-state-many-worlds-2-565ed43147a04"
            ],
            "longitude": "75.2553718",
            "closest_to": "sringeri",
            "latitude": "13.4261724",
            "address": "Sringeri, Sringeri taluku, Chikkamagaluru district, Karnataka, 577592, India"
        },
        "hampi": {
            "locType": "village",
            "blogLinks": [
                "http://www.godakshin.com/travel-guides/4-exciting-places-visit-around-bangalore-732.html",
                "https://www.tripoto.com/travel-guide/bellary/places-to-visit"
            ],
            "longitude": "76.4606199",
            "closest_to": "sringeri",
            "latitude": "15.3359769",
            "address": "Hampe, Hosapete taluk, Bellary district, Karnataka, 583239, India"
        },
        "hadagali": {
            "locType": "village",
            "blogLinks": [
                "https://en.wikipedia.org/wiki/Bellary"
            ],
            "longitude": "75.9370122",
            "closest_to": "bellary",
            "latitude": "16.8109502",
            "address": "Hadagali, Vijayapura taluk, Bijapur district, Karnataka, India"
        },
        "harihara": {
            "locType": "town",
            "blogLinks": [
                "http://www.godakshin.com/?q=travel-guides/sringeri-sightseeing-173.html"
            ],
            "longitude": "75.809288",
            "closest_to": "sringeri",
            "latitude": "14.5116874",
            "address": "Harihara, Harihara taluku, Davanagere district, Karnataka, 577600, India"
        },
        "dharwad": {
            "locType": "city",
            "blogLinks": [
                "http://www.mapsofindia.com/maps/karnataka/"
            ],
            "longitude": "75.0066516",
            "closest_to": "sringeri",
            "latitude": "15.4540505",
            "address": "Dharwad, Dharawada taluku, Dharwad district, Karnataka, 580001, India"
        },
        "annapoorneshwari temple": {
            "locType": "place_of_worship",
            "blogLinks": [
                "https://www.makemytrip.com/routeplanner/how-to-reach-sringeri.html",
                "http://www.mapsofindia.com/karnataka/travel-to-sringeri.html"
            ],
            "longitude": "74.9006001",
            "closest_to": "sringeri",
            "latitude": "12.97910715",
            "address": "Sri Ambika Annapoorneshwari Temple, SH101, Sunkadakatte, Mangaluru taluk, Dakshina Kannada, Karnataka, India"
        },
        "tungabhadra dam": {
            "locType": "dam",
            "blogLinks": [
                "https://www.tripoto.com/travel-guide/bellary/places-to-visit"
            ],
            "longitude": "76.3339514796436",
            "closest_to": "sringeri",
            "latitude": "15.2639032",
            "address": "Tungabhadra Dam, Hosapete taluk, Bellary district, Karnataka, India"
        },
        "chikkaballapur": {
            "locType": "town",
            "blogLinks": [
                "http://www.mapsofindia.com/maps/karnataka/"
            ],
            "longitude": "77.7306866",
            "closest_to": "bellary",
            "latitude": "13.4352549",
            "address": "Chikkaballapura, Chikkaballapura taluk, Chikkaballapura district, Karnataka, 562101, India"
        },
        "south": {
            "locType": "residential",
            "blogLinks": [
                "https://www.tripoto.com/travel-guide/bellary/places-to-visit"
            ],
            "longitude": "77.8040874",
            "closest_to": "bellary",
            "latitude": "13.2942848",
            "address": "s, Vijayapura, Devanahalli taluk, Bangalore Rural, Karnataka, 562135, India"
        },
        "hindupur": {
            "locType": "primary",
            "blogLinks": [
                "https://en.wikipedia.org/wiki/Bellary"
            ],
            "longitude": "77.5237128",
            "closest_to": "sringeri",
            "latitude": "13.3580171",
            "address": "Hindupur ByPass Road, Bachchahalli, Doddaballapura taluk, Bangalore Rural, Karnataka, India"
        },
        "tumakuru": {
            "locType": "county",
            "blogLinks": [
                "https://en.wikipedia.org/wiki/Bellary"
            ],
            "longitude": "77.0002445",
            "closest_to": "sringeri",
            "latitude": "13.4999406",
            "address": "Tumakuru, Tumkur district, Karnataka, India"
        },
        "kaveri": {
            "locType": "river",
            "blogLinks": [
                "http://www.godakshin.com/travel-guides/4-exciting-places-visit-around-bangalore-732.html",
                "https://www.tripoto.com/trip/karnataka-one-state-many-worlds-2-565ed43147a04"
            ],
            "longitude": "77.0635531",
            "closest_to": "sringeri",
            "latitude": "12.1687878",
            "address": "Kaveri, Kollegala taluk, Chamarajanagar district, Karnataka, India"
        },
        "krishnagiri": {
            "locType": "neighbourhood",
            "blogLinks": [
                "http://www.godakshin.com/travel-guides/4-exciting-places-visit-around-bangalore-732.html"
            ],
            "longitude": "75.1096736",
            "closest_to": "sringeri",
            "latitude": "15.3375394",
            "address": "Krishnagiri Colony, Padmaraj Nagar, Hubballi - \u0cb9\u0cc1\u0cac\u0ccd\u0cac\u0cb3\u0ccd\u0cb3\u0cbf, Hubballi taluku, Dharwad district, Karnataka, 580020, India"
        },
        "pushkarani": {
            "locType": "water",
            "blogLinks": [
                "https://www.tripoto.com/travel-guide/bellary/places-to-visit"
            ],
            "longitude": "74.7063912580927",
            "closest_to": "sringeri",
            "latitude": "13.5218095",
            "address": "Pushkarani, NH66, Thekkatte, \u0c95\u0cc1\u0c82\u0ca6\u0cbe\u0caa\u0cc1\u0cb0 \u0ca4\u0cbe\u0cb2\u0cc2\u0c95\u0cc1, Udupi district, Karnataka, 576231, India"
        },
        "ballari district": {
            "locType": "city",
            "blogLinks": [
                "https://en.wikipedia.org/wiki/Bellary"
            ],
            "longitude": "76.9125211",
            "closest_to": "sringeri",
            "latitude": "15.1467299",
            "address": "Ballari, Bellary taluk, Bellary district, Karnataka, India"
        },
        "chitradurga": {
            "locType": "town",
            "blogLinks": [
                "https://en.wikipedia.org/wiki/Bellary"
            ],
            "longitude": "76.4005122",
            "closest_to": "sringeri",
            "latitude": "14.2266443",
            "address": "Chitradurga, Chitradurga taluku, Chitradurga district, Karnataka, 577500, India"
        },
        "chamarajanagar": {
            "locType": "station",
            "blogLinks": [
                "http://www.mapsofindia.com/maps/karnataka/"
            ],
            "longitude": "76.9331345",
            "closest_to": "sringeri",
            "latitude": "11.9346624",
            "address": "Chamarajanagar, Nanjangudu-Chamarajanagar Road, Kadahalli, Chamarajanagara taluk, Chamarajanagar district, Karnataka, 571313, India"
        },
        "kodagu": {
            "locType": "administrative",
            "blogLinks": [
                "https://www.tripoto.com/travel-guide/bellary/places-to-visit",
                "http://www.mapsofindia.com/maps/karnataka/"
            ],
            "longitude": "75.6677235950852",
            "closest_to": "sringeri",
            "latitude": "12.38117345",
            "address": "Kodagu, Karnataka, India"
        },
        "bengaluru": {
            "locType": "city",
            "blogLinks": [
                "https://www.tripoto.com/travel-guide/bellary/places-to-visit"
            ],
            "longitude": "77.5912997",
            "closest_to": "sringeri",
            "latitude": "12.9791198",
            "address": "Bengaluru, Bangalore Urban, Karnataka, 560001, India"
        },
        "dharmasthala": {
            "locType": "village",
            "blogLinks": [
                "http://www.mapsofindia.com/karnataka/travel-to-sringeri.html"
            ],
            "longitude": "75.3813122",
            "closest_to": "sringeri",
            "latitude": "12.9519571",
            "address": "Dharmasthala, Beltangadi taluk, Dakshina Kannada, Karnataka, 574216, India"
        },
        "tungabhadra": {
            "locType": "river",
            "blogLinks": [
                "https://www.tripoto.com/trip/karnataka-one-state-many-worlds-2-565ed43147a04",
                "https://www.tripoto.com/travel-guide/bellary/places-to-visit"
            ],
            "longitude": "76.4931607",
            "closest_to": "sringeri",
            "latitude": "15.3446123",
            "address": "Tungabhadra, Gangavati taluku, Koppal district, Karnataka, India"
        },
        "varanasi": {
            "locType": "village",
            "blogLinks": [
                "https://en.wikipedia.org/wiki/Bellary"
            ],
            "longitude": "77.6860657",
            "closest_to": "bellary",
            "latitude": "13.0304962",
            "address": "Varanasi, Bangalore Urban, Karnataka, India"
        },
        "ballari": {
            "locType": "city",
            "blogLinks": [
                "https://en.wikipedia.org/wiki/Bellary"
            ],
            "longitude": "76.9125211",
            "closest_to": "sringeri",
            "latitude": "15.1467299",
            "address": "Ballari, Bellary taluk, Bellary district, Karnataka, India"
        },
        "mangalore": {
            "locType": "city",
            "blogLinks": [
                "https://en.wikipedia.org/wiki/Bellary",
                "http://www.mapsofindia.com/karnataka/travel-to-sringeri.html",
                "http://travel.india.com/"
            ],
            "longitude": "74.8430082",
            "closest_to": "sringeri",
            "latitude": "12.8698101",
            "address": "Mangaluru, Mangaluru taluk, Dakshina Kannada, Karnataka, 575001, India"
        },
        "hyatt hampi": {
            "locType": "hotel",
            "blogLinks": [
                "https://www.tripoto.com/travel-guide/bellary/places-to-visit"
            ],
            "longitude": "76.624310564536",
            "closest_to": "sringeri",
            "latitude": "15.1752269",
            "address": "Hyatt Place Hampi, Kudligi Road, Vaddu, Sanduru taluk, Bellary district, Karnataka, 583123, India"
        },
        "koppa": {
            "locType": "town",
            "blogLinks": [
                "http://wikitravel.org/en/Shringeri"
            ],
            "longitude": "75.3633986",
            "closest_to": "sringeri",
            "latitude": "13.533207",
            "address": "Koppa, Koppa taluk, Chikkamagaluru district, Karnataka, India"
        },
        "anjaneya hill": {
            "locType": "peak",
            "blogLinks": [
                "https://www.tripoto.com/travel-guide/bellary/places-to-visit"
            ],
            "longitude": "76.4691482",
            "closest_to": "sringeri",
            "latitude": "15.3550046",
            "address": "Anjanadri Hill, Gangavati taluku, Koppal district, Karnataka, India"
        },
        "southern india": {
            "locType": "commercial",
            "blogLinks": [
                "https://www.tripoto.com/travel-guide/bellary/places-to-visit"
            ],
            "longitude": "77.6227757667762",
            "closest_to": "sringeri",
            "latitude": "12.92588785",
            "address": "Survey Of India - Southern Zone, Madivala, Bengaluru, Bangalore Urban, Karnataka, 560001, India"
        },
        "sharadamba temple": {
            "locType": "place_of_worship",
            "blogLinks": [
                "http://www.mapsofindia.com/karnataka/travel-to-sringeri.html"
            ],
            "longitude": "77.5656194",
            "closest_to": "sringeri",
            "latitude": "12.9321898",
            "address": "Sharadamba Temple, 7th Main Road, Yediyur, Thyagaraja Nagar, Bengaluru, Bangalore Urban, Karnataka, 560001, India"
        },
        "bagalkote": {
            "locType": "administrative",
            "blogLinks": [
                "http://www.mapsofindia.com/maps/karnataka/"
            ],
            "longitude": "75.5825586777167",
            "closest_to": "bellary",
            "latitude": "16.28998085",
            "address": "Bagalkote district, Karnataka, India"
        },
        "hanuman temple": {
            "locType": "place_of_worship",
            "blogLinks": [
                "https://www.tripoto.com/travel-guide/bellary/places-to-visit"
            ],
            "longitude": "77.5273276",
            "closest_to": "sringeri",
            "latitude": "13.0343487",
            "address": "Hanuman Temple, 1st Cross Road, MEI Colony, Peenya, Bengaluru, Bangalore Urban, Karnataka, 560001, India"
        },
        "shringeri": {
            "locType": "village",
            "blogLinks": [
                "http://www.godakshin.com/?q=travel-guides/sringeri-sightseeing-173.html"
            ],
            "longitude": "75.0621168",
            "closest_to": "sringeri",
            "latitude": "14.7221214",
            "address": "Shringeri, Hanagal taluk, Haveri district, Karnataka, India"
        },
        "tirupati": {
            "locType": "village",
            "blogLinks": [
                "https://en.wikipedia.org/wiki/Bellary"
            ],
            "longitude": "76.2727455",
            "closest_to": "sringeri",
            "latitude": "13.3289007",
            "address": "Malekallu Tirupathi, Arasikere taluku, Hassan district, Karnataka, India"
        },
        "ulsoor lake": {
            "locType": "water",
            "blogLinks": [
                "http://www.godakshin.com/travel-guides/bangalore-tourist-attractions"
            ],
            "longitude": "77.6191669052984",
            "closest_to": "sringeri",
            "latitude": "12.9823891",
            "address": "Halasuru lake, Annaswamy Mudaliar Road, Kothandram Layout, Halasuru, Bengaluru, Bangalore Urban, Karnataka, 560001, India"
        },
        "black lake": {
            "locType": "bar",
            "blogLinks": [
                "https://en.wikipedia.org/wiki/Bellary"
            ],
            "longitude": "77.6411436",
            "closest_to": "sringeri",
            "latitude": "12.9698964",
            "address": "The Black Rabbit, 100 Feet Road( S K Karim Khan Road), Appareddipalaya, Indiranagar, Bengaluru, Bangalore Urban, Karnataka, 560001, India"
        },
        "india": {
            "locType": "administrative",
            "blogLinks": [
                "http://www.mapsofindia.com/maps/karnataka/",
                "http://www.karnatakatourism.org/",
                "http://distancecalculator.globefeed.com/India_Distance_Calculator.asp?state=19",
                "https://en.wikipedia.org/wiki/Bellary",
                "http://www.mapsofindia.com/karnataka/travel-to-sringeri.html",
                "http://wikitravel.org/en/Shringeri",
                "http://www.godakshin.com/travel-guides/bangalore-tourist-attractions",
                "https://www.tripoto.com/travel-guide/bellary/places-to-visit"
            ],
            "longitude": "75.7223521",
            "closest_to": "sringeri",
            "latitude": "14.5203896",
            "address": "Karnataka, India"
        },
        "central jail of bellary": {
            "locType": "prison",
            "blogLinks": [
                "https://en.wikipedia.org/wiki/Bellary"
            ],
            "longitude": "76.9253840594437",
            "closest_to": "sringeri",
            "latitude": "15.15050865",
            "address": "Ballari Central Jail, Jail Road, Ballari, Bellary taluk, Bellary district, Karnataka, 583101, India"
        },
        "kamalapur": {
            "locType": "yes",
            "blogLinks": [
                "https://www.tripoto.com/travel-guide/bellary/places-to-visit"
            ],
            "longitude": "75.003629911571",
            "closest_to": "sringeri",
            "latitude": "15.4456282",
            "address": "Kamalapur Nursing Home, Station Road, Kalyana nagar, Gandhinagar, Dharwad, Dharawada taluku, Dharwad district, Karnataka, 580001, India"
        },
        "uttara kannada": {
            "locType": "administrative",
            "blogLinks": [
                "https://en.wikipedia.org/wiki/Bellary"
            ],
            "longitude": "74.4729163045979",
            "closest_to": "sringeri",
            "latitude": "14.6726379",
            "address": "Uttara Kannada, Karnataka, India"
        },
        "hariharapura": {
            "locType": "village",
            "blogLinks": [
                "http://www.godakshin.com/?q=travel-guides/sringeri-sightseeing-173.html"
            ],
            "longitude": "75.3016877",
            "closest_to": "sringeri",
            "latitude": "13.5203047",
            "address": "Hariharapura, Koppa taluk, Chikkamagaluru district, Karnataka, 577120, India"
        },
        "new delhi": {
            "locType": "college",
            "blogLinks": [
                "https://en.wikipedia.org/wiki/Bellary"
            ],
            "longitude": "76.6142178649055",
            "closest_to": "sringeri",
            "latitude": "12.30911465",
            "address": "Regional Institute of Education, Chaduranga Road, Jayalakshmipuram, Mysuru, Mysuru taluk, Mysuru district, Karnataka, 570001, India"
        },
        "vijaynagar": {
            "locType": "bus_stop",
            "blogLinks": [
                "https://www.tripoto.com/travel-guide/bellary/places-to-visit"
            ],
            "longitude": "77.5376657",
            "closest_to": "sringeri",
            "latitude": "12.9720356",
            "address": "Vijaynagar, Chord Road, Marenahalli, Vijaya Nagar, Binny Layout, Bangalore Urban, Karnataka, 560040, India"
        },
        "maharashtra": {
            "locType": "bank",
            "blogLinks": [
                "https://en.wikipedia.org/wiki/Bellary",
                "http://www.mapsofindia.com/maps/karnataka/"
            ],
            "longitude": "77.5856013",
            "closest_to": "sringeri",
            "latitude": "12.9049455",
            "address": "Bank of Maharashtra, 24th Main, K R Layout, Puttenahalli, Bengaluru, Bangalore Urban, Karnataka, 560001, India"
        },
        "badavilinga temple": {
            "locType": "monument",
            "blogLinks": [
                "https://www.tripoto.com/travel-guide/bellary/places-to-visit"
            ],
            "longitude": "76.4590954",
            "closest_to": "sringeri",
            "latitude": "15.3293243",
            "address": "Badavilinga Temple, Hampi Kamalapura Road, Hampe, Hosapete taluk, Bellary district, Karnataka, 583239, India"
        },
        "maddur": {
            "locType": "town",
            "blogLinks": [
                "http://www.godakshin.com/travel-guides/4-exciting-places-visit-around-bangalore-732.html"
            ],
            "longitude": "77.0456404",
            "closest_to": "sringeri",
            "latitude": "12.5851916",
            "address": "Maddur, Madduru taluk, Mandya district, Karnataka, 571428, India"
        },
        "kannada": {
            "locType": "administrative",
            "blogLinks": [
                "https://en.wikipedia.org/wiki/Bellary",
                "http://www.godakshin.com/travel-guides/bangalore-tourist-attractions"
            ],
            "longitude": "75.1008028650794",
            "closest_to": "sringeri",
            "latitude": "12.8114089",
            "address": "Dakshina Kannada, Karnataka, India"
        },
        "hampi bazaar": {
            "locType": "unclassified",
            "blogLinks": [
                "https://www.tripoto.com/travel-guide/bellary/places-to-visit"
            ],
            "longitude": "76.4621571",
            "closest_to": "sringeri",
            "latitude": "15.3347585",
            "address": "Hampi Bazaar, Hampe, Hosapete taluk, Bellary district, Karnataka, 583239, India"
        },
        "kollur": {
            "locType": "village",
            "blogLinks": [
                "http://www.mapsofindia.com/karnataka/travel-to-sringeri.html"
            ],
            "longitude": "74.8137959",
            "closest_to": "sringeri",
            "latitude": "13.8634049",
            "address": "Kollur, \u0c95\u0cc1\u0c82\u0ca6\u0cbe\u0caa\u0cc1\u0cb0 \u0ca4\u0cbe\u0cb2\u0cc2\u0c95\u0cc1, Udupi district, Karnataka, 576220, India"
        },
        "bidadi": {
            "locType": "town",
            "blogLinks": [
                "http://www.godakshin.com/travel-guides/4-exciting-places-visit-around-bangalore-732.html"
            ],
            "longitude": "77.3869947",
            "closest_to": "sringeri",
            "latitude": "12.7988507",
            "address": "Bidadi, Ramanagara taluk, Ramanagara district, Karnataka, India"
        },
        "mount abu": {
            "locType": "place_of_worship",
            "blogLinks": [
                "https://www.tripoto.com/travel-guide/bellary/places-to-visit"
            ],
            "longitude": "77.5927317",
            "closest_to": "sringeri",
            "latitude": "12.9429538",
            "address": "Masjid Abu Bakr (RAA), 3rd Cross Road, Pukraj Layout, Someshwaranagar, Bengaluru, Bangalore Urban, Karnataka, 560001, India"
        },
        "bharathi": {
            "locType": "suburb",
            "blogLinks": [
                "http://wikitravel.org/en/Shringeri"
            ],
            "longitude": "77.5112326",
            "closest_to": "sringeri",
            "latitude": "12.9433485",
            "address": "Jnana Bharathi, Bengaluru, Bangalore Urban, Karnataka, 560001, India"
        },
        "tungabhadra river": {
            "locType": "river",
            "blogLinks": [
                "https://www.tripoto.com/travel-guide/bellary/places-to-visit"
            ],
            "longitude": "76.4931607",
            "closest_to": "sringeri",
            "latitude": "15.3446123",
            "address": "Tungabhadra, Gangavati taluku, Koppal district, Karnataka, India"
        },
        "madras": {
            "locType": "station",
            "blogLinks": [
                "https://en.wikipedia.org/wiki/Bellary"
            ],
            "longitude": "77.6449595",
            "closest_to": "sringeri",
            "latitude": "12.9859442",
            "address": "Swami Vivekananda Road, Swamy Vivekananda Road (Old Madras Road), Sudgunte Palya, Baiyyappanahalli, Benniganahalli, Bangalore Urban, Karnataka, 560016, India"
        },
        "tunga river": {
            "locType": "river",
            "blogLinks": [
                "http://www.mapsofindia.com/karnataka/travel-to-sringeri.html"
            ],
            "longitude": "75.3221835",
            "closest_to": "sringeri",
            "latitude": "13.6632221",
            "address": "Tunga, Tirthahalli taluk, Shimoga district, Karnataka, India"
        },
        "chikmagalur": {
            "locType": "county",
            "blogLinks": [
                "http://www.mapsofindia.com/karnataka/travel-to-sringeri.html",
                "https://www.tripoto.com/trip/karnataka-one-state-many-worlds-2-565ed43147a04"
            ],
            "longitude": "75.5",
            "closest_to": "sringeri",
            "latitude": "13.5",
            "address": "Chikmagalur, Chikkamagaluru district, Karnataka, India"
        },
        "hubli": {
            "locType": "city",
            "blogLinks": [
                "https://en.wikipedia.org/wiki/Bellary"
            ],
            "longitude": "75.1379848",
            "closest_to": "sringeri",
            "latitude": "15.3518378",
            "address": "Hubballi - \u0cb9\u0cc1\u0cac\u0ccd\u0cac\u0cb3\u0ccd\u0cb3\u0cbf, Hubballi taluku, Dharwad district, Karnataka, 580020, India"
        },
        "kalaseshwara temple": {
            "locType": "place_of_worship",
            "blogLinks": [
                "http://www.godakshin.com/?q=travel-guides/sringeri-sightseeing-173.html"
            ],
            "longitude": "75.363446975",
            "closest_to": "sringeri",
            "latitude": "13.23228505",
            "address": "Kalaseshwara Temple, SH66, Kalasa, Mudigere taluk, Chikkamagaluru district, Karnataka, 577124, India"
        },
        "chandragiri": {
            "locType": "peak",
            "blogLinks": [
                "https://www.tripoto.com/travel-guide/bellary/places-to-visit"
            ],
            "longitude": "76.4878052",
            "closest_to": "sringeri",
            "latitude": "12.8617132",
            "address": "Chandragiri, Channarayapattana taluk, Hassan district, Karnataka, India"
        },
        "sharadamba": {
            "locType": "place_of_worship",
            "blogLinks": [
                "http://www.godakshin.com/?q=travel-guides/sringeri-sightseeing-173.html"
            ],
            "longitude": "77.5656194",
            "closest_to": "sringeri",
            "latitude": "12.9321898",
            "address": "Sharadamba Temple, 7th Main Road, Yediyur, Thyagaraja Nagar, Bengaluru, Bangalore Urban, Karnataka, 560001, India"
        },
        "mandya": {
            "locType": "town",
            "blogLinks": [
                "http://www.mapsofindia.com/maps/karnataka/"
            ],
            "longitude": "76.8937392",
            "closest_to": "sringeri",
            "latitude": "12.5217836",
            "address": "Mandya, Mandya taluk, Mandya district, Karnataka, 571401, India"
        },
        "coimbatore": {
            "locType": "trunk",
            "blogLinks": [
                "http://wikitravel.org/en/Shringeri"
            ],
            "longitude": "76.6318246",
            "closest_to": "sringeri",
            "latitude": "11.6793976",
            "address": "Gundlupet - Coimbatore Highway, Bandipur, Gundlupet taluk, Chamarajanagar district, Karnataka, India"
        },
        "district hospital": {
            "locType": "hospital",
            "blogLinks": [
                "https://en.wikipedia.org/wiki/Bellary"
            ],
            "longitude": "74.7423038",
            "closest_to": "sringeri",
            "latitude": "13.3340175",
            "address": "District Hospital, Nairkere Road, Ambalapadi, Udupi, Udupi taluku, Udupi district, Karnataka, 576101, India"
        },
        "venugopalaswami temple": {
            "locType": "place_of_worship",
            "blogLinks": [
                "http://www.godakshin.com/?q=travel-guides/sringeri-sightseeing-173.html"
            ],
            "longitude": "76.6437385",
            "closest_to": "sringeri",
            "latitude": "12.5573364",
            "address": "Venugopalaswami Temple, NH150A, Nilanahalli, Pandavapura taluk, Mandya district, Karnataka, India"
        },
        "durga temple": {
            "locType": "place_of_worship",
            "blogLinks": [
                "https://www.tripoto.com/travel-guide/bellary/places-to-visit"
            ],
            "longitude": "77.6125928",
            "closest_to": "sringeri",
            "latitude": "12.9057731",
            "address": "Durga Temple, 29th Main, Mahadeshwara Nagara, BTM Layout, Bengaluru, Bangalore Urban, Karnataka, 560001, India"
        },
        "mallikarjuna temple": {
            "locType": "place_of_worship",
            "blogLinks": [
                "https://www.makemytrip.com/routeplanner/how-to-reach-sringeri.html",
                "http://www.mapsofindia.com/karnataka/travel-to-sringeri.html"
            ],
            "longitude": "75.7213492",
            "closest_to": "bellary",
            "latitude": "15.9321101",
            "address": "Mallikarjuna Temple, SH135, Nelavagi, Badami taluku, Bagalkote district, Karnataka, India"
        }
    },
    "bellary": {
        "osm_id": "316417114",
        "display_name": "Bellary, Bellary district, Karnataka, India",
        "importance": 0.65,
        "place_id": "1393549",
        "class": "place",
        "boundingbox": [
            "14.6085413",
            "15.8885413",
            "76.1923648",
            "77.4723648"
        ],
        "type": "county",
        "lon": "76.8323648",
        "licence": "Data \u00a9 OpenStreetMap contributors, ODbL 1.0. http://www.openstreetmap.org/copyright",
        "osm_type": "node",
        "lat": "15.2485413",
        "icon": "https://nominatim.openstreetmap.org/images/mapicons/poi_boundary_administrative.p.20.png"
    },
    "sringeri": {
        "osm_id": "1422424829",
        "display_name": "Sringeri, Sringeri taluku, Chikkamagaluru district, Karnataka, 577592, India",
        "importance": 0.5,
        "place_id": "15363578",
        "class": "place",
        "boundingbox": [
            "13.3861724",
            "13.4661724",
            "75.2153718",
            "75.2953718"
        ],
        "type": "town",
        "lon": "75.2553718",
        "licence": "Data \u00a9 OpenStreetMap contributors, ODbL 1.0. http://www.openstreetmap.org/copyright",
        "osm_type": "node",
        "lat": "13.4261724",
        "icon": "https://nominatim.openstreetmap.org/images/mapicons/poi_place_town.p.20.png"
    }
}