{
    "mentions": {
        "mahabaleshwar temple": {
            "locType": "place_of_worship",
            "blogLinks": [
                "http://travel.india.com/explore/temples-south-india/"
            ],
            "longitude": "77.5899443",
            "closest_to": "bellary",
            "latitude": "12.962625",
            "address": "Mahabaleshwar Temple, Mission Road (Kalinga Rao Road), Sampangirama Nagar, Shanti Nagar, Bengaluru, Bangalore Urban, Karnataka, 560001, India"
        },
        "bijapur": {
            "locType": "city",
            "blogLinks": [
                "https://www.yatra.com/india-tourism/karnataka"
            ],
            "longitude": "75.7175387",
            "closest_to": "bellary",
            "latitude": "16.8269911",
            "address": "Vijayapura, Vijayapura taluk, Bijapur district, Karnataka, 586101, India"
        },
        "delhi": {
            "locType": "trunk",
            "blogLinks": [
                "https://in.via.com/bus-tickets/from-bellary-to-bangalore",
                "https://en.wikipedia.org/wiki/Bellary"
            ],
            "longitude": "77.6666062",
            "closest_to": "bellary",
            "latitude": "12.9212473",
            "address": "Outer Ring Road, Green Glen Layout, Iblur, Bengaluru, Bangalore Urban, Karnataka, 560001, India"
        },
        "vivanta": {
            "locType": "hotel",
            "blogLinks": [
                "http://www.karnatakatourism.org/"
            ],
            "longitude": "77.7375967224659",
            "closest_to": "bellary",
            "latitude": "12.98675055",
            "address": "Vivanta by Taj, Whitefield Road, Kadugodi, Prashanth Extension, Bangalore Urban, Karnataka, 56066, India"
        },
        "kudligi road": {
            "locType": "primary",
            "blogLinks": [
                "http://www.indiatravelblog.com/resources/3597-Visiting-Places-Sandur-Bellary-Karnataka.aspx"
            ],
            "longitude": "76.6307008",
            "closest_to": "kundapur",
            "latitude": "15.1826949",
            "address": "Kudligi Road, Vaddu, Sanduru taluk, Bellary district, Karnataka, 583123, India"
        },
        "black lake": {
            "locType": "bar",
            "blogLinks": [
                "https://en.wikipedia.org/wiki/Bellary"
            ],
            "longitude": "77.6411436",
            "closest_to": "bellary",
            "latitude": "12.9698964",
            "address": "The Black Rabbit, 100 Feet Road( S K Karim Khan Road), Appareddipalaya, Indiranagar, Bengaluru, Bangalore Urban, Karnataka, 560001, India"
        },
        "gangolli": {
            "locType": "school",
            "blogLinks": [
                "http://www.nivalink.com/destination/kundapura"
            ],
            "longitude": "74.6642475",
            "closest_to": "kundapur",
            "latitude": "13.6554353",
            "address": "Konchadi Radha Shyne Government Higher Primary School, Kharvikeri, Gangolli, NH66, Navunda, \u0c95\u0cc1\u0c82\u0ca6\u0cbe\u0caa\u0cc1\u0cb0 \u0ca4\u0cbe\u0cb2\u0cc2\u0c95\u0cc1, Udupi district, Karnataka, 576224, India"
        },
        "kishkindha": {
            "locType": "place_of_worship",
            "blogLinks": [
                "http://www.indiatravelblog.com/resources/3597-Visiting-Places-Sandur-Bellary-Karnataka.aspx"
            ],
            "longitude": "76.4696373",
            "closest_to": "kundapur",
            "latitude": "15.3546186",
            "address": "Kishkindha, SH130, Basapura, Koppala taluku, Koppal district, Karnataka, India"
        },
        "vittala": {
            "locType": "yes",
            "blogLinks": [
                "http://travel.india.com/explore/temples-south-india/"
            ],
            "longitude": "76.6237847175927",
            "closest_to": "kundapur",
            "latitude": "12.30129655",
            "address": "Vijaya Vittala PU College, Sahukar Chennaiah Road, Sarasvatipuram, Mysuru, Mysuru taluk, Mysuru district, Karnataka, 570001, India"
        },
        "ballari district": {
            "locType": "city",
            "blogLinks": [
                "https://en.wikipedia.org/wiki/Bellary"
            ],
            "longitude": "76.9125211",
            "closest_to": "bellary",
            "latitude": "15.1467299",
            "address": "Ballari, Bellary taluk, Bellary district, Karnataka, India"
        },
        "mandya district": {
            "locType": "administrative",
            "blogLinks": [
                "http://www.indiatravelblog.com/resources/3597-Visiting-Places-Sandur-Bellary-Karnataka.aspx"
            ],
            "longitude": "76.7302318329607",
            "closest_to": "kundapur",
            "latitude": "12.6336348",
            "address": "Mandya district, Karnataka, India"
        },
        "gokarna": {
            "locType": "town",
            "blogLinks": [
                "http://www.mapsofindia.com/karnataka/tourism/"
            ],
            "longitude": "74.3184418",
            "closest_to": "kundapur",
            "latitude": "14.5439629",
            "address": "Gokarna, Kumata taluk, Uttara Kannada, Karnataka, 581326, India"
        },
        "nandi hills": {
            "locType": "hotel",
            "blogLinks": [
                "http://www.mapsofindia.com/karnataka/tourism/"
            ],
            "longitude": "77.7194741670394",
            "closest_to": "bellary",
            "latitude": "13.268142",
            "address": "Nandi Upahara, Nandhi Hills Road, Kottige Thimmanahalli, Devanahalli taluk, Bangalore Rural, Karnataka, India"
        },
        "coorg": {
            "locType": "town",
            "blogLinks": [
                "https://www.yatra.com/india-tourism/karnataka",
                "http://www.mapsofindia.com/karnataka/tourism/"
            ],
            "longitude": "75.740031",
            "closest_to": "kundapur",
            "latitude": "12.4204003",
            "address": "Madikeri, Madikeri taluku, Kodagu, Karnataka, India"
        },
        "achyutaraya temple": {
            "locType": "place_of_worship",
            "blogLinks": [
                "http://travel.india.com/explore/temples-south-india/"
            ],
            "longitude": "76.4701059",
            "closest_to": "kundapur",
            "latitude": "15.3318779",
            "address": "Achyutaraya Temple, Sule Bazaar, Hampe, Hosapete taluk, Bellary district, Karnataka, 583239, India"
        },
        "bangalore": {
            "locType": "city",
            "blogLinks": [
                "http://www.nivalink.com/destination/kundapura",
                "https://in.via.com/bus-tickets/from-bellary-to-bangalore",
                "https://en.wikipedia.org/wiki/Bellary",
                "https://www.yatra.com/india-tourism/karnataka",
                "http://www.indiatravelblog.com/resources/3597-Visiting-Places-Sandur-Bellary-Karnataka.aspx",
                "http://www.mapsofindia.com/karnataka/tourism/"
            ],
            "longitude": "77.5912997",
            "closest_to": "bellary",
            "latitude": "12.9791198",
            "address": "Bengaluru, Bangalore Urban, Karnataka, 560001, India"
        },
        "karnatka": {
            "locType": "bank",
            "blogLinks": [
                "https://en.wikipedia.org/wiki/Bellary"
            ],
            "longitude": "77.5679508",
            "closest_to": "bellary",
            "latitude": "12.9500847",
            "address": "Karnatka Rajya Kaigarika Sahakari Bank, Bull Temple Road, Mavalli, Chamarajapete, Bengaluru, Bangalore Urban, Karnataka, 560001, India"
        },
        "jindal vijaynagar airport": {
            "locType": "aerodrome",
            "blogLinks": [
                "https://en.wikipedia.org/wiki/Bellary"
            ],
            "longitude": "76.6334746",
            "closest_to": "kundapur",
            "latitude": "15.1743056",
            "address": "Jindal Vijaynagar Airport, Kudligi Road, Vaddu, Sanduru taluk, Bellary district, Karnataka, 583123, India"
        },
        "raichur": {
            "locType": "county",
            "blogLinks": [
                "https://en.wikipedia.org/wiki/Bellary",
                "https://www.yatra.com/india-tourism/karnataka"
            ],
            "longitude": "77.166667",
            "closest_to": "bellary",
            "latitude": "16.083333",
            "address": "Raichur, Raichur district, Karnataka, India"
        },
        "bellary airport": {
            "locType": "aerodrome",
            "blogLinks": [
                "https://en.wikipedia.org/wiki/Bellary"
            ],
            "longitude": "76.8813908",
            "closest_to": "kundapur",
            "latitude": "15.1615409",
            "address": "Bellary Airport, Hosapete Road, Ballari, Bellary taluk, Bellary district, Karnataka, 583104, India"
        },
        "chola": {
            "locType": "yes",
            "blogLinks": [
                "http://travel.india.com/explore/temples-south-india/"
            ],
            "longitude": "76.098782",
            "closest_to": "kundapur",
            "latitude": "13.0023906",
            "address": "Chola Gold Loan, Bengaluru - Mangaluru Road, Ravindra Nagar, Santhe Pete, Hassan, Hasana taluk, Hassan district, Karnataka, 573201, India"
        },
        "emirates": {
            "locType": "restaurant",
            "blogLinks": [
                "https://www.yatra.com/india-tourism/karnataka"
            ],
            "longitude": "77.5572955",
            "closest_to": "bellary",
            "latitude": "13.0192135",
            "address": "Emirates, Rahman Khan Road, Rajajinagar 1st Block, Yeshwantpur, Deewanarapalya, Bangalore Urban, Karnataka, 560022, India"
        },
        "halebid": {
            "locType": "village",
            "blogLinks": [
                "https://www.yatra.com/india-tourism/karnataka",
                "http://www.mapsofindia.com/karnataka/tourism/"
            ],
            "longitude": "75.9918793",
            "closest_to": "kundapur",
            "latitude": "13.2167959",
            "address": "Halebidu, Beluru taluk, Hassan district, Karnataka, 573121, India"
        },
        "belur": {
            "locType": "town",
            "blogLinks": [
                "http://www.mapsofindia.com/karnataka/tourism/"
            ],
            "longitude": "75.8634851",
            "closest_to": "kundapur",
            "latitude": "13.1645671",
            "address": "Belur, Beluru taluk, Hassan district, Karnataka, 573115, India"
        },
        "venkateshwara": {
            "locType": "place_of_worship",
            "blogLinks": [
                "http://travel.india.com/explore/temples-south-india/"
            ],
            "longitude": "77.5452768748626",
            "closest_to": "bellary",
            "latitude": "13.00856755",
            "address": "Sri Venkateshwara Temple, 12th Cross Road, Rajajinagar 1st Block, Nandini Layout, Bengaluru, Bangalore Urban, Karnataka, 560001, India"
        },
        "oxford": {
            "locType": "books",
            "blogLinks": [
                "https://en.wikipedia.org/wiki/Bellary"
            ],
            "longitude": "77.7178402",
            "closest_to": "bellary",
            "latitude": "12.9660236",
            "address": "Oxford, I T P L Main Road, Kundalahalli Colony, AECS Layout, Sitaramapalya, Bangalore Urban, Karnataka, 560048, India"
        },
        "karwar": {
            "locType": "town",
            "blogLinks": [
                "https://en.wikipedia.org/wiki/Bellary"
            ],
            "longitude": "74.1319229",
            "closest_to": "kundapur",
            "latitude": "14.8120931",
            "address": "Karwar, Karavara taluk, Uttara Kannada, Karnataka, 581300, India"
        },
        "bellary": {
            "locType": "county",
            "blogLinks": [
                "https://in.via.com/bus-tickets/from-bellary-to-bangalore",
                "http://www.hoparoundindia.com/karnataka/attractions/bellary.aspx",
                "https://en.wikipedia.org/wiki/Bellary",
                "https://www.yatra.com/india-tourism/karnataka",
                "http://www.indiatravelblog.com/resources/3597-Visiting-Places-Sandur-Bellary-Karnataka.aspx"
            ],
            "longitude": "76.8323648",
            "closest_to": "kundapur",
            "latitude": "15.2485413",
            "address": "Bellary, Bellary district, Karnataka, India"
        },
        "kundapura": {
            "locType": "town",
            "blogLinks": [
                "http://www.nivalink.com/destination/kundapura",
                "https://en.wikipedia.org/wiki/Kundapura"
            ],
            "longitude": "74.6915722",
            "closest_to": "kundapur",
            "latitude": "13.6250993",
            "address": "Kundapura, \u0c95\u0cc1\u0c82\u0ca6\u0cbe\u0caa\u0cc1\u0cb0 \u0ca4\u0cbe\u0cb2\u0cc2\u0c95\u0cc1, Udupi district, Karnataka, 576200, India"
        },
        "madurai": {
            "locType": "restaurant",
            "blogLinks": [
                "http://travel.india.com/explore/temples-south-india/"
            ],
            "longitude": "77.6320535",
            "closest_to": "bellary",
            "latitude": "12.9185419",
            "address": "Madurai Idly Shop, 5th Main Road, Teachers Colony, HSR Layout, Bengaluru, Bangalore Urban, Karnataka, 560001, India"
        },
        "tumkur": {
            "locType": "county",
            "blogLinks": [
                "https://www.yatra.com/india-tourism/karnataka"
            ],
            "longitude": "77.0002445",
            "closest_to": "kundapur",
            "latitude": "13.4999406",
            "address": "Tumakuru, Tumkur district, Karnataka, India"
        },
        "garden": {
            "locType": "orchard",
            "blogLinks": [
                "http://www.mapsofindia.com/karnataka/tourism/"
            ],
            "longitude": "77.9285817637065",
            "closest_to": "bellary",
            "latitude": "13.19253335",
            "address": "garden, N Hosahalli, Hosakote taluk, Bangalore Rural, Karnataka, India"
        },
        "pattadakal": {
            "locType": "attraction",
            "blogLinks": [
                "http://travel.india.com/explore/temples-south-india/",
                "http://www.mapsofindia.com/karnataka/tourism/"
            ],
            "longitude": "75.815884048161",
            "closest_to": "kundapur",
            "latitude": "15.9506349",
            "address": "Pattadakal Temples, SH14, \u0cac\u0cbe\u0c9a\u0cbf\u0ca8\u0c97\u0cc1\u0ca1\u0ccd\u0ca1, Badami taluku, Bagalkote district, Karnataka, 587211, India"
        },
        "mundargi": {
            "locType": "hamlet",
            "blogLinks": [
                "https://en.wikipedia.org/wiki/Bellary"
            ],
            "longitude": "77.1777795",
            "closest_to": "bellary",
            "latitude": "16.7700414",
            "address": "Mundargi Thanda, Yadagiri taluku, Yadagiri district, Karnataka, India"
        },
        "mangalore international airport": {
            "locType": "aerodrome",
            "blogLinks": [
                "https://www.yatra.com/india-tourism/karnataka",
                "https://en.wikipedia.org/wiki/Kundapura"
            ],
            "longitude": "74.887492668144",
            "closest_to": "kundapur",
            "latitude": "12.95518575",
            "address": "Mangalore International Airport, Airport Entry Road, Gandhinagar, Kenjar, Mangaluru taluk, Dakshina Kannada, Karnataka, 575015, India"
        },
        "anantapur": {
            "locType": "yes",
            "blogLinks": [
                "https://en.wikipedia.org/wiki/Bellary"
            ],
            "longitude": "77.7596024",
            "closest_to": "bellary",
            "latitude": "13.7972948",
            "address": "RTO Karnataka, Srinagar - Kanyakumari Highway, Paragodu, Bagepalli taluk, Chikkaballapura district, Karnataka, 561207, India"
        },
        "anantheshwara": {
            "locType": "place_of_worship",
            "blogLinks": [
                "http://travel.india.com/explore/temples-south-india/"
            ],
            "longitude": "74.7516789914227",
            "closest_to": "kundapur",
            "latitude": "13.34076755",
            "address": "Sri Anantheshwara Temple, Rathabidi, Indiranagara, Udupi, Udupi taluku, Udupi district, Karnataka, 576101, India"
        },
        "sandur": {
            "locType": "town",
            "blogLinks": [
                "https://en.wikipedia.org/wiki/Bellary",
                "http://www.indiatravelblog.com/resources/3597-Visiting-Places-Sandur-Bellary-Karnataka.aspx"
            ],
            "longitude": "76.5435934",
            "closest_to": "kundapur",
            "latitude": "15.084389",
            "address": "Sanduru, Sanduru taluk, Bellary district, Karnataka, 583119, India"
        },
        "mumbai": {
            "locType": "restaurant",
            "blogLinks": [
                "https://in.via.com/bus-tickets/from-bellary-to-bangalore",
                "https://en.wikipedia.org/wiki/Bellary",
                "https://en.wikipedia.org/wiki/Kundapura"
            ],
            "longitude": "77.5718472",
            "closest_to": "bellary",
            "latitude": "13.0002869",
            "address": "Mumbai Spice, 18/2, 10th Cross, Malleswaram, Vyalikaval, Malleswaram, Bengaluru, Bangalore Urban, Karnataka, 560003, India"
        },
        "sanganakallu": {
            "locType": "village",
            "blogLinks": [
                "https://en.wikipedia.org/wiki/Bellary"
            ],
            "longitude": "76.9671823",
            "closest_to": "bellary",
            "latitude": "15.1738536",
            "address": "Sanganakallu, Bellary taluk, Bellary district, Karnataka, India"
        },
        "kurnool": {
            "locType": "hotel",
            "blogLinks": [
                "https://en.wikipedia.org/wiki/Bellary"
            ],
            "longitude": "77.4217916",
            "closest_to": "bellary",
            "latitude": "15.9394081",
            "address": "Karnataka Guest House, Jadcherla - Hagari Road, Kurnool, Andhra Pradesh, India"
        },
        "hotel royal orchid": {
            "locType": "hotel",
            "blogLinks": [
                "https://in.via.com/bus-tickets/from-bellary-to-bangalore"
            ],
            "longitude": "77.6440293",
            "closest_to": "bellary",
            "latitude": "12.9573034",
            "address": "Hotel Royal Orchid, 1, 4th Main Road, Amarjyothi Layout, Kodihalli, Bengaluru, Bangalore Urban, Karnataka, 560008, India"
        },
        "kalpana": {
            "locType": "cinema",
            "blogLinks": [
                "http://www.nivalink.com/destination/kundapura"
            ],
            "longitude": "74.7506815",
            "closest_to": "kundapur",
            "latitude": "13.3360433",
            "address": "Kalpana, Kavi Muddana Marg, Indiranagara, Udupi, Udupi taluku, Udupi district, Karnataka, 576101, India"
        },
        "kundapur": {
            "locType": "school",
            "blogLinks": [
                "http://www.nivalink.com/destination/kundapura"
            ],
            "longitude": "74.6906749",
            "closest_to": "kundapur",
            "latitude": "13.6343509",
            "address": "United Basel mission church Higher Primary School, Kundapur, Chikkansal Road, Vaderahobali, Kundapura, \u0c95\u0cc1\u0c82\u0ca6\u0cbe\u0caa\u0cc1\u0cb0 \u0ca4\u0cbe\u0cb2\u0cc2\u0c95\u0cc1, Udupi district, Karnataka, 576200, India"
        },
        "karnataka state": {
            "locType": "university",
            "blogLinks": [
                "http://www.indiatravelblog.com/resources/3597-Visiting-Places-Sandur-Bellary-Karnataka.aspx"
            ],
            "longitude": "76.6236231",
            "closest_to": "kundapur",
            "latitude": "12.315382",
            "address": "Karnataka State Open University, \u0cb9\u0cc1\u0ca3\u0cb8\u0cc2\u0cb0\u0cc1 \u0cb0\u0cb8\u0ccd\u0ca4\u0cc6, Gokulam, Mysuru, Mysuru taluk, Mysuru district, Karnataka, 570001, India"
        },
        "middle east": {
            "locType": "school",
            "blogLinks": [
                "https://www.yatra.com/india-tourism/karnataka"
            ],
            "longitude": "77.3394684",
            "closest_to": "kundapur",
            "latitude": "13.1487605",
            "address": "Government Middle And Primary School, NH48, Dodderi, Nelamangala taluk, Bangalore Rural, Karnataka, India"
        },
        "kerala": {
            "locType": "restaurant",
            "blogLinks": [
                "http://travel.india.com/explore/temples-south-india/",
                "https://www.yatra.com/india-tourism/karnataka",
                "http://www.indiatravelblog.com/resources/3597-Visiting-Places-Sandur-Bellary-Karnataka.aspx",
                "https://en.wikipedia.org/wiki/Kundapura"
            ],
            "longitude": "77.6382683",
            "closest_to": "bellary",
            "latitude": "12.9726449",
            "address": "New Life Kerala Mess, Sai Baba Mandira Road, Mottappanapalaya, Indiranagar, Bengaluru, Bangalore Urban, Karnataka, 560001, India"
        },
        "goa": {
            "locType": "restaurant",
            "blogLinks": [
                "https://en.wikipedia.org/wiki/Bellary",
                "https://www.yatra.com/india-tourism/karnataka",
                "http://www.nivalink.com/destination/kundapura"
            ],
            "longitude": "77.6200027",
            "closest_to": "bellary",
            "latitude": "12.9750047",
            "address": "Carnival De Goa, Bhaskaran Road, Gupta Layout, Halasuru, Bengaluru, Bangalore Urban, Karnataka, 560001, India"
        },
        "surya": {
            "locType": "commercial",
            "blogLinks": [
                "http://travel.india.com/explore/temples-south-india/"
            ],
            "longitude": "77.6544263274534",
            "closest_to": "bellary",
            "latitude": "12.95896005",
            "address": "Surya Chambers, Murugeshpalaya, Belure Ambedkar Nagar, Bangalore Urban, Karnataka, 560017, India"
        },
        "gandhamadana": {
            "locType": "peak",
            "blogLinks": [
                "http://travel.india.com/explore/temples-south-india/"
            ],
            "longitude": "76.4739034",
            "closest_to": "kundapur",
            "latitude": "15.3368623",
            "address": "Gandhamadana Hill, Hosapete taluk, Bellary district, Karnataka, India"
        },
        "toranagallu": {
            "locType": "village",
            "blogLinks": [
                "https://en.wikipedia.org/wiki/Bellary"
            ],
            "longitude": "76.6780987",
            "closest_to": "kundapur",
            "latitude": "15.1959663",
            "address": "Toranagallu, Sanduru taluk, Bellary district, Karnataka, 583123, India"
        },
        "anegundi village": {
            "locType": "village",
            "blogLinks": [
                "http://www.indiatravelblog.com/resources/3597-Visiting-Places-Sandur-Bellary-Karnataka.aspx"
            ],
            "longitude": "76.4924232",
            "closest_to": "kundapur",
            "latitude": "15.3509583",
            "address": "Anegundi, Gangavati taluku, Koppal district, Karnataka, India"
        },
        "hoysaleswara temple": {
            "locType": "place_of_worship",
            "blogLinks": [
                "http://www.mapsofindia.com/karnataka/tourism/"
            ],
            "longitude": "75.9941649",
            "closest_to": "kundapur",
            "latitude": "13.2127193",
            "address": "Hoysaleswara Temple, SH21, Halebidu, Beluru taluk, Hassan district, Karnataka, 573121, India"
        },
        "venkateshwara swamy": {
            "locType": "place_of_worship",
            "blogLinks": [
                "http://travel.india.com/explore/temples-south-india/"
            ],
            "longitude": "77.5908977",
            "closest_to": "bellary",
            "latitude": "13.0978498",
            "address": "Venkateshwara Swamy Temple, 9th A Cross, Gandhinagar, Yelahanka, Jakkur, Bangalore Urban, Karnataka, 560064, India"
        },
        "krishnarajendra hill station": {
            "locType": "park",
            "blogLinks": [
                "http://www.indiatravelblog.com/resources/3597-Visiting-Places-Sandur-Bellary-Karnataka.aspx"
            ],
            "longitude": "77.583027619944",
            "closest_to": "bellary",
            "latitude": "12.96370475",
            "address": "Silver Jubilee Park, Narasimharaja Road, Ganigarpet, Kalasipalya, Bengaluru, Bangalore Urban, Karnataka, 560001, India"
        },
        "new city": {
            "locType": "supermarket",
            "blogLinks": [
                "https://en.wikipedia.org/wiki/Bellary"
            ],
            "longitude": "77.6736268",
            "closest_to": "bellary",
            "latitude": "12.9851864",
            "address": "New City Super Market, Kaggadasspura Main Road, Putanna Garden, C V Raman Nagar, A Narayanapura, Bangalore Urban, Karnataka, 560093, India"
        },
        "agastya": {
            "locType": "residential",
            "blogLinks": [
                "http://travel.india.com/explore/temples-south-india/"
            ],
            "longitude": "77.7512485332492",
            "closest_to": "bellary",
            "latitude": "12.9796965",
            "address": "Agastya Guru Palatia Apartments, Kadugodi, Prashanth Extension, Bangalore Urban, Karnataka, 56066, India"
        },
        "virupaksha temple": {
            "locType": "place_of_worship",
            "blogLinks": [
                "http://travel.india.com/explore/temples-south-india/"
            ],
            "longitude": "76.4587777156223",
            "closest_to": "kundapur",
            "latitude": "15.3351754",
            "address": "Virupaksha Temple, Hampi Bazaar, Hampe, Hosapete taluk, Bellary district, Karnataka, 583239, India"
        },
        "varanasi": {
            "locType": "village",
            "blogLinks": [
                "https://en.wikipedia.org/wiki/Bellary"
            ],
            "longitude": "77.6860657",
            "closest_to": "bellary",
            "latitude": "13.0304962",
            "address": "Varanasi, Bangalore Urban, Karnataka, India"
        },
        "kadapa": {
            "locType": "construction",
            "blogLinks": [
                "https://en.wikipedia.org/wiki/Bellary"
            ],
            "longitude": "78.3792674",
            "closest_to": "bellary",
            "latitude": "13.1859851",
            "address": "Kadapa - Madanapalle - Bengaluru New Line (u/c), Srinivaspur Mulbagal Road, Kadiripura, Mulubagilu taluk, Kolar district, Karnataka, 563131, India"
        },
        "udupi": {
            "locType": "city",
            "blogLinks": [
                "https://en.wikipedia.org/wiki/Bellary",
                "http://www.nivalink.com/destination/kundapura",
                "http://www.mapsofindia.com/karnataka/tourism/"
            ],
            "longitude": "74.7473232",
            "closest_to": "kundapur",
            "latitude": "13.3419169",
            "address": "Udupi, Udupi taluku, Udupi district, Karnataka, 576101, India"
        },
        "malpe": {
            "locType": "village",
            "blogLinks": [
                "http://travel.india.com/explore/temples-south-india/"
            ],
            "longitude": "74.7036914",
            "closest_to": "kundapur",
            "latitude": "13.3507423",
            "address": "Malpe, Udupi taluku, Udupi district, Karnataka, India"
        },
        "hampi": {
            "locType": "village",
            "blogLinks": [
                "http://travel.india.com/explore/temples-south-india/",
                "http://www.mapsofindia.com/karnataka/tourism/"
            ],
            "longitude": "76.4606199",
            "closest_to": "kundapur",
            "latitude": "15.3359769",
            "address": "Hampe, Hosapete taluk, Bellary district, Karnataka, 583239, India"
        },
        "bellary district": {
            "locType": "administrative",
            "blogLinks": [
                "http://www.indiatravelblog.com/resources/3597-Visiting-Places-Sandur-Bellary-Karnataka.aspx"
            ],
            "longitude": "76.7137978546465",
            "closest_to": "kundapur",
            "latitude": "15.20597305",
            "address": "Bellary district, Karnataka, India"
        },
        "hadagali": {
            "locType": "village",
            "blogLinks": [
                "https://en.wikipedia.org/wiki/Bellary"
            ],
            "longitude": "75.9370122",
            "closest_to": "bellary",
            "latitude": "16.8109502",
            "address": "Hadagali, Vijayapura taluk, Bijapur district, Karnataka, India"
        },
        "chalukya": {
            "locType": "residential",
            "blogLinks": [
                "http://travel.india.com/explore/temples-south-india/"
            ],
            "longitude": "77.5192989605445",
            "closest_to": "bellary",
            "latitude": "12.9617207",
            "address": "Chalukya Nagar, Chandra Layout, GKW Layout, Bangalore Urban, Karnataka, 560072, India"
        },
        "badami of karnataka": {
            "locType": "administrative",
            "blogLinks": [
                "http://www.mapsofindia.com/karnataka/tourism/"
            ],
            "longitude": "75.6419100722642",
            "closest_to": "kundapur",
            "latitude": "15.98301895",
            "address": "Badami taluku, Bagalkote district, Karnataka, India"
        },
        "dharwad": {
            "locType": "city",
            "blogLinks": [
                "https://www.yatra.com/india-tourism/karnataka"
            ],
            "longitude": "75.0066516",
            "closest_to": "kundapur",
            "latitude": "15.4540505",
            "address": "Dharwad, Dharawada taluku, Dharwad district, Karnataka, 580001, India"
        },
        "mangalore": {
            "locType": "city",
            "blogLinks": [
                "https://en.wikipedia.org/wiki/Kundapura",
                "https://en.wikipedia.org/wiki/Bellary",
                "https://www.yatra.com/india-tourism/karnataka",
                "http://www.nivalink.com/destination/kundapura",
                "http://www.mapsofindia.com/karnataka/tourism/"
            ],
            "longitude": "74.8430082",
            "closest_to": "kundapur",
            "latitude": "12.8698101",
            "address": "Mangaluru, Mangaluru taluk, Dakshina Kannada, Karnataka, 575001, India"
        },
        "venkatappa art gallery": {
            "locType": "museum",
            "blogLinks": [
                "http://www.mapsofindia.com/karnataka/tourism/"
            ],
            "longitude": "77.5952077",
            "closest_to": "bellary",
            "latitude": "12.9742592",
            "address": "Venkatappa Art Gallery, Kasturba Road, Shantala Nagar, MacIvor Town, Bengaluru, Bangalore Urban, Karnataka, 560001, India"
        },
        "ranganathittu bird sanctuary": {
            "locType": "attraction",
            "blogLinks": [
                "https://www.yatra.com/india-tourism/karnataka"
            ],
            "longitude": "76.6553081",
            "closest_to": "kundapur",
            "latitude": "12.4238524",
            "address": "Ranganathittu Bird Sanctuary, SH154, Palahalli, Srirangapattana taluk, Mandya district, Karnataka, 571438, India"
        },
        "balaji": {
            "locType": "village",
            "blogLinks": [
                "http://travel.india.com/explore/temples-south-india/"
            ],
            "longitude": "75.9668376",
            "closest_to": "kundapur",
            "latitude": "12.1741181",
            "address": "Balaji, Virajpet taluk, Kodagu, Karnataka, India"
        },
        "nataraja": {
            "locType": "cinema",
            "blogLinks": [
                "http://travel.india.com/explore/temples-south-india/"
            ],
            "longitude": "77.5730381173154",
            "closest_to": "bellary",
            "latitude": "12.9900332",
            "address": "Nataraja, Sirur Park Road, Vyalikaval, Seshadripuram, Bengaluru, Bangalore Urban, Karnataka, 560001, India"
        },
        "meenakshi": {
            "locType": "residential",
            "blogLinks": [
                "http://travel.india.com/explore/temples-south-india/"
            ],
            "longitude": "77.5998886038331",
            "closest_to": "bellary",
            "latitude": "12.88662545",
            "address": "Meenakshi Residency, Hulimavu, Bengaluru, Bangalore Urban, Karnataka, 560076, India"
        },
        "fort hill": {
            "locType": "locality",
            "blogLinks": [
                "http://www.hoparoundindia.com/karnataka/attractions/bellary.aspx"
            ],
            "longitude": "74.5255651",
            "closest_to": "kundapur",
            "latitude": "15.8581696",
            "address": "Belgaum Fort, Belagavi, Belagavi taluku, Belgaum district, Karnataka, 590001, India"
        },
        "bangalore palace": {
            "locType": "attraction",
            "blogLinks": [
                "https://www.yatra.com/india-tourism/karnataka"
            ],
            "longitude": "77.5920094892276",
            "closest_to": "bellary",
            "latitude": "12.9985963",
            "address": "Bangalore Palace, Jayamahal Road, Jayamahal Extension, Jayamahal, Bengaluru, Bangalore Urban, Karnataka, 560001, India"
        },
        "chennakesava temple": {
            "locType": "place_of_worship",
            "blogLinks": [
                "http://www.mapsofindia.com/karnataka/tourism/"
            ],
            "longitude": "75.8603311",
            "closest_to": "kundapur",
            "latitude": "13.1629239",
            "address": "Chennakesava Temple, NH73, Navilahalli, Beluru taluk, Hassan district, Karnataka, India"
        },
        "srirangapatna": {
            "locType": "town",
            "blogLinks": [
                "http://www.indiatravelblog.com/resources/3597-Visiting-Places-Sandur-Bellary-Karnataka.aspx"
            ],
            "longitude": "76.6850743",
            "closest_to": "kundapur",
            "latitude": "12.4225604",
            "address": "Srirangapatna, Srirangapattana taluk, Mandya district, Karnataka, 571438, India"
        },
        "silicon valley": {
            "locType": "residential",
            "blogLinks": [
                "https://in.via.com/bus-tickets/from-bellary-to-bangalore"
            ],
            "longitude": "77.6053133563105",
            "closest_to": "bellary",
            "latitude": "13.1650062",
            "address": "RK Estates : Silicon Valley Layout, Vidyanagar, Bengaluru, Bangalore Urban, Karnataka, 560001, India"
        },
        "kannada": {
            "locType": "administrative",
            "blogLinks": [
                "https://en.wikipedia.org/wiki/Bellary"
            ],
            "longitude": "75.1008028650794",
            "closest_to": "kundapur",
            "latitude": "12.8114089",
            "address": "Dakshina Kannada, Karnataka, India"
        },
        "maravanthe": {
            "locType": "school",
            "blogLinks": [
                "http://www.nivalink.com/destination/kundapura"
            ],
            "longitude": "74.6480358",
            "closest_to": "kundapur",
            "latitude": "13.7316626",
            "address": "Nethaji Subhash Chandra Bose Government High School, Maravanthe, NH66, Navunda, \u0c95\u0cc1\u0c82\u0ca6\u0cbe\u0caa\u0cc1\u0cb0 \u0ca4\u0cbe\u0cb2\u0cc2\u0c95\u0cc1, Udupi district, Karnataka, 576224, India"
        },
        "kemmangundi": {
            "locType": "village",
            "blogLinks": [
                "http://www.indiatravelblog.com/resources/3597-Visiting-Places-Sandur-Bellary-Karnataka.aspx"
            ],
            "longitude": "75.7520082",
            "closest_to": "kundapur",
            "latitude": "13.5463048",
            "address": "Kemmannagundi, Tarikere taluku, Chikkamagaluru district, Karnataka, India"
        },
        "chitradurga": {
            "locType": "town",
            "blogLinks": [
                "https://en.wikipedia.org/wiki/Bellary",
                "https://www.yatra.com/india-tourism/karnataka"
            ],
            "longitude": "76.4005122",
            "closest_to": "kundapur",
            "latitude": "14.2266443",
            "address": "Chitradurga, Chitradurga taluku, Chitradurga district, Karnataka, 577500, India"
        },
        "kodagu": {
            "locType": "administrative",
            "blogLinks": [
                "http://www.mapsofindia.com/karnataka/tourism/"
            ],
            "longitude": "75.6677235950852",
            "closest_to": "kundapur",
            "latitude": "12.38117345",
            "address": "Kodagu, Karnataka, India"
        },
        "bengaluru": {
            "locType": "city",
            "blogLinks": [
                "http://www.indiatravelblog.com/resources/3597-Visiting-Places-Sandur-Bellary-Karnataka.aspx"
            ],
            "longitude": "77.5912997",
            "closest_to": "bellary",
            "latitude": "12.9791198",
            "address": "Bengaluru, Bangalore Urban, Karnataka, 560001, India"
        },
        "nandi": {
            "locType": "village",
            "blogLinks": [
                "http://travel.india.com/explore/temples-south-india/"
            ],
            "longitude": "75.8556266",
            "closest_to": "kundapur",
            "latitude": "13.6434094",
            "address": "Nandi, Tarikere taluku, Chikkamagaluru district, Karnataka, India"
        },
        "hasan": {
            "locType": "town",
            "blogLinks": [
                "http://www.mapsofindia.com/karnataka/tourism/"
            ],
            "longitude": "76.0992703",
            "closest_to": "kundapur",
            "latitude": "13.0070817",
            "address": "Hassan, Hasana taluk, Hassan district, Karnataka, 573201, India"
        },
        "tungabhadra": {
            "locType": "river",
            "blogLinks": [
                "http://travel.india.com/explore/temples-south-india/",
                "http://www.hoparoundindia.com/karnataka/attractions/bellary.aspx"
            ],
            "longitude": "76.4931607",
            "closest_to": "kundapur",
            "latitude": "15.3446123",
            "address": "Tungabhadra, Gangavati taluku, Koppal district, Karnataka, India"
        },
        "padmavati": {
            "locType": "fuel",
            "blogLinks": [
                "http://travel.india.com/explore/temples-south-india/"
            ],
            "longitude": "75.1103816",
            "closest_to": "kundapur",
            "latitude": "15.3506616",
            "address": "Padmavati Auto Gas, Gokul Road / Airport Road, Dollars Colony, Padmaraj Nagar, Hubballi - \u0cb9\u0cc1\u0cac\u0ccd\u0cac\u0cb3\u0ccd\u0cb3\u0cbf, Hubballi taluku, Dharwad district, Karnataka, 580020, India"
        },
        "krishnadevaraya": {
            "locType": "university",
            "blogLinks": [
                "http://travel.india.com/explore/temples-south-india/"
            ],
            "longitude": "76.8763434227213",
            "closest_to": "kundapur",
            "latitude": "15.15101445",
            "address": "Vijayanagara Sri Krishnadevaraya University, VSK University Road, Ballari, Bellary taluk, Bellary district, Karnataka, 583104, India"
        },
        "belgaum": {
            "locType": "county",
            "blogLinks": [
                "http://www.indiatravelblog.com/resources/3597-Visiting-Places-Sandur-Bellary-Karnataka.aspx"
            ],
            "longitude": "74.75",
            "closest_to": "bellary",
            "latitude": "16.333333",
            "address": "Belgaum, Belgaum district, Karnataka, India"
        },
        "chikmagalur": {
            "locType": "county",
            "blogLinks": [
                "https://www.yatra.com/india-tourism/karnataka"
            ],
            "longitude": "75.5",
            "closest_to": "kundapur",
            "latitude": "13.5",
            "address": "Chikmagalur, Chikkamagaluru district, Karnataka, India"
        },
        "chennakesava": {
            "locType": "place_of_worship",
            "blogLinks": [
                "http://travel.india.com/explore/temples-south-india/"
            ],
            "longitude": "75.8603311",
            "closest_to": "kundapur",
            "latitude": "13.1629239",
            "address": "Chennakesava Temple, NH73, Navilahalli, Beluru taluk, Hassan district, Karnataka, India"
        },
        "kalaseshwara temple": {
            "locType": "place_of_worship",
            "blogLinks": [
                "http://www.nivalink.com/destination/kundapura"
            ],
            "longitude": "75.363446975",
            "closest_to": "kundapur",
            "latitude": "13.23228505",
            "address": "Kalaseshwara Temple, SH66, Kalasa, Mudigere taluk, Chikkamagaluru district, Karnataka, 577124, India"
        },
        "hoysala": {
            "locType": "administrative",
            "blogLinks": [
                "http://travel.india.com/explore/temples-south-india/",
                "http://www.mapsofindia.com/karnataka/tourism/"
            ],
            "longitude": "77.6375990817051",
            "closest_to": "bellary",
            "latitude": "12.97813815",
            "address": "Hoysala Nagar, Bengaluru, Bangalore Urban, Karnataka, 560001, India"
        },
        "udipi": {
            "locType": "restaurant",
            "blogLinks": [
                "http://www.nivalink.com/destination/kundapura"
            ],
            "longitude": "77.652888",
            "closest_to": "bellary",
            "latitude": "12.9530588",
            "address": "Udipi Park, 2nd Cross Road, Muniyappa Layout, Murugeshpalaya, Belure Ambedkar Nagar, Bangalore Urban, Karnataka, 560067, India"
        },
        "cubbon park": {
            "locType": "station",
            "blogLinks": [
                "https://www.yatra.com/india-tourism/karnataka",
                "http://www.mapsofindia.com/karnataka/tourism/"
            ],
            "longitude": "77.5977565",
            "closest_to": "bellary",
            "latitude": "12.9808487",
            "address": "Cubbon Park, Cubbon Road, Tasker Town, Shivajinagar, Bengaluru, Bangalore Urban, Karnataka, 560001, India"
        },
        "jain": {
            "locType": "town",
            "blogLinks": [
                "http://travel.india.com/explore/temples-south-india/"
            ],
            "longitude": "74.9977469",
            "closest_to": "kundapur",
            "latitude": "13.0699218",
            "address": "Moodabidri, Mangaluru taluk, Dakshina Kannada, Karnataka, 574227, India"
        },
        "vijaya vittala": {
            "locType": "yes",
            "blogLinks": [
                "http://travel.india.com/explore/temples-south-india/"
            ],
            "longitude": "76.6245510778317",
            "closest_to": "kundapur",
            "latitude": "12.30122945",
            "address": "Vijaya Vittala School, 1st Cross Road, Sarasvatipuram, Mysuru, Mysuru taluk, Mysuru district, Karnataka, 570001, India"
        },
        "pattabhirama temple": {
            "locType": "place_of_worship",
            "blogLinks": [
                "http://www.hoparoundindia.com/karnataka/attractions/bellary.aspx"
            ],
            "longitude": "77.5866621",
            "closest_to": "bellary",
            "latitude": "12.9245786",
            "address": "Pattabhirama Temple, 34 C Cross Road, Jayanagar 4th Block, Jayanagar, Bengaluru, Bangalore Urban, Karnataka, 560001, India"
        },
        "kumbakonam": {
            "locType": "cafe",
            "blogLinks": [
                "http://travel.india.com/explore/temples-south-india/"
            ],
            "longitude": "77.6232945",
            "closest_to": "bellary",
            "latitude": "12.9739292",
            "address": "Kumbakonam Traditional Coffee, E 4th Street, Gupta Layout, Halasuru, Bengaluru, Bangalore Urban, Karnataka, 560001, India"
        },
        "karthikeya": {
            "locType": "guest_house",
            "blogLinks": [
                "http://travel.india.com/explore/temples-south-india/"
            ],
            "longitude": "75.6138234777968",
            "closest_to": "kundapur",
            "latitude": "12.6650335",
            "address": "Karthikeya Kripa, SH37, Kukke Subrahmanya, Sulya taluk, Dakshina Kannada, Karnataka, 574238, India"
        },
        "sanduru": {
            "locType": "town",
            "blogLinks": [
                "https://en.wikipedia.org/wiki/Bellary"
            ],
            "longitude": "76.5435934",
            "closest_to": "kundapur",
            "latitude": "15.084389",
            "address": "Sanduru, Sanduru taluk, Bellary district, Karnataka, 583119, India"
        },
        "tirupati": {
            "locType": "village",
            "blogLinks": [
                "http://travel.india.com/explore/temples-south-india/",
                "https://en.wikipedia.org/wiki/Bellary"
            ],
            "longitude": "76.2727455",
            "closest_to": "kundapur",
            "latitude": "13.3289007",
            "address": "Malekallu Tirupathi, Arasikere taluku, Hassan district, Karnataka, India"
        },
        "hong kong": {
            "locType": "restaurant",
            "blogLinks": [
                "https://www.yatra.com/india-tourism/karnataka"
            ],
            "longitude": "77.6768991",
            "closest_to": "bellary",
            "latitude": "13.020749",
            "address": "Hong Kong Noodles, Kalkere Main road, Ramamurthy Nagar, Varanasi, Bangalore Urban, Karnataka, 600042, India"
        },
        "ulsoor lake": {
            "locType": "water",
            "blogLinks": [
                "http://www.mapsofindia.com/karnataka/tourism/"
            ],
            "longitude": "77.6191669052984",
            "closest_to": "bellary",
            "latitude": "12.9823891",
            "address": "Halasuru lake, Annaswamy Mudaliar Road, Kothandram Layout, Halasuru, Bengaluru, Bangalore Urban, Karnataka, 560001, India"
        },
        "manipal": {
            "locType": "town",
            "blogLinks": [
                "http://www.mapsofindia.com/karnataka/tourism/"
            ],
            "longitude": "74.7870308",
            "closest_to": "kundapur",
            "latitude": "13.3519723",
            "address": "Manipal, Udupi taluku, Udupi district, Karnataka, India"
        },
        "leela palace": {
            "locType": "hotel",
            "blogLinks": [
                "https://in.via.com/bus-tickets/from-bellary-to-bangalore"
            ],
            "longitude": "77.648578420259",
            "closest_to": "bellary",
            "latitude": "12.96099865",
            "address": "Leela Palace, 3rd Cross, Babasaheb Colony, Kodihalli, Bengaluru, Bangalore Urban, Karnataka, 560001, India"
        },
        "devaki": {
            "locType": "house",
            "blogLinks": [
                "http://travel.india.com/explore/temples-south-india/"
            ],
            "longitude": "77.6453265257114",
            "closest_to": "bellary",
            "latitude": "12.9771662",
            "address": "Devaki Krishna, 20, 1st Main Road, Defence Colony, Hoysala Nagar, Bengaluru, Bangalore Urban, Karnataka, 560001, India"
        },
        "dubai": {
            "locType": "gift",
            "blogLinks": [
                "https://www.yatra.com/india-tourism/karnataka"
            ],
            "longitude": "77.6067717",
            "closest_to": "bellary",
            "latitude": "12.9737065",
            "address": "Dubai Plaza, Rest House Road, Shantala Nagar, Ashok Nagar, Bengaluru, Bangalore Urban, Karnataka, 560001, India"
        },
        "india": {
            "locType": "administrative",
            "blogLinks": [
                "https://www.makemytrip.com/bus-tickets/kundapur-bellary-booking.html",
                "http://www.nivalink.com/destination/kundapura",
                "http://distancecalculator.globefeed.com/India_Distance_Calculator.asp?state=19",
                "https://in.via.com/bus-tickets/from-bellary-to-bangalore",
                "https://en.wikipedia.org/wiki/Kundapura",
                "https://en.wikipedia.org/wiki/Bellary",
                "https://www.yatra.com/india-tourism/karnataka",
                "http://www.indiatravelblog.com/resources/3597-Visiting-Places-Sandur-Bellary-Karnataka.aspx",
                "http://travel.india.com/explore/temples-south-india/",
                "http://www.mapsofindia.com/karnataka/tourism/"
            ],
            "longitude": "75.7223521",
            "closest_to": "kundapur",
            "latitude": "14.5203896",
            "address": "Karnataka, India"
        },
        "navagraha": {
            "locType": "place_of_worship",
            "blogLinks": [
                "http://travel.india.com/explore/temples-south-india/"
            ],
            "longitude": "76.9364719",
            "closest_to": "kundapur",
            "latitude": "13.3106354",
            "address": "Navagraha Temple, Gatti Layout Main Road, Gubbi, Gubbi taluk, Tumkur district, Karnataka, 572216, India"
        },
        "central jail of bellary": {
            "locType": "prison",
            "blogLinks": [
                "https://en.wikipedia.org/wiki/Bellary"
            ],
            "longitude": "76.9253840594437",
            "closest_to": "bellary",
            "latitude": "15.15050865",
            "address": "Ballari Central Jail, Jail Road, Ballari, Bellary taluk, Bellary district, Karnataka, 583101, India"
        },
        "kolluru mookambika temple": {
            "locType": "place_of_worship",
            "blogLinks": [
                "https://en.wikipedia.org/wiki/Kundapura"
            ],
            "longitude": "77.6347589",
            "closest_to": "bellary",
            "latitude": "12.9727077",
            "address": "Sri Kolluru Mookambika Temple, 15th Cross, Easwara Layout, Indiranagar, Bengaluru, Bangalore Urban, Karnataka, 560001, India"
        },
        "ugranarasimha": {
            "locType": "place_of_worship",
            "blogLinks": [
                "http://travel.india.com/explore/temples-south-india/"
            ],
            "longitude": "77.048258",
            "closest_to": "kundapur",
            "latitude": "12.5898407",
            "address": "Sri Ugranarasimha Swami Temple, Bangalore-Mysore Road, Gejjalagere, Madduru taluk, Mandya district, Karnataka, India"
        },
        "belgaum district": {
            "locType": "administrative",
            "blogLinks": [
                "http://www.indiatravelblog.com/resources/3597-Visiting-Places-Sandur-Bellary-Karnataka.aspx"
            ],
            "longitude": "74.8896592460527",
            "closest_to": "kundapur",
            "latitude": "16.1631253",
            "address": "Belgaum district, Karnataka, India"
        },
        "new delhi": {
            "locType": "college",
            "blogLinks": [
                "https://en.wikipedia.org/wiki/Bellary"
            ],
            "longitude": "76.6142178649055",
            "closest_to": "kundapur",
            "latitude": "12.30911465",
            "address": "Regional Institute of Education, Chaduranga Road, Jayalakshmipuram, Mysuru, Mysuru taluk, Mysuru district, Karnataka, 570001, India"
        },
        "maharashtra": {
            "locType": "bank",
            "blogLinks": [
                "https://en.wikipedia.org/wiki/Bellary",
                "https://www.yatra.com/india-tourism/karnataka"
            ],
            "longitude": "77.5856013",
            "closest_to": "bellary",
            "latitude": "12.9049455",
            "address": "Bank of Maharashtra, 24th Main, K R Layout, Puttenahalli, Bengaluru, Bangalore Urban, Karnataka, 560001, India"
        },
        "southern india": {
            "locType": "commercial",
            "blogLinks": [
                "https://www.yatra.com/india-tourism/karnataka"
            ],
            "longitude": "77.6227757667762",
            "closest_to": "bellary",
            "latitude": "12.92588785",
            "address": "Survey Of India - Southern Zone, Madivala, Bengaluru, Bangalore Urban, Karnataka, 560001, India"
        },
        "the park": {
            "locType": "park",
            "blogLinks": [
                "https://in.via.com/bus-tickets/from-bellary-to-bangalore"
            ],
            "longitude": "77.5957945764651",
            "closest_to": "bellary",
            "latitude": "12.92511275",
            "address": "park, 34th Cross Road, Tilak Nagar, Marenahalli, Bengaluru, Bangalore Urban, Karnataka, 560001, India"
        },
        "tumakuru": {
            "locType": "county",
            "blogLinks": [
                "https://en.wikipedia.org/wiki/Bellary"
            ],
            "longitude": "77.0002445",
            "closest_to": "kundapur",
            "latitude": "13.4999406",
            "address": "Tumakuru, Tumkur district, Karnataka, India"
        },
        "chamundi hill": {
            "locType": "peak",
            "blogLinks": [
                "http://travel.india.com/explore/temples-south-india/"
            ],
            "longitude": "76.6703937",
            "closest_to": "kundapur",
            "latitude": "12.2724017",
            "address": "Chamundi Hill, Mysuru, Mysuru taluk, Mysuru district, Karnataka, 570001, India"
        },
        "district hospital": {
            "locType": "hospital",
            "blogLinks": [
                "https://en.wikipedia.org/wiki/Bellary"
            ],
            "longitude": "74.7423038",
            "closest_to": "kundapur",
            "latitude": "13.3340175",
            "address": "District Hospital, Nairkere Road, Ambalapadi, Udupi, Udupi taluku, Udupi district, Karnataka, 576101, India"
        },
        "singapore": {
            "locType": "neighbourhood",
            "blogLinks": [
                "https://www.yatra.com/india-tourism/karnataka"
            ],
            "longitude": "77.5483703",
            "closest_to": "bellary",
            "latitude": "12.8861812",
            "address": "Singapore Gardens, Vajrahalli, Bengaluru, Bangalore Urban, Karnataka, 560001, India"
        },
        "mysuru": {
            "locType": "city",
            "blogLinks": [
                "http://www.indiatravelblog.com/resources/3597-Visiting-Places-Sandur-Bellary-Karnataka.aspx"
            ],
            "longitude": "76.6553609",
            "closest_to": "kundapur",
            "latitude": "12.3051828",
            "address": "Mysuru, Mysuru taluk, Mysuru district, Karnataka, 570001, India"
        },
        "kollur": {
            "locType": "village",
            "blogLinks": [
                "https://en.wikipedia.org/wiki/Kundapura"
            ],
            "longitude": "74.8137959",
            "closest_to": "kundapur",
            "latitude": "13.8634049",
            "address": "Kollur, \u0c95\u0cc1\u0c82\u0ca6\u0cbe\u0caa\u0cc1\u0cb0 \u0ca4\u0cbe\u0cb2\u0cc2\u0c95\u0cc1, Udupi district, Karnataka, 576220, India"
        },
        "hubli": {
            "locType": "city",
            "blogLinks": [
                "https://en.wikipedia.org/wiki/Bellary",
                "https://www.yatra.com/india-tourism/karnataka",
                "http://www.nivalink.com/destination/kundapura"
            ],
            "longitude": "75.1379848",
            "closest_to": "kundapur",
            "latitude": "15.3518378",
            "address": "Hubballi - \u0cb9\u0cc1\u0cac\u0ccd\u0cac\u0cb3\u0ccd\u0cb3\u0cbf, Hubballi taluku, Dharwad district, Karnataka, 580020, India"
        },
        "kashi": {
            "locType": "town",
            "blogLinks": [
                "http://travel.india.com/explore/temples-south-india/"
            ],
            "longitude": "74.9977469",
            "closest_to": "kundapur",
            "latitude": "13.0699218",
            "address": "Moodabidri, Mangaluru taluk, Dakshina Kannada, Karnataka, 574227, India"
        },
        "tungabhadra river": {
            "locType": "river",
            "blogLinks": [
                "http://travel.india.com/explore/temples-south-india/"
            ],
            "longitude": "76.4931607",
            "closest_to": "kundapur",
            "latitude": "15.3446123",
            "address": "Tungabhadra, Gangavati taluku, Koppal district, Karnataka, India"
        },
        "taranagara": {
            "locType": "village",
            "blogLinks": [
                "http://www.indiatravelblog.com/resources/3597-Visiting-Places-Sandur-Bellary-Karnataka.aspx"
            ],
            "longitude": "76.6066284",
            "closest_to": "kundapur",
            "latitude": "15.1317009",
            "address": "Taranagara, Sanduru taluk, Bellary district, Karnataka, India"
        },
        "madras": {
            "locType": "station",
            "blogLinks": [
                "https://en.wikipedia.org/wiki/Bellary"
            ],
            "longitude": "77.6449595",
            "closest_to": "bellary",
            "latitude": "12.9859442",
            "address": "Swami Vivekananda Road, Swamy Vivekananda Road (Old Madras Road), Sudgunte Palya, Baiyyappanahalli, Benniganahalli, Bangalore Urban, Karnataka, 560016, India"
        },
        "coastal karnataka": {
            "locType": "industrial",
            "blogLinks": [
                "http://www.nivalink.com/destination/kundapura"
            ],
            "longitude": "74.8137275833157",
            "closest_to": "kundapur",
            "latitude": "12.96014675",
            "address": "Bharat Petroleum Mangalore Coastal Installation, Baikampady, Mangaluru taluk, Dakshina Kannada, Karnataka, 575014, India"
        },
        "parvati": {
            "locType": "village",
            "blogLinks": [
                "http://travel.india.com/explore/temples-south-india/"
            ],
            "longitude": "75.7898501",
            "closest_to": "kundapur",
            "latitude": "16.0395701",
            "address": "Parvati, Badami taluku, Bagalkote district, Karnataka, India"
        },
        "bajpe": {
            "locType": "village",
            "blogLinks": [
                "https://en.wikipedia.org/wiki/Kundapura"
            ],
            "longitude": "74.8847082",
            "closest_to": "kundapur",
            "latitude": "12.9820549",
            "address": "Bajpe, Mangaluru taluk, Dakshina Kannada, Karnataka, India"
        },
        "pune": {
            "locType": "trunk",
            "blogLinks": [
                "https://en.wikipedia.org/wiki/Bellary"
            ],
            "longitude": "76.9479122",
            "closest_to": "bellary",
            "latitude": "17.8199745",
            "address": "Pune - Machilipatnam Highway, Kaudiyala, Basavakalyana taluku, Bidar district, Karnataka, India"
        },
        "karnataka": {
            "locType": "atm",
            "blogLinks": [
                "http://www.nivalink.com/destination/kundapura",
                "http://www.karnatakatourism.org/",
                "http://distancecalculator.globefeed.com/India_Distance_Calculator.asp?state=19",
                "https://in.via.com/bus-tickets/from-bellary-to-bangalore",
                "https://en.wikipedia.org/wiki/Kundapura",
                "https://en.wikipedia.org/wiki/Bellary",
                "https://www.yatra.com/india-tourism/karnataka",
                "http://www.indiatravelblog.com/resources/3597-Visiting-Places-Sandur-Bellary-Karnataka.aspx",
                "http://www.mapsofindia.com/karnataka/tourism/"
            ],
            "longitude": "76.6639936",
            "closest_to": "kundapur",
            "latitude": "12.3084901",
            "address": "Karnataka, Shalivahana Road, Nazarbad, Mysuru, Mysuru taluk, Mysuru district, Karnataka, 570001, India"
        },
        "bellary fort": {
            "locType": "castle",
            "blogLinks": [
                "http://www.hoparoundindia.com/karnataka/attractions/bellary.aspx",
                "https://en.wikipedia.org/wiki/Bellary"
            ],
            "longitude": "76.9090283",
            "closest_to": "bellary",
            "latitude": "15.1481211",
            "address": "Upper Hill Outer Fort Wall, Uphill Fort Entry Road, Ballari, Bellary taluk, Bellary district, Karnataka, 5831XX, India"
        },
        "siddhivinayaka temple": {
            "locType": "place_of_worship",
            "blogLinks": [
                "http://www.nivalink.com/destination/kundapura"
            ],
            "longitude": "75.0599098",
            "closest_to": "kundapur",
            "latitude": "13.8676974",
            "address": "Sri Siddhivinayaka Temple, NH766C;SH26, Guddekoppa, Hosanagara taluk, Shimoga district, Karnataka, India"
        },
        "ganjam": {
            "locType": "village",
            "blogLinks": [
                "http://www.indiatravelblog.com/resources/3597-Visiting-Places-Sandur-Bellary-Karnataka.aspx"
            ],
            "longitude": "76.7059545",
            "closest_to": "kundapur",
            "latitude": "12.414365",
            "address": "Ganjam, Srirangapattana taluk, Mandya district, Karnataka, India"
        },
        "ganesha": {
            "locType": "place_of_worship",
            "blogLinks": [
                "http://travel.india.com/explore/temples-south-india/"
            ],
            "longitude": "77.5663029",
            "closest_to": "bellary",
            "latitude": "13.0029248",
            "address": "Ganesha, 12th Cross Road, Vyalikaval, Malleswaram, Bengaluru, Bangalore Urban, Karnataka, 560001, India"
        },
        "barkur": {
            "locType": "station",
            "blogLinks": [
                "https://en.wikipedia.org/wiki/Kundapura"
            ],
            "longitude": "74.7600136",
            "closest_to": "kundapur",
            "latitude": "13.4771583",
            "address": "Barkur, Barkuru Mandarthi Road, Mandarti, Udupi taluku, Udupi district, Karnataka, India"
        },
        "kr hills": {
            "locType": "bus_stop",
            "blogLinks": [
                "http://www.indiatravelblog.com/resources/3597-Visiting-Places-Sandur-Bellary-Karnataka.aspx"
            ],
            "longitude": "77.5461096",
            "closest_to": "bellary",
            "latitude": "12.9069945",
            "address": "KR Hospital, Dr. Vishnuvardhan Road, Seven Hills Layout, Chikkalasandra, Bengaluru, Bangalore Urban, Karnataka, 560001, India"
        },
        "vijayanagar": {
            "locType": "station",
            "blogLinks": [
                "http://www.hoparoundindia.com/karnataka/attractions/bellary.aspx"
            ],
            "longitude": "77.5375757",
            "closest_to": "bellary",
            "latitude": "12.9713392",
            "address": "Vijayanagar, Chord Road, Marenahalli, Vijaya Nagar, Binny Layout, Bangalore Urban, Karnataka, 560040, India"
        },
        "ballari": {
            "locType": "city",
            "blogLinks": [
                "https://en.wikipedia.org/wiki/Bellary"
            ],
            "longitude": "76.9125211",
            "closest_to": "bellary",
            "latitude": "15.1467299",
            "address": "Ballari, Bellary taluk, Bellary district, Karnataka, India"
        },
        "vijayanagara": {
            "locType": "village",
            "blogLinks": [
                "https://en.wikipedia.org/wiki/Bellary"
            ],
            "longitude": "74.7380455",
            "closest_to": "bellary",
            "latitude": "16.3270486",
            "address": "Vijayanagara, Chikodi taluk, Belgaum district, Karnataka, India"
        },
        "badami road": {
            "locType": "primary",
            "blogLinks": [
                "http://travel.india.com/explore/temples-south-india/"
            ],
            "longitude": "75.6727104",
            "closest_to": "kundapur",
            "latitude": "15.915751",
            "address": "Badami Road, Agastya Tirtha, Badami, Badami taluku, Bagalkote district, Karnataka, 587200, India"
        },
        "kannur": {
            "locType": "construction",
            "blogLinks": [
                "http://www.nivalink.com/destination/kundapura"
            ],
            "longitude": "74.8858161",
            "closest_to": "kundapur",
            "latitude": "12.8487602",
            "address": "Netravati bridge - Kannur Bypass Road (Proposed), Padil, Bajal, Mangaluru taluk, Dakshina Kannada, Karnataka, 575007, India"
        },
        "ocean": {
            "locType": "residential",
            "blogLinks": [
                "http://www.nivalink.com/destination/kundapura"
            ],
            "longitude": "77.7178261979437",
            "closest_to": "bellary",
            "latitude": "12.95490595",
            "address": "Gayatri Ocean Blue Apartments, Thubarahalli, Siddapura, Bangalore Urban, Karnataka, 560066, India"
        },
        "hindupur": {
            "locType": "primary",
            "blogLinks": [
                "https://en.wikipedia.org/wiki/Bellary"
            ],
            "longitude": "77.5237128",
            "closest_to": "bellary",
            "latitude": "13.3580171",
            "address": "Hindupur ByPass Road, Bachchahalli, Doddaballapura taluk, Bangalore Rural, Karnataka, India"
        },
        "north kerala": {
            "locType": "restaurant",
            "blogLinks": [
                "http://www.nivalink.com/destination/kundapura"
            ],
            "longitude": "77.6382683",
            "closest_to": "bellary",
            "latitude": "12.9726449",
            "address": "New Life Kerala Mess, Sai Baba Mandira Road, Mottappanapalaya, Indiranagar, Bengaluru, Bangalore Urban, Karnataka, 560001, India"
        }
    },
    "bellary": {
        "osm_id": "316417114",
        "display_name": "Bellary, Bellary district, Karnataka, India",
        "importance": 0.65,
        "place_id": "1393549",
        "class": "place",
        "boundingbox": [
            "14.6085413",
            "15.8885413",
            "76.1923648",
            "77.4723648"
        ],
        "type": "county",
        "lon": "76.8323648",
        "licence": "Data \u00a9 OpenStreetMap contributors, ODbL 1.0. http://www.openstreetmap.org/copyright",
        "osm_type": "node",
        "lat": "15.2485413",
        "icon": "https://nominatim.openstreetmap.org/images/mapicons/poi_boundary_administrative.p.20.png"
    },
    "kundapur": {
        "osm_id": "2806096352",
        "display_name": "United Basel mission church Higher Primary School, Kundapur, Chikkansal Road, Vaderahobali, Kundapura, \u0c95\u0cc1\u0c82\u0ca6\u0cbe\u0caa\u0cc1\u0cb0 \u0ca4\u0cbe\u0cb2\u0cc2\u0c95\u0cc1, Udupi district, Karnataka, 576200, India",
        "importance": 0.201,
        "place_id": "33849904",
        "class": "amenity",
        "boundingbox": [
            "13.6343009",
            "13.6344009",
            "74.6906249",
            "74.6907249"
        ],
        "type": "school",
        "lon": "74.6906749",
        "licence": "Data \u00a9 OpenStreetMap contributors, ODbL 1.0. http://www.openstreetmap.org/copyright",
        "osm_type": "node",
        "lat": "13.6343509",
        "icon": "https://nominatim.openstreetmap.org/images/mapicons/education_school.p.20.png"
    }
}