{
    "mentions": {
        "kemmangundi": {
            "locType": "village",
            "blogLinks": [
                "http://www.indiatravelblog.com/resources/3624-Tips-for-Visitors-to-Kemmangundi-Karnataka.aspx",
                "http://www.nivalink.com/destination/kemmanagundi",
                "http://www.yeshwanthlive.com/blog/horanadu",
                "http://thinkingparticle.com/articles/kemmangundi-and-hebbe-falls-trek",
                "https://naveensamalas.blogspot.com/2012/07/bangalore-to-chikmangalur-belur-trip-by.html",
                "https://www.quora.com/Visiting-and-Travel-in-India-If-I-had-to-plan-a-weekend-trip-to-Chikmagalur-what-places-must-I-include-in-my-itinerary"
            ],
            "longitude": "75.7520082",
            "closest_to": "kemmangundi",
            "latitude": "13.5463048",
            "address": "Kemmannagundi, Tarikere taluku, Chikkamagaluru district, Karnataka, India"
        },
        "halebeedu": {
            "locType": "secondary",
            "blogLinks": [
                "https://www.tripoto.com/travel-guide/belur"
            ],
            "longitude": "76.000043",
            "closest_to": "belur",
            "latitude": "13.1681662",
            "address": "Halebeedu Hagare Road, Harubihalli, Beluru taluk, Hassan district, Karnataka, 573121, India"
        },
        "mullayanagiri": {
            "locType": "peak",
            "blogLinks": [
                "http://thinkingparticle.com/articles/kemmangundi-and-hebbe-falls-trek"
            ],
            "longitude": "75.7214034",
            "closest_to": "kemmangundi",
            "latitude": "13.3909217",
            "address": "Mullayyanagiri, Chikkamagaluru, Chikkamagaluru taluku, Chikkamagaluru district, Karnataka, 577101, India"
        },
        "river yagachi": {
            "locType": "river",
            "blogLinks": [
                "http://www.holidayiq.com/Halebid-and-Belur-Sightseeing-651.html"
            ],
            "longitude": "75.950911",
            "closest_to": "belur",
            "latitude": "13.0658494",
            "address": "Yagachi, Beluru taluk, Hassan district, Karnataka, India"
        },
        "chikmagalur": {
            "locType": "county",
            "blogLinks": [
                "http://www.indiatravelblog.com/resources/3624-Tips-for-Visitors-to-Kemmangundi-Karnataka.aspx",
                "http://www.nivalink.com/destination/kemmanagundi",
                "http://www.nivalink.com/destination/chikmagalur",
                "http://thinkingparticle.com/articles/kemmangundi-and-hebbe-falls-trek",
                "https://www.tripoto.com/travel-guide/belur"
            ],
            "longitude": "75.5",
            "closest_to": "kemmangundi",
            "latitude": "13.5",
            "address": "Chikmagalur, Chikkamagaluru district, Karnataka, India"
        },
        "yagachi river": {
            "locType": "river",
            "blogLinks": [
                "https://www.tripoto.com/travel-guide/belur"
            ],
            "longitude": "75.950911",
            "closest_to": "belur",
            "latitude": "13.0658494",
            "address": "Yagachi, Beluru taluk, Hassan district, Karnataka, India"
        },
        "attigundi": {
            "locType": "village",
            "blogLinks": [
                "http://thinkingparticle.com/articles/kemmangundi-and-hebbe-falls-trek"
            ],
            "longitude": "75.7415646",
            "closest_to": "kemmangundi",
            "latitude": "13.428683",
            "address": "Attigundi, Chikkamagaluru taluku, Chikkamagaluru district, Karnataka, India"
        },
        "bhadra river": {
            "locType": "river",
            "blogLinks": [
                "http://www.nivalink.com/destination/chikmagalur"
            ],
            "longitude": "75.527118",
            "closest_to": "kemmangundi",
            "latitude": "13.4888356",
            "address": "Bhadra, Chikkamagaluru taluku, Chikkamagaluru district, Karnataka, India"
        },
        "hoysaleswara temple": {
            "locType": "place_of_worship",
            "blogLinks": [
                "http://www.holidayiq.com/Halebid-and-Belur-Sightseeing-651.html"
            ],
            "longitude": "75.9941649",
            "closest_to": "belur",
            "latitude": "13.2127193",
            "address": "Hoysaleswara Temple, SH21, Halebidu, Beluru taluk, Hassan district, Karnataka, 573121, India"
        },
        "aldur": {
            "locType": "village",
            "blogLinks": [
                "http://www.yeshwanthlive.com/blog/horanadu"
            ],
            "longitude": "75.650144",
            "closest_to": "kemmangundi",
            "latitude": "13.2437104",
            "address": "Aldur, Chikkamagaluru taluku, Chikkamagaluru district, Karnataka, India"
        },
        "chennakesava": {
            "locType": "place_of_worship",
            "blogLinks": [
                "https://www.tripoto.com/travel-guide/belur"
            ],
            "longitude": "75.8603311",
            "closest_to": "belur",
            "latitude": "13.1629239",
            "address": "Chennakesava Temple, NH73, Navilahalli, Beluru taluk, Hassan district, Karnataka, India"
        },
        "kadur": {
            "locType": "trunk",
            "blogLinks": [
                "http://www.indiatravelblog.com/resources/3624-Tips-for-Visitors-to-Kemmangundi-Karnataka.aspx"
            ],
            "longitude": "75.7820095",
            "closest_to": "kemmangundi",
            "latitude": "13.3283654",
            "address": "Mudigere-Kadur Road, Basavannahalli, Chikkamagaluru, Chikkamagaluru taluku, Chikkamagaluru district, Karnataka, 577101, India"
        },
        "halebid": {
            "locType": "village",
            "blogLinks": [
                "http://www.holidayiq.com/Halebid-and-Belur-Sightseeing-651.html",
                "https://www.tripoto.com/travel-guide/belur"
            ],
            "longitude": "75.9918793",
            "closest_to": "belur",
            "latitude": "13.2167959",
            "address": "Halebidu, Beluru taluk, Hassan district, Karnataka, 573121, India"
        },
        "kalhatti": {
            "locType": "waterfall",
            "blogLinks": [
                "http://thinkingparticle.com/articles/kemmangundi-and-hebbe-falls-trek"
            ],
            "longitude": "75.7889882",
            "closest_to": "kemmangundi",
            "latitude": "13.5499877",
            "address": "Kallathgiri falls, Tarikere taluku, Chikkamagaluru district, Karnataka, India"
        },
        "yagachi dam": {
            "locType": "dam",
            "blogLinks": [
                "http://www.holidayiq.com/Halebid-and-Belur-Sightseeing-651.html"
            ],
            "longitude": "75.8678438",
            "closest_to": "kemmangundi",
            "latitude": "13.1812074",
            "address": "Yagachi Dam, Beluru taluk, Hassan district, Karnataka, India"
        },
        "baba budangiri range": {
            "locType": "peak",
            "blogLinks": [
                "http://www.indiatravelblog.com/resources/3624-Tips-for-Visitors-to-Kemmangundi-Karnataka.aspx"
            ],
            "longitude": "75.7606996",
            "closest_to": "kemmangundi",
            "latitude": "13.4210884",
            "address": "Baba Budangiri, Chikkamagaluru, Chikkamagaluru taluku, Chikkamagaluru district, Karnataka, 577101, India"
        },
        "hassan": {
            "locType": "town",
            "blogLinks": [
                "http://wikitravel.org/en/Halebidu"
            ],
            "longitude": "76.0992703",
            "closest_to": "belur",
            "latitude": "13.0070817",
            "address": "Hassan, Hasana taluk, Hassan district, Karnataka, 573201, India"
        },
        "chennakeshava temple": {
            "locType": "place_of_worship",
            "blogLinks": [
                "http://www.holidayiq.com/Halebid-and-Belur-Sightseeing-651.html"
            ],
            "longitude": "76.1294164",
            "closest_to": "belur",
            "latitude": "13.3748908",
            "address": "Chennakeshava Temple, NH73, Arakere, Arasikere taluku, Hassan district, Karnataka, 573112, India"
        },
        "kemmangundi karnataka": {
            "locType": "village",
            "blogLinks": [
                "http://www.indiatravelblog.com/resources/3624-Tips-for-Visitors-to-Kemmangundi-Karnataka.aspx"
            ],
            "longitude": "75.7520082",
            "closest_to": "kemmangundi",
            "latitude": "13.5463048",
            "address": "Kemmannagundi, Tarikere taluku, Chikkamagaluru district, Karnataka, India"
        },
        "belur": {
            "locType": "town",
            "blogLinks": [
                "http://www.yeshwanthlive.com/blog/horanadu",
                "http://www.nivalink.com/destination/chikmagalur",
                "https://www.tripoto.com/travel-guide/belur"
            ],
            "longitude": "75.8634851",
            "closest_to": "kemmangundi",
            "latitude": "13.1645671",
            "address": "Belur, Beluru taluk, Hassan district, Karnataka, 573115, India"
        },
        "hebbe falls": {
            "locType": "attraction",
            "blogLinks": [
                "http://www.indiatravelblog.com/resources/3624-Tips-for-Visitors-to-Kemmangundi-Karnataka.aspx",
                "http://thinkingparticle.com/articles/kemmangundi-and-hebbe-falls-trek"
            ],
            "longitude": "75.7253701",
            "closest_to": "kemmangundi",
            "latitude": "13.5414025",
            "address": "Hebbe falls, Kemmannagundi Road, Attigundi, Chikkamagaluru taluku, Chikkamagaluru district, Karnataka, India"
        },
        "chikkamagalur": {
            "locType": "station",
            "blogLinks": [
                "http://www.nivalink.com/destination/chikmagalur"
            ],
            "longitude": "75.789501",
            "closest_to": "kemmangundi",
            "latitude": "13.3030706",
            "address": "Chikkamagalur, SH57, Hosamane Badavane, Hiremagaluru, Chikkamagaluru taluku, Chikkamagaluru district, Karnataka, 577101, India"
        },
        "bhadra": {
            "locType": "river",
            "blogLinks": [
                "http://www.yeshwanthlive.com/blog/horanadu"
            ],
            "longitude": "75.527118",
            "closest_to": "kemmangundi",
            "latitude": "13.4888356",
            "address": "Bhadra, Chikkamagaluru taluku, Chikkamagaluru district, Karnataka, India"
        },
        "chennakesava temple": {
            "locType": "place_of_worship",
            "blogLinks": [
                "http://www.holidayiq.com/Halebid-and-Belur-Sightseeing-651.html"
            ],
            "longitude": "75.8603311",
            "closest_to": "belur",
            "latitude": "13.1629239",
            "address": "Chennakesava Temple, NH73, Navilahalli, Beluru taluk, Hassan district, Karnataka, India"
        },
        "ballavara": {
            "locType": "village",
            "blogLinks": [
                "http://www.indiatravelblog.com/resources/3624-Tips-for-Visitors-to-Kemmangundi-Karnataka.aspx"
            ],
            "longitude": "75.7936218",
            "closest_to": "kemmangundi",
            "latitude": "13.5688808",
            "address": "Ballavara, Tarikere taluku, Chikkamagaluru district, Karnataka, India"
        },
        "hassan district of karnataka": {
            "locType": "administrative",
            "blogLinks": [
                "http://www.holidayiq.com/Halebid-and-Belur-Sightseeing-651.html"
            ],
            "longitude": "76.1745460751981",
            "closest_to": "belur",
            "latitude": "13.0315068",
            "address": "Hassan district, Karnataka, India"
        },
        "kappe chennigaraya": {
            "locType": "archaeological_site",
            "blogLinks": [
                "https://www.tripoto.com/travel-guide/belur"
            ],
            "longitude": "75.8603867",
            "closest_to": "belur",
            "latitude": "13.1624691",
            "address": "Kappe Chennigaraya Temple, NH73, Navilahalli, Beluru taluk, Hassan district, Karnataka, India"
        },
        "bababudangiri": {
            "locType": "tertiary",
            "blogLinks": [
                "http://thinkingparticle.com/articles/kemmangundi-and-hebbe-falls-trek"
            ],
            "longitude": "75.7486618",
            "closest_to": "kemmangundi",
            "latitude": "13.4297401",
            "address": "Bababudangiri Road, Inam Dattatreya Pitha, Chikkamagaluru taluku, Chikkamagaluru district, Karnataka, India"
        }
    },
    "belur": {
        "osm_id": "245618812",
        "display_name": "Belur, Beluru taluk, Hassan district, Karnataka, 573115, India",
        "importance": 0.5,
        "place_id": "633330",
        "class": "place",
        "boundingbox": [
            "13.1245671",
            "13.2045671",
            "75.8234851",
            "75.9034851"
        ],
        "type": "town",
        "lon": "75.8634851",
        "licence": "Data \u00a9 OpenStreetMap contributors, ODbL 1.0. http://www.openstreetmap.org/copyright",
        "osm_type": "node",
        "lat": "13.1645671",
        "icon": "https://nominatim.openstreetmap.org/images/mapicons/poi_place_town.p.20.png"
    },
    "kemmangundi": {
        "osm_id": "2253231504",
        "display_name": "Kemmannagundi, Tarikere taluku, Chikkamagaluru district, Karnataka, India",
        "importance": 0.375,
        "place_id": "22846400",
        "class": "place",
        "boundingbox": [
            "13.5263048",
            "13.5663048",
            "75.7320082",
            "75.7720082"
        ],
        "type": "village",
        "lon": "75.7520082",
        "licence": "Data \u00a9 OpenStreetMap contributors, ODbL 1.0. http://www.openstreetmap.org/copyright",
        "osm_type": "node",
        "lat": "13.5463048",
        "icon": "https://nominatim.openstreetmap.org/images/mapicons/poi_place_village.p.20.png"
    }
}