{
    "big bear lake": {
        "boundingbox": [
            "34.2375569",
            "34.2689983",
            "-116.9775303",
            "-116.8663043"
        ],
        "importance": 0.80624782713774,
        "class": "natural",
        "osm_id": "4045674",
        "type": "water",
        "lon": "-116.932209587315",
        "osm_type": "relation",
        "place_id": "159717820",
        "lat": "34.253293",
        "licence": "Data \u00a9 OpenStreetMap contributors, ODbL 1.0. http://www.openstreetmap.org/copyright",
        "display_name": "Big Bear Lake, Lagunita Lane, Big Bear Lake, San Bernardino County, California, 92315, United States of America"
    },
    "berkeley": {
        "boundingbox": [
            "37.835727",
            "37.9066896",
            "-122.3686792",
            "-122.2341961"
        ],
        "lon": "-122.2728638",
        "class": "place",
        "licence": "Data \u00a9 OpenStreetMap contributors, ODbL 1.0. http://www.openstreetmap.org/copyright",
        "importance": 0.78550511760774,
        "icon": "https://nominatim.openstreetmap.org/images/mapicons/poi_place_city.p.20.png",
        "lat": "37.8708393",
        "osm_id": "2833528",
        "type": "city",
        "osm_type": "relation",
        "place_id": "159273659",
        "display_name": "Berkeley, Alameda County, California, United States of America"
    },
    "mentions": {
        "boalt": {
            "longitude": "-120.8289079",
            "blogLinks": [
                "https://blog.admissions.berkeley.edu/blog/page/22/"
            ],
            "closest_to": "big bear lake",
            "latitude": "37.050739",
            "address": "Boalt Drive, Los Banos, Merced County, California, 93635, United States of America",
            "locType": "residential"
        },
        "carlsbad": {
            "longitude": "-117.3505938",
            "blogLinks": [
                "http://www.travbuddy.com/California-travel-guide-p85"
            ],
            "closest_to": "big bear lake",
            "latitude": "33.1580933",
            "address": "Carlsbad, San Diego County, California, United States of America",
            "locType": "city"
        },
        "los angeles harbor": {
            "longitude": "-118.2675706",
            "blogLinks": [
                "http://www.bigbearvacations.com/experience/things-to-do"
            ],
            "closest_to": "big bear lake",
            "latitude": "33.7097418",
            "address": "Los Angeles Harbor, Miner Street, San Pedro, LA, Los Angeles County, California, 90731, United States of America",
            "locType": "bay"
        },
        "los angeles": {
            "longitude": "-118.2439408",
            "blogLinks": [
                "https://blog.admissions.berkeley.edu/blog/page/22/",
                "https://www.yelp.com/biz/destination-big-bear-big-bear-lake",
                "http://gocalifornia.about.com/od/cabigbear/a/big-bear.htm",
                "http://www.10best.com/interests/travel-features/road-trip-10-must-see-spots-from-salt-lake-city-to-san-diego/",
                "http://www.bigbearlake.net/about-big-bear/facts",
                "http://www.travbuddy.com/California-travel-guide-p85"
            ],
            "closest_to": "big bear lake",
            "latitude": "34.0543942",
            "address": "LA, Los Angeles County, California, United States of America",
            "locType": "city"
        },
        "hope valley": {
            "longitude": "-117.2669824",
            "blogLinks": [
                "https://www.berkeleyparentsnetwork.org/recommend/places/snow"
            ],
            "closest_to": "big bear lake",
            "latitude": "33.7647418",
            "address": "Good Hope, Riverside County, California, United States of America",
            "locType": "hamlet"
        },
        "dodge ridge": {
            "longitude": "-119.9810316",
            "blogLinks": [
                "https://www.berkeleyparentsnetwork.org/recommend/places/snow"
            ],
            "closest_to": "big bear lake",
            "latitude": "38.1658792",
            "address": "Dodge Ridge, Forest Route 4N33, Pinecrest, Tuolumne County, California, 95364, United States of America",
            "locType": "ridge"
        },
        "pinecrest": {
            "longitude": "-120.9682776",
            "blogLinks": [
                "https://www.berkeleyparentsnetwork.org/recommend/places/snow"
            ],
            "closest_to": "berkeley",
            "latitude": "39.1626734",
            "address": "Pinecrest, Nevada County, California, United States of America",
            "locType": "hamlet"
        },
        "fawnskin": {
            "longitude": "-116.9425341",
            "blogLinks": [
                "http://www.bigbearlake.net/about-big-bear/facts",
                "https://www.expedia.com/Big-Bear-Lake-Hotels.d6919.Travel-Guide-Hotels"
            ],
            "closest_to": "big bear lake",
            "latitude": "34.2680621",
            "address": "Fawnskin, San Bernardino County, California, United States of America",
            "locType": "hamlet"
        },
        "soda springs": {
            "longitude": "-123.3158409",
            "blogLinks": [
                "https://www.berkeleyparentsnetwork.org/recommend/places/snow"
            ],
            "closest_to": "berkeley",
            "latitude": "39.0240651",
            "address": "Soda Springs, Mendocino County, California, United States of America",
            "locType": "hamlet"
        },
        "holcomb valley campground": {
            "longitude": "-116.895994630574",
            "blogLinks": [
                "http://www.bigbearlake.net/about-big-bear/facts"
            ],
            "closest_to": "big bear lake",
            "latitude": "34.3025052",
            "address": "Holcomb Valley Campground, 3N16E, Minnelusa, San Bernardino County, California, 92314, United States of America",
            "locType": "camp_site"
        },
        "nevada": {
            "longitude": "-120.8089842",
            "blogLinks": [
                "http://www.10best.com/interests/travel-features/road-trip-10-must-see-spots-from-salt-lake-city-to-san-diego/"
            ],
            "closest_to": "berkeley",
            "latitude": "39.3540335",
            "address": "Nevada County, California, United States of America",
            "locType": "administrative"
        },
        "las vegas": {
            "longitude": "-115.144667930325",
            "blogLinks": [
                "http://www.10best.com/interests/travel-features/road-trip-10-must-see-spots-from-salt-lake-city-to-san-diego/",
                "https://www.berkeleyparentsnetwork.org/recommend/places/snow"
            ],
            "closest_to": "big bear lake",
            "latitude": "36.17310935",
            "address": "California Hotel, Sky Walk(Connection from Main Street to California, Cultural Corridor, Vegas Heights, Las Vegas, Clark County, Nevada, 89101, United States of America",
            "locType": "hotel"
        },
        "oakdale": {
            "longitude": "-120.8471544",
            "blogLinks": [
                "https://www.berkeleyparentsnetwork.org/recommend/places/snow"
            ],
            "closest_to": "big bear lake",
            "latitude": "37.7665947",
            "address": "Oakdale, Stanislaus County, California, United States of America",
            "locType": "city"
        },
        "hilton garden inn san bernardino": {
            "longitude": "-117.55450015",
            "blogLinks": [
                "https://www.expedia.com/Big-Bear-Lake-Hotels.d6919.Travel-Guide-Hotels"
            ],
            "closest_to": "big bear lake",
            "latitude": "34.0790286",
            "address": "Hilton Garden Inn, 11481, Mission Vista Drive, Rancho Cucamonga, San Bernardino County, California, 91730, United States of America",
            "locType": "hotel"
        },
        "utah lake": {
            "longitude": "-122.6250909",
            "blogLinks": [
                "http://www.10best.com/interests/travel-features/road-trip-10-must-see-spots-from-salt-lake-city-to-san-diego/"
            ],
            "closest_to": "berkeley",
            "latitude": "38.943548",
            "address": "Utah Street, Clearlake, Lake County, California, 95422, United States of America",
            "locType": "residential"
        },
        "pacific ocean": {
            "longitude": "-121.678715787326",
            "blogLinks": [
                "http://www.travbuddy.com/California-travel-guide-p85",
                "http://gocalifornia.about.com/od/caplaceslist/"
            ],
            "closest_to": "big bear lake",
            "latitude": "36.16305775",
            "address": "Pacific Ocean, Cabrillo Highway, Monterey County, California, 93920, United States of America",
            "locType": "cliff"
        },
        "nottingham": {
            "longitude": "-118.3355358",
            "blogLinks": [
                "http://www.bigbearlake.net/about-big-bear/facts"
            ],
            "closest_to": "big bear lake",
            "latitude": "33.9587429",
            "address": "Nottingham, Inglewood, Los Angeles County, California, 90305, United States of America",
            "locType": "service"
        },
        "south shore": {
            "longitude": "-122.2577469",
            "blogLinks": [
                "https://www.berkeleyparentsnetwork.org/recommend/places/snow"
            ],
            "closest_to": "big bear lake",
            "latitude": "37.7596511",
            "address": "South Shore, Alameda, Alameda County, California, 94501, United States of America",
            "locType": "neighbourhood"
        },
        "newport beach": {
            "longitude": "-117.92944",
            "blogLinks": [
                "http://www.bigbearvacations.com/experience/things-to-do",
                "http://www.travbuddy.com/California-travel-guide-p85"
            ],
            "closest_to": "big bear lake",
            "latitude": "33.6170092",
            "address": "Newport Beach, Orange County, California, United States of America",
            "locType": "city"
        },
        "miwok village": {
            "longitude": "-120.9547149",
            "blogLinks": [
                "https://www.berkeleyparentsnetwork.org/recommend/places/snow"
            ],
            "closest_to": "big bear lake",
            "latitude": "38.2327992",
            "address": "Miwok Drive, Camanche Village, Amador County, California, United States of America",
            "locType": "unclassified"
        },
        "lake barkley": {
            "longitude": "-118.1523047",
            "blogLinks": [
                "http://parks.ky.gov/parks/resortparks/lake-barkley/"
            ],
            "closest_to": "big bear lake",
            "latitude": "34.1044335",
            "address": "The Barkley, Fremont Avenue, South Pasadena, Los Angeles County, California, 91030, United States of America",
            "locType": "restaurant"
        },
        "pacific crest trail": {
            "longitude": "-120.6375709",
            "blogLinks": [
                "http://www.tripleblaze.com/best/?c=8"
            ],
            "closest_to": "big bear lake",
            "latitude": "38.69418",
            "address": "Pacific Crest Trail, Pleasant Valley, El Dorado County, California, 95667, United States of America",
            "locType": "residential"
        },
        "big bear snow play": {
            "longitude": "-116.86709685",
            "blogLinks": [
                "http://gocalifornia.about.com/od/cabigbear/a/big-bear.htm"
            ],
            "closest_to": "big bear lake",
            "latitude": "34.25837955",
            "address": "Big Bear Snow Play, Big Bear Lake, San Bernardino County, California, 92314, United States of America",
            "locType": "winter_sports"
        },
        "sorensens resort": {
            "longitude": "-119.903275839607",
            "blogLinks": [
                "https://www.berkeleyparentsnetwork.org/recommend/places/snow"
            ],
            "closest_to": "big bear lake",
            "latitude": "38.77454005",
            "address": "Sorensen's Resort, CA 88; CA 89, Sorensens, Alpine County, California, United States of America",
            "locType": "chalet"
        },
        "east boat ramp": {
            "longitude": "-122.3984157",
            "blogLinks": [
                "http://www.bigbearvacations.com/experience/things-to-do"
            ],
            "closest_to": "berkeley",
            "latitude": "40.593972",
            "address": "Boat ramp, Sacramento River Trail, Redding, Shasta County, California, 96001, United States of America",
            "locType": "slipway"
        },
        "south lake tahoe": {
            "longitude": "-119.987846390157",
            "blogLinks": [
                "https://www.berkeleyparentsnetwork.org/recommend/places/snow",
                "http://www.travbuddy.com/California-travel-guide-p85"
            ],
            "closest_to": "big bear lake",
            "latitude": "38.929125",
            "address": "South Lake Tahoe, El Dorado County, California, United States of America",
            "locType": "city"
        },
        "bear valley": {
            "longitude": "-120.1193488",
            "blogLinks": [
                "https://www.berkeleyparentsnetwork.org/recommend/places/snow"
            ],
            "closest_to": "big bear lake",
            "latitude": "37.5688237",
            "address": "Bear Valley, Mariposa County, California, United States of America",
            "locType": "hamlet"
        },
        "strawberry inn": {
            "longitude": "-120.0043117",
            "blogLinks": [
                "https://www.berkeleyparentsnetwork.org/recommend/places/snow"
            ],
            "closest_to": "big bear lake",
            "latitude": "38.1997305",
            "address": "Strawberry Inn, 31880, Sonora Pass Highway, Strawberry, Tuolumne County, California, 95375, United States of America",
            "locType": "bar"
        },
        "east bay": {
            "longitude": "-121.0270079",
            "blogLinks": [
                "https://www.berkeleyparentsnetwork.org/recommend/places/snow"
            ],
            "closest_to": "big bear lake",
            "latitude": "38.156964",
            "address": "East Bay, San Joaquin County, California, United States of America",
            "locType": "track"
        },
        "chilnualna falls": {
            "longitude": "-119.633114",
            "blogLinks": [
                "http://www.tripleblaze.com/best/?c=8"
            ],
            "closest_to": "big bear lake",
            "latitude": "37.5486657",
            "address": "North Chilnualna Falls Road, North Wawona, Mariposa County, California, 95389, United States of America",
            "locType": "residential"
        },
        "utah": {
            "longitude": "-118.6125359",
            "blogLinks": [
                "http://www.10best.com/interests/travel-features/road-trip-10-must-see-spots-from-salt-lake-city-to-san-diego/"
            ],
            "closest_to": "big bear lake",
            "latitude": "37.413408",
            "address": "Utah, Rovana, Inyo County, California, United States of America",
            "locType": "residential"
        },
        "aliso creek": {
            "longitude": "-117.7034805",
            "blogLinks": [
                "http://www.tripleblaze.com/best/?c=8"
            ],
            "closest_to": "big bear lake",
            "latitude": "33.602558",
            "address": "Aliso Creek, Laguna Woods, Orange County, California, United States of America",
            "locType": "stream"
        },
        "creek": {
            "longitude": "-123.0482197",
            "blogLinks": [
                "http://www.tripleblaze.com/best/?c=8"
            ],
            "closest_to": "berkeley",
            "latitude": "39.3751013",
            "address": "Creek, Mendocino County, California, United States of America",
            "locType": "stream"
        },
        "california-nevada": {
            "longitude": "-115.144667930325",
            "blogLinks": [
                "http://www.travbuddy.com/California-travel-guide-p85"
            ],
            "closest_to": "big bear lake",
            "latitude": "36.17310935",
            "address": "California Hotel, Sky Walk(Connection from Main Street to California, Cultural Corridor, Vegas Heights, Las Vegas, Clark County, Nevada, 89101, United States of America",
            "locType": "hotel"
        },
        "big bear": {
            "longitude": "-116.932209587315",
            "blogLinks": [
                "http://www.bigbearvacations.com/experience/things-to-do",
                "http://www.bigbear.com/things-to-do/"
            ],
            "closest_to": "big bear lake",
            "latitude": "34.253293",
            "address": "Big Bear Lake, Lagunita Lane, Big Bear Lake, San Bernardino County, California, 92315, United States of America",
            "locType": "water"
        },
        "china island": {
            "longitude": "-120.1646242",
            "blogLinks": [
                "http://www.bigbearlake.net/about-big-bear/facts"
            ],
            "closest_to": "big bear lake",
            "latitude": "33.9182749",
            "address": "China Camp, Santa Rosa Island, California, United States of America",
            "locType": "locality"
        },
        "canada": {
            "longitude": "-117.7641381",
            "blogLinks": [
                "http://www.10best.com/interests/travel-features/road-trip-10-must-see-spots-from-salt-lake-city-to-san-diego/"
            ],
            "closest_to": "big bear lake",
            "latitude": "33.7298842",
            "address": "La Canada, Lower Peters Canyon, Irvine, Orange County, California, 92602, United States of America",
            "locType": "residential"
        },
        "berkeley marina": {
            "longitude": "-122.3130527",
            "blogLinks": [
                "https://blog.admissions.berkeley.edu/blog/page/22/"
            ],
            "closest_to": "berkeley",
            "latitude": "37.8678664",
            "address": "Berkeley Marina, Berkeley, Alameda County, California, 94710, United States of America",
            "locType": "neighbourhood"
        },
        "america": {
            "longitude": "-119.8948706",
            "blogLinks": [
                "http://www.travbuddy.com/California-travel-guide-p85"
            ],
            "closest_to": "big bear lake",
            "latitude": "36.2573198",
            "address": "America, Kings County, California, 93246, United States of America",
            "locType": "residential"
        },
        "san simeon": {
            "longitude": "-121.1907532",
            "blogLinks": [
                "http://www.travbuddy.com/California-travel-guide-p85"
            ],
            "closest_to": "big bear lake",
            "latitude": "35.6438587",
            "address": "San Simeon, San Luis Obispo County, California, United States of America",
            "locType": "hamlet"
        },
        "lake tahoe": {
            "longitude": "-120.050511752934",
            "blogLinks": [
                "https://www.berkeleyparentsnetwork.org/recommend/places/snow",
                "http://www.travbuddy.com/California-travel-guide-p85"
            ],
            "closest_to": "big bear lake",
            "latitude": "39.0888982",
            "address": "Lake Tahoe, Placer County, California, United States of America",
            "locType": "water"
        },
        "virgin river": {
            "longitude": "-123.3510334",
            "blogLinks": [
                "http://www.10best.com/interests/travel-features/road-trip-10-must-see-spots-from-salt-lake-city-to-san-diego/"
            ],
            "closest_to": "berkeley",
            "latitude": "41.0290028",
            "address": "Virgin Creek, Trinity County, California, United States of America",
            "locType": "stream"
        },
        "berkeley hills": {
            "longitude": "-122.2586308",
            "blogLinks": [
                "https://blog.admissions.berkeley.edu/blog/page/22/"
            ],
            "closest_to": "berkeley",
            "latitude": "37.8896572",
            "address": "Berkeley Hills, Berkeley, Alameda County, California, 94708, United States of America",
            "locType": "neighbourhood"
        },
        "pahvant valley": {
            "longitude": "-117.3546299",
            "blogLinks": [
                "http://www.10best.com/interests/travel-features/road-trip-10-must-see-spots-from-salt-lake-city-to-san-diego/"
            ],
            "closest_to": "big bear lake",
            "latitude": "33.207317",
            "address": "Pahvant Street, Oceanside, San Diego County, California, 92054, United States of America",
            "locType": "residential"
        },
        "silver dry lake": {
            "longitude": "-116.110943804023",
            "blogLinks": [
                "http://www.10best.com/interests/travel-features/road-trip-10-must-see-spots-from-salt-lake-city-to-san-diego/"
            ],
            "closest_to": "big bear lake",
            "latitude": "35.33791495",
            "address": "Silver Lake (Dry), Death Valley Road, San Bernardino County, California, 92309, United States of America",
            "locType": "mud"
        },
        "la": {
            "longitude": "-118.7559973",
            "blogLinks": [
                "https://www.berkeleyparentsnetwork.org/recommend/places/snow",
                "http://www.travbuddy.com/California-travel-guide-p85",
                "https://www.tripadvisor.com/Attraction_Review-g32074-d105409-Reviews-Big_Bear_Lake-Big_Bear_Region_California.html"
            ],
            "closest_to": "big bear lake",
            "latitude": "36.7014631",
            "address": "California, United States of America",
            "locType": "administrative"
        },
        "grass valley": {
            "longitude": "-121.053122977412",
            "blogLinks": [
                "https://www.berkeleyparentsnetwork.org/recommend/places/snow"
            ],
            "closest_to": "berkeley",
            "latitude": "39.2086655",
            "address": "Grass Valley, Nevada County, California, United States of America",
            "locType": "city"
        },
        "santa barbara": {
            "longitude": "-119.7026672",
            "blogLinks": [
                "https://www.berkeleyparentsnetwork.org/recommend/places/snow"
            ],
            "closest_to": "big bear lake",
            "latitude": "34.4221319",
            "address": "Santa Barbara, Santa Barbara County, California, United States of America",
            "locType": "city"
        },
        "boulder bay park": {
            "longitude": "-116.949195007263",
            "blogLinks": [
                "http://www.bigbearvacations.com/experience/things-to-do",
                "https://www.tripadvisor.com/Attraction_Review-g32074-d105409-Reviews-Big_Bear_Lake-Big_Bear_Region_California.html"
            ],
            "closest_to": "big bear lake",
            "latitude": "34.23859285",
            "address": "Boulder Bay Park, Big Bear Boulevard, Big Bear Lake, San Bernardino County, California, 92315, United States of America",
            "locType": "park"
        },
        "north shore": {
            "longitude": "-117.1842077",
            "blogLinks": [
                "http://www.bigbearvacations.com/experience/things-to-do",
                "http://www.bigbearlake.net/about-big-bear/facts"
            ],
            "closest_to": "big bear lake",
            "latitude": "34.2680613",
            "address": "North Shore, San Bernardino County, California, United States of America",
            "locType": "hamlet"
        },
        "san bernardino": {
            "longitude": "-117.2897651",
            "blogLinks": [
                "http://gocalifornia.about.com/od/cabigbear/a/big-bear.htm",
                "http://www.10best.com/interests/travel-features/road-trip-10-must-see-spots-from-salt-lake-city-to-san-diego/",
                "http://www.bigbearlake.net/about-big-bear/facts",
                "https://www.expedia.com/Big-Bear-Lake-Hotels.d6919.Travel-Guide-Hotels",
                "http://www.bigbearlake.net/summer/photos-of-the-lake"
            ],
            "closest_to": "big bear lake",
            "latitude": "34.1083449",
            "address": "San Bernardino, San Bernardino County, California, United States of America",
            "locType": "city"
        },
        "big bear city": {
            "longitude": "-116.848597753191",
            "blogLinks": [
                "http://www.bigbearlake.net/about-big-bear/facts"
            ],
            "closest_to": "big bear lake",
            "latitude": "34.267886",
            "address": "Big Bear City, Anita Avenue, Big Bear City, San Bernardino County, California, 92314, United States of America",
            "locType": "administrative"
        },
        "lake": {
            "longitude": "-122.7776555",
            "blogLinks": [
                "http://gocalifornia.about.com/od/cabigbear/a/big-bear.htm",
                "http://www.bigbearlake.net/about-big-bear/facts"
            ],
            "closest_to": "berkeley",
            "latitude": "39.0505411",
            "address": "Lake County, California, United States of America",
            "locType": "administrative"
        },
        "strawberry": {
            "longitude": "-120.1451873",
            "blogLinks": [
                "https://www.berkeleyparentsnetwork.org/recommend/places/snow"
            ],
            "closest_to": "big bear lake",
            "latitude": "38.7968521",
            "address": "Strawberry, El Dorado County, California, United States of America",
            "locType": "hamlet"
        },
        "mt shasta ski park": {
            "longitude": "-122.2034395",
            "blogLinks": [
                "https://www.berkeleyparentsnetwork.org/recommend/places/snow"
            ],
            "closest_to": "berkeley",
            "latitude": "41.3214093",
            "address": "Mt. Shasta Ski Park, Ski Park Highway, Signal Butte, Siskiyou County, California, United States of America",
            "locType": "sports_centre"
        },
        "bellagio": {
            "longitude": "-117.7012358",
            "blogLinks": [
                "http://www.10best.com/interests/travel-features/road-trip-10-must-see-spots-from-salt-lake-city-to-san-diego/"
            ],
            "closest_to": "big bear lake",
            "latitude": "33.5203333",
            "address": "Bellagio, Laguna Niguel, Orange County, California, 92677, United States of America",
            "locType": "residential"
        },
        "marina": {
            "longitude": "-121.800639730262",
            "blogLinks": [
                "https://blog.admissions.berkeley.edu/blog/page/22/"
            ],
            "closest_to": "big bear lake",
            "latitude": "36.6900785",
            "address": "Marina, Monterey County, California, United States of America",
            "locType": "city"
        },
        "disneyland": {
            "longitude": "-117.91971186569",
            "blogLinks": [
                "http://www.travbuddy.com/California-travel-guide-p85"
            ],
            "closest_to": "big bear lake",
            "latitude": "33.8136367",
            "address": "DL, 1313, South Harbor Boulevard, Anaheim Resort District, Anaheim, Orange County, California, 92805, United States of America",
            "locType": "theme_park"
        },
        "san diego": {
            "longitude": "-117.1627713",
            "blogLinks": [
                "http://www.10best.com/interests/travel-features/road-trip-10-must-see-spots-from-salt-lake-city-to-san-diego/",
                "http://www.tripleblaze.com/best/?c=8",
                "https://www.berkeleyparentsnetwork.org/recommend/places/snow",
                "http://www.travbuddy.com/California-travel-guide-p85",
                "http://gocalifornia.about.com/od/caplaceslist/"
            ],
            "closest_to": "big bear lake",
            "latitude": "32.7174209",
            "address": "San Diego, San Diego County, California, United States of America",
            "locType": "city"
        },
        "los angeles county": {
            "longitude": "-118.2096813",
            "blogLinks": [
                "http://www.travbuddy.com/California-travel-guide-p85"
            ],
            "closest_to": "big bear lake",
            "latitude": "34.3155072",
            "address": "Los Angeles County, California, United States of America",
            "locType": "administrative"
        },
        "golden gate park": {
            "longitude": "-122.482183611177",
            "blogLinks": [
                "https://blog.admissions.berkeley.edu/blog/page/22/"
            ],
            "closest_to": "berkeley",
            "latitude": "37.7693681",
            "address": "Golden Gate Park, Overlook Drive, Richmond District, SF, California, 94122, United States of America",
            "locType": "park"
        },
        "stanfield cutoff": {
            "longitude": "-116.8845335",
            "blogLinks": [
                "http://www.bigbearvacations.com/experience/things-to-do"
            ],
            "closest_to": "big bear lake",
            "latitude": "34.2601412",
            "address": "Stanfield Cutoff, Minnelusa, San Bernardino County, California, 92314, United States of America",
            "locType": "tertiary"
        },
        "muddy river": {
            "longitude": "-119.2417891",
            "blogLinks": [
                "http://www.10best.com/interests/travel-features/road-trip-10-must-see-spots-from-salt-lake-city-to-san-diego/"
            ],
            "closest_to": "big bear lake",
            "latitude": "35.016524",
            "address": "Muddy Creek, Kern County, California, United States of America",
            "locType": "stream"
        },
        "orange county": {
            "longitude": "-117.870493",
            "blogLinks": [
                "http://www.travbuddy.com/California-travel-guide-p85"
            ],
            "closest_to": "big bear lake",
            "latitude": "33.7500378",
            "address": "Orange County, California, United States of America",
            "locType": "administrative"
        },
        "college avenue": {
            "longitude": "-118.411823",
            "blogLinks": [
                "https://blog.admissions.berkeley.edu/blog/page/22/"
            ],
            "closest_to": "big bear lake",
            "latitude": "34.0158908",
            "address": "College Avenue, Palms, LA, Los Angeles County, California, 90232, United States of America",
            "locType": "residential"
        },
        "long beach": {
            "longitude": "-118.158049215311",
            "blogLinks": [
                "http://www.travbuddy.com/California-travel-guide-p85"
            ],
            "closest_to": "big bear lake",
            "latitude": "33.78538945",
            "address": "Long Beach, Los Angeles County, California, United States of America",
            "locType": "city"
        },
        "eaton canyon park": {
            "longitude": "-118.095556461784",
            "blogLinks": [
                "http://www.tripleblaze.com/best/?c=8"
            ],
            "closest_to": "big bear lake",
            "latitude": "34.18216575",
            "address": "Eaton Canyon Park, Canyon View Lane, Pasadena, Los Angeles County, California, 91107, United States of America",
            "locType": "park"
        },
        "santa cruz": {
            "longitude": "-122.0260569",
            "blogLinks": [
                "http://www.travbuddy.com/California-travel-guide-p85"
            ],
            "closest_to": "big bear lake",
            "latitude": "36.9735903",
            "address": "Santa Cruz, Santa Cruz County, California, United States of America",
            "locType": "city"
        },
        "pacific": {
            "longitude": "-120.507146",
            "blogLinks": [
                "http://www.travbuddy.com/California-travel-guide-p85"
            ],
            "closest_to": "big bear lake",
            "latitude": "38.7601815",
            "address": "Pacific, El Dorado County, California, United States of America",
            "locType": "hamlet"
        },
        "wolf creek resort": {
            "longitude": "-117.916002460128",
            "blogLinks": [
                "https://www.expedia.com/Big-Bear-Lake-Hotels.d6919.Travel-Guide-Hotels"
            ],
            "closest_to": "big bear lake",
            "latitude": "33.7789302",
            "address": "Great Wolf Lodge, Harbor Boulevard, Garden Grove, Orange County, California, 92840, United States of America",
            "locType": "hotel"
        },
        "logan": {
            "longitude": "-121.6316117",
            "blogLinks": [
                "https://blog.admissions.berkeley.edu/blog/page/22/"
            ],
            "closest_to": "big bear lake",
            "latitude": "36.9068972",
            "address": "Logan, San Benito County, California, United States of America",
            "locType": "hamlet"
        },
        "united states": {
            "longitude": "-118.7559973",
            "blogLinks": [
                "http://www.10best.com/interests/travel-features/road-trip-10-must-see-spots-from-salt-lake-city-to-san-diego/",
                "http://www.tripleblaze.com/best/?c=8",
                "https://www.tripadvisor.com/Attraction_Review-g32074-d105409-Reviews-Big_Bear_Lake-Big_Bear_Region_California.html"
            ],
            "closest_to": "big bear lake",
            "latitude": "36.7014631",
            "address": "California, United States of America",
            "locType": "administrative"
        },
        "mallard bay": {
            "longitude": "-117.0563279",
            "blogLinks": [
                "https://www.expedia.com/Big-Bear-Lake-Hotels.d6919.Travel-Guide-Hotels"
            ],
            "closest_to": "big bear lake",
            "latitude": "32.729572",
            "address": "Mallard Street, Encanto, San Diego, San Diego County, California, 92114, United States of America",
            "locType": "residential"
        },
        "bay area": {
            "longitude": "-122.3558472",
            "blogLinks": [
                "https://blog.admissions.berkeley.edu/blog/page/22/",
                "https://www.berkeleyparentsnetwork.org/recommend/places/snow"
            ],
            "closest_to": "berkeley",
            "latitude": "37.7884969",
            "address": "San Francisco Bay Area, SF, California, United States of America",
            "locType": "region"
        },
        "big bear lake": {
            "longitude": "-116.932209587315",
            "blogLinks": [
                "http://www.bigbearvacations.com/experience/things-to-do",
                "https://www.tripadvisor.com/Attraction_Review-g32074-d105409-Reviews-Big_Bear_Lake-Big_Bear_Region_California.html",
                "https://www.yelp.com/biz/destination-big-bear-big-bear-lake",
                "http://www.bigbearlake.net/summer/photos-of-the-lake",
                "https://www.expedia.com/Big-Bear-Lake-Hotels.d6919.Travel-Guide-Hotels",
                "http://gocalifornia.about.com/od/cabigbear/a/big-bear.htm",
                "http://www.bigbearlake.net/about-big-bear/facts",
                "http://www.travbuddy.com/California-travel-guide-p85",
                "http://www.bigbear.com/things-to-do/"
            ],
            "closest_to": "big bear lake",
            "latitude": "34.253293",
            "address": "Big Bear Lake, Lagunita Lane, Big Bear Lake, San Bernardino County, California, 92315, United States of America",
            "locType": "water"
        },
        "luckie park": {
            "longitude": "-116.0380661",
            "blogLinks": [
                "https://www.expedia.com/Big-Bear-Lake-Hotels.d6919.Travel-Guide-Hotels"
            ],
            "closest_to": "big bear lake",
            "latitude": "35.1485944",
            "address": "Luckie Park, Mojave Road, San Bernardino County, California, United States of America",
            "locType": "park"
        },
        "san bernardino national forest": {
            "longitude": "-116.968502795539",
            "blogLinks": [
                "http://www.bigbearlake.net/about-big-bear/facts"
            ],
            "closest_to": "big bear lake",
            "latitude": "34.18055525",
            "address": "San Bernardino National Forest, Clark's Grade, Pinezanita, San Bernardino County, California, 92305, United States of America",
            "locType": "national_park"
        },
        "malibu": {
            "longitude": "-116.5023561",
            "blogLinks": [
                "http://www.tripleblaze.com/best/?c=8",
                "http://www.travbuddy.com/California-travel-guide-p85"
            ],
            "closest_to": "big bear lake",
            "latitude": "33.7932142",
            "address": "Malibu, Palm Springs, Riverside County, California, 92264, United States of America",
            "locType": "residential"
        },
        "oakland": {
            "longitude": "-122.2713562",
            "blogLinks": [
                "https://blog.admissions.berkeley.edu/blog/page/22/",
                "https://www.berkeleyparentsnetwork.org/recommend/places/snow"
            ],
            "closest_to": "big bear lake",
            "latitude": "37.8044557",
            "address": "Oakland, Alameda County, California, United States of America",
            "locType": "city"
        },
        "inland center mall": {
            "longitude": "-117.297473820788",
            "blogLinks": [
                "https://www.expedia.com/Big-Bear-Lake-Hotels.d6919.Travel-Guide-Hotels"
            ],
            "closest_to": "big bear lake",
            "latitude": "34.08506055",
            "address": "Inland Center, West Central Avenue, Inland Center, San Bernardino, San Bernardino County, California, 92408, United States of America",
            "locType": "mall"
        },
        "eureka": {
            "longitude": "-124.1636728",
            "blogLinks": [
                "http://www.travbuddy.com/California-travel-guide-p85"
            ],
            "closest_to": "berkeley",
            "latitude": "40.8020712",
            "address": "Eureka, Humboldt County, California, United States of America",
            "locType": "city"
        },
        "san francisco bay area": {
            "longitude": "-122.3558472",
            "blogLinks": [
                "http://www.bigbearlake.net/summer/photos-of-the-lake"
            ],
            "closest_to": "berkeley",
            "latitude": "37.7884969",
            "address": "San Francisco Bay Area, SF, California, United States of America",
            "locType": "region"
        },
        "chicago": {
            "longitude": "-122.2872948",
            "blogLinks": [
                "https://blog.admissions.berkeley.edu/blog/page/22/"
            ],
            "closest_to": "big bear lake",
            "latitude": "37.7850531",
            "address": "Chicago, Woodstock, Alameda, Alameda County, California, 94501, United States of America",
            "locType": "residential"
        },
        "monterey bay": {
            "longitude": "-121.9010667",
            "blogLinks": [
                "http://www.travbuddy.com/California-travel-guide-p85"
            ],
            "closest_to": "big bear lake",
            "latitude": "36.7999557",
            "address": "Monterey Bay, Monterey County, California, United States of America",
            "locType": "bay"
        },
        "mentone": {
            "longitude": "-117.109606374724",
            "blogLinks": [
                "http://www.bigbearlake.net/about-big-bear/facts"
            ],
            "closest_to": "big bear lake",
            "latitude": "34.05884",
            "address": "Mentone, Reservoir Canal Road, Crafton, San Bernardino County, California, 92374, United States of America",
            "locType": "administrative"
        },
        "beverly hills": {
            "longitude": "-118.4003562",
            "blogLinks": [
                "http://www.bigbearlake.net/about-big-bear/facts",
                "http://www.travbuddy.com/California-travel-guide-p85"
            ],
            "closest_to": "big bear lake",
            "latitude": "34.0736204",
            "address": "Beverly Hills, Los Angeles County, California, United States of America",
            "locType": "city"
        },
        "mohave county": {
            "longitude": "-114.0512969",
            "blogLinks": [
                "http://www.10best.com/interests/travel-features/road-trip-10-must-see-spots-from-salt-lake-city-to-san-diego/"
            ],
            "closest_to": "big bear lake",
            "latitude": "35.1781607",
            "address": "California Avenue, Kingman, Mohave County, Arizona, 86401, United States of America",
            "locType": "track"
        },
        "san luis obispo county": {
            "longitude": "-120.3757162",
            "blogLinks": [
                "http://www.travbuddy.com/California-travel-guide-p85"
            ],
            "closest_to": "big bear lake",
            "latitude": "35.3540209",
            "address": "San Luis Obispo County, California, United States of America",
            "locType": "administrative"
        },
        "pacific coast highway": {
            "longitude": "-118.0051687",
            "blogLinks": [
                "http://www.travbuddy.com/California-travel-guide-p85"
            ],
            "closest_to": "big bear lake",
            "latitude": "33.6595127",
            "address": "Pacific Coast Highway, Huntington Beach, Orange County, California, 92648, United States of America",
            "locType": "primary"
        },
        "truckee": {
            "longitude": "-120.1832532",
            "blogLinks": [
                "https://www.berkeleyparentsnetwork.org/recommend/places/snow"
            ],
            "closest_to": "berkeley",
            "latitude": "39.327962",
            "address": "Truckee, Nevada County, California, United States of America",
            "locType": "administrative"
        },
        "karina": {
            "longitude": "-121.9193821",
            "blogLinks": [
                "https://www.yelp.com/biz/destination-big-bear-big-bear-lake"
            ],
            "closest_to": "big bear lake",
            "latitude": "37.3747565",
            "address": "Karina Court (Southbound), North 1st Street, Japantown, San Jos\u00e9, Santa Clara County, California, 95131, United States of America",
            "locType": "tram_stop"
        },
        "moonridge": {
            "longitude": "-116.8555852",
            "blogLinks": [
                "http://gocalifornia.about.com/od/cabigbear/a/big-bear.htm",
                "http://www.bigbearlake.net/about-big-bear/facts"
            ],
            "closest_to": "big bear lake",
            "latitude": "34.2352857",
            "address": "Moonridge, San Bernardino County, California, United States of America",
            "locType": "hamlet"
        },
        "elmwood": {
            "longitude": "-122.2538686",
            "blogLinks": [
                "https://blog.admissions.berkeley.edu/blog/page/22/"
            ],
            "closest_to": "big bear lake",
            "latitude": "37.8577846",
            "address": "Elmwood, Berkeley, Alameda County, California, 94705, United States of America",
            "locType": "neighbourhood"
        },
        "bear lake": {
            "longitude": "-116.8849329",
            "blogLinks": [
                "http://www.bearlake.org/"
            ],
            "closest_to": "big bear lake",
            "latitude": "32.852283",
            "address": "Bear Lake, Riverview, Johnstown, San Diego County, California, 92021, United States of America",
            "locType": "residential"
        },
        "berkeley": {
            "longitude": "-122.2728638",
            "blogLinks": [
                "https://blog.admissions.berkeley.edu/blog/page/22/",
                "http://www.bigbear.com/things-to-do/",
                "https://www.berkeleyparentsnetwork.org/recommend/places/snow"
            ],
            "closest_to": "berkeley",
            "latitude": "37.8708393",
            "address": "Berkeley, Alameda County, California, United States of America",
            "locType": "city"
        },
        "mall of victor valley": {
            "longitude": "-117.347349",
            "blogLinks": [
                "https://www.expedia.com/Big-Bear-Lake-Hotels.d6919.Travel-Guide-Hotels"
            ],
            "closest_to": "big bear lake",
            "latitude": "34.4736697",
            "address": "The Mall of Victor Valley, Amargosa Road, Victorville, San Bernardino County, California, 92392, United States of America",
            "locType": "mall"
        },
        "donner summit": {
            "longitude": "-120.340052293184",
            "blogLinks": [
                "https://www.berkeleyparentsnetwork.org/recommend/places/snow"
            ],
            "closest_to": "berkeley",
            "latitude": "39.3411683",
            "address": "Donner Summit Rest Area, Donner, Nevada County, California, 95724, United States of America",
            "locType": "rest_area"
        },
        "barstow": {
            "longitude": "-117.0172076",
            "blogLinks": [
                "http://www.travbuddy.com/California-travel-guide-p85"
            ],
            "closest_to": "big bear lake",
            "latitude": "34.8957684",
            "address": "Barstow, San Bernardino County, California, United States of America",
            "locType": "administrative"
        },
        "arizona": {
            "longitude": "-117.5060679",
            "blogLinks": [
                "http://www.10best.com/interests/travel-features/road-trip-10-must-see-spots-from-salt-lake-city-to-san-diego/"
            ],
            "closest_to": "big bear lake",
            "latitude": "34.4631398",
            "address": "Arizona, San Bernardino County, California, 92371, United States of America",
            "locType": "track"
        },
        "stateline": {
            "longitude": "-119.9437918",
            "blogLinks": [
                "https://www.berkeleyparentsnetwork.org/recommend/places/snow"
            ],
            "closest_to": "big bear lake",
            "latitude": "38.9582412",
            "address": "Stateline, El Dorado County, California, United States of America",
            "locType": "hamlet"
        },
        "us": {
            "longitude": "-118.7559973",
            "blogLinks": [
                "https://www.expedia.com/Big-Bear-Lake-Hotels.d6919.Travel-Guide-Hotels",
                "http://www.travbuddy.com/California-travel-guide-p85"
            ],
            "closest_to": "big bear lake",
            "latitude": "36.7014631",
            "address": "California, United States of America",
            "locType": "administrative"
        },
        "palm springs": {
            "longitude": "-116.5403029",
            "blogLinks": [
                "http://gocalifornia.about.com/od/cabigbear/a/big-bear.htm"
            ],
            "closest_to": "big bear lake",
            "latitude": "33.8246269",
            "address": "Palm Springs, Riverside County, California, United States of America",
            "locType": "city"
        },
        "downtown berkeley": {
            "longitude": "-122.268136079248",
            "blogLinks": [
                "https://blog.admissions.berkeley.edu/blog/page/22/"
            ],
            "closest_to": "big bear lake",
            "latitude": "37.87010225",
            "address": "Downtown Berkeley, Constitution Plaza, Downtown Berkeley, Berkeley, Alameda County, California, 94704, United States of America",
            "locType": "station"
        },
        "mojave desert": {
            "longitude": "-115.548963686646",
            "blogLinks": [
                "http://www.10best.com/interests/travel-features/road-trip-10-must-see-spots-from-salt-lake-city-to-san-diego/"
            ],
            "closest_to": "big bear lake",
            "latitude": "35.1456319",
            "address": "Mojave Desert, Utility Road, San Bernardino County, California, United States of America",
            "locType": "desert"
        },
        "whittier hills whittier": {
            "longitude": "-117.993545449378",
            "blogLinks": [
                "http://www.tripleblaze.com/best/?c=8"
            ],
            "closest_to": "big bear lake",
            "latitude": "33.9397495",
            "address": "Whittwood Branch Whittier Public Library, Starbuck Street, Friendly Hills, Whittier, Los Angeles County, California, 90603, United States of America",
            "locType": "library"
        },
        "lucerne": {
            "longitude": "-122.7963805",
            "blogLinks": [
                "http://www.bigbearlake.net/about-big-bear/facts"
            ],
            "closest_to": "berkeley",
            "latitude": "39.0901709",
            "address": "Lucerne, Lake County, California, United States of America",
            "locType": "hamlet"
        },
        "mesquite": {
            "longitude": "-117.7869123",
            "blogLinks": [
                "http://www.10best.com/interests/travel-features/road-trip-10-must-see-spots-from-salt-lake-city-to-san-diego/"
            ],
            "closest_to": "big bear lake",
            "latitude": "33.664919",
            "address": "Mesquite, Montilla Condominiums, Woodbridge, Irvine, Orange County, California, 92604, United States of America",
            "locType": "residential"
        },
        "veterans memorial highway": {
            "longitude": "-114.8493202",
            "blogLinks": [
                "http://www.10best.com/interests/travel-features/road-trip-10-must-see-spots-from-salt-lake-city-to-san-diego/"
            ],
            "closest_to": "big bear lake",
            "latitude": "35.1758907",
            "address": "Veterans Memorial Highway, San Bernardino County, California, United States of America",
            "locType": "trunk"
        },
        "sierras": {
            "longitude": "-120.612206560096",
            "blogLinks": [
                "https://www.berkeleyparentsnetwork.org/recommend/places/snow"
            ],
            "closest_to": "big bear lake",
            "latitude": "37.39153875",
            "address": "The Sierras Apartments, Winton, Merced County, California, 95388, United States of America",
            "locType": "residential"
        },
        "uc berkeley": {
            "longitude": "-122.238859169444",
            "blogLinks": [
                "https://blog.admissions.berkeley.edu/blog/page/22/"
            ],
            "closest_to": "big bear lake",
            "latitude": "37.87631055",
            "address": "UC Berkeley, Centennial Drive, Oakland, Alameda County, California, 94720, United States of America",
            "locType": "university"
        },
        "west boat ramp": {
            "longitude": "-122.3984157",
            "blogLinks": [
                "http://www.bigbearvacations.com/experience/things-to-do"
            ],
            "closest_to": "berkeley",
            "latitude": "40.593972",
            "address": "Boat ramp, Sacramento River Trail, Redding, Shasta County, California, 96001, United States of America",
            "locType": "slipway"
        },
        "hollywood": {
            "longitude": "-118.3299898",
            "blogLinks": [
                "http://www.travbuddy.com/California-travel-guide-p85"
            ],
            "closest_to": "big bear lake",
            "latitude": "34.1028268",
            "address": "Hollywood, LA, Los Angeles County, California, United States of America",
            "locType": "suburb"
        },
        "burbank": {
            "longitude": "-118.3258553",
            "blogLinks": [
                "http://www.travbuddy.com/California-travel-guide-p85"
            ],
            "closest_to": "big bear lake",
            "latitude": "34.1816482",
            "address": "Burbank, Los Angeles County, California, United States of America",
            "locType": "city"
        },
        "running springs": {
            "longitude": "-117.124877511921",
            "blogLinks": [
                "http://www.bigbearlake.net/about-big-bear/facts"
            ],
            "closest_to": "big bear lake",
            "latitude": "34.2124412",
            "address": "Running Springs, Mountain Oak Drive, Fredalba, San Bernardino County, California, 92314, United States of America",
            "locType": "administrative"
        },
        "vegas": {
            "longitude": "-115.144667930325",
            "blogLinks": [
                "http://www.10best.com/interests/travel-features/road-trip-10-must-see-spots-from-salt-lake-city-to-san-diego/"
            ],
            "closest_to": "big bear lake",
            "latitude": "36.17310935",
            "address": "California Hotel, Sky Walk(Connection from Main Street to California, Cultural Corridor, Vegas Heights, Las Vegas, Clark County, Nevada, 89101, United States of America",
            "locType": "hotel"
        },
        "victorville": {
            "longitude": "-117.2911564",
            "blogLinks": [
                "https://www.expedia.com/Big-Bear-Lake-Hotels.d6919.Travel-Guide-Hotels"
            ],
            "closest_to": "big bear lake",
            "latitude": "34.5361067",
            "address": "Victorville, San Bernardino County, California, United States of America",
            "locType": "city"
        },
        "redlands": {
            "longitude": "-117.248983896912",
            "blogLinks": [
                "https://www.berkeleyparentsnetwork.org/recommend/places/snow",
                "http://www.bigbearlake.net/about-big-bear/facts",
                "http://www.visitmammoth.com/landing/no-small-adventure/"
            ],
            "closest_to": "big bear lake",
            "latitude": "34.069909",
            "address": "Redlands, San Bernardino County, California, United States of America",
            "locType": "city"
        },
        "halloran springs": {
            "longitude": "-115.890563",
            "blogLinks": [
                "http://www.10best.com/interests/travel-features/road-trip-10-must-see-spots-from-salt-lake-city-to-san-diego/"
            ],
            "closest_to": "big bear lake",
            "latitude": "35.372481",
            "address": "Halloran Springs, San Bernardino County, California, United States of America",
            "locType": "hamlet"
        },
        "tahoe": {
            "longitude": "-117.8193574",
            "blogLinks": [
                "https://www.berkeleyparentsnetwork.org/recommend/places/snow"
            ],
            "closest_to": "big bear lake",
            "latitude": "33.659221",
            "address": "Tahoe, Turtle Rock, Irvine, Orange County, California, 92612, United States of America",
            "locType": "residential"
        },
        "san bernardino county": {
            "longitude": "-116.0833143",
            "blogLinks": [
                "http://www.10best.com/interests/travel-features/road-trip-10-must-see-spots-from-salt-lake-city-to-san-diego/"
            ],
            "closest_to": "big bear lake",
            "latitude": "34.8253019",
            "address": "San Bernardino County, California, United States of America",
            "locType": "administrative"
        },
        "hanna flat campground": {
            "longitude": "-116.974572815296",
            "blogLinks": [
                "http://www.bigbearlake.net/about-big-bear/facts"
            ],
            "closest_to": "big bear lake",
            "latitude": "34.28743915",
            "address": "Hanna Flat Campground, Hanna Flat Trail, Fawnskin, San Bernardino County, California, 92333, United States of America",
            "locType": "camp_site"
        },
        "emerald bay": {
            "longitude": "-120.0979629",
            "blogLinks": [
                "https://www.berkeleyparentsnetwork.org/recommend/places/snow"
            ],
            "closest_to": "big bear lake",
            "latitude": "38.9599078",
            "address": "Emerald Bay, El Dorado County, California, United States of America",
            "locType": "hamlet"
        },
        "las angeles": {
            "longitude": "-118.0668337",
            "blogLinks": [
                "http://www.travbuddy.com/California-travel-guide-p85"
            ],
            "closest_to": "big bear lake",
            "latitude": "33.9995929",
            "address": "California, Obregon Street, West Whittier, Rosemead, Los Angeles County, California, 90606, United States of America",
            "locType": "abandoned"
        },
        "palo alto": {
            "longitude": "-122.1634471",
            "blogLinks": [
                "http://gocalifornia.about.com/od/caplaceslist/"
            ],
            "closest_to": "big bear lake",
            "latitude": "37.442156",
            "address": "Palo Alto, Santa Clara County, California, United States of America",
            "locType": "city"
        },
        "arnold": {
            "longitude": "-123.393623",
            "blogLinks": [
                "https://www.berkeleyparentsnetwork.org/recommend/places/snow"
            ],
            "closest_to": "berkeley",
            "latitude": "39.518771",
            "address": "Arnold, Mendocino County, California, United States of America",
            "locType": "hamlet"
        },
        "el dorado county": {
            "longitude": "-120.5276128",
            "blogLinks": [
                "http://www.travbuddy.com/California-travel-guide-p85"
            ],
            "closest_to": "big bear lake",
            "latitude": "38.7574137",
            "address": "El Dorado County, California, United States of America",
            "locType": "administrative"
        },
        "san francisco": {
            "longitude": "-122.4192362",
            "blogLinks": [
                "https://blog.admissions.berkeley.edu/blog/page/22/",
                "http://www.travbuddy.com/California-travel-guide-p85"
            ],
            "closest_to": "berkeley",
            "latitude": "37.7792808",
            "address": "SF, California, United States of America",
            "locType": "city"
        },
        "southern california": {
            "longitude": "-118.286343973446",
            "blogLinks": [
                "http://www.bigbearvacations.com/experience/things-to-do",
                "http://gocalifornia.about.com/od/cabigbear/a/big-bear.htm",
                "http://www.10best.com/interests/travel-features/road-trip-10-must-see-spots-from-salt-lake-city-to-san-diego/",
                "https://www.yelp.com/biz/destination-big-bear-big-bear-lake",
                "https://www.expedia.com/Big-Bear-Lake-Hotels.d6919.Travel-Guide-Hotels"
            ],
            "closest_to": "big bear lake",
            "latitude": "34.0224149",
            "address": "University of Southern California, Watt Way, Saint James Park, LA, Los Angeles County, California, 90089, United States of America",
            "locType": "university"
        },
        "philz": {
            "longitude": "-122.4204955",
            "blogLinks": [
                "https://blog.admissions.berkeley.edu/blog/page/22/"
            ],
            "closest_to": "berkeley",
            "latitude": "37.782477",
            "address": "Philz Coffee, Van Ness Avenue, Western Addition, SF, California, 94109, United States of America",
            "locType": "cafe"
        },
        "cisco grove": {
            "longitude": "-120.5399296",
            "blogLinks": [
                "https://www.berkeleyparentsnetwork.org/recommend/places/snow"
            ],
            "closest_to": "berkeley",
            "latitude": "39.3099025",
            "address": "Cisco Grove, Placer County, California, United States of America",
            "locType": "hamlet"
        },
        "sonora": {
            "longitude": "-120.382138",
            "blogLinks": [
                "https://www.berkeleyparentsnetwork.org/recommend/places/snow"
            ],
            "closest_to": "big bear lake",
            "latitude": "37.9840911",
            "address": "Sonora, Tuolumne County, California, United States of America",
            "locType": "city"
        },
        "san francisco bay": {
            "longitude": "-122.2802469",
            "blogLinks": [
                "http://www.travbuddy.com/California-travel-guide-p85"
            ],
            "closest_to": "big bear lake",
            "latitude": "37.708264",
            "address": "San Francisco Bay, Ferry Landing, Alameda, Alameda County, California, 94502, United States of America",
            "locType": "bay"
        },
        "humboldt county": {
            "longitude": "-123.8997733",
            "blogLinks": [
                "http://www.travbuddy.com/California-travel-guide-p85"
            ],
            "closest_to": "berkeley",
            "latitude": "40.5997415",
            "address": "Humboldt County, California, United States of America",
            "locType": "administrative"
        },
        "' the virgin river": {
            "longitude": "-123.3510334",
            "blogLinks": [
                "http://www.10best.com/interests/travel-features/road-trip-10-must-see-spots-from-salt-lake-city-to-san-diego/"
            ],
            "closest_to": "berkeley",
            "latitude": "41.0290028",
            "address": "Virgin Creek, Trinity County, California, United States of America",
            "locType": "stream"
        },
        "north shore drive": {
            "longitude": "-117.5868906",
            "blogLinks": [
                "http://www.bigbearvacations.com/experience/things-to-do"
            ],
            "closest_to": "big bear lake",
            "latitude": "34.0146349",
            "address": "North Shore Drive, Ontario, San Bernardino County, California, 91761, United States of America",
            "locType": "residential"
        },
        "magic mountain": {
            "longitude": "-119.2563693",
            "blogLinks": [
                "https://www.expedia.com/Big-Bear-Lake-Hotels.d6919.Travel-Guide-Hotels"
            ],
            "closest_to": "big bear lake",
            "latitude": "34.4724515",
            "address": "Magic Mountain, Ventura County, California, United States of America",
            "locType": "peak"
        },
        "tahoe vista and tahoe city": {
            "longitude": "-120.0533208",
            "blogLinks": [
                "https://www.berkeleyparentsnetwork.org/recommend/places/snow"
            ],
            "closest_to": "big bear lake",
            "latitude": "39.242383",
            "address": "Tahoe Vista, Placer County, California, United States of America",
            "locType": "hamlet"
        },
        "provo river": {
            "longitude": "-120.206299",
            "blogLinks": [
                "http://www.10best.com/interests/travel-features/road-trip-10-must-see-spots-from-salt-lake-city-to-san-diego/"
            ],
            "closest_to": "big bear lake",
            "latitude": "38.0118678",
            "address": "Mount Provo, Tuolumne County, California, United States of America",
            "locType": "peak"
        },
        "club bombay": {
            "longitude": "-116.9117397",
            "blogLinks": [
                "http://www.bigbearlake.net/about-big-bear/facts"
            ],
            "closest_to": "big bear lake",
            "latitude": "34.2404169",
            "address": "Club Bombay, 672, Pine Knot Avenue, The Village, Big Bear Lake, San Bernardino County, California, 92315, United States of America",
            "locType": "nightclub"
        },
        "pine knot campground": {
            "longitude": "-116.8859014",
            "blogLinks": [
                "http://www.bigbearlake.net/about-big-bear/facts"
            ],
            "closest_to": "big bear lake",
            "latitude": "34.2356976",
            "address": "Pine Knot Campground, Pineknot Campground Road South, Moonridge, San Bernardino County, California, 92314, United States of America",
            "locType": "camp_site"
        },
        "sacramento": {
            "longitude": "-121.4943995",
            "blogLinks": [
                "http://www.travbuddy.com/California-travel-guide-p85"
            ],
            "closest_to": "berkeley",
            "latitude": "38.5815719",
            "address": "Sacramento, Sacramento County, California, United States of America",
            "locType": "city"
        },
        "baldwin lake": {
            "longitude": "-116.7982897",
            "blogLinks": [
                "http://www.bigbearlake.net/about-big-bear/facts"
            ],
            "closest_to": "big bear lake",
            "latitude": "34.2793278",
            "address": "Baldwin Lake, San Bernardino County, California, United States of America",
            "locType": "hamlet"
        },
        "st. george": {
            "longitude": "-122.5091229",
            "blogLinks": [
                "http://www.10best.com/interests/travel-features/road-trip-10-must-see-spots-from-salt-lake-city-to-san-diego/"
            ],
            "closest_to": "berkeley",
            "latitude": "37.946821",
            "address": "George, Sir Francis Drake Boulevard East, Larkspur, Marin County, California, 94904, United States of America",
            "locType": "yes"
        },
        "calico": {
            "longitude": "-119.206496",
            "blogLinks": [
                "http://www.travbuddy.com/California-travel-guide-p85"
            ],
            "closest_to": "big bear lake",
            "latitude": "35.6327332",
            "address": "Calico, Kern County, California, United States of America",
            "locType": "locality"
        },
        "western cedar": {
            "longitude": "-117.162483",
            "blogLinks": [
                "http://parks.ky.gov/parks/resortparks/lake-barkley/"
            ],
            "closest_to": "big bear lake",
            "latitude": "32.72181505",
            "address": "California Western School of Law, Cedar Street, Hillcrest, San Diego, San Diego County, California, 92101, United States of America",
            "locType": "university"
        },
        "yosemite national park": {
            "longitude": "-119.516587698025",
            "blogLinks": [
                "http://www.travbuddy.com/California-travel-guide-p85"
            ],
            "closest_to": "big bear lake",
            "latitude": "37.84054795",
            "address": "Yosemite National Park, Mt. Hoffmann Trail, Mariposa County, California, United States of America",
            "locType": "national_park"
        },
        "silicon valley": {
            "longitude": "-122.0597491",
            "blogLinks": [
                "http://www.travbuddy.com/California-travel-guide-p85"
            ],
            "closest_to": "big bear lake",
            "latitude": "37.4105333",
            "address": "Carnegie Mellon Silicon Valley, South Akron Road, Santa Clara County, California, 94035-0016, United States of America",
            "locType": "school"
        },
        "dorrington hotel": {
            "longitude": "-120.2793403",
            "blogLinks": [
                "https://www.berkeleyparentsnetwork.org/recommend/places/snow"
            ],
            "closest_to": "big bear lake",
            "latitude": "38.2993573",
            "address": "Dorrington Hotel, CA 4, Cottage Springs, Calaveras County, California, United States of America",
            "locType": "love_hotel"
        },
        "mammoth lakes": {
            "longitude": "-118.9668508",
            "blogLinks": [
                "http://www.visitmammoth.com/landing/no-small-adventure/"
            ],
            "closest_to": "big bear lake",
            "latitude": "37.6432525",
            "address": "Mammoth Lakes, Mono County, California, United States of America",
            "locType": "administrative"
        },
        "hesperia": {
            "longitude": "-117.3008783",
            "blogLinks": [
                "http://www.bigbearlake.net/about-big-bear/facts"
            ],
            "closest_to": "big bear lake",
            "latitude": "34.4263886",
            "address": "Hesperia, San Bernardino County, California, United States of America",
            "locType": "city"
        },
        "pasadena": {
            "longitude": "-118.1444778",
            "blogLinks": [
                "http://www.tripleblaze.com/best/?c=8"
            ],
            "closest_to": "big bear lake",
            "latitude": "34.1476452",
            "address": "Pasadena, Los Angeles County, California, United States of America",
            "locType": "city"
        },
        "lake street": {
            "longitude": "-117.461959",
            "blogLinks": [
                "https://blog.admissions.berkeley.edu/blog/page/22/"
            ],
            "closest_to": "big bear lake",
            "latitude": "33.949484",
            "address": "Lake Street, Riverside, Riverside County, California, 92503, United States of America",
            "locType": "residential"
        },
        "bear lake valley": {
            "longitude": "-120.045570283034",
            "blogLinks": [
                "http://www.bearlake.org/"
            ],
            "closest_to": "big bear lake",
            "latitude": "38.4732722",
            "address": "Bear Lake, Lake Road, Bear Valley, Alpine County, California, 95223, United States of America",
            "locType": "water"
        },
        "pacific crest": {
            "longitude": "-117.694672",
            "blogLinks": [
                "http://www.tripleblaze.com/best/?c=8"
            ],
            "closest_to": "big bear lake",
            "latitude": "33.4906116",
            "address": "Pacific Crest, Laguna Niguel, Orange County, California, 92677, United States of America",
            "locType": "residential"
        },
        "sweden": {
            "longitude": "-118.4974999",
            "blogLinks": [
                "https://www.berkeleyparentsnetwork.org/recommend/places/snow"
            ],
            "closest_to": "big bear lake",
            "latitude": "34.1997222",
            "address": "Saint Bridget of Sweden Church, Whitaker Avenue, Reseda, LA, Los Angeles County, California, 91406, United States of America",
            "locType": "place_of_worship"
        },
        "san jose": {
            "longitude": "-121.8905832",
            "blogLinks": [
                "http://www.travbuddy.com/California-travel-guide-p85"
            ],
            "closest_to": "big bear lake",
            "latitude": "37.3361905",
            "address": "San Jos\u00e9, Santa Clara County, California, United States of America",
            "locType": "city"
        },
        "arrowhead lake": {
            "longitude": "-118.41172724833",
            "blogLinks": [
                "http://www.visitmammoth.com/landing/no-small-adventure/",
                "https://www.tripadvisor.com/Attraction_Review-g32074-d105409-Reviews-Big_Bear_Lake-Big_Bear_Region_California.html"
            ],
            "closest_to": "big bear lake",
            "latitude": "36.8273793",
            "address": "Arrowhead Lake, John Muir Trail, Fresno County, California, United States of America",
            "locType": "water"
        },
        "monterey": {
            "longitude": "-121.866792846206",
            "blogLinks": [
                "http://www.travbuddy.com/California-travel-guide-p85"
            ],
            "closest_to": "big bear lake",
            "latitude": "36.5844165",
            "address": "Monterey, Monterey County, California, United States of America",
            "locType": "city"
        },
        "meadow park": {
            "longitude": "-120.659276454814",
            "blogLinks": [
                "https://www.expedia.com/Big-Bear-Lake-Hotels.d6919.Travel-Guide-Hotels"
            ],
            "closest_to": "big bear lake",
            "latitude": "35.26814845",
            "address": "Meadow Park, Woodbridge Street, San Luis Obispo, San Luis Obispo County, California, 93401, United States of America",
            "locType": "park"
        },
        "miwok": {
            "longitude": "-121.8345619",
            "blogLinks": [
                "https://www.berkeleyparentsnetwork.org/recommend/places/snow"
            ],
            "closest_to": "big bear lake",
            "latitude": "37.237687",
            "address": "Miwok Drive, Almaden, San Jos\u00e9, Santa Clara County, California, 95123, United States of America",
            "locType": "residential"
        },
        "carmel": {
            "longitude": "-121.353308848273",
            "blogLinks": [
                "http://www.travbuddy.com/California-travel-guide-p85"
            ],
            "closest_to": "berkeley",
            "latitude": "38.75511285",
            "address": "Carmel, Roseville, Placer County, California, 95747, United States of America",
            "locType": "residential"
        },
        "echo lake": {
            "longitude": "-120.0415725",
            "blogLinks": [
                "https://www.berkeleyparentsnetwork.org/recommend/places/snow"
            ],
            "closest_to": "big bear lake",
            "latitude": "38.8337963",
            "address": "Echo Lake, El Dorado County, California, United States of America",
            "locType": "hamlet"
        },
        "lassen lodge": {
            "longitude": "-121.596768349672",
            "blogLinks": [
                "https://www.yelp.com/biz/destination-big-bear-big-bear-lake"
            ],
            "closest_to": "berkeley",
            "latitude": "40.34799695",
            "address": "Lassen Mineral Lodge, 38388, CA 36, Mineral, Tehama County, California, 96063, United States of America",
            "locType": "hotel"
        },
        "little sweden": {
            "longitude": "-118.4974999",
            "blogLinks": [
                "https://www.berkeleyparentsnetwork.org/recommend/places/snow"
            ],
            "closest_to": "big bear lake",
            "latitude": "34.1997222",
            "address": "Saint Bridget of Sweden Church, Whitaker Avenue, Reseda, LA, Los Angeles County, California, 91406, United States of America",
            "locType": "place_of_worship"
        },
        "windy city": {
            "longitude": "-117.1809196",
            "blogLinks": [
                "https://blog.admissions.berkeley.edu/blog/page/22/"
            ],
            "closest_to": "big bear lake",
            "latitude": "32.8210238",
            "address": "Windy City Flowers, Balboa Avenue, San Diego, San Diego County, California, 92117, United States of America",
            "locType": "florist"
        },
        "bear mountain resort": {
            "longitude": "-117.923182382511",
            "blogLinks": [
                "http://www.bigbearlake.net/about-big-bear/facts"
            ],
            "closest_to": "big bear lake",
            "latitude": "33.8127021",
            "address": "The Many Adventures of Winnie the Pooh, West Service Road, Anaheim Resort District, Anaheim, Orange County, California, 217, United States of America",
            "locType": "attraction"
        }
    }
}