{
    "murudeshwara": {
        "lat": "14.0959549",
        "class": "place",
        "importance": 0.5,
        "osm_type": "node",
        "lon": "74.4883354",
        "place_id": "622093",
        "display_name": "Murudeshwara, Bhatkala taluk, Uttara Kannada, Karnataka, 581350, India",
        "osm_id": "245626123",
        "boundingbox": [
            "14.0559549",
            "14.1359549",
            "74.4483354",
            "74.5283354"
        ],
        "type": "town",
        "licence": "Data \u00a9 OpenStreetMap contributors, ODbL 1.0. http://www.openstreetmap.org/copyright",
        "icon": "https://nominatim.openstreetmap.org/images/mapicons/poi_place_town.p.20.png"
    },
    "bidar": {
        "lat": "18.083333",
        "class": "place",
        "importance": 0.65,
        "osm_type": "node",
        "lon": "77.333333",
        "place_id": "1400874",
        "display_name": "Bidar, Bidar district, Karnataka, India",
        "osm_id": "316417319",
        "boundingbox": [
            "17.443333",
            "18.723333",
            "76.693333",
            "77.973333"
        ],
        "type": "county",
        "licence": "Data \u00a9 OpenStreetMap contributors, ODbL 1.0. http://www.openstreetmap.org/copyright",
        "icon": "https://nominatim.openstreetmap.org/images/mapicons/poi_boundary_administrative.p.20.png"
    },
    "mentions": {
        "sharadamba": {
            "blogLinks": [
                "https://www.quora.com/What-are-the-best-places-to-visit-on-a-3-day-trip-in-and-around-Karnataka"
            ],
            "longitude": "77.5656194",
            "address": "Sharadamba Temple, 7th Main Road, Yediyur, Thyagaraja Nagar, Bengaluru, Bangalore Urban, Karnataka, 560001, India",
            "latitude": "12.9321898",
            "locType": "place_of_worship",
            "closest_to": "murudeshwara"
        },
        "murudeshwar": {
            "blogLinks": [
                "http://pritskulkarni.blogspot.com/2015/02/road-trip-to-beautiful-coastal-karnataka.html",
                "https://sbalamurugan.wordpress.com/2007/05/16/trip-to-gokarna/",
                "http://www.myhappyjourney.com/Murudeshwar",
                "http://travel.india.com/murudeshwar/places-to-visit/",
                "http://travel.india.com/gokarna/",
                "https://www.quora.com/What-are-the-best-places-to-visit-on-a-3-day-trip-in-and-around-Karnataka",
                "https://www.tripadvisor.in/Attraction_Review-g297627-d1793953-Reviews-Murudeshwar-Karnataka.html"
            ],
            "longitude": "74.4883354",
            "address": "Murudeshwara, Bhatkala taluk, Uttara Kannada, Karnataka, 581350, India",
            "latitude": "14.0959549",
            "locType": "town",
            "closest_to": "murudeshwara"
        },
        "mahadeshwara": {
            "blogLinks": [
                "https://www.quora.com/What-are-the-best-places-to-visit-on-a-3-day-trip-in-and-around-Karnataka"
            ],
            "longitude": "77.6123722",
            "address": "Mahadeshwara Nagara, BTM Layout, Bengaluru, Bangalore Urban, Karnataka, 560001, India",
            "latitude": "12.9076689",
            "locType": "neighbourhood",
            "closest_to": "murudeshwara"
        },
        "netrani island": {
            "blogLinks": [
                "http://www.nivalink.com/destination/murudeshwar",
                "http://pritskulkarni.blogspot.com/2015/02/road-trip-to-beautiful-coastal-karnataka.html"
            ],
            "longitude": "74.3272086675849",
            "address": "Netrani, Uttara Kannada, Karnataka, India",
            "latitude": "14.0174924",
            "locType": "island",
            "closest_to": "murudeshwara"
        },
        "solah khamba masjid": {
            "blogLinks": [
                "https://creekntrails.com/2016/05/14/bidar-trip-from-hyderabad-on-bike-with-friends/"
            ],
            "longitude": "77.5280218541598",
            "address": "Solah Khamba Masjid, Qila Road, Multani Colony, Old City, Bidar, Bidar taluku, Bidar district, Karnataka, 585400, India",
            "latitude": "17.9208519",
            "locType": "place_of_worship",
            "closest_to": "murudeshwara"
        },
        "bengaluru": {
            "blogLinks": [
                "https://en.wikipedia.org/wiki/Bidar"
            ],
            "longitude": "77.5912997",
            "address": "Bengaluru, Bangalore Urban, Karnataka, 560001, India",
            "latitude": "12.9791198",
            "locType": "city",
            "closest_to": "murudeshwara"
        },
        "pigeon island": {
            "blogLinks": [
                "http://www.nivalink.com/destination/murudeshwar"
            ],
            "longitude": "74.3272086675849",
            "address": "Netrani, Uttara Kannada, Karnataka, India",
            "latitude": "14.0174924",
            "locType": "island",
            "closest_to": "murudeshwara"
        },
        "aditya": {
            "blogLinks": [
                "https://creekntrails.com/2016/05/14/bidar-trip-from-hyderabad-on-bike-with-friends/"
            ],
            "longitude": "77.5816768",
            "address": "Aditya, Puttenahalli Main Road, Jagruthi Colony, Puttenahalli, Bengaluru, Bangalore Urban, Karnataka, 560001, India",
            "latitude": "12.8929275",
            "locType": "restaurant",
            "closest_to": "murudeshwara"
        },
        "kadwad": {
            "blogLinks": [
                "http://pritskulkarni.blogspot.com/2015/02/road-trip-to-beautiful-coastal-karnataka.html"
            ],
            "longitude": "74.1739377",
            "address": "Kadwad, Karavara taluk, Uttara Kannada, Karnataka, India",
            "latitude": "14.8371201",
            "locType": "village",
            "closest_to": "murudeshwara"
        },
        "karanji lake": {
            "blogLinks": [
                "https://www.quora.com/What-are-the-best-places-to-visit-on-a-3-day-trip-in-and-around-Karnataka",
                "http://blog.indianluxurytrains.com/2014/09/best-places-to-visit-in-karnataka.html"
            ],
            "longitude": "77.5474867",
            "address": "Karanji, Aurad taluku, Bidar district, Karnataka, India",
            "latitude": "18.2681849",
            "locType": "village",
            "closest_to": "bidar"
        },
        "kumta": {
            "blogLinks": [
                "http://travel.india.com/gokarna/"
            ],
            "longitude": "74.4107617",
            "address": "Kumta, Kumata taluk, Uttara Kannada, Karnataka, India",
            "latitude": "14.4261647",
            "locType": "town",
            "closest_to": "murudeshwara"
        },
        "tamil nadu": {
            "blogLinks": [
                "https://www.quora.com/What-are-the-best-places-to-visit-on-a-3-day-trip-in-and-around-Karnataka"
            ],
            "longitude": "76.9514152",
            "address": "KARNATAKA BANK, Diwan Bhadur Road, Five Corner, RS Puram, Coimbatore, Coimbatore district, Tamil Nadu, 641001, India",
            "latitude": "11.0025894",
            "locType": "bank",
            "closest_to": "murudeshwara"
        },
        "kodachadri": {
            "blogLinks": [
                "https://www.quora.com/What-are-the-best-places-to-visit-on-a-3-day-trip-in-and-around-Karnataka"
            ],
            "longitude": "74.8705395",
            "address": "Kodachadri, \u0c95\u0cc1\u0c82\u0ca6\u0cbe\u0caa\u0cc1\u0cb0 \u0ca4\u0cbe\u0cb2\u0cc2\u0c95\u0cc1, Udupi district, Karnataka, India",
            "latitude": "13.8565758",
            "locType": "peak",
            "closest_to": "murudeshwara"
        },
        "kudremukh national park": {
            "blogLinks": [
                "https://www.quora.com/What-are-the-best-places-to-visit-on-a-3-day-trip-in-and-around-Karnataka"
            ],
            "longitude": "75.1828713712862",
            "address": "Kudremukh National Park, SH66, Sringeri taluku, Chikkamagaluru district, Karnataka, India",
            "latitude": "13.25397485",
            "locType": "national_park",
            "closest_to": "murudeshwara"
        },
        "brindavan gardens": {
            "blogLinks": [
                "https://www.quora.com/What-are-the-best-places-to-visit-on-a-3-day-trip-in-and-around-Karnataka"
            ],
            "longitude": "76.5741029405883",
            "address": "Brindavan Gardens, Krishnaraja Sagara Road, Krushnarajasagara, Srirangapattana taluk, Mandya district, Karnataka, India",
            "latitude": "12.4208084",
            "locType": "garden",
            "closest_to": "murudeshwara"
        },
        "udupi city": {
            "blogLinks": [
                "http://pritskulkarni.blogspot.com/2015/02/road-trip-to-beautiful-coastal-karnataka.html"
            ],
            "longitude": "74.7473232",
            "address": "Udupi, Udupi taluku, Udupi district, Karnataka, 576101, India",
            "latitude": "13.3419169",
            "locType": "city",
            "closest_to": "murudeshwara"
        },
        "nagarhole national park": {
            "blogLinks": [
                "https://www.quora.com/What-are-the-best-places-to-visit-on-a-3-day-trip-in-and-around-Karnataka",
                "http://blog.indianluxurytrains.com/2014/09/best-places-to-visit-in-karnataka.html"
            ],
            "longitude": "76.1537073415874",
            "address": "Nagarahole National Park, Virajpet taluk, Kodagu, Karnataka, India",
            "latitude": "12.0600362",
            "locType": "national_park",
            "closest_to": "murudeshwara"
        },
        "victoria": {
            "blogLinks": [
                "https://en.wikipedia.org/wiki/Bidar"
            ],
            "longitude": "77.5737113458072",
            "address": "Victoria Hospital, Bala Gangadhara Swamy Flyover, Ranasingpet, Chamarajapete, Bengaluru, Bangalore Urban, Karnataka, 560001, India",
            "latitude": "12.96350355",
            "locType": "hospital",
            "closest_to": "murudeshwara"
        },
        "new delhi": {
            "blogLinks": [
                "https://en.wikipedia.org/wiki/Bidar"
            ],
            "longitude": "76.6142178649055",
            "address": "Regional Institute of Education, Chaduranga Road, Jayalakshmipuram, Mysuru, Mysuru taluk, Mysuru district, Karnataka, 570001, India",
            "latitude": "12.30911465",
            "locType": "college",
            "closest_to": "murudeshwara"
        },
        "chelavara falls": {
            "blogLinks": [
                "http://blog.indianluxurytrains.com/2014/09/best-places-to-visit-in-karnataka.html"
            ],
            "longitude": "75.6734811730693",
            "address": "Chelavara Falls, Madikeri taluku, Kodagu, Karnataka, India",
            "latitude": "12.20601005",
            "locType": "waterfall",
            "closest_to": "murudeshwara"
        },
        "china": {
            "blogLinks": [
                "https://en.wikipedia.org/wiki/Bidar"
            ],
            "longitude": "77.6074274",
            "address": "Highland China, Magrath Road, Tasker Town, Ashok Nagar, Bengaluru, Bangalore Urban, Karnataka, 560001, India",
            "latitude": "12.9708868",
            "locType": "restaurant",
            "closest_to": "murudeshwara"
        },
        "channarayapatna of hassan": {
            "blogLinks": [
                "http://blog.indianluxurytrains.com/2014/09/best-places-to-visit-in-karnataka.html"
            ],
            "longitude": "76.4628912",
            "address": "Tiptur - Channarayapatna Road, Rampura, Channarayapattana taluk, Hassan district, Karnataka, India",
            "latitude": "13.0775815",
            "locType": "primary",
            "closest_to": "murudeshwara"
        },
        "dakshina kannada": {
            "blogLinks": [
                "https://www.quora.com/What-are-the-best-places-to-visit-on-a-3-day-trip-in-and-around-Karnataka"
            ],
            "longitude": "75.1008028650794",
            "address": "Dakshina Kannada, Karnataka, India",
            "latitude": "12.8114089",
            "locType": "administrative",
            "closest_to": "murudeshwara"
        },
        "halebid": {
            "blogLinks": [
                "http://blog.indianluxurytrains.com/2014/09/best-places-to-visit-in-karnataka.html"
            ],
            "longitude": "75.9918793",
            "address": "Halebidu, Beluru taluk, Hassan district, Karnataka, 573121, India",
            "latitude": "13.2167959",
            "locType": "village",
            "closest_to": "murudeshwara"
        },
        "dandeli": {
            "blogLinks": [
                "http://pritskulkarni.blogspot.com/2015/02/road-trip-to-beautiful-coastal-karnataka.html"
            ],
            "longitude": "74.6236037",
            "address": "Dandeli, Haliyala taluku, Uttara Kannada, Karnataka, 581325, India",
            "latitude": "15.2490284",
            "locType": "town",
            "closest_to": "murudeshwara"
        },
        "om beach": {
            "blogLinks": [
                "http://travel.india.com/gokarna/"
            ],
            "longitude": "74.3254331800289",
            "address": "Om Beach, Om beach road, Gokarna, Kumata taluk, Uttara Kannada, Karnataka, 581326, India",
            "latitude": "14.5190376",
            "locType": "beach",
            "closest_to": "murudeshwara"
        },
        "chennakeshava": {
            "blogLinks": [
                "https://www.quora.com/What-are-the-best-places-to-visit-on-a-3-day-trip-in-and-around-Karnataka"
            ],
            "longitude": "76.1294164",
            "address": "Chennakeshava Temple, NH73, Arakere, Arasikere taluku, Hassan district, Karnataka, 573112, India",
            "latitude": "13.3748908",
            "locType": "place_of_worship",
            "closest_to": "murudeshwara"
        },
        "india karnataka": {
            "blogLinks": [
                "https://www.quora.com/What-are-the-best-places-to-visit-on-a-3-day-trip-in-and-around-Karnataka"
            ],
            "longitude": "76.6639936",
            "address": "Karnataka, Shalivahana Road, Nazarbad, Mysuru, Mysuru taluk, Mysuru district, Karnataka, 570001, India",
            "latitude": "12.3084901",
            "locType": "atm",
            "closest_to": "murudeshwara"
        },
        "vittala": {
            "blogLinks": [
                "http://blog.indianluxurytrains.com/2014/09/best-places-to-visit-in-karnataka.html"
            ],
            "longitude": "76.6237847175927",
            "address": "Vijaya Vittala PU College, Sahukar Chennaiah Road, Sarasvatipuram, Mysuru, Mysuru taluk, Mysuru district, Karnataka, 570001, India",
            "latitude": "12.30129655",
            "locType": "yes",
            "closest_to": "murudeshwara"
        },
        "paradise beach": {
            "blogLinks": [
                "http://travel.india.com/gokarna/"
            ],
            "longitude": "74.3375798576938",
            "address": "Paradise Beach, Om beach road, Gokarna, Kumata taluk, Uttara Kannada, Karnataka, 581326, India",
            "latitude": "14.5181133",
            "locType": "beach",
            "closest_to": "murudeshwara"
        },
        "charmadi": {
            "blogLinks": [
                "https://sbalamurugan.wordpress.com/2007/05/16/trip-to-gokarna/"
            ],
            "longitude": "75.3967377",
            "address": "Charmadi, Beltangadi taluk, Dakshina Kannada, Karnataka, 574290, India",
            "latitude": "13.0365436",
            "locType": "village",
            "closest_to": "murudeshwara"
        },
        "kannada": {
            "blogLinks": [
                "https://www.quora.com/What-are-the-best-places-to-visit-on-a-3-day-trip-in-and-around-Karnataka"
            ],
            "longitude": "75.1008028650794",
            "address": "Dakshina Kannada, Karnataka, India",
            "latitude": "12.8114089",
            "locType": "administrative",
            "closest_to": "murudeshwara"
        },
        "sanga": {
            "blogLinks": [
                "http://pritskulkarni.blogspot.com/2015/02/road-trip-to-beautiful-coastal-karnataka.html"
            ],
            "longitude": "77.5681858",
            "address": "V.R.naidu Abimanigala sanga, Kranthikavi Sarvagnya Road, Rajajinagar 4th Block, Sriramapura, Bengaluru, Bangalore Urban, Karnataka, 560001, India",
            "latitude": "12.9916519",
            "locType": "community_centre",
            "closest_to": "murudeshwara"
        },
        "malpe": {
            "blogLinks": [
                "https://www.quora.com/What-are-the-best-places-to-visit-on-a-3-day-trip-in-and-around-Karnataka",
                "http://pritskulkarni.blogspot.com/2015/02/road-trip-to-beautiful-coastal-karnataka.html"
            ],
            "longitude": "74.7036914",
            "address": "Malpe, Udupi taluku, Udupi district, Karnataka, India",
            "latitude": "13.3507423",
            "locType": "village",
            "closest_to": "murudeshwara"
        },
        "kuvempu": {
            "blogLinks": [
                "https://www.quora.com/What-are-the-best-places-to-visit-on-a-3-day-trip-in-and-around-Karnataka"
            ],
            "longitude": "77.5064032",
            "address": "Kuvempu, Kengeri Main Road, ITI Layout, Jnana Bharathi, Nagadevanahalli, Bangalore Urban, Karnataka, 560056, India",
            "latitude": "12.9560369",
            "locType": "artwork",
            "closest_to": "murudeshwara"
        },
        "gokak": {
            "blogLinks": [
                "https://www.quora.com/What-are-the-best-places-to-visit-on-a-3-day-trip-in-and-around-Karnataka"
            ],
            "longitude": "74.8224338",
            "address": "Gokak, Gokak taluku, Belgaum district, Karnataka, 591307, India",
            "latitude": "16.1693033",
            "locType": "town",
            "closest_to": "murudeshwara"
        },
        "belur": {
            "blogLinks": [
                "https://sbalamurugan.wordpress.com/2007/05/16/trip-to-gokarna/"
            ],
            "longitude": "75.8634851",
            "address": "Belur, Beluru taluk, Hassan district, Karnataka, 573115, India",
            "latitude": "13.1645671",
            "locType": "town",
            "closest_to": "murudeshwara"
        },
        "mother earth": {
            "blogLinks": [
                "http://pritskulkarni.blogspot.com/2015/02/road-trip-to-beautiful-coastal-karnataka.html"
            ],
            "longitude": "77.5956939",
            "address": "mother earth, Balmuri Main Road, Hulimavu,, Bannerghatta Road, Mico Arekere Layout 1st Stage, Hulimavu, Bengaluru, Bangalore Urban, Karnataka, 560076, India",
            "latitude": "12.8761282",
            "locType": "clothes",
            "closest_to": "murudeshwara"
        },
        "hoysala": {
            "blogLinks": [
                "https://www.quora.com/What-are-the-best-places-to-visit-on-a-3-day-trip-in-and-around-Karnataka"
            ],
            "longitude": "77.6375990817051",
            "address": "Hoysala Nagar, Bengaluru, Bangalore Urban, Karnataka, 560001, India",
            "latitude": "12.97813815",
            "locType": "administrative",
            "closest_to": "murudeshwara"
        },
        "varanasi": {
            "blogLinks": [
                "http://travel.india.com/gokarna/"
            ],
            "longitude": "77.6860657",
            "address": "Varanasi, Bangalore Urban, Karnataka, India",
            "latitude": "13.0304962",
            "locType": "village",
            "closest_to": "murudeshwara"
        },
        "mookambika": {
            "blogLinks": [
                "https://www.quora.com/What-are-the-best-places-to-visit-on-a-3-day-trip-in-and-around-Karnataka"
            ],
            "longitude": "74.8145296",
            "address": "Mukambika Devasthana, NH766C;SH26, Halkal, \u0c95\u0cc1\u0c82\u0ca6\u0cbe\u0caa\u0cc1\u0cb0 \u0ca4\u0cbe\u0cb2\u0cc2\u0c95\u0cc1, Udupi district, Karnataka, 576220, India",
            "latitude": "13.8638043",
            "locType": "place_of_worship",
            "closest_to": "murudeshwara"
        },
        "gokarna": {
            "blogLinks": [
                "http://travel.india.com/gokarna/",
                "http://pritskulkarni.blogspot.com/2015/02/road-trip-to-beautiful-coastal-karnataka.html",
                "https://sbalamurugan.wordpress.com/2007/05/16/trip-to-gokarna/"
            ],
            "longitude": "74.3184418",
            "address": "Gokarna, Kumata taluk, Uttara Kannada, Karnataka, 581326, India",
            "latitude": "14.5439629",
            "locType": "town",
            "closest_to": "murudeshwara"
        },
        "bidar": {
            "blogLinks": [
                "https://en.wikipedia.org/wiki/Bidar",
                "https://www.quora.com/What-are-the-best-places-to-visit-on-a-3-day-trip-in-and-around-Karnataka",
                "https://creekntrails.com/2016/05/14/bidar-trip-from-hyderabad-on-bike-with-friends/"
            ],
            "longitude": "77.333333",
            "address": "Bidar, Bidar district, Karnataka, India",
            "latitude": "18.083333",
            "locType": "county",
            "closest_to": "murudeshwara"
        },
        "heart lake": {
            "blogLinks": [
                "https://www.quora.com/What-are-the-best-places-to-visit-on-a-3-day-trip-in-and-around-Karnataka"
            ],
            "longitude": "77.6033149073313",
            "address": "Sacred Heart Cemetry, Shanti Nagar, Bengaluru, Bangalore Urban, Karnataka, 560001, India",
            "latitude": "12.9542916",
            "locType": "cemetery",
            "closest_to": "murudeshwara"
        },
        "markandeya river": {
            "blogLinks": [
                "https://www.quora.com/What-are-the-best-places-to-visit-on-a-3-day-trip-in-and-around-Karnataka"
            ],
            "longitude": "74.5774895",
            "address": "Markandeya, Belagavi taluku, Belgaum district, Karnataka, India",
            "latitude": "15.9707453",
            "locType": "river",
            "closest_to": "murudeshwara"
        },
        "daria daulat gardens": {
            "blogLinks": [
                "https://www.quora.com/What-are-the-best-places-to-visit-on-a-3-day-trip-in-and-around-Karnataka"
            ],
            "longitude": "76.6969039957315",
            "address": "Daria Daulat Bagh Museum, Bangalore-Mysore Road, Srirangapatna, Srirangapattana taluk, Mandya district, Karnataka, 571438, India",
            "latitude": "12.4200182",
            "locType": "museum",
            "closest_to": "murudeshwara"
        },
        "kukke": {
            "blogLinks": [
                "https://sbalamurugan.wordpress.com/2007/05/16/trip-to-gokarna/"
            ],
            "longitude": "75.3076538",
            "address": "Kukke, Tirthahalli taluk, Shimoga district, Karnataka, India",
            "latitude": "13.7523964",
            "locType": "village",
            "closest_to": "murudeshwara"
        },
        "karkala": {
            "blogLinks": [
                "https://www.quora.com/What-are-the-best-places-to-visit-on-a-3-day-trip-in-and-around-Karnataka"
            ],
            "longitude": "74.9959586",
            "address": "Karkala, Karkala taluk, Udupi district, Karnataka, 574104, India",
            "latitude": "13.2112826",
            "locType": "town",
            "closest_to": "murudeshwara"
        },
        "sharavati": {
            "blogLinks": [
                "https://www.quora.com/What-are-the-best-places-to-visit-on-a-3-day-trip-in-and-around-Karnataka"
            ],
            "longitude": "74.7647294",
            "address": "Sharavati, Sagara taluk, Shimoga district, Karnataka, India",
            "latitude": "14.2360979",
            "locType": "river",
            "closest_to": "murudeshwara"
        },
        "nataraja": {
            "blogLinks": [
                "https://www.quora.com/What-are-the-best-places-to-visit-on-a-3-day-trip-in-and-around-Karnataka"
            ],
            "longitude": "77.5730381173154",
            "address": "Nataraja, Sirur Park Road, Vyalikaval, Seshadripuram, Bengaluru, Bangalore Urban, Karnataka, 560001, India",
            "latitude": "12.9900332",
            "locType": "cinema",
            "closest_to": "murudeshwara"
        },
        "kerala": {
            "blogLinks": [
                "https://www.quora.com/What-are-the-best-places-to-visit-on-a-3-day-trip-in-and-around-Karnataka"
            ],
            "longitude": "77.6382683",
            "address": "New Life Kerala Mess, Sai Baba Mandira Road, Mottappanapalaya, Indiranagar, Bengaluru, Bangalore Urban, Karnataka, 560001, India",
            "latitude": "12.9726449",
            "locType": "restaurant",
            "closest_to": "murudeshwara"
        },
        "bhatkal taluk": {
            "blogLinks": [
                "http://www.myhappyjourney.com/Murudeshwar"
            ],
            "longitude": "74.5485295",
            "address": "Bhatkal, Bhatkala taluk, Uttara Kannada, Karnataka, 581320, India",
            "latitude": "13.9952114",
            "locType": "town",
            "closest_to": "murudeshwara"
        },
        "sadashivgad": {
            "blogLinks": [
                "http://pritskulkarni.blogspot.com/2015/02/road-trip-to-beautiful-coastal-karnataka.html"
            ],
            "longitude": "74.1319536",
            "address": "Sadashivagada, Karavara taluk, Uttara Kannada, Karnataka, 581352, India",
            "latitude": "14.8561691",
            "locType": "village",
            "closest_to": "murudeshwara"
        },
        "venkataramana temple": {
            "blogLinks": [
                "http://blog.indianluxurytrains.com/2014/09/best-places-to-visit-in-karnataka.html"
            ],
            "longitude": "77.6895365754579",
            "address": "Venkataramana Temple, 20th Cross Road, Anantnagar, Sampige Nagara, Bangalore Urban, Karnataka, 560099, India",
            "latitude": "12.8380349",
            "locType": "place_of_worship",
            "closest_to": "murudeshwara"
        },
        "anshi national park": {
            "blogLinks": [
                "http://travel.india.com/gokarna/"
            ],
            "longitude": "74.3934408094182",
            "address": "Anshi National Park, SH46, Bidoli, Joida taluk, Uttara Kannada, Karnataka, India",
            "latitude": "14.9994424",
            "locType": "national_park",
            "closest_to": "murudeshwara"
        },
        "karwar": {
            "blogLinks": [
                "http://pritskulkarni.blogspot.com/2015/02/road-trip-to-beautiful-coastal-karnataka.html"
            ],
            "longitude": "74.1319229",
            "address": "Karwar, Karavara taluk, Uttara Kannada, Karnataka, 581300, India",
            "latitude": "14.8120931",
            "locType": "town",
            "closest_to": "murudeshwara"
        },
        "hampi": {
            "blogLinks": [
                "https://www.quora.com/What-are-the-best-places-to-visit-on-a-3-day-trip-in-and-around-Karnataka",
                "http://blog.indianluxurytrains.com/2014/09/best-places-to-visit-in-karnataka.html"
            ],
            "longitude": "76.4606199",
            "address": "Hampe, Hosapete taluk, Bellary district, Karnataka, 583239, India",
            "latitude": "15.3359769",
            "locType": "village",
            "closest_to": "murudeshwara"
        },
        "grs fantasy park": {
            "blogLinks": [
                "https://www.quora.com/What-are-the-best-places-to-visit-on-a-3-day-trip-in-and-around-Karnataka"
            ],
            "longitude": "76.6338102194966",
            "address": "GRS Fantasy Park, Ring Road, Kumbara Koppalu, Metagalli Industrial Area, Mysuru, Mysuru taluk, Mysuru district, Karnataka, 570001, India",
            "latitude": "12.3540981",
            "locType": "theme_park",
            "closest_to": "murudeshwara"
        },
        "murudeshwara temple": {
            "blogLinks": [
                "http://pritskulkarni.blogspot.com/2015/02/road-trip-to-beautiful-coastal-karnataka.html"
            ],
            "longitude": "74.484753966647",
            "address": "Murudeshwara Temple, NH66, Manki, Honnavara taluku, Uttara Kannada, Karnataka, 581348, India",
            "latitude": "14.0934908",
            "locType": "place_of_worship",
            "closest_to": "murudeshwara"
        },
        "lord shiva": {
            "blogLinks": [
                "https://www.quora.com/What-are-the-best-places-to-visit-on-a-3-day-trip-in-and-around-Karnataka"
            ],
            "longitude": "77.6024995",
            "address": "Lord Shiva Temple, Marenahalli Road (South End), MICO Layout, BTM Layout, Bengaluru, Bangalore Urban, Karnataka, 560001, India",
            "latitude": "12.916875",
            "locType": "place_of_worship",
            "closest_to": "murudeshwara"
        },
        "kundapura": {
            "blogLinks": [
                "http://www.nivalink.com/destination/murudeshwar"
            ],
            "longitude": "74.6915722",
            "address": "Kundapura, \u0c95\u0cc1\u0c82\u0ca6\u0cbe\u0caa\u0cc1\u0cb0 \u0ca4\u0cbe\u0cb2\u0cc2\u0c95\u0cc1, Udupi district, Karnataka, 576200, India",
            "latitude": "13.6250993",
            "locType": "town",
            "closest_to": "murudeshwara"
        },
        "kusha garden": {
            "blogLinks": [
                "https://www.quora.com/What-are-the-best-places-to-visit-on-a-3-day-trip-in-and-around-Karnataka"
            ],
            "longitude": "76.6283545564802",
            "address": "Lava Kusha Park, Lalitadri Road, Kuvempunagara, Mysuru, Mysuru taluk, Mysuru district, Karnataka, 570001, India",
            "latitude": "12.2905505",
            "locType": "park",
            "closest_to": "murudeshwara"
        },
        "silent valley": {
            "blogLinks": [
                "https://www.quora.com/What-are-the-best-places-to-visit-on-a-3-day-trip-in-and-around-Karnataka"
            ],
            "longitude": "76.5819054",
            "address": "Silent Shores Resort, Krishnaraja Sagara Road, Kurgalli, Bastipura, Srirangapattana taluk, Mandya district, Karnataka, 570027, India",
            "latitude": "12.3459371",
            "locType": "hotel",
            "closest_to": "murudeshwara"
        },
        "kuppali": {
            "blogLinks": [
                "https://www.quora.com/What-are-the-best-places-to-visit-on-a-3-day-trip-in-and-around-Karnataka"
            ],
            "longitude": "75.3158067",
            "address": "Kuppali Road, Kuppalli, Tirthahalli taluk, Shimoga district, Karnataka, India",
            "latitude": "13.5998255",
            "locType": "tertiary",
            "closest_to": "murudeshwara"
        },
        "tagore": {
            "blogLinks": [
                "https://www.quora.com/What-are-the-best-places-to-visit-on-a-3-day-trip-in-and-around-Karnataka"
            ],
            "longitude": "77.595715",
            "address": "Rabindranath Tagore Nagar, Bengaluru, Bangalore Urban, Karnataka, 560001, India",
            "latitude": "13.0227204",
            "locType": "suburb",
            "closest_to": "murudeshwara"
        },
        "delhi": {
            "blogLinks": [
                "http://blog.indianluxurytrains.com/2014/09/best-places-to-visit-in-karnataka.html"
            ],
            "longitude": "77.6666062",
            "address": "Outer Ring Road, Green Glen Layout, Iblur, Bengaluru, Bangalore Urban, Karnataka, 560001, India",
            "latitude": "12.9212473",
            "locType": "trunk",
            "closest_to": "murudeshwara"
        },
        "devbagh beach": {
            "blogLinks": [
                "http://travel.india.com/gokarna/"
            ],
            "longitude": "74.1079961668745",
            "address": "Devbagh Beach, NH66, Majali, Karavara taluk, Uttara Kannada, Karnataka, 581352, India",
            "latitude": "14.8682714",
            "locType": "beach",
            "closest_to": "murudeshwara"
        },
        "railway museum": {
            "blogLinks": [
                "http://blog.indianluxurytrains.com/2014/09/best-places-to-visit-in-karnataka.html"
            ],
            "longitude": "77.6182271274845",
            "address": "Bangalore East Railway Station, Cox Town, Bengaluru, Bangalore Urban, Karnataka, 560001, India",
            "latitude": "13.001147",
            "locType": "railway",
            "closest_to": "murudeshwara"
        },
        "kudle": {
            "blogLinks": [
                "http://pritskulkarni.blogspot.com/2015/02/road-trip-to-beautiful-coastal-karnataka.html"
            ],
            "longitude": "74.3178853",
            "address": "Kudle Ocean Front resort, Om beach road, Gokarna, Kumata taluk, Uttara Kannada, Karnataka, 581326, India",
            "latitude": "14.5290707",
            "locType": "hotel",
            "closest_to": "murudeshwara"
        },
        "mandalpatti": {
            "blogLinks": [
                "https://www.quora.com/What-are-the-best-places-to-visit-on-a-3-day-trip-in-and-around-Karnataka"
            ],
            "longitude": "75.7307012",
            "address": "Mandalpatti road junction, Galibidu Road, Kalakeri Nidugane, Madikeri taluku, Kodagu, Karnataka, India",
            "latitude": "12.4486242",
            "locType": "attraction",
            "closest_to": "murudeshwara"
        },
        "banavasi": {
            "blogLinks": [
                "https://www.quora.com/What-are-the-best-places-to-visit-on-a-3-day-trip-in-and-around-Karnataka"
            ],
            "longitude": "75.0129845",
            "address": "Banavasi, Shirasi taluk, Uttara Kannada, Karnataka, India",
            "latitude": "14.5389738",
            "locType": "town",
            "closest_to": "murudeshwara"
        },
        "goa": {
            "blogLinks": [
                "http://travel.india.com/gokarna/",
                "http://pritskulkarni.blogspot.com/2015/02/road-trip-to-beautiful-coastal-karnataka.html"
            ],
            "longitude": "77.6200027",
            "address": "Carnival De Goa, Bhaskaran Road, Gupta Layout, Halasuru, Bengaluru, Bangalore Urban, Karnataka, 560001, India",
            "latitude": "12.9750047",
            "locType": "restaurant",
            "closest_to": "murudeshwara"
        },
        "veera narayana temple": {
            "blogLinks": [
                "https://www.quora.com/What-are-the-best-places-to-visit-on-a-3-day-trip-in-and-around-Karnataka"
            ],
            "longitude": "75.9953525",
            "address": "Veera Narayana Temple, Chikmagalur Javagal Road, Narasipura, Chikkamagaluru taluku, Chikkamagaluru district, Karnataka, India",
            "latitude": "13.2821212",
            "locType": "place_of_worship",
            "closest_to": "murudeshwara"
        },
        "kalyan": {
            "blogLinks": [
                "https://www.quora.com/What-are-the-best-places-to-visit-on-a-3-day-trip-in-and-around-Karnataka"
            ],
            "longitude": "77.6403368",
            "address": "Kalyan Nagar, Chelekere, Bangalore Urban, Karnataka, India",
            "latitude": "13.0221416",
            "locType": "suburb",
            "closest_to": "murudeshwara"
        },
        "iruppu falls": {
            "blogLinks": [
                "https://www.quora.com/What-are-the-best-places-to-visit-on-a-3-day-trip-in-and-around-Karnataka"
            ],
            "longitude": "75.9839484",
            "address": "Iruppu Falls, SH89, Taila, Virajpet taluk, Kodagu, Karnataka, 571217, India",
            "latitude": "11.9667954",
            "locType": "attraction",
            "closest_to": "murudeshwara"
        },
        "kalaseshwara temple": {
            "blogLinks": [
                "http://www.nivalink.com/destination/murudeshwar"
            ],
            "longitude": "75.363446975",
            "address": "Kalaseshwara Temple, SH66, Kalasa, Mudigere taluk, Chikkamagaluru district, Karnataka, 577124, India",
            "latitude": "13.23228505",
            "locType": "place_of_worship",
            "closest_to": "murudeshwara"
        },
        "tunga": {
            "blogLinks": [
                "https://www.quora.com/What-are-the-best-places-to-visit-on-a-3-day-trip-in-and-around-Karnataka"
            ],
            "longitude": "75.3221835",
            "address": "Tunga, Tirthahalli taluk, Shimoga district, Karnataka, India",
            "latitude": "13.6632221",
            "locType": "river",
            "closest_to": "murudeshwara"
        },
        "kali river": {
            "blogLinks": [
                "https://www.quora.com/What-are-the-best-places-to-visit-on-a-3-day-trip-in-and-around-Karnataka"
            ],
            "longitude": "74.5802901",
            "address": "Kali, Joida taluk, Uttara Kannada, Karnataka, India",
            "latitude": "15.0145378",
            "locType": "river",
            "closest_to": "murudeshwara"
        },
        "venkatappa art gallery": {
            "blogLinks": [
                "http://blog.indianluxurytrains.com/2014/09/best-places-to-visit-in-karnataka.html"
            ],
            "longitude": "77.5952077",
            "address": "Venkatappa Art Gallery, Kasturba Road, Shantala Nagar, MacIvor Town, Bengaluru, Bangalore Urban, Karnataka, 560001, India",
            "latitude": "12.9742592",
            "locType": "museum",
            "closest_to": "murudeshwara"
        },
        "london": {
            "blogLinks": [
                "https://en.wikipedia.org/wiki/Bidar"
            ],
            "longitude": "75.7223521",
            "address": "Karnataka, India",
            "latitude": "14.5203896",
            "locType": "administrative",
            "closest_to": "murudeshwara"
        },
        "island": {
            "blogLinks": [
                "http://pritskulkarni.blogspot.com/2015/02/road-trip-to-beautiful-coastal-karnataka.html"
            ],
            "longitude": "74.8834637",
            "address": "Isa, Shirasi taluk, Uttara Kannada, Karnataka, India",
            "latitude": "14.6799543",
            "locType": "village",
            "closest_to": "murudeshwara"
        },
        "panambur - panambur beach": {
            "blogLinks": [
                "https://www.quora.com/What-are-the-best-places-to-visit-on-a-3-day-trip-in-and-around-Karnataka"
            ],
            "longitude": "74.8034667207214",
            "address": "Panambur Beach, Panambur Beach Road, Gandhinagar, Panambur, Mangaluru taluk, Dakshina Kannada, Karnataka, 575013, India",
            "latitude": "12.93907195",
            "locType": "beach",
            "closest_to": "murudeshwara"
        },
        "maharashtra": {
            "blogLinks": [
                "https://en.wikipedia.org/wiki/Bidar"
            ],
            "longitude": "77.5856013",
            "address": "Bank of Maharashtra, 24th Main, K R Layout, Puttenahalli, Bengaluru, Bangalore Urban, Karnataka, 560001, India",
            "latitude": "12.9049455",
            "locType": "bank",
            "closest_to": "murudeshwara"
        },
        "golconda": {
            "blogLinks": [
                "https://en.wikipedia.org/wiki/Bidar"
            ],
            "longitude": "77.7127571",
            "address": "Golconda Chimney, Varthur Road, Vaikuntam Layout, AECS Layout, Siddapura, Bangalore Urban, Karnataka, 560066, India",
            "latitude": "12.9558467",
            "locType": "restaurant",
            "closest_to": "murudeshwara"
        },
        "mahabaleshwara": {
            "blogLinks": [
                "http://travel.india.com/gokarna/",
                "https://www.quora.com/What-are-the-best-places-to-visit-on-a-3-day-trip-in-and-around-Karnataka"
            ],
            "longitude": "77.5899749843004",
            "address": "Mahabaleshwara Temple, Mission Road (Kalinga Rao Road ), Sampangirama Nagar, Shanti Nagar, Bengaluru, Bangalore Urban, Karnataka, 560001, India",
            "latitude": "12.96264945",
            "locType": "place_of_worship",
            "closest_to": "murudeshwara"
        },
        "nandi hills": {
            "blogLinks": [
                "https://www.quora.com/What-are-the-best-places-to-visit-on-a-3-day-trip-in-and-around-Karnataka"
            ],
            "longitude": "77.7194741670394",
            "address": "Nandi Upahara, Nandhi Hills Road, Kottige Thimmanahalli, Devanahalli taluk, Bangalore Rural, Karnataka, India",
            "latitude": "13.268142",
            "locType": "hotel",
            "closest_to": "murudeshwara"
        },
        "fort": {
            "blogLinks": [
                "https://en.wikipedia.org/wiki/Bidar"
            ],
            "longitude": "76.8313091",
            "address": "Fort, Rauza, Kalaburagi, Gulbarga taluku, Kalaburagi district, Karnataka, 585101, India",
            "latitude": "17.3439629",
            "locType": "neighbourhood",
            "closest_to": "murudeshwara"
        },
        "mullayanagiri range": {
            "blogLinks": [
                "https://www.quora.com/What-are-the-best-places-to-visit-on-a-3-day-trip-in-and-around-Karnataka"
            ],
            "longitude": "75.7214034",
            "address": "Mullayyanagiri, Chikkamagaluru, Chikkamagaluru taluku, Chikkamagaluru district, Karnataka, 577101, India",
            "latitude": "13.3909217",
            "locType": "peak",
            "closest_to": "murudeshwara"
        },
        "mahatma gandhi park": {
            "blogLinks": [
                "http://blog.indianluxurytrains.com/2014/09/best-places-to-visit-in-karnataka.html"
            ],
            "longitude": "77.5997033330292",
            "address": "Mahatma Gandhi Park, Mahatma Gandhi Road, Shantala Nagar, MacIvor Town, Bengaluru, Bangalore Urban, Karnataka, 560001, India",
            "latitude": "12.9772144",
            "locType": "park",
            "closest_to": "murudeshwara"
        },
        "ananthapadmanabha": {
            "blogLinks": [
                "https://www.quora.com/What-are-the-best-places-to-visit-on-a-3-day-trip-in-and-around-Karnataka"
            ],
            "longitude": "74.8937899082456",
            "address": "Kudupu Ananthapadmanabha Temple, Solapur-Mangalore Highway, Shakthinagar, Kulashekara, Kudupu, Mangaluru taluk, Dakshina Kannada, Karnataka, 575007, India",
            "latitude": "12.9039019",
            "locType": "place_of_worship",
            "closest_to": "murudeshwara"
        },
        "brahmagiri range": {
            "blogLinks": [
                "https://www.quora.com/What-are-the-best-places-to-visit-on-a-3-day-trip-in-and-around-Karnataka"
            ],
            "longitude": "76.8122474",
            "address": "Brahmagiri Betta, Molakalmuru taluku, Chitradurga district, Karnataka, India",
            "latitude": "14.8001586",
            "locType": "peak",
            "closest_to": "murudeshwara"
        },
        "mandovi": {
            "blogLinks": [
                "https://www.quora.com/What-are-the-best-places-to-visit-on-a-3-day-trip-in-and-around-Karnataka"
            ],
            "longitude": "77.6190505",
            "address": "Mandovi Motors, Wheeler Road Flyover, MSO Colony, Cox Town, Bengaluru, Bangalore Urban, Karnataka, 560001, India",
            "latitude": "12.9965335",
            "locType": "car",
            "closest_to": "murudeshwara"
        },
        "kothur": {
            "blogLinks": [
                "https://creekntrails.com/2016/05/14/bidar-trip-from-hyderabad-on-bike-with-friends/"
            ],
            "longitude": "77.9775746",
            "address": "Kothur, Chintamani taluk, Chikkaballapura district, Karnataka, India",
            "latitude": "13.3276276",
            "locType": "village",
            "closest_to": "murudeshwara"
        },
        "sharavathi river": {
            "blogLinks": [
                "http://www.nivalink.com/destination/murudeshwar"
            ],
            "longitude": "77.6216184337102",
            "address": "Sharavathi Block, National Games Village Road, Ambedkar Nagar, Ejipura, Bengaluru, Bangalore Urban, Karnataka, 560001, India",
            "latitude": "12.9464709",
            "locType": "yes",
            "closest_to": "murudeshwara"
        },
        "golden temple": {
            "blogLinks": [
                "https://www.quora.com/What-are-the-best-places-to-visit-on-a-3-day-trip-in-and-around-Karnataka"
            ],
            "longitude": "75.9674656",
            "address": "Padmasambhava Buddhist Vihara (Golden Temple), MDR21, Koppa, Piriyapattana taluk, Mysuru district, Karnataka, India",
            "latitude": "12.430821",
            "locType": "place_of_worship",
            "closest_to": "murudeshwara"
        },
        "ocean": {
            "blogLinks": [
                "https://www.quora.com/What-are-the-best-places-to-visit-on-a-3-day-trip-in-and-around-Karnataka"
            ],
            "longitude": "77.7178261979437",
            "address": "Gayatri Ocean Blue Apartments, Thubarahalli, Siddapura, Bangalore Urban, Karnataka, 560066, India",
            "latitude": "12.95490595",
            "locType": "residential",
            "closest_to": "murudeshwara"
        },
        "lit-goa": {
            "blogLinks": [
                "http://pritskulkarni.blogspot.com/2015/02/road-trip-to-beautiful-coastal-karnataka.html"
            ],
            "longitude": "77.6200027",
            "address": "Carnival De Goa, Bhaskaran Road, Gupta Layout, Halasuru, Bengaluru, Bangalore Urban, Karnataka, 560001, India",
            "latitude": "12.9750047",
            "locType": "restaurant",
            "closest_to": "murudeshwara"
        },
        "kalasa": {
            "blogLinks": [
                "https://sbalamurugan.wordpress.com/2007/05/16/trip-to-gokarna/"
            ],
            "longitude": "75.3582366",
            "address": "Kalasa, Mudigere taluk, Chikkamagaluru district, Karnataka, 577124, India",
            "latitude": "13.2322235",
            "locType": "town",
            "closest_to": "murudeshwara"
        },
        "india": {
            "blogLinks": [
                "http://www.hoparoundindia.com/karnataka/attractions/bidar.aspx",
                "http://blog.indianluxurytrains.com/2014/09/best-places-to-visit-in-karnataka.html",
                "http://pritskulkarni.blogspot.com/2015/02/road-trip-to-beautiful-coastal-karnataka.html",
                "http://www.myhappyjourney.com/Murudeshwar",
                "http://travel.india.com/gokarna/",
                "http://www.nivalink.com/destination/murudeshwar",
                "https://creekntrails.com/2016/05/14/bidar-trip-from-hyderabad-on-bike-with-friends/",
                "https://en.wikipedia.org/wiki/Bidar",
                "https://www.quora.com/What-are-the-best-places-to-visit-on-a-3-day-trip-in-and-around-Karnataka"
            ],
            "longitude": "75.7223521",
            "address": "Karnataka, India",
            "latitude": "14.5203896",
            "locType": "administrative",
            "closest_to": "murudeshwara"
        },
        "bijapur": {
            "blogLinks": [
                "https://en.wikipedia.org/wiki/Bidar",
                "https://www.quora.com/What-are-the-best-places-to-visit-on-a-3-day-trip-in-and-around-Karnataka",
                "http://blog.indianluxurytrains.com/2014/09/best-places-to-visit-in-karnataka.html"
            ],
            "longitude": "75.7175387",
            "address": "Vijayapura, Vijayapura taluk, Bijapur district, Karnataka, 586101, India",
            "latitude": "16.8269911",
            "locType": "city",
            "closest_to": "murudeshwara"
        },
        "southern india": {
            "blogLinks": [
                "http://pritskulkarni.blogspot.com/2015/02/road-trip-to-beautiful-coastal-karnataka.html"
            ],
            "longitude": "77.6227757667762",
            "address": "Survey Of India - Southern Zone, Madivala, Bengaluru, Bangalore Urban, Karnataka, 560001, India",
            "latitude": "12.92588785",
            "locType": "commercial",
            "closest_to": "murudeshwara"
        },
        "sakleshpur": {
            "blogLinks": [
                "https://www.quora.com/What-are-the-best-places-to-visit-on-a-3-day-trip-in-and-around-Karnataka"
            ],
            "longitude": "75.7862318",
            "address": "Sakaleshpura, Sakaleshapura taluk, Hassan district, Karnataka, 573134, India",
            "latitude": "12.9434349",
            "locType": "town",
            "closest_to": "murudeshwara"
        },
        "pattadakal": {
            "blogLinks": [
                "http://blog.indianluxurytrains.com/2014/09/best-places-to-visit-in-karnataka.html"
            ],
            "longitude": "75.815884048161",
            "address": "Pattadakal Temples, SH14, \u0cac\u0cbe\u0c9a\u0cbf\u0ca8\u0c97\u0cc1\u0ca1\u0ccd\u0ca1, Badami taluku, Bagalkote district, Karnataka, 587211, India",
            "latitude": "15.9506349",
            "locType": "attraction",
            "closest_to": "murudeshwara"
        },
        "mysore": {
            "blogLinks": [
                "https://www.quora.com/What-are-the-best-places-to-visit-on-a-3-day-trip-in-and-around-Karnataka",
                "http://blog.indianluxurytrains.com/2014/09/best-places-to-visit-in-karnataka.html"
            ],
            "longitude": "76.6553609",
            "address": "Mysuru, Mysuru taluk, Mysuru district, Karnataka, 570001, India",
            "latitude": "12.3051828",
            "locType": "city",
            "closest_to": "murudeshwara"
        },
        "amboli": {
            "blogLinks": [
                "https://www.quora.com/What-are-the-best-places-to-visit-on-a-3-day-trip-in-and-around-Karnataka"
            ],
            "longitude": "74.4340839",
            "address": "Amboli, Khanapura taluku, Belgaum district, Karnataka, India",
            "latitude": "15.6456171",
            "locType": "village",
            "closest_to": "murudeshwara"
        },
        "telangana": {
            "blogLinks": [
                "https://en.wikipedia.org/wiki/Bidar"
            ],
            "longitude": "78.4605921",
            "address": "Karnataka Bank, Raj Bhavan Road, MS Makta, Somajiguda, Hyderabad, Medak, Telangana, 500082, India",
            "latitude": "17.4233276",
            "locType": "bank",
            "closest_to": "bidar"
        },
        "kodava": {
            "blogLinks": [
                "https://www.quora.com/What-are-the-best-places-to-visit-on-a-3-day-trip-in-and-around-Karnataka"
            ],
            "longitude": "77.5947466457941",
            "address": "Kodava Samaja, M V Jayaram Road, Jayamahal Extension, Vasantnagar, Bengaluru, Bangalore Urban, Karnataka, 560001, India",
            "latitude": "12.9946227",
            "locType": "community_centre",
            "closest_to": "murudeshwara"
        },
        "woodland": {
            "blogLinks": [
                "http://pritskulkarni.blogspot.com/2015/02/road-trip-to-beautiful-coastal-karnataka.html"
            ],
            "longitude": "77.5954874",
            "address": "woodland, Balmuri Main Road, Hulimavu, Bannerghatta Road, Mico Arekere Layout 1st Stage, Hulimavu, Bengaluru, Bangalore Urban, Karnataka, 560076, India",
            "latitude": "12.8760834",
            "locType": "shoes",
            "closest_to": "murudeshwara"
        },
        "gulbarga of karnataka": {
            "blogLinks": [
                "https://en.wikipedia.org/wiki/Bidar"
            ],
            "longitude": "76.8498062474445",
            "address": "Gulbarga taluku, Kalaburagi district, Karnataka, India",
            "latitude": "17.3677905",
            "locType": "administrative",
            "closest_to": "murudeshwara"
        },
        "half-moon beach": {
            "blogLinks": [
                "http://travel.india.com/gokarna/"
            ],
            "longitude": "74.3310971256284",
            "address": "Half Moon Beach, Om beach road, Gokarna, Kumata taluk, Uttara Kannada, Karnataka, 581326, India",
            "latitude": "14.5179028",
            "locType": "beach",
            "closest_to": "murudeshwara"
        },
        "gokarna road": {
            "blogLinks": [
                "http://travel.india.com/gokarna/"
            ],
            "longitude": "74.358586",
            "address": "Gokarna Road, Torke, Kumata taluk, Uttara Kannada, Karnataka, 581344, India",
            "latitude": "14.5697148",
            "locType": "primary",
            "closest_to": "murudeshwara"
        },
        "maha ganapati temple": {
            "blogLinks": [
                "http://pritskulkarni.blogspot.com/2015/02/road-trip-to-beautiful-coastal-karnataka.html"
            ],
            "longitude": "77.6349601",
            "address": "Maha Ganapati Temple, 1st Main Road, Sanchar Nagar, Thanisandra, Geddalahalli, Bangalore Urban, Karnataka, 560077, India",
            "latitude": "13.0517564",
            "locType": "place_of_worship",
            "closest_to": "murudeshwara"
        },
        "durga temple": {
            "blogLinks": [
                "https://www.quora.com/What-are-the-best-places-to-visit-on-a-3-day-trip-in-and-around-Karnataka"
            ],
            "longitude": "77.6125928",
            "address": "Durga Temple, 29th Main, Mahadeshwara Nagara, BTM Layout, Bengaluru, Bangalore Urban, Karnataka, 560001, India",
            "latitude": "12.9057731",
            "locType": "place_of_worship",
            "closest_to": "murudeshwara"
        },
        "coorg": {
            "blogLinks": [
                "https://www.quora.com/What-are-the-best-places-to-visit-on-a-3-day-trip-in-and-around-Karnataka"
            ],
            "longitude": "75.740031",
            "address": "Madikeri, Madikeri taluku, Kodagu, Karnataka, India",
            "latitude": "12.4204003",
            "locType": "town",
            "closest_to": "murudeshwara"
        },
        "cubbon park": {
            "blogLinks": [
                "http://blog.indianluxurytrains.com/2014/09/best-places-to-visit-in-karnataka.html"
            ],
            "longitude": "77.5977565",
            "address": "Cubbon Park, Cubbon Road, Tasker Town, Shivajinagar, Bengaluru, Bangalore Urban, Karnataka, 560001, India",
            "latitude": "12.9808487",
            "locType": "station",
            "closest_to": "murudeshwara"
        },
        "southern karnataka": {
            "blogLinks": [
                "https://en.wikipedia.org/wiki/Bidar"
            ],
            "longitude": "77.6227757667762",
            "address": "Survey Of India - Southern Zone, Madivala, Bengaluru, Bangalore Urban, Karnataka, 560001, India",
            "latitude": "12.92588785",
            "locType": "commercial",
            "closest_to": "murudeshwara"
        },
        "karnataka": {
            "blogLinks": [
                "http://blog.indianluxurytrains.com/2014/09/best-places-to-visit-in-karnataka.html",
                "http://pritskulkarni.blogspot.com/2015/02/road-trip-to-beautiful-coastal-karnataka.html",
                "http://www.karnatakatourism.org/",
                "http://www.myhappyjourney.com/Murudeshwar",
                "http://travel.india.com/gokarna/",
                "http://www.nivalink.com/destination/murudeshwar",
                "https://creekntrails.com/2016/05/14/bidar-trip-from-hyderabad-on-bike-with-friends/",
                "https://en.wikipedia.org/wiki/Bidar",
                "https://www.quora.com/What-are-the-best-places-to-visit-on-a-3-day-trip-in-and-around-Karnataka",
                "https://vtripindia2016.wordpress.com/2016/09/17/places-to-visit-in-murudeshwara/"
            ],
            "longitude": "76.6639936",
            "address": "Karnataka, Shalivahana Road, Nazarbad, Mysuru, Mysuru taluk, Mysuru district, Karnataka, 570001, India",
            "latitude": "12.3084901",
            "locType": "atm",
            "closest_to": "murudeshwara"
        },
        "bijapur district": {
            "blogLinks": [
                "https://www.quora.com/What-are-the-best-places-to-visit-on-a-3-day-trip-in-and-around-Karnataka"
            ],
            "longitude": "75.897147327785",
            "address": "Bijapur district, Karnataka, India",
            "latitude": "16.81105965",
            "locType": "administrative",
            "closest_to": "murudeshwara"
        },
        "north karnataka": {
            "blogLinks": [
                "https://www.quora.com/What-are-the-best-places-to-visit-on-a-3-day-trip-in-and-around-Karnataka"
            ],
            "longitude": "77.7660547",
            "address": "N, Chaithanya Samarpan, Kadugodi, Kannamangala, Bangalore Urban, Karnataka, 560066, India",
            "latitude": "13.0217151",
            "locType": "service",
            "closest_to": "murudeshwara"
        },
        "bagalkot": {
            "blogLinks": [
                "http://blog.indianluxurytrains.com/2014/09/best-places-to-visit-in-karnataka.html"
            ],
            "longitude": "75.6967919",
            "address": "Bagalakote, Bagalakote taluk, Bagalkote district, Karnataka, India",
            "latitude": "16.1853166",
            "locType": "city",
            "closest_to": "murudeshwara"
        },
        "mangalore": {
            "blogLinks": [
                "http://pritskulkarni.blogspot.com/2015/02/road-trip-to-beautiful-coastal-karnataka.html",
                "http://travel.india.com/gokarna/",
                "http://www.nivalink.com/destination/murudeshwar",
                "https://www.quora.com/What-are-the-best-places-to-visit-on-a-3-day-trip-in-and-around-Karnataka",
                "https://vtripindia2016.wordpress.com/2016/09/17/places-to-visit-in-murudeshwara/",
                "https://www.makemytrip.com/routeplanner/bangalore-murudeshwara.html"
            ],
            "longitude": "74.8430082",
            "address": "Mangaluru, Mangaluru taluk, Dakshina Kannada, Karnataka, 575001, India",
            "latitude": "12.8698101",
            "locType": "city",
            "closest_to": "murudeshwara"
        },
        "sangameshwara": {
            "blogLinks": [
                "https://www.quora.com/What-are-the-best-places-to-visit-on-a-3-day-trip-in-and-around-Karnataka"
            ],
            "longitude": "74.87651",
            "address": "Sangameshwara, Kalaghatagi taluku, Dharwad district, Karnataka, India",
            "latitude": "15.184341",
            "locType": "village",
            "closest_to": "murudeshwara"
        },
        "murudeshwara": {
            "blogLinks": [
                "https://www.makemytrip.com/routeplanner/bangalore-murudeshwara.html"
            ],
            "longitude": "74.4883354",
            "address": "Murudeshwara, Bhatkala taluk, Uttara Kannada, Karnataka, 581350, India",
            "latitude": "14.0959549",
            "locType": "town",
            "closest_to": "murudeshwara"
        },
        "kudle beach": {
            "blogLinks": [
                "http://travel.india.com/gokarna/",
                "http://pritskulkarni.blogspot.com/2015/02/road-trip-to-beautiful-coastal-karnataka.html"
            ],
            "longitude": "74.3156783937192",
            "address": "Kudle Beach, Om beach road, Gokarna, Kumata taluk, Uttara Kannada, Karnataka, 581326, India",
            "latitude": "14.5281015",
            "locType": "beach",
            "closest_to": "murudeshwara"
        },
        "hubli": {
            "blogLinks": [
                "http://travel.india.com/gokarna/",
                "http://www.nivalink.com/destination/murudeshwar"
            ],
            "longitude": "75.1379848",
            "address": "Hubballi - \u0cb9\u0cc1\u0cac\u0ccd\u0cac\u0cb3\u0ccd\u0cb3\u0cbf, Hubballi taluku, Dharwad district, Karnataka, 580020, India",
            "latitude": "15.3518378",
            "locType": "city",
            "closest_to": "murudeshwara"
        },
        "gurupura": {
            "blogLinks": [
                "https://www.quora.com/What-are-the-best-places-to-visit-on-a-3-day-trip-in-and-around-Karnataka"
            ],
            "longitude": "75.7161587",
            "address": "Gurupura, Tarikere taluku, Chikkamagaluru district, Karnataka, India",
            "latitude": "13.6686411",
            "locType": "village",
            "closest_to": "murudeshwara"
        },
        "chennakesava": {
            "blogLinks": [
                "http://blog.indianluxurytrains.com/2014/09/best-places-to-visit-in-karnataka.html"
            ],
            "longitude": "75.8603311",
            "address": "Chennakesava Temple, NH73, Navilahalli, Beluru taluk, Hassan district, Karnataka, India",
            "latitude": "13.1629239",
            "locType": "place_of_worship",
            "closest_to": "murudeshwara"
        },
        "hassan": {
            "blogLinks": [
                "http://blog.indianluxurytrains.com/2014/09/best-places-to-visit-in-karnataka.html"
            ],
            "longitude": "76.0992703",
            "address": "Hassan, Hasana taluk, Hassan district, Karnataka, 573201, India",
            "latitude": "13.0070817",
            "locType": "town",
            "closest_to": "murudeshwara"
        },
        "hyderabad": {
            "blogLinks": [
                "https://en.wikipedia.org/wiki/Bidar",
                "http://pritskulkarni.blogspot.com/2015/02/road-trip-to-beautiful-coastal-karnataka.html",
                "https://creekntrails.com/2016/05/14/bidar-trip-from-hyderabad-on-bike-with-friends/"
            ],
            "longitude": "77.5344002",
            "address": "Hyderabad Road, Old City, Bidar, Bidar taluku, Bidar district, Karnataka, 585400, India",
            "latitude": "17.9003114",
            "locType": "primary",
            "closest_to": "murudeshwara"
        },
        "gokul garden": {
            "blogLinks": [
                "https://www.quora.com/What-are-the-best-places-to-visit-on-a-3-day-trip-in-and-around-Karnataka"
            ],
            "longitude": "75.1141861403246",
            "address": "Gokul Garden, Gokul Road / Airport Road, Renuka Nagar, Padmaraj Nagar, Gokul, Hubballi taluku, Dharwad district, Karnataka, 580030, India",
            "latitude": "15.35009745",
            "locType": "recreation_ground",
            "closest_to": "murudeshwara"
        },
        "manjunatha temple": {
            "blogLinks": [
                "https://www.quora.com/What-are-the-best-places-to-visit-on-a-3-day-trip-in-and-around-Karnataka"
            ],
            "longitude": "77.5640116772773",
            "address": "Devagiri Manjunatha Swamy Temple, 30th Cross, Jayanagar 8th Block, Banashankari 2nd Stage, Bengaluru, Bangalore Urban, Karnataka, 560001, India",
            "latitude": "12.9211928",
            "locType": "place_of_worship",
            "closest_to": "murudeshwara"
        },
        "district": {
            "blogLinks": [
                "https://en.wikipedia.org/wiki/Bidar"
            ],
            "longitude": "76.6639936",
            "address": "Karnataka, Shalivahana Road, Nazarbad, Mysuru, Mysuru taluk, Mysuru district, Karnataka, 570001, India",
            "latitude": "12.3084901",
            "locType": "atm",
            "closest_to": "murudeshwara"
        },
        "bahubali": {
            "blogLinks": [
                "https://www.quora.com/What-are-the-best-places-to-visit-on-a-3-day-trip-in-and-around-Karnataka"
            ],
            "longitude": "76.4846128",
            "address": "Bahubali Statue, SH8, Shravanabelagola, Channarayapattana taluk, Hassan district, Karnataka, 573135, India",
            "latitude": "12.8540505",
            "locType": "place_of_worship",
            "closest_to": "murudeshwara"
        },
        "sirsi": {
            "blogLinks": [
                "https://www.quora.com/What-are-the-best-places-to-visit-on-a-3-day-trip-in-and-around-Karnataka"
            ],
            "longitude": "74.8388611",
            "address": "Sirsi, Shirasi taluk, Uttara Kannada, Karnataka, 581400, India",
            "latitude": "14.6192362",
            "locType": "town",
            "closest_to": "murudeshwara"
        },
        "vijaynagara": {
            "blogLinks": [
                "http://blog.indianluxurytrains.com/2014/09/best-places-to-visit-in-karnataka.html"
            ],
            "longitude": "77.5383681",
            "address": "Vijaynagara, Chord Road, Marenahalli, Vijaya Nagar, Binny Layout, Bangalore Urban, Karnataka, 560040, India",
            "latitude": "12.9726377",
            "locType": "bus_stop",
            "closest_to": "murudeshwara"
        },
        "kannur": {
            "blogLinks": [
                "http://www.nivalink.com/destination/murudeshwar"
            ],
            "longitude": "74.8858161",
            "address": "Netravati bridge - Kannur Bypass Road (Proposed), Padil, Bajal, Mangaluru taluk, Dakshina Kannada, Karnataka, 575007, India",
            "latitude": "12.8487602",
            "locType": "construction",
            "closest_to": "murudeshwara"
        },
        "bahmani": {
            "blogLinks": [
                "http://blog.indianluxurytrains.com/2014/09/best-places-to-visit-in-karnataka.html"
            ],
            "longitude": "76.8315008",
            "address": "Bahmani Fort, Alanda Road, Fort, Rauza, Kalaburagi, Gulbarga taluku, Kalaburagi district, Karnataka, 585101, India",
            "latitude": "17.3415485",
            "locType": "castle",
            "closest_to": "murudeshwara"
        },
        "kodagu": {
            "blogLinks": [
                "https://www.quora.com/What-are-the-best-places-to-visit-on-a-3-day-trip-in-and-around-Karnataka",
                "http://blog.indianluxurytrains.com/2014/09/best-places-to-visit-in-karnataka.html"
            ],
            "longitude": "75.6677235950852",
            "address": "Kodagu, Karnataka, India",
            "latitude": "12.38117345",
            "locType": "administrative",
            "closest_to": "murudeshwara"
        },
        "gokarna beach": {
            "blogLinks": [
                "http://travel.india.com/gokarna/"
            ],
            "longitude": "74.3109489488919",
            "address": "Gokarna Beach, Gokarna Road, Ganji Gadde, Kumata taluk, Uttara Kannada, Karnataka, 581326, India",
            "latitude": "14.5516537",
            "locType": "beach",
            "closest_to": "murudeshwara"
        },
        "madhukeshwara": {
            "blogLinks": [
                "https://www.quora.com/What-are-the-best-places-to-visit-on-a-3-day-trip-in-and-around-Karnataka"
            ],
            "longitude": "75.1480027",
            "address": "Madhukeshwara Temple, Kattinakere Road, Kattinakere Bus Stand, Soraba taluk, Shimoga district, Karnataka, India",
            "latitude": "14.3058996",
            "locType": "place_of_worship",
            "closest_to": "murudeshwara"
        },
        "beach": {
            "blogLinks": [
                "https://sbalamurugan.wordpress.com/2007/05/16/trip-to-gokarna/"
            ],
            "longitude": "74.3276051",
            "address": "Om beach road, Gokarna, Kumata taluk, Uttara Kannada, Karnataka, 581326, India",
            "latitude": "14.5341904",
            "locType": "tertiary",
            "closest_to": "murudeshwara"
        },
        "papanatha": {
            "blogLinks": [
                "http://blog.indianluxurytrains.com/2014/09/best-places-to-visit-in-karnataka.html"
            ],
            "longitude": "75.8164391839286",
            "address": "Papanatha Temple, SH14, \u0cac\u0cbe\u0c9a\u0cbf\u0ca8\u0c97\u0cc1\u0ca1\u0ccd\u0ca1, Badami taluku, Bagalkote district, Karnataka, 587211, India",
            "latitude": "15.94762935",
            "locType": "yes",
            "closest_to": "murudeshwara"
        },
        "marikamba temple": {
            "blogLinks": [
                "https://www.quora.com/What-are-the-best-places-to-visit-on-a-3-day-trip-in-and-around-Karnataka"
            ],
            "longitude": "74.8103631279317",
            "address": "Marikamba Temple, NH766C;SH26, Halkal, \u0c95\u0cc1\u0c82\u0ca6\u0cbe\u0caa\u0cc1\u0cb0 \u0ca4\u0cbe\u0cb2\u0cc2\u0c95\u0cc1, Udupi district, Karnataka, 576220, India",
            "latitude": "13.8626958",
            "locType": "place_of_worship",
            "closest_to": "murudeshwara"
        },
        "himavad gopalaswamy betta": {
            "blogLinks": [
                "https://www.quora.com/What-are-the-best-places-to-visit-on-a-3-day-trip-in-and-around-Karnataka"
            ],
            "longitude": "76.5804063",
            "address": "Gopalaswami Temple, Gopal Swami Betta road, Devarahalli, Gundlupet taluk, Chamarajanagar district, Karnataka, India",
            "latitude": "11.7206016",
            "locType": "place_of_worship",
            "closest_to": "murudeshwara"
        },
        "kadamba": {
            "blogLinks": [
                "https://www.quora.com/What-are-the-best-places-to-visit-on-a-3-day-trip-in-and-around-Karnataka"
            ],
            "longitude": "77.7436954",
            "address": "Kadamba Avenue, R. Narayanapura, Brookefields, Dodsworth Enclave, Bangalore Urban, Karnataka, 560066, India",
            "latitude": "12.9703178",
            "locType": "residential",
            "closest_to": "murudeshwara"
        },
        "sri krishna temple": {
            "blogLinks": [
                "https://www.quora.com/What-are-the-best-places-to-visit-on-a-3-day-trip-in-and-around-Karnataka"
            ],
            "longitude": "77.6437236",
            "address": "Sri Krishna Temple Road, Old Binnamangala, Hoysala Nagar, Bengaluru, Bangalore Urban, Karnataka, 560001, India",
            "latitude": "12.9791699",
            "locType": "unclassified",
            "closest_to": "murudeshwara"
        },
        "gurudwara": {
            "blogLinks": [
                "https://creekntrails.com/2016/05/14/bidar-trip-from-hyderabad-on-bike-with-friends/"
            ],
            "longitude": "77.6206886107944",
            "address": "Gurudwara, Bhaskaran Road, Gupta Layout, Halasuru, Bengaluru, Bangalore Urban, Karnataka, 560001, India",
            "latitude": "12.97623345",
            "locType": "place_of_worship",
            "closest_to": "murudeshwara"
        },
        "south": {
            "blogLinks": [
                "https://www.quora.com/What-are-the-best-places-to-visit-on-a-3-day-trip-in-and-around-Karnataka"
            ],
            "longitude": "77.8040874",
            "address": "s, Vijayapura, Devanahalli taluk, Bangalore Rural, Karnataka, 562135, India",
            "latitude": "13.2942848",
            "locType": "residential",
            "closest_to": "murudeshwara"
        },
        "kali": {
            "blogLinks": [
                "https://www.quora.com/What-are-the-best-places-to-visit-on-a-3-day-trip-in-and-around-Karnataka"
            ],
            "longitude": "74.5802901",
            "address": "Kali, Joida taluk, Uttara Kannada, Karnataka, India",
            "latitude": "15.0145378",
            "locType": "river",
            "closest_to": "murudeshwara"
        },
        "uma maheshwara temple": {
            "blogLinks": [
                "http://blog.indianluxurytrains.com/2014/09/best-places-to-visit-in-karnataka.html"
            ],
            "longitude": "74.3120254424635",
            "address": "Uma-maheshwara temple, Om beach road, Gokarna, Kumata taluk, Uttara Kannada, Karnataka, 581326, India",
            "latitude": "14.5234594",
            "locType": "place_of_worship",
            "closest_to": "murudeshwara"
        },
        "narasimha swami temple": {
            "blogLinks": [
                "https://www.tripadvisor.in/Attraction_Review-g297627-d1793953-Reviews-Murudeshwar-Karnataka.html"
            ],
            "longitude": "77.6485907840766",
            "address": "Narasimha Swami Temple, Prime City Apartment Private Road, Electronics City Phase 1, Doddathoguru, Bangalore Urban, Karnataka, 560100, India",
            "latitude": "12.85075195",
            "locType": "place_of_worship",
            "closest_to": "murudeshwara"
        },
        "bangalore karnataka": {
            "blogLinks": [
                "https://www.quora.com/What-are-the-best-places-to-visit-on-a-3-day-trip-in-and-around-Karnataka"
            ],
            "longitude": "77.5912997",
            "address": "Bengaluru, Bangalore Urban, Karnataka, 560001, India",
            "latitude": "12.9791198",
            "locType": "city",
            "closest_to": "murudeshwara"
        },
        "bangkok": {
            "blogLinks": [
                "https://www.quora.com/What-are-the-best-places-to-visit-on-a-3-day-trip-in-and-around-Karnataka"
            ],
            "longitude": "77.6382633",
            "address": "One night in Bangkok, 12th Main Road, HAL 2nd Stage, Indiranagar, Bengaluru, Bangalore Urban, Karnataka, 560001, India",
            "latitude": "12.9701967",
            "locType": "bar",
            "closest_to": "murudeshwara"
        },
        "hoysaleswara": {
            "blogLinks": [
                "http://blog.indianluxurytrains.com/2014/09/best-places-to-visit-in-karnataka.html"
            ],
            "longitude": "75.9941649",
            "address": "Hoysaleswara Temple, SH21, Halebidu, Beluru taluk, Hassan district, Karnataka, 573121, India",
            "latitude": "13.2127193",
            "locType": "place_of_worship",
            "closest_to": "murudeshwara"
        },
        "dharmasthala": {
            "blogLinks": [
                "https://sbalamurugan.wordpress.com/2007/05/16/trip-to-gokarna/"
            ],
            "longitude": "75.3813122",
            "address": "Dharmasthala, Beltangadi taluk, Dakshina Kannada, Karnataka, 574216, India",
            "latitude": "12.9519571",
            "locType": "village",
            "closest_to": "murudeshwara"
        },
        "mahabaleshwar temple": {
            "blogLinks": [
                "http://travel.india.com/gokarna/"
            ],
            "longitude": "77.5899443",
            "address": "Mahabaleshwar Temple, Mission Road (Kalinga Rao Road), Sampangirama Nagar, Shanti Nagar, Bengaluru, Bangalore Urban, Karnataka, 560001, India",
            "latitude": "12.962625",
            "locType": "place_of_worship",
            "closest_to": "murudeshwara"
        },
        "mirjan fort": {
            "blogLinks": [
                "https://www.quora.com/What-are-the-best-places-to-visit-on-a-3-day-trip-in-and-around-Karnataka"
            ],
            "longitude": "74.4174838158512",
            "address": "Mirjana Fort, Edapally- Panvel Highway, Kimani, Kumata taluk, Uttara Kannada, Karnataka, 581344, India",
            "latitude": "14.48905715",
            "locType": "attraction",
            "closest_to": "murudeshwara"
        },
        "medak": {
            "blogLinks": [
                "https://en.wikipedia.org/wiki/Bidar"
            ],
            "longitude": "77.4638843",
            "address": "Medaka, Sedam taluku, Kalaburagi district, Karnataka, India",
            "latitude": "16.9816377",
            "locType": "village",
            "closest_to": "murudeshwara"
        },
        "' island": {
            "blogLinks": [
                "http://www.nivalink.com/destination/murudeshwar"
            ],
            "longitude": "74.8834637",
            "address": "Isa, Shirasi taluk, Uttara Kannada, Karnataka, India",
            "latitude": "14.6799543",
            "locType": "village",
            "closest_to": "murudeshwara"
        },
        "kaveri": {
            "blogLinks": [
                "https://www.quora.com/What-are-the-best-places-to-visit-on-a-3-day-trip-in-and-around-Karnataka"
            ],
            "longitude": "77.0635531",
            "address": "Kaveri, Kollegala taluk, Chamarajanagar district, Karnataka, India",
            "latitude": "12.1687878",
            "locType": "river",
            "closest_to": "murudeshwara"
        },
        "bidar district": {
            "blogLinks": [
                "https://en.wikipedia.org/wiki/Bidar"
            ],
            "longitude": "77.2496344350342",
            "address": "Bidar district, Karnataka, India",
            "latitude": "18.0158574",
            "locType": "administrative",
            "closest_to": "murudeshwara"
        },
        "costal karnataka": {
            "blogLinks": [
                "http://pritskulkarni.blogspot.com/2015/02/road-trip-to-beautiful-coastal-karnataka.html"
            ],
            "longitude": "76.6277264",
            "address": "Costal Garden, Krishnaraja Sagara Road, Manti, Srirangapattana taluk, Mandya district, Karnataka, India",
            "latitude": "12.3564037",
            "locType": "restaurant",
            "closest_to": "murudeshwara"
        },
        "jayapura": {
            "blogLinks": [
                "https://sbalamurugan.wordpress.com/2007/05/16/trip-to-gokarna/"
            ],
            "longitude": "75.3727343",
            "address": "Jayapura, Koppa taluk, Chikkamagaluru district, Karnataka, India",
            "latitude": "13.4029589",
            "locType": "town",
            "closest_to": "murudeshwara"
        },
        "bhatkal taluk of uttara kannada": {
            "blogLinks": [
                "https://vtripindia2016.wordpress.com/2016/09/17/places-to-visit-in-murudeshwara/"
            ],
            "longitude": "74.5485295",
            "address": "Bhatkal, Bhatkala taluk, Uttara Kannada, Karnataka, 581320, India",
            "latitude": "13.9952114",
            "locType": "town",
            "closest_to": "murudeshwara"
        },
        "bandipur national park": {
            "blogLinks": [
                "https://www.quora.com/What-are-the-best-places-to-visit-on-a-3-day-trip-in-and-around-Karnataka",
                "http://blog.indianluxurytrains.com/2014/09/best-places-to-visit-in-karnataka.html"
            ],
            "longitude": "76.4314968740264",
            "address": "Bandipur National Park, Kozhikode - Kollegal Highway, Gundlupet taluk, Chamarajanagar district, Karnataka, India",
            "latitude": "11.76682425",
            "locType": "national_park",
            "closest_to": "murudeshwara"
        },
        "parvati": {
            "blogLinks": [
                "https://www.quora.com/What-are-the-best-places-to-visit-on-a-3-day-trip-in-and-around-Karnataka"
            ],
            "longitude": "75.7898501",
            "address": "Parvati, Badami taluku, Bagalkote district, Karnataka, India",
            "latitude": "16.0395701",
            "locType": "village",
            "closest_to": "murudeshwara"
        },
        "north kerala": {
            "blogLinks": [
                "http://www.nivalink.com/destination/murudeshwar"
            ],
            "longitude": "77.6382683",
            "address": "New Life Kerala Mess, Sai Baba Mandira Road, Mottappanapalaya, Indiranagar, Bengaluru, Bangalore Urban, Karnataka, 560001, India",
            "latitude": "12.9726449",
            "locType": "restaurant",
            "closest_to": "murudeshwara"
        },
        "maddur": {
            "blogLinks": [
                "https://www.quora.com/What-are-the-best-places-to-visit-on-a-3-day-trip-in-and-around-Karnataka"
            ],
            "longitude": "77.0456404",
            "address": "Maddur, Madduru taluk, Mandya district, Karnataka, 571428, India",
            "latitude": "12.5851916",
            "locType": "town",
            "closest_to": "murudeshwara"
        },
        "mahabaleshwara temple": {
            "blogLinks": [
                "http://travel.india.com/gokarna/"
            ],
            "longitude": "77.5899749843004",
            "address": "Mahabaleshwara Temple, Mission Road (Kalinga Rao Road ), Sampangirama Nagar, Shanti Nagar, Bengaluru, Bangalore Urban, Karnataka, 560001, India",
            "latitude": "12.96264945",
            "locType": "place_of_worship",
            "closest_to": "murudeshwara"
        },
        "kolkata": {
            "blogLinks": [
                "https://en.wikipedia.org/wiki/Bidar"
            ],
            "longitude": "77.5478044",
            "address": "Kolkata Biryani And Rolls, 1st Main Basaveshwaranagar, Rajajinagar 3rd Block, Dasarahalli, Bengaluru, Bangalore Urban, Karnataka, 560010, India",
            "latitude": "12.9845159",
            "locType": "restaurant",
            "closest_to": "murudeshwara"
        },
        "uttara kannada": {
            "blogLinks": [
                "https://www.quora.com/What-are-the-best-places-to-visit-on-a-3-day-trip-in-and-around-Karnataka"
            ],
            "longitude": "74.4729163045979",
            "address": "Uttara Kannada, Karnataka, India",
            "latitude": "14.6726379",
            "locType": "administrative",
            "closest_to": "murudeshwara"
        },
        "rose garden": {
            "blogLinks": [
                "https://www.quora.com/What-are-the-best-places-to-visit-on-a-3-day-trip-in-and-around-Karnataka"
            ],
            "longitude": "77.590382853852",
            "address": "Rose Garden, Dr B R Ambedkar Veedhi, Shantala Nagar, Gandhinagar, Bengaluru, Bangalore Urban, Karnataka, 560001, India",
            "latitude": "12.97371325",
            "locType": "garden",
            "closest_to": "murudeshwara"
        },
        "harangi dam": {
            "blogLinks": [
                "http://blog.indianluxurytrains.com/2014/09/best-places-to-visit-in-karnataka.html"
            ],
            "longitude": "75.9056999171375",
            "address": "Harangi dam, Somawarpet taluk, Kodagu, Karnataka, India",
            "latitude": "12.4928663",
            "locType": "dam",
            "closest_to": "murudeshwara"
        },
        "ooty": {
            "blogLinks": [
                "https://www.quora.com/What-are-the-best-places-to-visit-on-a-3-day-trip-in-and-around-Karnataka"
            ],
            "longitude": "76.6586807",
            "address": "Ooty Road, Vidyaranyapuram, Mysuru, Mysuru taluk, Mysuru district, Karnataka, 570001, India",
            "latitude": "12.2774807",
            "locType": "primary",
            "closest_to": "murudeshwara"
        },
        "coastal karnataka": {
            "blogLinks": [
                "http://www.nivalink.com/destination/murudeshwar"
            ],
            "longitude": "74.8137275833157",
            "address": "Bharat Petroleum Mangalore Coastal Installation, Baikampady, Mangaluru taluk, Dakshina Kannada, Karnataka, 575014, India",
            "latitude": "12.96014675",
            "locType": "industrial",
            "closest_to": "murudeshwara"
        },
        "botanical garden": {
            "blogLinks": [
                "https://www.quora.com/What-are-the-best-places-to-visit-on-a-3-day-trip-in-and-around-Karnataka"
            ],
            "longitude": "77.5744817798899",
            "address": "Botanical Garden, Cart road, Judicial Layout, Jakkur, Bangalore Urban, Karnataka, 560065, India",
            "latitude": "13.08099125",
            "locType": "protected_area",
            "closest_to": "murudeshwara"
        },
        "udipi": {
            "blogLinks": [
                "http://www.nivalink.com/destination/murudeshwar"
            ],
            "longitude": "77.652888",
            "address": "Udipi Park, 2nd Cross Road, Muniyappa Layout, Murugeshpalaya, Belure Ambedkar Nagar, Bangalore Urban, Karnataka, 560067, India",
            "latitude": "12.9530588",
            "locType": "restaurant",
            "closest_to": "murudeshwara"
        },
        "gulbarga": {
            "blogLinks": [
                "https://en.wikipedia.org/wiki/Bidar",
                "https://www.quora.com/What-are-the-best-places-to-visit-on-a-3-day-trip-in-and-around-Karnataka",
                "https://creekntrails.com/2016/05/14/bidar-trip-from-hyderabad-on-bike-with-friends/"
            ],
            "longitude": "77.083333",
            "address": "Kalaburgi, Kalaburagi district, Karnataka, India",
            "latitude": "17.166667",
            "locType": "county",
            "closest_to": "murudeshwara"
        },
        "bidar fort": {
            "blogLinks": [
                "https://creekntrails.com/2016/05/14/bidar-trip-from-hyderabad-on-bike-with-friends/"
            ],
            "longitude": "77.5265890380672",
            "address": "Bidar Fort, Qila Road, Multani Colony, Old City, Bidar, Bidar taluku, Bidar district, Karnataka, 585400, India",
            "latitude": "17.92480435",
            "locType": "castle",
            "closest_to": "murudeshwara"
        },
        "pune": {
            "blogLinks": [
                "http://pritskulkarni.blogspot.com/2015/02/road-trip-to-beautiful-coastal-karnataka.html",
                "http://www.myhappyjourney.com/Murudeshwar"
            ],
            "longitude": "76.9479122",
            "address": "Pune - Machilipatnam Highway, Kaudiyala, Basavakalyana taluku, Bidar district, Karnataka, India",
            "latitude": "17.8199745",
            "locType": "trunk",
            "closest_to": "murudeshwara"
        },
        "kalyana": {
            "blogLinks": [
                "https://en.wikipedia.org/wiki/Bidar"
            ],
            "longitude": "75.2195245",
            "address": "Kalyana, Shiggaon taluk, Haveri district, Karnataka, India",
            "latitude": "14.9501529",
            "locType": "village",
            "closest_to": "murudeshwara"
        },
        "tagore beach": {
            "blogLinks": [
                "https://www.quora.com/What-are-the-best-places-to-visit-on-a-3-day-trip-in-and-around-Karnataka"
            ],
            "longitude": "74.126114099183",
            "address": "Rabindranath Tagore Beach, NH66, Kodibag, Karwar, Karavara taluk, Uttara Kannada, Karnataka, 581300, India",
            "latitude": "14.81741155",
            "locType": "beach",
            "closest_to": "murudeshwara"
        },
        "mumbai": {
            "blogLinks": [
                "https://en.wikipedia.org/wiki/Bidar",
                "http://pritskulkarni.blogspot.com/2015/02/road-trip-to-beautiful-coastal-karnataka.html",
                "https://creekntrails.com/2016/05/14/bidar-trip-from-hyderabad-on-bike-with-friends/"
            ],
            "longitude": "77.5718472",
            "address": "Mumbai Spice, 18/2, 10th Cross, Malleswaram, Vyalikaval, Malleswaram, Bengaluru, Bangalore Urban, Karnataka, 560003, India",
            "latitude": "13.0002869",
            "locType": "restaurant",
            "closest_to": "murudeshwara"
        },
        "ooty lake": {
            "blogLinks": [
                "https://www.quora.com/What-are-the-best-places-to-visit-on-a-3-day-trip-in-and-around-Karnataka"
            ],
            "longitude": "76.6586807",
            "address": "Ooty Road, Vidyaranyapuram, Mysuru, Mysuru taluk, Mysuru district, Karnataka, 570001, India",
            "latitude": "12.2774807",
            "locType": "primary",
            "closest_to": "murudeshwara"
        },
        "nirmithi kendra": {
            "blogLinks": [
                "https://en.wikipedia.org/wiki/Bidar"
            ],
            "longitude": "76.239739",
            "address": "Grameena Nirmithi Kendra Kalbetta, NH275, Attikuppe, Hunasuru taluk, Mysuru district, Karnataka, India",
            "latitude": "12.315061",
            "locType": "public_building",
            "closest_to": "murudeshwara"
        },
        "badami": {
            "blogLinks": [
                "https://www.quora.com/What-are-the-best-places-to-visit-on-a-3-day-trip-in-and-around-Karnataka"
            ],
            "longitude": "75.6807865",
            "address": "Badami, Badami taluku, Bagalkote district, Karnataka, 587200, India",
            "latitude": "15.9203874",
            "locType": "town",
            "closest_to": "murudeshwara"
        },
        "bangalore": {
            "blogLinks": [
                "https://sbalamurugan.wordpress.com/2007/05/16/trip-to-gokarna/",
                "http://travel.india.com/gokarna/",
                "http://www.nivalink.com/destination/murudeshwar",
                "https://en.wikipedia.org/wiki/Bidar",
                "https://www.quora.com/What-are-the-best-places-to-visit-on-a-3-day-trip-in-and-around-Karnataka",
                "https://www.makemytrip.com/routeplanner/bangalore-murudeshwara.html"
            ],
            "longitude": "77.5912997",
            "address": "Bengaluru, Bangalore Urban, Karnataka, 560001, India",
            "latitude": "12.9791198",
            "locType": "city",
            "closest_to": "murudeshwara"
        },
        "mahadeshwara hills": {
            "blogLinks": [
                "https://www.quora.com/What-are-the-best-places-to-visit-on-a-3-day-trip-in-and-around-Karnataka"
            ],
            "longitude": "77.5414216",
            "address": "Sri Mahadeshwara Filling Station, Outer Ring Road, Seven Hills Layout, Kathriguppe, Bengaluru, Bangalore Urban, Karnataka, 560001, India",
            "latitude": "12.932367",
            "locType": "fuel",
            "closest_to": "murudeshwara"
        },
        "ganeshgudi": {
            "blogLinks": [
                "https://www.quora.com/What-are-the-best-places-to-visit-on-a-3-day-trip-in-and-around-Karnataka",
                "http://pritskulkarni.blogspot.com/2015/02/road-trip-to-beautiful-coastal-karnataka.html"
            ],
            "longitude": "74.5335693",
            "address": "Ganeshagudi, Joida taluk, Uttara Kannada, Karnataka, India",
            "latitude": "15.2815822",
            "locType": "village",
            "closest_to": "murudeshwara"
        },
        "mangalore international airport": {
            "blogLinks": [
                "http://travel.india.com/gokarna/"
            ],
            "longitude": "74.887492668144",
            "address": "Mangalore International Airport, Airport Entry Road, Gandhinagar, Kenjar, Mangaluru taluk, Dakshina Kannada, Karnataka, 575015, India",
            "latitude": "12.95518575",
            "locType": "aerodrome",
            "closest_to": "murudeshwara"
        },
        "yellapur": {
            "blogLinks": [
                "https://www.quora.com/What-are-the-best-places-to-visit-on-a-3-day-trip-in-and-around-Karnataka"
            ],
            "longitude": "74.7061458",
            "address": "Yellapura, Yallapura taluk, Uttara Kannada, Karnataka, 581359, India",
            "latitude": "14.9622518",
            "locType": "town",
            "closest_to": "murudeshwara"
        },
        "sykes point": {
            "blogLinks": [
                "http://blog.indianluxurytrains.com/2014/09/best-places-to-visit-in-karnataka.html"
            ],
            "longitude": "74.6488754",
            "address": "Sykes point, Ambikanagar road, Haliyala taluku, Uttara Kannada, Karnataka, India",
            "latitude": "15.0905368",
            "locType": "viewpoint",
            "closest_to": "murudeshwara"
        },
        "chamundi hill": {
            "blogLinks": [
                "https://www.quora.com/What-are-the-best-places-to-visit-on-a-3-day-trip-in-and-around-Karnataka"
            ],
            "longitude": "76.6703937",
            "address": "Chamundi Hill, Mysuru, Mysuru taluk, Mysuru district, Karnataka, 570001, India",
            "latitude": "12.2724017",
            "locType": "peak",
            "closest_to": "murudeshwara"
        },
        "ganga beach": {
            "blogLinks": [
                "http://travel.india.com/gokarna/"
            ],
            "longitude": "74.3148093",
            "address": "Ganga Cafe, Om beach road, Gokarna, Kumata taluk, Uttara Kannada, Karnataka, 581326, India",
            "latitude": "14.5316743",
            "locType": "hotel",
            "closest_to": "murudeshwara"
        },
        "udupi": {
            "blogLinks": [
                "http://pritskulkarni.blogspot.com/2015/02/road-trip-to-beautiful-coastal-karnataka.html"
            ],
            "longitude": "74.7473232",
            "address": "Udupi, Udupi taluku, Udupi district, Karnataka, 576101, India",
            "latitude": "13.3419169",
            "locType": "city",
            "closest_to": "murudeshwara"
        },
        "udgir": {
            "blogLinks": [
                "https://en.wikipedia.org/wiki/Bidar"
            ],
            "longitude": "77.5029798",
            "address": "Udgir Road, Chidri, Bidar, Bidar taluku, Bidar district, Karnataka, 585400, India",
            "latitude": "17.9242137",
            "locType": "primary",
            "closest_to": "murudeshwara"
        },
        "belgaum": {
            "blogLinks": [
                "https://www.quora.com/What-are-the-best-places-to-visit-on-a-3-day-trip-in-and-around-Karnataka"
            ],
            "longitude": "74.75",
            "address": "Belgaum, Belgaum district, Karnataka, India",
            "latitude": "16.333333",
            "locType": "county",
            "closest_to": "murudeshwara"
        }
    }
}