{
    "sausalito": {
        "boundingbox": [
            "37.8436795",
            "37.8731429",
            "-122.5102612",
            "-122.4753744"
        ],
        "lon": "-122.4854693",
        "class": "boundary",
        "licence": "Data \u00a9 OpenStreetMap contributors, ODbL 1.0. http://www.openstreetmap.org/copyright",
        "importance": 0.64561533453658,
        "icon": "https://nominatim.openstreetmap.org/images/mapicons/poi_boundary_administrative.p.20.png",
        "lat": "37.8590272",
        "osm_id": "2829689",
        "type": "administrative",
        "osm_type": "relation",
        "place_id": "159575624",
        "display_name": "Sausalito, Marin County, California, United States of America"
    },
    "big bear lake": {
        "boundingbox": [
            "34.2375569",
            "34.2689983",
            "-116.9775303",
            "-116.8663043"
        ],
        "importance": 0.80624782713774,
        "class": "natural",
        "osm_id": "4045674",
        "type": "water",
        "lon": "-116.932209587315",
        "osm_type": "relation",
        "place_id": "159717820",
        "lat": "34.253293",
        "licence": "Data \u00a9 OpenStreetMap contributors, ODbL 1.0. http://www.openstreetmap.org/copyright",
        "display_name": "Big Bear Lake, Lagunita Lane, Big Bear Lake, San Bernardino County, California, 92315, United States of America"
    },
    "mentions": {
        "arcata": {
            "longitude": "-124.0828395",
            "blogLinks": [
                "http://www.roadsideamerica.com/location/ca"
            ],
            "closest_to": "sausalito",
            "latitude": "40.8665166",
            "address": "Arcata, Humboldt County, California, United States of America",
            "locType": "city"
        },
        "carlsbad": {
            "longitude": "-117.3505938",
            "blogLinks": [
                "http://www.roadsideamerica.com/location/ca"
            ],
            "closest_to": "big bear lake",
            "latitude": "33.1580933",
            "address": "Carlsbad, San Diego County, California, United States of America",
            "locType": "city"
        },
        "rockies": {
            "longitude": "-116.5443644",
            "blogLinks": [
                "http://www.bearlake.org/"
            ],
            "closest_to": "big bear lake",
            "latitude": "33.9859411",
            "address": "Rockies Avenue, Desert Hot Springs, Riverside County, California, 92240, United States of America",
            "locType": "residential"
        },
        "los angeles": {
            "longitude": "-118.2439408",
            "blogLinks": [
                "http://www.10best.com/interests/travel-features/road-trip-10-must-see-spots-from-salt-lake-city-to-san-diego/",
                "http://www.big-bear-cabins.com/vacation-activities/big-bear-lake-visitors-guide.aspx",
                "http://www.roadsideamerica.com/location/ca"
            ],
            "closest_to": "sausalito",
            "latitude": "34.0543942",
            "address": "LA, Los Angeles County, California, United States of America",
            "locType": "city"
        },
        "utah lake": {
            "longitude": "-122.6250909",
            "blogLinks": [
                "http://www.10best.com/interests/travel-features/road-trip-10-must-see-spots-from-salt-lake-city-to-san-diego/"
            ],
            "closest_to": "sausalito",
            "latitude": "38.943548",
            "address": "Utah Street, Clearlake, Lake County, California, 95422, United States of America",
            "locType": "residential"
        },
        "burbank": {
            "longitude": "-118.3258553",
            "blogLinks": [
                "http://www.roadsideamerica.com/location/ca"
            ],
            "closest_to": "sausalito",
            "latitude": "34.1816482",
            "address": "Burbank, Los Angeles County, California, United States of America",
            "locType": "city"
        },
        "richmond": {
            "longitude": "-122.3477485",
            "blogLinks": [
                "http://www.roadsideamerica.com/location/ca"
            ],
            "closest_to": "sausalito",
            "latitude": "37.9357576",
            "address": "Richmond, Contra Costa County, California, United States of America",
            "locType": "city"
        },
        "whittier": {
            "longitude": "-118.0336974",
            "blogLinks": [
                "http://www.roadsideamerica.com/location/ca"
            ],
            "closest_to": "sausalito",
            "latitude": "33.9748932",
            "address": "Whittier, Los Angeles County, California, United States of America",
            "locType": "city"
        },
        "nevada": {
            "longitude": "-120.8089842",
            "blogLinks": [
                "http://www.10best.com/interests/travel-features/road-trip-10-must-see-spots-from-salt-lake-city-to-san-diego/"
            ],
            "closest_to": "sausalito",
            "latitude": "39.3540335",
            "address": "Nevada County, California, United States of America",
            "locType": "administrative"
        },
        "las vegas": {
            "longitude": "-115.144667930325",
            "blogLinks": [
                "http://www.10best.com/interests/travel-features/road-trip-10-must-see-spots-from-salt-lake-city-to-san-diego/"
            ],
            "closest_to": "big bear lake",
            "latitude": "36.17310935",
            "address": "California Hotel, Sky Walk(Connection from Main Street to California, Cultural Corridor, Vegas Heights, Las Vegas, Clark County, Nevada, 89101, United States of America",
            "locType": "hotel"
        },
        "la": {
            "longitude": "-118.7559973",
            "blogLinks": [
                "https://www.tripadvisor.com/Attraction_Review-g32074-d105409-Reviews-Big_Bear_Lake-Big_Bear_Region_California.html"
            ],
            "closest_to": "sausalito",
            "latitude": "36.7014631",
            "address": "California, United States of America",
            "locType": "administrative"
        },
        "hilton garden inn san bernardino": {
            "longitude": "-117.55450015",
            "blogLinks": [
                "https://www.expedia.com/Big-Bear-Lake-Hotels.d6919.Travel-Guide-Hotels"
            ],
            "closest_to": "sausalito",
            "latitude": "34.0790286",
            "address": "Hilton Garden Inn, 11481, Mission Vista Drive, Rancho Cucamonga, San Bernardino County, California, 91730, United States of America",
            "locType": "hotel"
        },
        "buena park": {
            "longitude": "-117.9962164",
            "blogLinks": [
                "http://www.roadsideamerica.com/location/ca"
            ],
            "closest_to": "sausalito",
            "latitude": "33.870413",
            "address": "Buena Park, Orange County, California, United States of America",
            "locType": "city"
        },
        "san quentin": {
            "longitude": "-122.4849738",
            "blogLinks": [
                "http://www.roadsideamerica.com/location/ca"
            ],
            "closest_to": "sausalito",
            "latitude": "37.9413133",
            "address": "San Quentin, Marin County, California, United States of America",
            "locType": "hamlet"
        },
        "san pedro": {
            "longitude": "-118.2922933",
            "blogLinks": [
                "http://www.roadsideamerica.com/location/ca"
            ],
            "closest_to": "sausalito",
            "latitude": "33.7358518",
            "address": "San Pedro, LA, Los Angeles County, California, United States of America",
            "locType": "suburb"
        },
        "southern california": {
            "longitude": "-118.286343973446",
            "blogLinks": [
                "https://www.expedia.com/Big-Bear-Lake-Hotels.d6919.Travel-Guide-Hotels",
                "http://www.bigbearvacations.com/experience/things-to-do",
                "http://www.10best.com/interests/travel-features/road-trip-10-must-see-spots-from-salt-lake-city-to-san-diego/"
            ],
            "closest_to": "sausalito",
            "latitude": "34.0224149",
            "address": "University of Southern California, Watt Way, Saint James Park, LA, Los Angeles County, California, 90089, United States of America",
            "locType": "university"
        },
        "st. george": {
            "longitude": "-122.5091229",
            "blogLinks": [
                "http://www.10best.com/interests/travel-features/road-trip-10-must-see-spots-from-salt-lake-city-to-san-diego/"
            ],
            "closest_to": "sausalito",
            "latitude": "37.946821",
            "address": "George, Sir Francis Drake Boulevard East, Larkspur, Marin County, California, 94904, United States of America",
            "locType": "yes"
        },
        "woodland hills": {
            "longitude": "-118.6059196",
            "blogLinks": [
                "http://www.roadsideamerica.com/location/ca"
            ],
            "closest_to": "sausalito",
            "latitude": "34.1683386",
            "address": "Woodland Hills, LA, Los Angeles County, California, United States of America",
            "locType": "suburb"
        },
        "ukiah": {
            "longitude": "-123.207786",
            "blogLinks": [
                "http://www.roadsideamerica.com/location/ca"
            ],
            "closest_to": "sausalito",
            "latitude": "39.1501662",
            "address": "Ukiah, Mendocino County, California, United States of America",
            "locType": "city"
        },
        "norco": {
            "longitude": "-117.55089",
            "blogLinks": [
                "http://www.roadsideamerica.com/location/ca"
            ],
            "closest_to": "sausalito",
            "latitude": "33.9323307",
            "address": "Norco, Riverside County, California, 92860, United States of America",
            "locType": "city"
        },
        "placerville": {
            "longitude": "-120.7985459",
            "blogLinks": [
                "http://www.roadsideamerica.com/location/ca"
            ],
            "closest_to": "sausalito",
            "latitude": "38.7296252",
            "address": "Placerville, El Dorado County, California, United States of America",
            "locType": "city"
        },
        "hopland": {
            "longitude": "-123.1163917",
            "blogLinks": [
                "http://www.roadsideamerica.com/location/ca"
            ],
            "closest_to": "sausalito",
            "latitude": "38.9729542",
            "address": "Hopland, Mendocino County, California, United States of America",
            "locType": "hamlet"
        },
        "buellton": {
            "longitude": "-120.1936691",
            "blogLinks": [
                "http://www.roadsideamerica.com/location/ca"
            ],
            "closest_to": "sausalito",
            "latitude": "34.6134727",
            "address": "Buellton, Santa Barbara County, California, United States of America",
            "locType": "city"
        },
        "luckie park": {
            "longitude": "-116.0380661",
            "blogLinks": [
                "https://www.expedia.com/Big-Bear-Lake-Hotels.d6919.Travel-Guide-Hotels"
            ],
            "closest_to": "big bear lake",
            "latitude": "35.1485944",
            "address": "Luckie Park, Mojave Road, San Bernardino County, California, United States of America",
            "locType": "park"
        },
        "castroville": {
            "longitude": "-121.7580049",
            "blogLinks": [
                "http://www.roadsideamerica.com/location/ca"
            ],
            "closest_to": "sausalito",
            "latitude": "36.7657904",
            "address": "Castroville, Monterey County, California, United States of America",
            "locType": "administrative"
        },
        "east boat ramp": {
            "longitude": "-122.3984157",
            "blogLinks": [
                "http://www.bigbearvacations.com/experience/things-to-do"
            ],
            "closest_to": "sausalito",
            "latitude": "40.593972",
            "address": "Boat ramp, Sacramento River Trail, Redding, Shasta County, California, 96001, United States of America",
            "locType": "slipway"
        },
        "lake buena vista": {
            "longitude": "-120.9132725",
            "blogLinks": [
                "https://www.pinterest.com/pin/264375440605114963/"
            ],
            "closest_to": "sausalito",
            "latitude": "38.2943599",
            "address": "Buena Vista, Amador County, California, United States of America",
            "locType": "hamlet"
        },
        "venice": {
            "longitude": "-118.4668874",
            "blogLinks": [
                "http://www.roadsideamerica.com/location/ca"
            ],
            "closest_to": "sausalito",
            "latitude": "33.995044",
            "address": "Venice, LA, Los Angeles County, California, United States of America",
            "locType": "suburb"
        },
        "south lake tahoe": {
            "longitude": "-119.987846390157",
            "blogLinks": [
                "http://www.roadsideamerica.com/location/ca"
            ],
            "closest_to": "sausalito",
            "latitude": "38.929125",
            "address": "South Lake Tahoe, El Dorado County, California, United States of America",
            "locType": "city"
        },
        "sequoia national park": {
            "longitude": "-118.559919284386",
            "blogLinks": [
                "http://www.roadsideamerica.com/location/ca"
            ],
            "closest_to": "sausalito",
            "latitude": "36.49584065",
            "address": "Sequoia National Park, Black Rock Pass Trail, Mineral King, Tulare County, California, United States of America",
            "locType": "national_park"
        },
        "san carlos": {
            "longitude": "-122.266149723864",
            "blogLinks": [
                "http://www.roadsideamerica.com/location/ca"
            ],
            "closest_to": "sausalito",
            "latitude": "37.4982065",
            "address": "San Carlos, San Mateo County, California, United States of America",
            "locType": "city"
        },
        "glendora": {
            "longitude": "-117.8653389",
            "blogLinks": [
                "http://www.roadsideamerica.com/location/ca"
            ],
            "closest_to": "sausalito",
            "latitude": "34.1361187",
            "address": "Glendora, Los Angeles County, California, United States of America",
            "locType": "city"
        },
        "utah": {
            "longitude": "-118.6125359",
            "blogLinks": [
                "http://www.10best.com/interests/travel-features/road-trip-10-must-see-spots-from-salt-lake-city-to-san-diego/"
            ],
            "closest_to": "sausalito",
            "latitude": "37.413408",
            "address": "Utah, Rovana, Inyo County, California, United States of America",
            "locType": "residential"
        },
        "emeryville": {
            "longitude": "-122.2865265",
            "blogLinks": [
                "http://www.roadsideamerica.com/location/ca"
            ],
            "closest_to": "sausalito",
            "latitude": "37.8314089",
            "address": "Emeryville, Alameda County, California, United States of America",
            "locType": "administrative"
        },
        "guerneville": {
            "longitude": "-122.987128549631",
            "blogLinks": [
                "http://www.roadsideamerica.com/location/ca"
            ],
            "closest_to": "sausalito",
            "latitude": "38.5116609",
            "address": "Guerneville, Orchard Road, El Bonita, Sonoma County, California, 95446, United States of America",
            "locType": "administrative"
        },
        "fawnskin": {
            "longitude": "-116.9425341",
            "blogLinks": [
                "https://www.expedia.com/Big-Bear-Lake-Hotels.d6919.Travel-Guide-Hotels"
            ],
            "closest_to": "sausalito",
            "latitude": "34.2680621",
            "address": "Fawnskin, San Bernardino County, California, United States of America",
            "locType": "hamlet"
        },
        "big bear": {
            "longitude": "-116.932209587315",
            "blogLinks": [
                "https://www.pinterest.com/pin/264375440605114963/",
                "http://www.bigbearvacations.com/experience/things-to-do",
                "http://www.bigbear.com/things-to-do/"
            ],
            "closest_to": "sausalito",
            "latitude": "34.253293",
            "address": "Big Bear Lake, Lagunita Lane, Big Bear Lake, San Bernardino County, California, 92315, United States of America",
            "locType": "water"
        },
        "costa mesa": {
            "longitude": "-117.9033169",
            "blogLinks": [
                "http://www.roadsideamerica.com/location/ca"
            ],
            "closest_to": "sausalito",
            "latitude": "33.6633386",
            "address": "Costa Mesa, Orange County, California, United States of America",
            "locType": "city"
        },
        "canada": {
            "longitude": "-117.7641381",
            "blogLinks": [
                "http://www.10best.com/interests/travel-features/road-trip-10-must-see-spots-from-salt-lake-city-to-san-diego/"
            ],
            "closest_to": "sausalito",
            "latitude": "33.7298842",
            "address": "La Canada, Lower Peters Canyon, Irvine, Orange County, California, 92602, United States of America",
            "locType": "residential"
        },
        "inland center mall": {
            "longitude": "-117.297473820788",
            "blogLinks": [
                "https://www.expedia.com/Big-Bear-Lake-Hotels.d6919.Travel-Guide-Hotels"
            ],
            "closest_to": "sausalito",
            "latitude": "34.08506055",
            "address": "Inland Center, West Central Avenue, Inland Center, San Bernardino, San Bernardino County, California, 92408, United States of America",
            "locType": "mall"
        },
        "san simeon": {
            "longitude": "-121.1907532",
            "blogLinks": [
                "http://www.roadsideamerica.com/location/ca"
            ],
            "closest_to": "sausalito",
            "latitude": "35.6438587",
            "address": "San Simeon, San Luis Obispo County, California, United States of America",
            "locType": "hamlet"
        },
        "churchill": {
            "longitude": "-117.7478477",
            "blogLinks": [
                "https://www.pinterest.com/pin/264375440605114963/"
            ],
            "closest_to": "sausalito",
            "latitude": "33.7059133",
            "address": "Churchill, Stonegate, Irvine, Orange County, California, 92618:92705, United States of America",
            "locType": "residential"
        },
        "santa fe springs": {
            "longitude": "-118.0676102",
            "blogLinks": [
                "http://www.roadsideamerica.com/location/ca"
            ],
            "closest_to": "sausalito",
            "latitude": "33.9482434",
            "address": "Santa Fe Springs, Los Angeles County, California, United States of America",
            "locType": "city"
        },
        "pahvant valley": {
            "longitude": "-117.3546299",
            "blogLinks": [
                "http://www.10best.com/interests/travel-features/road-trip-10-must-see-spots-from-salt-lake-city-to-san-diego/"
            ],
            "closest_to": "big bear lake",
            "latitude": "33.207317",
            "address": "Pahvant Street, Oceanside, San Diego County, California, 92054, United States of America",
            "locType": "residential"
        },
        "silver dry lake": {
            "longitude": "-116.110943804023",
            "blogLinks": [
                "http://www.10best.com/interests/travel-features/road-trip-10-must-see-spots-from-salt-lake-city-to-san-diego/"
            ],
            "closest_to": "sausalito",
            "latitude": "35.33791495",
            "address": "Silver Lake (Dry), Death Valley Road, San Bernardino County, California, 92309, United States of America",
            "locType": "mud"
        },
        "london": {
            "longitude": "-119.4431784",
            "blogLinks": [
                "http://www.roadsideamerica.com/location/ca"
            ],
            "closest_to": "sausalito",
            "latitude": "36.4760619",
            "address": "London, Tulare County, California, United States of America",
            "locType": "village"
        },
        "santa clarita": {
            "longitude": "-118.5425859",
            "blogLinks": [
                "http://www.roadsideamerica.com/location/ca"
            ],
            "closest_to": "sausalito",
            "latitude": "34.3916641",
            "address": "Santa Clarita, Los Angeles County, California, United States of America",
            "locType": "city"
        },
        "boulder bay park": {
            "longitude": "-116.949195007263",
            "blogLinks": [
                "http://www.bigbearvacations.com/experience/things-to-do",
                "https://www.tripadvisor.com/Attraction_Review-g32074-d105409-Reviews-Big_Bear_Lake-Big_Bear_Region_California.html"
            ],
            "closest_to": "sausalito",
            "latitude": "34.23859285",
            "address": "Boulder Bay Park, Big Bear Boulevard, Big Bear Lake, San Bernardino County, California, 92315, United States of America",
            "locType": "park"
        },
        "north shore": {
            "longitude": "-117.1842077",
            "blogLinks": [
                "http://www.bigbearvacations.com/experience/things-to-do"
            ],
            "closest_to": "sausalito",
            "latitude": "34.2680613",
            "address": "North Shore, San Bernardino County, California, United States of America",
            "locType": "hamlet"
        },
        "san bernardino": {
            "longitude": "-117.2897651",
            "blogLinks": [
                "https://www.expedia.com/Big-Bear-Lake-Hotels.d6919.Travel-Guide-Hotels",
                "http://www.bigbearlake.net/summer/photos-of-the-lake",
                "http://www.10best.com/interests/travel-features/road-trip-10-must-see-spots-from-salt-lake-city-to-san-diego/",
                "http://www.big-bear-cabins.com/vacation-activities/big-bear-lake-visitors-guide.aspx"
            ],
            "closest_to": "sausalito",
            "latitude": "34.1083449",
            "address": "San Bernardino, San Bernardino County, California, United States of America",
            "locType": "city"
        },
        "west boat ramp": {
            "longitude": "-122.3984157",
            "blogLinks": [
                "http://www.bigbearvacations.com/experience/things-to-do"
            ],
            "closest_to": "sausalito",
            "latitude": "40.593972",
            "address": "Boat ramp, Sacramento River Trail, Redding, Shasta County, California, 96001, United States of America",
            "locType": "slipway"
        },
        "inglewood": {
            "longitude": "-118.353131",
            "blogLinks": [
                "http://www.roadsideamerica.com/location/ca"
            ],
            "closest_to": "sausalito",
            "latitude": "33.9616801",
            "address": "Inglewood, Los Angeles County, California, United States of America",
            "locType": "city"
        },
        "sunol": {
            "longitude": "-121.8885682",
            "blogLinks": [
                "http://www.roadsideamerica.com/location/ca"
            ],
            "closest_to": "sausalito",
            "latitude": "37.5943781",
            "address": "Sunol, Alameda County, California, United States of America",
            "locType": "hamlet"
        },
        "mall of victor valley": {
            "longitude": "-117.347349",
            "blogLinks": [
                "https://www.expedia.com/Big-Bear-Lake-Hotels.d6919.Travel-Guide-Hotels"
            ],
            "closest_to": "sausalito",
            "latitude": "34.4736697",
            "address": "The Mall of Victor Valley, Amargosa Road, Victorville, San Bernardino County, California, 92392, United States of America",
            "locType": "mall"
        },
        "bellagio": {
            "longitude": "-117.7012358",
            "blogLinks": [
                "http://www.10best.com/interests/travel-features/road-trip-10-must-see-spots-from-salt-lake-city-to-san-diego/"
            ],
            "closest_to": "big bear lake",
            "latitude": "33.5203333",
            "address": "Bellagio, Laguna Niguel, Orange County, California, 92677, United States of America",
            "locType": "residential"
        },
        "glendale": {
            "longitude": "-118.248367",
            "blogLinks": [
                "http://www.roadsideamerica.com/location/ca"
            ],
            "closest_to": "sausalito",
            "latitude": "34.1423455",
            "address": "Glendale, Los Angeles County, California, United States of America",
            "locType": "city"
        },
        "san diego": {
            "longitude": "-117.1627713",
            "blogLinks": [
                "http://www.10best.com/interests/travel-features/road-trip-10-must-see-spots-from-salt-lake-city-to-san-diego/",
                "http://www.big-bear-cabins.com/vacation-activities/big-bear-lake-visitors-guide.aspx",
                "http://www.roadsideamerica.com/location/ca"
            ],
            "closest_to": "big bear lake",
            "latitude": "32.7174209",
            "address": "San Diego, San Diego County, California, United States of America",
            "locType": "city"
        },
        "mesquite": {
            "longitude": "-117.7869123",
            "blogLinks": [
                "http://www.10best.com/interests/travel-features/road-trip-10-must-see-spots-from-salt-lake-city-to-san-diego/"
            ],
            "closest_to": "sausalito",
            "latitude": "33.664919",
            "address": "Mesquite, Montilla Condominiums, Woodbridge, Irvine, Orange County, California, 92604, United States of America",
            "locType": "residential"
        },
        "yermo": {
            "longitude": "-116.8203126",
            "blogLinks": [
                "http://www.roadsideamerica.com/location/ca"
            ],
            "closest_to": "sausalito",
            "latitude": "34.9049849",
            "address": "Yermo, San Bernardino County, California, United States of America",
            "locType": "hamlet"
        },
        "stanfield cutoff": {
            "longitude": "-116.8845335",
            "blogLinks": [
                "http://www.bigbearvacations.com/experience/things-to-do"
            ],
            "closest_to": "big bear lake",
            "latitude": "34.2601412",
            "address": "Stanfield Cutoff, Minnelusa, San Bernardino County, California, 92314, United States of America",
            "locType": "tertiary"
        },
        "muddy river": {
            "longitude": "-119.2417891",
            "blogLinks": [
                "http://www.10best.com/interests/travel-features/road-trip-10-must-see-spots-from-salt-lake-city-to-san-diego/"
            ],
            "closest_to": "sausalito",
            "latitude": "35.016524",
            "address": "Muddy Creek, Kern County, California, United States of America",
            "locType": "stream"
        },
        "san rafael": {
            "longitude": "-122.5310873",
            "blogLinks": [
                "http://www.roadsideamerica.com/location/ca"
            ],
            "closest_to": "sausalito",
            "latitude": "37.9735346",
            "address": "San Rafael, Marin County, California, United States of America",
            "locType": "city"
        },
        "meadow park": {
            "longitude": "-120.659276454814",
            "blogLinks": [
                "https://www.expedia.com/Big-Bear-Lake-Hotels.d6919.Travel-Guide-Hotels"
            ],
            "closest_to": "sausalito",
            "latitude": "35.26814845",
            "address": "Meadow Park, Woodbridge Street, San Luis Obispo, San Luis Obispo County, California, 93401, United States of America",
            "locType": "park"
        },
        "mountaintop": {
            "longitude": "-116.9270579",
            "blogLinks": [
                "http://www.bigbearvacations.com/experience/things-to-do"
            ],
            "closest_to": "big bear lake",
            "latitude": "33.521221",
            "address": "Mountaintop Road, Riverside County, California, United States of America",
            "locType": "residential"
        },
        "santa cruz": {
            "longitude": "-122.0260569",
            "blogLinks": [
                "http://www.roadsideamerica.com/location/ca"
            ],
            "closest_to": "sausalito",
            "latitude": "36.9735903",
            "address": "Santa Cruz, Santa Cruz County, California, United States of America",
            "locType": "city"
        },
        "mallard bay": {
            "longitude": "-117.0563279",
            "blogLinks": [
                "https://www.expedia.com/Big-Bear-Lake-Hotels.d6919.Travel-Guide-Hotels"
            ],
            "closest_to": "big bear lake",
            "latitude": "32.729572",
            "address": "Mallard Street, Encanto, San Diego, San Diego County, California, 92114, United States of America",
            "locType": "residential"
        },
        "wolf creek resort": {
            "longitude": "-117.916002460128",
            "blogLinks": [
                "https://www.expedia.com/Big-Bear-Lake-Hotels.d6919.Travel-Guide-Hotels"
            ],
            "closest_to": "sausalito",
            "latitude": "33.7789302",
            "address": "Great Wolf Lodge, Harbor Boulevard, Garden Grove, Orange County, California, 92840, United States of America",
            "locType": "hotel"
        },
        "kettleman city": {
            "longitude": "-119.962676860725",
            "blogLinks": [
                "http://www.roadsideamerica.com/location/ca"
            ],
            "closest_to": "sausalito",
            "latitude": "36.008937",
            "address": "Kettleman City, 7th Street, Kettleman City, Kings County, California, 93239, United States of America",
            "locType": "administrative"
        },
        "manitoba": {
            "longitude": "-118.4388259",
            "blogLinks": [
                "https://www.pinterest.com/pin/264375440605114963/"
            ],
            "closest_to": "sausalito",
            "latitude": "33.9547247",
            "address": "Manitoba Street, Playa del Rey, LA, Los Angeles County, California, 90293, United States of America",
            "locType": "residential"
        },
        "united states": {
            "longitude": "-118.7559973",
            "blogLinks": [
                "https://www.tripadvisor.com/Attraction_Review-g32074-d105409-Reviews-Big_Bear_Lake-Big_Bear_Region_California.html",
                "https://www.tripadvisor.com/Attractions-g32074-Activities-Big_Bear_Region_California.html"
            ],
            "closest_to": "sausalito",
            "latitude": "36.7014631",
            "address": "California, United States of America",
            "locType": "administrative"
        },
        "fort irwin": {
            "longitude": "-116.6847523",
            "blogLinks": [
                "http://www.roadsideamerica.com/location/ca"
            ],
            "closest_to": "sausalito",
            "latitude": "35.2627527",
            "address": "Fort Irwin, San Bernardino County, California, United States of America",
            "locType": "hamlet"
        },
        "solvang": {
            "longitude": "-120.1390893",
            "blogLinks": [
                "https://www.vrbo.com/vacation-rentals/usa/california"
            ],
            "closest_to": "sausalito",
            "latitude": "34.5958572",
            "address": "Solvang, Santa Barbara County, California, United States of America",
            "locType": "city"
        },
        "turlock": {
            "longitude": "-120.846594",
            "blogLinks": [
                "http://www.roadsideamerica.com/location/ca"
            ],
            "closest_to": "sausalito",
            "latitude": "37.4946568",
            "address": "Turlock, Stanislaus County, California, United States of America",
            "locType": "city"
        },
        "big bear lake": {
            "longitude": "-116.932209587315",
            "blogLinks": [
                "http://www.bigbearvacations.com/experience/things-to-do",
                "http://www.bigbearlake.net/summer/photos-of-the-lake",
                "https://www.vrbo.com/vacation-rentals/usa/california",
                "https://www.expedia.com/Big-Bear-Lake-Hotels.d6919.Travel-Guide-Hotels",
                "https://www.tripadvisor.com/Attraction_Review-g32074-d105409-Reviews-Big_Bear_Lake-Big_Bear_Region_California.html",
                "https://www.tripadvisor.com/Attractions-g32074-Activities-Big_Bear_Region_California.html",
                "http://www.bigbear.com/things-to-do/"
            ],
            "closest_to": "sausalito",
            "latitude": "34.253293",
            "address": "Big Bear Lake, Lagunita Lane, Big Bear Lake, San Bernardino County, California, 92315, United States of America",
            "locType": "water"
        },
        "redwood city": {
            "longitude": "-122.2363547",
            "blogLinks": [
                "http://www.roadsideamerica.com/location/ca"
            ],
            "closest_to": "sausalito",
            "latitude": "37.4852152",
            "address": "Redwood City, San Mateo County, California, United States of America",
            "locType": "city"
        },
        "tonga": {
            "longitude": "-117.0612559",
            "blogLinks": [
                "http://www.roadsideamerica.com/location/ca"
            ],
            "closest_to": "big bear lake",
            "latitude": "32.579494",
            "address": "Via Tonga, Otay Mesa West, San Ysidro, San Diego, San Diego County, California, 92154, United States of America",
            "locType": "residential"
        },
        "death valley national park": {
            "longitude": "-117.102293507719",
            "blogLinks": [
                "http://www.roadsideamerica.com/location/ca"
            ],
            "closest_to": "sausalito",
            "latitude": "36.4914385",
            "address": "Death Valley National Park, Lucky Wash Road, Skidoo, Inyo County, California, United States of America",
            "locType": "national_park"
        },
        "malibu": {
            "longitude": "-116.5023561",
            "blogLinks": [
                "http://www.roadsideamerica.com/location/ca"
            ],
            "closest_to": "big bear lake",
            "latitude": "33.7932142",
            "address": "Malibu, Palm Springs, Riverside County, California, 92264, United States of America",
            "locType": "residential"
        },
        "cotati": {
            "longitude": "-122.706844",
            "blogLinks": [
                "http://www.roadsideamerica.com/location/ca"
            ],
            "closest_to": "sausalito",
            "latitude": "38.3266798",
            "address": "Cotati, Sonoma County, California, United States of America",
            "locType": "city"
        },
        "forestville": {
            "longitude": "-122.861584174866",
            "blogLinks": [
                "http://www.roadsideamerica.com/location/ca"
            ],
            "closest_to": "sausalito",
            "latitude": "38.4833405",
            "address": "Forestville, Trenton Road, Trenton, Sonoma County, California, 95436, United States of America",
            "locType": "administrative"
        },
        "geyserville": {
            "longitude": "-122.9024963",
            "blogLinks": [
                "http://www.roadsideamerica.com/location/ca"
            ],
            "closest_to": "sausalito",
            "latitude": "38.707687",
            "address": "Geyserville, Sonoma County, California, United States of America",
            "locType": "hamlet"
        },
        "healdsburg": {
            "longitude": "-122.8701379",
            "blogLinks": [
                "http://www.roadsideamerica.com/location/ca"
            ],
            "closest_to": "sausalito",
            "latitude": "38.6106812",
            "address": "Healdsburg, Sonoma County, California, United States of America",
            "locType": "city"
        },
        "ca.": {
            "longitude": "-122.232613735941",
            "blogLinks": [
                "https://www.pinterest.com/pin/264375440605114963/"
            ],
            "closest_to": "sausalito",
            "latitude": "37.8242285466918",
            "address": "Piedmont, Alameda County, California, ca, United States of America",
            "locType": "postcode"
        },
        "coalinga": {
            "longitude": "-120.245046293019",
            "blogLinks": [
                "http://www.roadsideamerica.com/location/ca"
            ],
            "closest_to": "sausalito",
            "latitude": "36.1298952",
            "address": "Coalinga, Fresno County, California, United States of America",
            "locType": "city"
        },
        "mentone": {
            "longitude": "-117.109606374724",
            "blogLinks": [
                "http://www.roadsideamerica.com/location/ca"
            ],
            "closest_to": "big bear lake",
            "latitude": "34.05884",
            "address": "Mentone, Reservoir Canal Road, Crafton, San Bernardino County, California, 92374, United States of America",
            "locType": "administrative"
        },
        "mohave county": {
            "longitude": "-114.0512969",
            "blogLinks": [
                "http://www.10best.com/interests/travel-features/road-trip-10-must-see-spots-from-salt-lake-city-to-san-diego/"
            ],
            "closest_to": "big bear lake",
            "latitude": "35.1781607",
            "address": "California Avenue, Kingman, Mohave County, Arizona, 86401, United States of America",
            "locType": "track"
        },
        "bodie state historic park": {
            "longitude": "-119.0109761",
            "blogLinks": [
                "http://www.roadsideamerica.com/location/ca"
            ],
            "closest_to": "sausalito",
            "latitude": "38.2154734",
            "address": "Bodie State Historic Park, Street, Bodie, Mono County, California, United States of America",
            "locType": "park"
        },
        "pacifica": {
            "longitude": "-122.4869193",
            "blogLinks": [
                "http://www.roadsideamerica.com/location/ca"
            ],
            "closest_to": "sausalito",
            "latitude": "37.6138253",
            "address": "Pacifica, San Mateo County, California, United States of America",
            "locType": "city"
        },
        "virgin river": {
            "longitude": "-123.3510334",
            "blogLinks": [
                "http://www.10best.com/interests/travel-features/road-trip-10-must-see-spots-from-salt-lake-city-to-san-diego/"
            ],
            "closest_to": "sausalito",
            "latitude": "41.0290028",
            "address": "Virgin Creek, Trinity County, California, United States of America",
            "locType": "stream"
        },
        "sylmar": {
            "longitude": "-118.4492147",
            "blogLinks": [
                "http://www.roadsideamerica.com/location/ca"
            ],
            "closest_to": "sausalito",
            "latitude": "34.3076252",
            "address": "Sylmar, LA, Los Angeles County, California, United States of America",
            "locType": "suburb"
        },
        "creek valley": {
            "longitude": "-123.0482197",
            "blogLinks": [
                "https://www.vrbo.com/vacation-rentals/usa/california"
            ],
            "closest_to": "sausalito",
            "latitude": "39.3751013",
            "address": "Creek, Mendocino County, California, United States of America",
            "locType": "stream"
        },
        "newport beach": {
            "longitude": "-117.92944",
            "blogLinks": [
                "http://www.bigbearvacations.com/experience/things-to-do",
                "http://www.roadsideamerica.com/location/ca"
            ],
            "closest_to": "sausalito",
            "latitude": "33.6170092",
            "address": "Newport Beach, Orange County, California, United States of America",
            "locType": "city"
        },
        "bear lake": {
            "longitude": "-116.8849329",
            "blogLinks": [
                "http://www.bearlake.org/"
            ],
            "closest_to": "big bear lake",
            "latitude": "32.852283",
            "address": "Bear Lake, Riverview, Johnstown, San Diego County, California, 92021, United States of America",
            "locType": "residential"
        },
        "berkeley": {
            "longitude": "-122.2728638",
            "blogLinks": [
                "http://www.roadsideamerica.com/location/ca"
            ],
            "closest_to": "sausalito",
            "latitude": "37.8708393",
            "address": "Berkeley, Alameda County, California, United States of America",
            "locType": "city"
        },
        "barstow": {
            "longitude": "-117.0172076",
            "blogLinks": [
                "http://www.roadsideamerica.com/location/ca"
            ],
            "closest_to": "sausalito",
            "latitude": "34.8957684",
            "address": "Barstow, San Bernardino County, California, United States of America",
            "locType": "administrative"
        },
        "arizona": {
            "longitude": "-117.5060679",
            "blogLinks": [
                "http://www.10best.com/interests/travel-features/road-trip-10-must-see-spots-from-salt-lake-city-to-san-diego/"
            ],
            "closest_to": "sausalito",
            "latitude": "34.4631398",
            "address": "Arizona, San Bernardino County, California, 92371, United States of America",
            "locType": "track"
        },
        "us": {
            "longitude": "-118.7559973",
            "blogLinks": [
                "https://www.expedia.com/Big-Bear-Lake-Hotels.d6919.Travel-Guide-Hotels"
            ],
            "closest_to": "sausalito",
            "latitude": "36.7014631",
            "address": "California, United States of America",
            "locType": "administrative"
        },
        "huntington beach": {
            "longitude": "-118.0000165",
            "blogLinks": [
                "http://www.roadsideamerica.com/location/ca"
            ],
            "closest_to": "sausalito",
            "latitude": "33.6783336",
            "address": "Huntington Beach, Orange County, California, United States of America",
            "locType": "city"
        },
        "vegas": {
            "longitude": "-115.144667930325",
            "blogLinks": [
                "http://www.10best.com/interests/travel-features/road-trip-10-must-see-spots-from-salt-lake-city-to-san-diego/"
            ],
            "closest_to": "big bear lake",
            "latitude": "36.17310935",
            "address": "California Hotel, Sky Walk(Connection from Main Street to California, Cultural Corridor, Vegas Heights, Las Vegas, Clark County, Nevada, 89101, United States of America",
            "locType": "hotel"
        },
        "mojave desert": {
            "longitude": "-115.548963686646",
            "blogLinks": [
                "http://www.10best.com/interests/travel-features/road-trip-10-must-see-spots-from-salt-lake-city-to-san-diego/"
            ],
            "closest_to": "big bear lake",
            "latitude": "35.1456319",
            "address": "Mojave Desert, Utility Road, San Bernardino County, California, United States of America",
            "locType": "desert"
        },
        "veterans memorial highway": {
            "longitude": "-114.8493202",
            "blogLinks": [
                "http://www.10best.com/interests/travel-features/road-trip-10-must-see-spots-from-salt-lake-city-to-san-diego/"
            ],
            "closest_to": "big bear lake",
            "latitude": "35.1758907",
            "address": "Veterans Memorial Highway, San Bernardino County, California, United States of America",
            "locType": "trunk"
        },
        "pasadena": {
            "longitude": "-118.1444778",
            "blogLinks": [
                "http://www.roadsideamerica.com/location/ca"
            ],
            "closest_to": "sausalito",
            "latitude": "34.1476452",
            "address": "Pasadena, Los Angeles County, California, United States of America",
            "locType": "city"
        },
        "simi valley": {
            "longitude": "-118.7814819",
            "blogLinks": [
                "http://www.roadsideamerica.com/location/ca"
            ],
            "closest_to": "sausalito",
            "latitude": "34.2694474",
            "address": "Simi Valley, Ventura County, California, United States of America",
            "locType": "city"
        },
        "temecula": {
            "longitude": "-117.147366",
            "blogLinks": [
                "http://www.roadsideamerica.com/location/ca"
            ],
            "closest_to": "big bear lake",
            "latitude": "33.4946353",
            "address": "Temecula, Riverside County, California, United States of America",
            "locType": "city"
        },
        "hollywood": {
            "longitude": "-118.3299898",
            "blogLinks": [
                "http://www.roadsideamerica.com/location/ca"
            ],
            "closest_to": "sausalito",
            "latitude": "34.1028268",
            "address": "Hollywood, LA, Los Angeles County, California, United States of America",
            "locType": "suburb"
        },
        "alberta": {
            "longitude": "-117.7344716",
            "blogLinks": [
                "https://www.pinterest.com/pin/264375440605114963/"
            ],
            "closest_to": "big bear lake",
            "latitude": "33.5736346",
            "address": "Alberta, Aliso Viejo, Orange County, California, 92656, United States of America",
            "locType": "residential"
        },
        "jerusalem": {
            "longitude": "-122.7581059",
            "blogLinks": [
                "http://www.roadsideamerica.com/location/ca"
            ],
            "closest_to": "sausalito",
            "latitude": "40.5175442",
            "address": "Jerusalem Creek, Shasta County, California, United States of America",
            "locType": "stream"
        },
        "victorville": {
            "longitude": "-117.2911564",
            "blogLinks": [
                "https://www.expedia.com/Big-Bear-Lake-Hotels.d6919.Travel-Guide-Hotels"
            ],
            "closest_to": "sausalito",
            "latitude": "34.5361067",
            "address": "Victorville, San Bernardino County, California, United States of America",
            "locType": "city"
        },
        "redlands": {
            "longitude": "-117.248983896912",
            "blogLinks": [
                "http://www.bigbear.com/things-to-do/"
            ],
            "closest_to": "sausalito",
            "latitude": "34.069909",
            "address": "Redlands, San Bernardino County, California, United States of America",
            "locType": "city"
        },
        "halloran springs": {
            "longitude": "-115.890563",
            "blogLinks": [
                "http://www.10best.com/interests/travel-features/road-trip-10-must-see-spots-from-salt-lake-city-to-san-diego/"
            ],
            "closest_to": "big bear lake",
            "latitude": "35.372481",
            "address": "Halloran Springs, San Bernardino County, California, United States of America",
            "locType": "hamlet"
        },
        "califia": {
            "longitude": "-119.8065791",
            "blogLinks": [
                "http://www.roadsideamerica.com/location/ca"
            ],
            "closest_to": "sausalito",
            "latitude": "34.4290422",
            "address": "Califia Court, Santa Barbara County, California, 93111, United States of America",
            "locType": "residential"
        },
        "colma": {
            "longitude": "-122.4596949",
            "blogLinks": [
                "http://www.roadsideamerica.com/location/ca"
            ],
            "closest_to": "sausalito",
            "latitude": "37.6768779",
            "address": "Colma, San Mateo County, California, United States of America",
            "locType": "administrative"
        },
        "san bernardino county": {
            "longitude": "-116.0833143",
            "blogLinks": [
                "http://www.10best.com/interests/travel-features/road-trip-10-must-see-spots-from-salt-lake-city-to-san-diego/"
            ],
            "closest_to": "big bear lake",
            "latitude": "34.8253019",
            "address": "San Bernardino County, California, United States of America",
            "locType": "administrative"
        },
        "north hollywood": {
            "longitude": "-118.374037",
            "blogLinks": [
                "http://www.roadsideamerica.com/location/ca"
            ],
            "closest_to": "sausalito",
            "latitude": "34.1729044",
            "address": "North Hollywood, LA, Los Angeles County, California, United States of America",
            "locType": "suburb"
        },
        "palo alto": {
            "longitude": "-122.1634471",
            "blogLinks": [
                "http://www.roadsideamerica.com/location/ca"
            ],
            "closest_to": "sausalito",
            "latitude": "37.442156",
            "address": "Palo Alto, Santa Clara County, California, United States of America",
            "locType": "city"
        },
        "santa clara": {
            "longitude": "-121.9551743",
            "blogLinks": [
                "http://www.roadsideamerica.com/location/ca"
            ],
            "closest_to": "sausalito",
            "latitude": "37.3541132",
            "address": "Santa Clara, Santa Clara County, California, United States of America",
            "locType": "city"
        },
        "boonville": {
            "longitude": "-123.366111",
            "blogLinks": [
                "http://www.roadsideamerica.com/location/ca"
            ],
            "closest_to": "sausalito",
            "latitude": "39.0091667",
            "address": "Boonville, Mendocino County, California, 95415, United States of America",
            "locType": "village"
        },
        "san francisco": {
            "longitude": "-122.4192362",
            "blogLinks": [
                "http://www.bigbearvacations.com/experience/things-to-do",
                "http://www.roadsideamerica.com/location/ca"
            ],
            "closest_to": "sausalito",
            "latitude": "37.7792808",
            "address": "SF, California, United States of America",
            "locType": "city"
        },
        "sonora": {
            "longitude": "-120.382138",
            "blogLinks": [
                "https://www.vrbo.com/vacation-rentals/usa/california"
            ],
            "closest_to": "sausalito",
            "latitude": "37.9840911",
            "address": "Sonora, Tuolumne County, California, United States of America",
            "locType": "city"
        },
        "aguanga": {
            "longitude": "-116.8650234",
            "blogLinks": [
                "http://www.roadsideamerica.com/location/ca"
            ],
            "closest_to": "big bear lake",
            "latitude": "33.4428094",
            "address": "Aguanga, Riverside County, California, United States of America",
            "locType": "hamlet"
        },
        "apple valley": {
            "longitude": "-117.1858758",
            "blogLinks": [
                "http://www.roadsideamerica.com/location/ca"
            ],
            "closest_to": "sausalito",
            "latitude": "34.5008311",
            "address": "Apple Valley, San Bernardino County, California, United States of America",
            "locType": "administrative"
        },
        "' the virgin river": {
            "longitude": "-123.3510334",
            "blogLinks": [
                "http://www.10best.com/interests/travel-features/road-trip-10-must-see-spots-from-salt-lake-city-to-san-diego/"
            ],
            "closest_to": "sausalito",
            "latitude": "41.0290028",
            "address": "Virgin Creek, Trinity County, California, United States of America",
            "locType": "stream"
        },
        "north shore drive": {
            "longitude": "-117.5868906",
            "blogLinks": [
                "http://www.bigbearvacations.com/experience/things-to-do"
            ],
            "closest_to": "sausalito",
            "latitude": "34.0146349",
            "address": "North Shore Drive, Ontario, San Bernardino County, California, 91761, United States of America",
            "locType": "residential"
        },
        "magic mountain": {
            "longitude": "-119.2563693",
            "blogLinks": [
                "https://www.expedia.com/Big-Bear-Lake-Hotels.d6919.Travel-Guide-Hotels"
            ],
            "closest_to": "sausalito",
            "latitude": "34.4724515",
            "address": "Magic Mountain, Ventura County, California, United States of America",
            "locType": "peak"
        },
        "provo river": {
            "longitude": "-120.206299",
            "blogLinks": [
                "http://www.10best.com/interests/travel-features/road-trip-10-must-see-spots-from-salt-lake-city-to-san-diego/"
            ],
            "closest_to": "sausalito",
            "latitude": "38.0118678",
            "address": "Mount Provo, Tuolumne County, California, United States of America",
            "locType": "peak"
        },
        "garberville": {
            "longitude": "-123.7961393",
            "blogLinks": [
                "http://www.roadsideamerica.com/location/ca"
            ],
            "closest_to": "sausalito",
            "latitude": "40.1005685",
            "address": "Garberville, Humboldt County, California, United States of America",
            "locType": "village"
        },
        "mexicali": {
            "longitude": "-115.4440697",
            "blogLinks": [
                "https://www.pinterest.com/pin/233483561901594813/"
            ],
            "closest_to": "big bear lake",
            "latitude": "32.6200699",
            "address": "Mexicali, Baja California, 21000, M\u00e9xico",
            "locType": "city"
        },
        "trona": {
            "longitude": "-117.3728345",
            "blogLinks": [
                "http://www.roadsideamerica.com/location/ca"
            ],
            "closest_to": "sausalito",
            "latitude": "35.7627322",
            "address": "Trona, San Bernardino County, California, United States of America",
            "locType": "hamlet"
        },
        "indio": {
            "longitude": "-116.2188053",
            "blogLinks": [
                "http://www.roadsideamerica.com/location/ca"
            ],
            "closest_to": "big bear lake",
            "latitude": "33.7192808",
            "address": "Indio, Riverside County, California, United States of America",
            "locType": "city"
        },
        "oroville": {
            "longitude": "-121.5563589",
            "blogLinks": [
                "http://www.roadsideamerica.com/location/ca"
            ],
            "closest_to": "sausalito",
            "latitude": "39.5137752",
            "address": "Oroville, Butte County, California, United States of America",
            "locType": "city"
        },
        "sebastopol": {
            "longitude": "-122.8238805",
            "blogLinks": [
                "http://www.roadsideamerica.com/location/ca"
            ],
            "closest_to": "sausalito",
            "latitude": "38.4021359",
            "address": "Sebastopol, Sonoma County, California, United States of America",
            "locType": "city"
        },
        "america": {
            "longitude": "-119.8948706",
            "blogLinks": [
                "https://www.pinterest.com/pin/264375440605114963/",
                "http://www.roadsideamerica.com/location/ca"
            ],
            "closest_to": "sausalito",
            "latitude": "36.2573198",
            "address": "America, Kings County, California, 93246, United States of America",
            "locType": "residential"
        },
        "fresno": {
            "longitude": "-119.714839601149",
            "blogLinks": [
                "http://www.roadsideamerica.com/location/ca"
            ],
            "closest_to": "sausalito",
            "latitude": "36.748793",
            "address": "Fresno, Fresno County, California, United States of America",
            "locType": "city"
        },
        "palmdale": {
            "longitude": "-118.1171107",
            "blogLinks": [
                "http://www.roadsideamerica.com/location/ca"
            ],
            "closest_to": "sausalito",
            "latitude": "34.5793131",
            "address": "Palmdale, Los Angeles County, California, United States of America",
            "locType": "city"
        },
        "guadalupe": {
            "longitude": "-118.269896818344",
            "blogLinks": [
                "http://www.roadsideamerica.com/location/ca"
            ],
            "closest_to": "big bear lake",
            "latitude": "29.0350656",
            "address": "Isla Guadalupe, Ensenada, Baja California, M\u00e9xico",
            "locType": "island"
        },
        "baldwin park": {
            "longitude": "-117.961176",
            "blogLinks": [
                "http://www.roadsideamerica.com/location/ca"
            ],
            "closest_to": "sausalito",
            "latitude": "34.0854739",
            "address": "Baldwin Park, Los Angeles County, California, United States of America",
            "locType": "city"
        },
        "bear lake valley": {
            "longitude": "-120.045570283034",
            "blogLinks": [
                "http://www.bearlake.org/"
            ],
            "closest_to": "sausalito",
            "latitude": "38.4732722",
            "address": "Bear Lake, Lake Road, Bear Valley, Alpine County, California, 95223, United States of America",
            "locType": "water"
        },
        "bakersfield": {
            "longitude": "-119.0194638",
            "blogLinks": [
                "http://www.roadsideamerica.com/location/ca"
            ],
            "closest_to": "sausalito",
            "latitude": "35.3738712",
            "address": "Bakersfield, Kern County, California, United States of America",
            "locType": "city"
        },
        "buckhorn": {
            "longitude": "-118.8156498",
            "blogLinks": [
                "http://www.10best.com/interests/travel-features/road-trip-10-must-see-spots-from-salt-lake-city-to-san-diego/"
            ],
            "closest_to": "sausalito",
            "latitude": "34.4008304",
            "address": "Buckhorn, Ventura County, California, United States of America",
            "locType": "hamlet"
        },
        "lemoore": {
            "longitude": "-119.7829106",
            "blogLinks": [
                "http://www.roadsideamerica.com/location/ca"
            ],
            "closest_to": "sausalito",
            "latitude": "36.3007835",
            "address": "Lemoore, Kings County, California, United States of America",
            "locType": "city"
        },
        "san jose": {
            "longitude": "-121.8905832",
            "blogLinks": [
                "http://www.roadsideamerica.com/location/ca"
            ],
            "closest_to": "sausalito",
            "latitude": "37.3361905",
            "address": "San Jos\u00e9, Santa Clara County, California, United States of America",
            "locType": "city"
        },
        "arrowhead lake": {
            "longitude": "-118.41172724833",
            "blogLinks": [
                "https://www.tripadvisor.com/Attraction_Review-g32074-d105409-Reviews-Big_Bear_Lake-Big_Bear_Region_California.html"
            ],
            "closest_to": "sausalito",
            "latitude": "36.8273793",
            "address": "Arrowhead Lake, John Muir Trail, Fresno County, California, United States of America",
            "locType": "water"
        },
        "monterey": {
            "longitude": "-121.866792846206",
            "blogLinks": [
                "https://www.vrbo.com/vacation-rentals/usa/california"
            ],
            "closest_to": "sausalito",
            "latitude": "36.5844165",
            "address": "Monterey, Monterey County, California, United States of America",
            "locType": "city"
        },
        "los angeles harbor": {
            "longitude": "-118.2675706",
            "blogLinks": [
                "http://www.bigbearvacations.com/experience/things-to-do"
            ],
            "closest_to": "sausalito",
            "latitude": "33.7097418",
            "address": "Los Angeles Harbor, Miner Street, San Pedro, LA, Los Angeles County, California, 90731, United States of America",
            "locType": "bay"
        },
        "willow creek": {
            "longitude": "-123.6314411",
            "blogLinks": [
                "http://www.roadsideamerica.com/location/ca"
            ],
            "closest_to": "sausalito",
            "latitude": "40.9395774",
            "address": "Willow Creek, Humboldt County, California, United States of America",
            "locType": "hamlet"
        },
        "tulelake": {
            "longitude": "-121.4774915",
            "blogLinks": [
                "http://www.roadsideamerica.com/location/ca"
            ],
            "closest_to": "sausalito",
            "latitude": "41.9559885",
            "address": "Tulelake, Siskiyou County, California, United States of America",
            "locType": "city"
        },
        "palm springs": {
            "longitude": "-116.5403029",
            "blogLinks": [
                "http://www.roadsideamerica.com/location/ca"
            ],
            "closest_to": "big bear lake",
            "latitude": "33.8246269",
            "address": "Palm Springs, Riverside County, California, United States of America",
            "locType": "city"
        },
        "east los angeles": {
            "longitude": "-118.1720156",
            "blogLinks": [
                "http://www.roadsideamerica.com/location/ca"
            ],
            "closest_to": "sausalito",
            "latitude": "34.0239015",
            "address": "East Los Angeles, Belvedere Gardens, Los Angeles County, California, United States of America",
            "locType": "suburb"
        },
        "los olivos": {
            "longitude": "-120.1148469",
            "blogLinks": [
                "https://www.vrbo.com/vacation-rentals/usa/california"
            ],
            "closest_to": "sausalito",
            "latitude": "34.6677646",
            "address": "Los Olivos, Santa Barbara County, California, United States of America",
            "locType": "village"
        },
        "atascadero": {
            "longitude": "-120.6707254",
            "blogLinks": [
                "http://www.roadsideamerica.com/location/ca"
            ],
            "closest_to": "sausalito",
            "latitude": "35.4894169",
            "address": "Atascadero, San Luis Obispo County, California, United States of America",
            "locType": "city"
        }
    }
}