{
    "kundapur": {
        "lat": "13.6343509",
        "class": "amenity",
        "importance": 0.201,
        "osm_type": "node",
        "lon": "74.6906749",
        "place_id": "33849904",
        "display_name": "United Basel mission church Higher Primary School, Kundapur, Chikkansal Road, Vaderahobali, Kundapura, \u0c95\u0cc1\u0c82\u0ca6\u0cbe\u0caa\u0cc1\u0cb0 \u0ca4\u0cbe\u0cb2\u0cc2\u0c95\u0cc1, Udupi district, Karnataka, 576200, India",
        "osm_id": "2806096352",
        "boundingbox": [
            "13.6343009",
            "13.6344009",
            "74.6906249",
            "74.6907249"
        ],
        "type": "school",
        "licence": "Data \u00a9 OpenStreetMap contributors, ODbL 1.0. http://www.openstreetmap.org/copyright",
        "icon": "https://nominatim.openstreetmap.org/images/mapicons/education_school.p.20.png"
    },
    "mentions": {
        "ocean": {
            "blogLinks": [
                "http://www.nivalink.com/destination/kundapura"
            ],
            "longitude": "77.7178261979437",
            "address": "Gayatri Ocean Blue Apartments, Thubarahalli, Siddapura, Bangalore Urban, Karnataka, 560066, India",
            "latitude": "12.95490595",
            "locType": "residential",
            "closest_to": "kundapur"
        },
        "mangalore airport": {
            "blogLinks": [
                "http://www.ticketgoose.com/bus-tickets/bijapur-to-kumbashi"
            ],
            "longitude": "74.887492668144",
            "address": "Mangalore International Airport, Airport Entry Road, Gandhinagar, Kenjar, Mangaluru taluk, Dakshina Kannada, Karnataka, 575015, India",
            "latitude": "12.95518575",
            "locType": "aerodrome",
            "closest_to": "kundapur"
        },
        "koteshwara": {
            "blogLinks": [
                "http://www.sugamatourists.com/buses/42/Davanagere-to-Kundapur/"
            ],
            "longitude": "74.6975369",
            "address": "Koteshwara, \u0c95\u0cc1\u0c82\u0ca6\u0cbe\u0caa\u0cc1\u0cb0 \u0ca4\u0cbe\u0cb2\u0cc2\u0c95\u0cc1, Udupi district, Karnataka, India",
            "latitude": "13.5883963",
            "locType": "village",
            "closest_to": "kundapur"
        },
        "brahmavara": {
            "blogLinks": [
                "http://www.sugamatourists.com/buses/42/Davanagere-to-Kundapur/"
            ],
            "longitude": "74.7440887",
            "address": "Brahmavara, Udupi taluku, Udupi district, Karnataka, India",
            "latitude": "13.4352889",
            "locType": "town",
            "closest_to": "kundapur"
        },
        "india": {
            "blogLinks": [
                "https://www.tripadvisor.com/ShowTopic-g297627-i2498-k6657230-Visiting_Hampi_Badami_Aihole_Pattadakal_Bijapur-Karnataka.html",
                "http://www.sugamatourists.com/buses/42/Davanagere-to-Kundapur/",
                "http://www.nivalink.com/destination/kundapura",
                "http://www.mapsofindia.com/karnataka/tourism/",
                "http://distancecalculator.globefeed.com/India_Distance_Calculator.asp?state=19",
                "https://www.yatra.com/india-tour-packages/holidays-in-thrissur",
                "https://www.yatra.com/travel/weekend/",
                "https://www.tripoto.com/weekend-getaways/from-kundapur",
                "http://www.ticketgoose.com/bus-tickets/bijapur-to-kumbashi",
                "http://www.ticketgoose.com/bus-tickets/kundapura-to-bijapur",
                "https://www.travelblog.org/Asia/India/Karnataka/Bangalore/Koramangala/blog-914055.html"
            ],
            "longitude": "75.7223521",
            "address": "Karnataka, India",
            "latitude": "14.5203896",
            "locType": "administrative",
            "closest_to": "kundapur"
        },
        "madurai": {
            "blogLinks": [
                "https://www.yatra.com/india-tour-packages/holidays-in-thrissur"
            ],
            "longitude": "77.6320535",
            "address": "Madurai Idly Shop, 5th Main Road, Teachers Colony, HSR Layout, Bengaluru, Bangalore Urban, Karnataka, 560001, India",
            "latitude": "12.9185419",
            "locType": "restaurant",
            "closest_to": "kundapur"
        },
        "bijapur": {
            "blogLinks": [
                "https://www.tripadvisor.com/ShowTopic-g297627-i2498-k6657230-Visiting_Hampi_Badami_Aihole_Pattadakal_Bijapur-Karnataka.html",
                "http://www.holidayiq.com/Bijapur-Sightseeing-646.html",
                "https://www.audleytravel.com/india/places-to-go/bijapur",
                "https://in.via.com/bus-tickets/from-kundapur-to-bijapur",
                "https://www.yatra.com/travel/weekend/",
                "https://www.tripoto.com/weekend-getaways/from-kundapur",
                "http://www.ticketgoose.com/bus-tickets/bijapur-to-kumbashi",
                "http://www.ticketgoose.com/bus-tickets/kundapura-to-bijapur",
                "https://www.travelblog.org/Asia/India/Karnataka/Bangalore/Koramangala/blog-914055.html"
            ],
            "longitude": "75.7175387",
            "address": "Vijayapura, Vijayapura taluk, Bijapur district, Karnataka, 586101, India",
            "latitude": "16.8269911",
            "locType": "city",
            "closest_to": "kundapur"
        },
        "malaprabha": {
            "blogLinks": [
                "https://www.travelblog.org/Asia/India/Karnataka/Bangalore/Koramangala/blog-914055.html"
            ],
            "longitude": "75.1982668",
            "address": "Malaprabha, Ramadurga taluku, Belgaum district, Karnataka, India",
            "latitude": "15.8914192",
            "locType": "river",
            "closest_to": "kundapur"
        },
        "shivarathri": {
            "blogLinks": [
                "http://www.ticketgoose.com/bus-tickets/kundapura-to-bijapur"
            ],
            "longitude": "76.9391702825787",
            "address": "Shivarathri Nilaya, Vivekananda Road, Gubbi, Gubbi taluk, Tumkur district, Karnataka, 572216, India",
            "latitude": "13.30993335",
            "locType": "yes",
            "closest_to": "kundapur"
        },
        "hospet": {
            "blogLinks": [
                "https://www.tripadvisor.com/ShowTopic-g297627-i2498-k6657230-Visiting_Hampi_Badami_Aihole_Pattadakal_Bijapur-Karnataka.html",
                "https://in.via.com/bus-tickets/from-kundapur-to-bijapur",
                "https://www.travelblog.org/Asia/India/Karnataka/Bangalore/Koramangala/blog-914055.html"
            ],
            "longitude": "76.3870527",
            "address": "Hosapete, Hosapete taluk, Bellary district, Karnataka, 583200, India",
            "latitude": "15.266079",
            "locType": "town",
            "closest_to": "kundapur"
        },
        "emirates": {
            "blogLinks": [
                "https://www.yatra.com/india-tour-packages/holidays-in-thrissur",
                "https://www.yatra.com/travel/weekend/"
            ],
            "longitude": "77.5572955",
            "address": "Emirates, Rahman Khan Road, Rajajinagar 1st Block, Yeshwantpur, Deewanarapalya, Bangalore Urban, Karnataka, 560022, India",
            "latitude": "13.0192135",
            "locType": "restaurant",
            "closest_to": "kundapur"
        },
        "margao": {
            "blogLinks": [
                "https://www.tripoto.com/weekend-getaways/from-kundapur"
            ],
            "longitude": "73.9583411",
            "address": "Karnataka bank, NH66, Aquem, Fatorda, Margao, South Goa, Goa, 403600, India",
            "latitude": "15.2740083",
            "locType": "bank",
            "closest_to": "kundapur"
        },
        "mall road": {
            "blogLinks": [
                "https://www.yatra.com/travel/weekend/"
            ],
            "longitude": "77.6096701741191",
            "address": "Garuda Mall, Magrath Road, Tasker Town, Ashok Nagar, Bengaluru, Bangalore Urban, Karnataka, 560001, India",
            "latitude": "12.9700507",
            "locType": "mall",
            "closest_to": "kundapur"
        },
        "mysore district": {
            "blogLinks": [
                "http://www.mapsofindia.com/karnataka/tourism/"
            ],
            "longitude": "76.6553609",
            "address": "Mysuru, Mysuru taluk, Mysuru district, Karnataka, 570001, India",
            "latitude": "12.3051828",
            "locType": "city",
            "closest_to": "kundapur"
        },
        "gol gumbaz": {
            "blogLinks": [
                "https://www.tripadvisor.com/ShowTopic-g297627-i2498-k6657230-Visiting_Hampi_Badami_Aihole_Pattadakal_Bijapur-Karnataka.html"
            ],
            "longitude": "75.7360929",
            "address": "Gol Gumbaz, Station Road, Ibrahimpura, Vijayapura, Vijayapura taluk, Bijapur district, Karnataka, 586101, India",
            "latitude": "16.8300223",
            "locType": "attraction",
            "closest_to": "bijapur"
        },
        "udupi hotel": {
            "blogLinks": [
                "https://www.travelblog.org/Asia/India/Karnataka/Bangalore/Koramangala/blog-914055.html"
            ],
            "longitude": "74.8346487",
            "address": "Udupi Hotel, Nataraj Raod, Sirsi, Shirasi taluk, Uttara Kannada, Karnataka, 581400, India",
            "latitude": "14.6157772",
            "locType": "hotel",
            "closest_to": "kundapur"
        },
        "japanese garden": {
            "blogLinks": [
                "https://www.tripoto.com/weekend-getaways/from-kundapur"
            ],
            "longitude": "77.6055915",
            "address": "Hae Kum Gang (Korean/Japanese), 20, Castle Street, Shantala Nagar, Ashok Nagar, Bengaluru, Bangalore Urban, Karnataka, 560001, India",
            "latitude": "12.9655328",
            "locType": "restaurant",
            "closest_to": "kundapur"
        },
        "mariyamma temple": {
            "blogLinks": [
                "http://www.sugamatourists.com/buses/42/Davanagere-to-Kundapur/"
            ],
            "longitude": "77.5713911",
            "address": "Mariyamma temple, Railway Platform Road, Balepet, Seshadripuram, Bengaluru, Bangalore Urban, Karnataka, 560001, India",
            "latitude": "12.9884301",
            "locType": "place_of_worship",
            "closest_to": "kundapur"
        },
        "udupi district": {
            "blogLinks": [
                "http://www.sugamatourists.com/buses/42/Davanagere-to-Kundapur/"
            ],
            "longitude": "74.7469037178649",
            "address": "Udupi district, Karnataka, India",
            "latitude": "13.49007305",
            "locType": "administrative",
            "closest_to": "kundapur"
        },
        "kodagu": {
            "blogLinks": [
                "http://www.mapsofindia.com/karnataka/tourism/"
            ],
            "longitude": "75.6677235950852",
            "address": "Kodagu, Karnataka, India",
            "latitude": "12.38117345",
            "locType": "administrative",
            "closest_to": "kundapur"
        },
        "new delhi": {
            "blogLinks": [
                "https://www.yatra.com/india-tour-packages/holidays-in-thrissur"
            ],
            "longitude": "76.6142178649055",
            "address": "Regional Institute of Education, Chaduranga Road, Jayalakshmipuram, Mysuru, Mysuru taluk, Mysuru district, Karnataka, 570001, India",
            "latitude": "12.30911465",
            "locType": "college",
            "closest_to": "kundapur"
        },
        "dubai": {
            "blogLinks": [
                "https://www.yatra.com/india-tour-packages/holidays-in-thrissur",
                "https://www.yatra.com/travel/weekend/"
            ],
            "longitude": "77.6067717",
            "address": "Dubai Plaza, Rest House Road, Shantala Nagar, Ashok Nagar, Bengaluru, Bangalore Urban, Karnataka, 560001, India",
            "latitude": "12.9737065",
            "locType": "gift",
            "closest_to": "kundapur"
        },
        "cubbon park": {
            "blogLinks": [
                "http://www.mapsofindia.com/karnataka/tourism/"
            ],
            "longitude": "77.5977565",
            "address": "Cubbon Park, Cubbon Road, Tasker Town, Shivajinagar, Bengaluru, Bangalore Urban, Karnataka, 560001, India",
            "latitude": "12.9808487",
            "locType": "station",
            "closest_to": "kundapur"
        },
        "coorg": {
            "blogLinks": [
                "http://www.mapsofindia.com/karnataka/tourism/"
            ],
            "longitude": "75.740031",
            "address": "Madikeri, Madikeri taluku, Kodagu, Karnataka, India",
            "latitude": "12.4204003",
            "locType": "town",
            "closest_to": "kundapur"
        },
        "middle east": {
            "blogLinks": [
                "https://www.yatra.com/india-tour-packages/holidays-in-thrissur",
                "https://www.yatra.com/travel/weekend/"
            ],
            "longitude": "77.3394684",
            "address": "Government Middle And Primary School, NH48, Dodderi, Nelamangala taluk, Bangalore Rural, Karnataka, India",
            "latitude": "13.1487605",
            "locType": "school",
            "closest_to": "kundapur"
        },
        "sri siddhivinayaka temple": {
            "blogLinks": [
                "http://www.nivalink.com/destination/kundapura"
            ],
            "longitude": "75.0599098",
            "address": "Sri Siddhivinayaka Temple, NH766C;SH26, Guddekoppa, Hosanagara taluk, Shimoga district, Karnataka, India",
            "latitude": "13.8676974",
            "locType": "place_of_worship",
            "closest_to": "kundapur"
        },
        "maravanthe": {
            "blogLinks": [
                "http://www.nivalink.com/destination/kundapura"
            ],
            "longitude": "74.6480358",
            "address": "Nethaji Subhash Chandra Bose Government High School, Maravanthe, NH66, Navunda, \u0c95\u0cc1\u0c82\u0ca6\u0cbe\u0caa\u0cc1\u0cb0 \u0ca4\u0cbe\u0cb2\u0cc2\u0c95\u0cc1, Udupi district, Karnataka, 576224, India",
            "latitude": "13.7316626",
            "locType": "school",
            "closest_to": "kundapur"
        },
        "karnataka": {
            "blogLinks": [
                "http://www.karnatakatourism.org/",
                "http://www.holidayiq.com/Bijapur-Sightseeing-646.html",
                "http://www.sugamatourists.com/buses/42/Davanagere-to-Kundapur/",
                "http://www.nivalink.com/destination/kundapura",
                "http://www.mapsofindia.com/karnataka/tourism/",
                "http://distancecalculator.globefeed.com/India_Distance_Calculator.asp?state=19",
                "https://www.yatra.com/india-tour-packages/holidays-in-thrissur",
                "https://www.yatra.com/travel/weekend/",
                "http://www.ticketgoose.com/bus-tickets/bijapur-to-kumbashi",
                "https://www.tripadvisor.com/ShowTopic-g297627-i2498-k9156401-Somewhere_to_stay_between_Kundapur_and_Kudle_please-Karnataka.html",
                "http://www.ticketgoose.com/bus-tickets/kundapura-to-bijapur",
                "https://www.travelblog.org/Asia/India/Karnataka/Bangalore/Koramangala/blog-914055.html"
            ],
            "longitude": "76.6639936",
            "address": "Karnataka, Shalivahana Road, Nazarbad, Mysuru, Mysuru taluk, Mysuru district, Karnataka, 570001, India",
            "latitude": "12.3084901",
            "locType": "atm",
            "closest_to": "kundapur"
        },
        "bijapur district": {
            "blogLinks": [
                "http://www.holidayiq.com/Bijapur-Sightseeing-646.html"
            ],
            "longitude": "75.897147327785",
            "address": "Bijapur district, Karnataka, India",
            "latitude": "16.81105965",
            "locType": "administrative",
            "closest_to": "bijapur"
        },
        "north karnataka": {
            "blogLinks": [
                "https://www.travelblog.org/Asia/India/Karnataka/Bangalore/Koramangala/blog-914055.html"
            ],
            "longitude": "77.7660547",
            "address": "N, Chaithanya Samarpan, Kadugodi, Kannamangala, Bangalore Urban, Karnataka, 560066, India",
            "latitude": "13.0217151",
            "locType": "service",
            "closest_to": "kundapur"
        },
        "ulsoor lake": {
            "blogLinks": [
                "http://www.mapsofindia.com/karnataka/tourism/"
            ],
            "longitude": "77.6191669052984",
            "address": "Halasuru lake, Annaswamy Mudaliar Road, Kothandram Layout, Halasuru, Bengaluru, Bangalore Urban, Karnataka, 560001, India",
            "latitude": "12.9823891",
            "locType": "water",
            "closest_to": "kundapur"
        },
        "chennakesava temple": {
            "blogLinks": [
                "http://www.mapsofindia.com/karnataka/tourism/"
            ],
            "longitude": "75.8603311",
            "address": "Chennakesava Temple, NH73, Navilahalli, Beluru taluk, Hassan district, Karnataka, India",
            "latitude": "13.1629239",
            "locType": "place_of_worship",
            "closest_to": "kundapur"
        },
        "mangalore": {
            "blogLinks": [
                "http://www.ticketgoose.com/bus-tickets/bijapur-to-kumbashi",
                "http://www.nivalink.com/destination/kundapura",
                "http://www.ticketgoose.com/bus-tickets/kundapura-to-bijapur",
                "http://www.mapsofindia.com/karnataka/tourism/",
                "https://www.yatra.com/india-tour-packages/holidays-in-thrissur"
            ],
            "longitude": "74.8430082",
            "address": "Mangaluru, Mangaluru taluk, Dakshina Kannada, Karnataka, 575001, India",
            "latitude": "12.8698101",
            "locType": "city",
            "closest_to": "kundapur"
        },
        "ganesh": {
            "blogLinks": [
                "http://www.sugamatourists.com/buses/42/Davanagere-to-Kundapur/"
            ],
            "longitude": "76.1846316",
            "address": "Ganesh, Shimoga - Chitradurga Highway, Holalkere, Holalkere taluk, Chitradurga district, Karnataka, 577526, India",
            "latitude": "14.0473984",
            "locType": "place_of_worship",
            "closest_to": "kundapur"
        },
        "ooty": {
            "blogLinks": [
                "https://www.yatra.com/travel/weekend/"
            ],
            "longitude": "76.6586807",
            "address": "Ooty Road, Vidyaranyapuram, Mysuru, Mysuru taluk, Mysuru district, Karnataka, 570001, India",
            "latitude": "12.2774807",
            "locType": "primary",
            "closest_to": "kundapur"
        },
        "hoysaleswara temple": {
            "blogLinks": [
                "http://www.mapsofindia.com/karnataka/tourism/"
            ],
            "longitude": "75.9941649",
            "address": "Hoysaleswara Temple, SH21, Halebidu, Beluru taluk, Hassan district, Karnataka, 573121, India",
            "latitude": "13.2127193",
            "locType": "place_of_worship",
            "closest_to": "kundapur"
        },
        "manipal": {
            "blogLinks": [
                "http://www.mapsofindia.com/karnataka/tourism/"
            ],
            "longitude": "74.7870308",
            "address": "Manipal, Udupi taluku, Udupi district, Karnataka, India",
            "latitude": "13.3519723",
            "locType": "town",
            "closest_to": "kundapur"
        },
        "kannada": {
            "blogLinks": [
                "http://www.sugamatourists.com/buses/42/Davanagere-to-Kundapur/"
            ],
            "longitude": "75.1008028650794",
            "address": "Dakshina Kannada, Karnataka, India",
            "latitude": "12.8114089",
            "locType": "administrative",
            "closest_to": "kundapur"
        },
        "bengal": {
            "blogLinks": [
                "https://www.travelblog.org/Asia/India/Karnataka/Bangalore/Koramangala/blog-914055.html"
            ],
            "longitude": "77.7517038151245",
            "address": "Bengal Lamps, Konadasapura, Bangalore Urban, Karnataka, 560066, India",
            "latitude": "13.0492646",
            "locType": "industrial",
            "closest_to": "kundapur"
        },
        "gokarna": {
            "blogLinks": [
                "http://www.mapsofindia.com/karnataka/tourism/",
                "https://www.yatra.com/travel/weekend/"
            ],
            "longitude": "74.3184418",
            "address": "Gokarna, Kumata taluk, Uttara Kannada, Karnataka, 581326, India",
            "latitude": "14.5439629",
            "locType": "town",
            "closest_to": "kundapur"
        },
        "byndoor": {
            "blogLinks": [
                "http://distancecalculator.globefeed.com/India_Distance_Calculator.asp?state=19"
            ],
            "longitude": "74.6270036",
            "address": "Bainduru, \u0c95\u0cc1\u0c82\u0ca6\u0cbe\u0caa\u0cc1\u0cb0 \u0ca4\u0cbe\u0cb2\u0cc2\u0c95\u0cc1, Udupi district, Karnataka, 576214, India",
            "latitude": "13.8662536",
            "locType": "village",
            "closest_to": "kundapur"
        },
        "mandovi river": {
            "blogLinks": [
                "https://www.tripoto.com/weekend-getaways/from-kundapur"
            ],
            "longitude": "77.6190505",
            "address": "Mandovi Motors, Wheeler Road Flyover, MSO Colony, Cox Town, Bengaluru, Bangalore Urban, Karnataka, 560001, India",
            "latitude": "12.9965335",
            "locType": "car",
            "closest_to": "kundapur"
        },
        "hyderabad": {
            "blogLinks": [
                "https://in.via.com/bus-tickets/from-kundapur-to-bijapur",
                "https://www.yatra.com/india-tour-packages/holidays-in-thrissur"
            ],
            "longitude": "77.5344002",
            "address": "Hyderabad Road, Old City, Bidar, Bidar taluku, Bidar district, Karnataka, 585400, India",
            "latitude": "17.9003114",
            "locType": "primary",
            "closest_to": "bijapur"
        },
        "halebid": {
            "blogLinks": [
                "http://www.mapsofindia.com/karnataka/tourism/"
            ],
            "longitude": "75.9918793",
            "address": "Halebidu, Beluru taluk, Hassan district, Karnataka, 573121, India",
            "latitude": "13.2167959",
            "locType": "village",
            "closest_to": "kundapur"
        },
        "north goa": {
            "blogLinks": [
                "https://www.tripoto.com/weekend-getaways/from-kundapur"
            ],
            "longitude": "77.6200027",
            "address": "Carnival De Goa, Bhaskaran Road, Gupta Layout, Halasuru, Bengaluru, Bangalore Urban, Karnataka, 560001, India",
            "latitude": "12.9750047",
            "locType": "restaurant",
            "closest_to": "kundapur"
        },
        "belur": {
            "blogLinks": [
                "http://www.mapsofindia.com/karnataka/tourism/"
            ],
            "longitude": "75.8634851",
            "address": "Belur, Beluru taluk, Hassan district, Karnataka, 573115, India",
            "latitude": "13.1645671",
            "locType": "town",
            "closest_to": "kundapur"
        },
        "gangolli": {
            "blogLinks": [
                "http://www.sugamatourists.com/buses/42/Davanagere-to-Kundapur/",
                "http://www.nivalink.com/destination/kundapura"
            ],
            "longitude": "74.6642475",
            "address": "Konchadi Radha Shyne Government Higher Primary School, Kharvikeri, Gangolli, NH66, Navunda, \u0c95\u0cc1\u0c82\u0ca6\u0cbe\u0caa\u0cc1\u0cb0 \u0ca4\u0cbe\u0cb2\u0cc2\u0c95\u0cc1, Udupi district, Karnataka, 576224, India",
            "latitude": "13.6554353",
            "locType": "school",
            "closest_to": "kundapur"
        },
        "hoysala": {
            "blogLinks": [
                "http://www.mapsofindia.com/karnataka/tourism/"
            ],
            "longitude": "77.6375990817051",
            "address": "Hoysala Nagar, Bengaluru, Bangalore Urban, Karnataka, 560001, India",
            "latitude": "12.97813815",
            "locType": "administrative",
            "closest_to": "kundapur"
        },
        "badami caves": {
            "blogLinks": [
                "https://www.travelblog.org/Asia/India/Karnataka/Bangalore/Koramangala/blog-914055.html"
            ],
            "longitude": "75.6839749",
            "address": "Badami Caves, Bahanpur - Gadankeri Highway, Banashankari, Badami taluku, Bagalkote district, Karnataka, 587200, India",
            "latitude": "15.918379",
            "locType": "archaeological_site",
            "closest_to": "kundapur"
        },
        "pink city": {
            "blogLinks": [
                "https://www.yatra.com/travel/weekend/"
            ],
            "longitude": "77.6563564",
            "address": "Neeladri Road, Electronics City Phase 1, Doddathoguru, Bangalore Urban, Karnataka, 560100, India",
            "latitude": "12.8378867",
            "locType": "bench",
            "closest_to": "kundapur"
        },
        "baga": {
            "blogLinks": [
                "https://www.tripoto.com/weekend-getaways/from-kundapur"
            ],
            "longitude": "76.9300452",
            "address": "Baga Hipparaga, Basavakalyana taluku, Bidar district, Karnataka, India",
            "latitude": "17.6148763",
            "locType": "village",
            "closest_to": "bijapur"
        },
        "anegudde temple": {
            "blogLinks": [
                "http://www.ticketgoose.com/bus-tickets/bijapur-to-kumbashi"
            ],
            "longitude": "74.70466635",
            "address": "Anegudde Ganapathi Temple, Anugudde Ganapathi Temple Road, Vaderahobali, Kumbhashi, \u0c95\u0cc1\u0c82\u0ca6\u0cbe\u0caa\u0cc1\u0cb0 \u0ca4\u0cbe\u0cb2\u0cc2\u0c95\u0cc1, Udupi district, Karnataka, 576231, India",
            "latitude": "13.56926545",
            "locType": "place_of_worship",
            "closest_to": "kundapur"
        },
        "kodandarama temple": {
            "blogLinks": [
                "http://www.sugamatourists.com/buses/42/Davanagere-to-Kundapur/"
            ],
            "longitude": "77.6763884",
            "address": "Kodandarama Temple, Bellandur Main Road, Green Glen Layout, Bellandur, Belure Ambedkar Nagar, Bangalore Urban, Karnataka, 560103, India",
            "latitude": "12.9265333",
            "locType": "place_of_worship",
            "closest_to": "kundapur"
        },
        "kundapur": {
            "blogLinks": [
                "http://www.holidayiq.com/Bijapur-Sightseeing-646.html",
                "http://www.sugamatourists.com/buses/42/Davanagere-to-Kundapur/",
                "http://www.nivalink.com/destination/kundapura",
                "https://in.via.com/bus-tickets/from-kundapur-to-bijapur",
                "https://www.tripoto.com/weekend-getaways/from-kundapur",
                "http://www.ticketgoose.com/bus-tickets/bijapur-to-kumbashi",
                "https://www.tripadvisor.com/ShowTopic-g297627-i2498-k9156401-Somewhere_to_stay_between_Kundapur_and_Kudle_please-Karnataka.html",
                "http://www.ticketgoose.com/bus-tickets/kundapura-to-bijapur"
            ],
            "longitude": "74.6906749",
            "address": "United Basel mission church Higher Primary School, Kundapur, Chikkansal Road, Vaderahobali, Kundapura, \u0c95\u0cc1\u0c82\u0ca6\u0cbe\u0caa\u0cc1\u0cb0 \u0ca4\u0cbe\u0cb2\u0cc2\u0c95\u0cc1, Udupi district, Karnataka, 576200, India",
            "latitude": "13.6343509",
            "locType": "school",
            "closest_to": "kundapur"
        },
        "kannur": {
            "blogLinks": [
                "http://www.nivalink.com/destination/kundapura"
            ],
            "longitude": "74.8858161",
            "address": "Netravati bridge - Kannur Bypass Road (Proposed), Padil, Bajal, Mangaluru taluk, Dakshina Kannada, Karnataka, 575007, India",
            "latitude": "12.8487602",
            "locType": "construction",
            "closest_to": "kundapur"
        },
        "mecca gate": {
            "blogLinks": [
                "http://www.holidayiq.com/Bijapur-Sightseeing-646.html"
            ],
            "longitude": "77.5509669",
            "address": "masjid e mecca, 7th cross padarayana pura, Hosahalli Main Road, Rajajinagar 6th Block, Goripalya, Bengaluru, Bangalore Urban, Karnataka, 560001, India",
            "latitude": "12.9618838",
            "locType": "place_of_worship",
            "closest_to": "kundapur"
        },
        "coimbatore": {
            "blogLinks": [
                "https://www.yatra.com/india-tour-packages/holidays-in-thrissur"
            ],
            "longitude": "76.6318246",
            "address": "Gundlupet - Coimbatore Highway, Bandipur, Gundlupet taluk, Chamarajanagar district, Karnataka, India",
            "latitude": "11.6793976",
            "locType": "trunk",
            "closest_to": "kundapur"
        },
        "krishna river": {
            "blogLinks": [
                "http://www.holidayiq.com/Bijapur-Sightseeing-646.html"
            ],
            "longitude": "77.0529845",
            "address": "Krishna, Shahapura taluku, Yadagiri district, Karnataka, India",
            "latitude": "16.5209569",
            "locType": "river",
            "closest_to": "bijapur"
        },
        "shiriyara": {
            "blogLinks": [
                "http://www.sugamatourists.com/buses/42/Davanagere-to-Kundapur/"
            ],
            "longitude": "74.7926017",
            "address": "Shiriyara, Udupi taluku, Udupi district, Karnataka, India",
            "latitude": "13.537104",
            "locType": "village",
            "closest_to": "kundapur"
        },
        "goa": {
            "blogLinks": [
                "https://www.tripoto.com/weekend-getaways/from-kundapur",
                "http://www.sugamatourists.com/buses/42/Davanagere-to-Kundapur/",
                "http://www.nivalink.com/destination/kundapura",
                "https://www.yatra.com/travel/weekend/"
            ],
            "longitude": "77.6200027",
            "address": "Carnival De Goa, Bhaskaran Road, Gupta Layout, Halasuru, Bengaluru, Bangalore Urban, Karnataka, 560001, India",
            "latitude": "12.9750047",
            "locType": "restaurant",
            "closest_to": "kundapur"
        },
        "nataraja": {
            "blogLinks": [
                "https://www.travelblog.org/Asia/India/Karnataka/Bangalore/Koramangala/blog-914055.html"
            ],
            "longitude": "77.5730381173154",
            "address": "Nataraja, Sirur Park Road, Vyalikaval, Seshadripuram, Bengaluru, Bangalore Urban, Karnataka, 560001, India",
            "latitude": "12.9900332",
            "locType": "cinema",
            "closest_to": "kundapur"
        },
        "kerala": {
            "blogLinks": [
                "https://www.yatra.com/india-tour-packages/holidays-in-thrissur",
                "https://www.yatra.com/travel/weekend/"
            ],
            "longitude": "77.6382683",
            "address": "New Life Kerala Mess, Sai Baba Mandira Road, Mottappanapalaya, Indiranagar, Bengaluru, Bangalore Urban, Karnataka, 560001, India",
            "latitude": "12.9726449",
            "locType": "restaurant",
            "closest_to": "kundapur"
        },
        "hong kong": {
            "blogLinks": [
                "https://www.yatra.com/india-tour-packages/holidays-in-thrissur",
                "https://www.yatra.com/travel/weekend/"
            ],
            "longitude": "77.6768991",
            "address": "Hong Kong Noodles, Kalkere Main road, Ramamurthy Nagar, Varanasi, Bangalore Urban, Karnataka, 600042, India",
            "latitude": "13.020749",
            "locType": "restaurant",
            "closest_to": "kundapur"
        },
        "hasan": {
            "blogLinks": [
                "http://www.mapsofindia.com/karnataka/tourism/"
            ],
            "longitude": "76.0992703",
            "address": "Hassan, Hasana taluk, Hassan district, Karnataka, 573201, India",
            "latitude": "13.0070817",
            "locType": "town",
            "closest_to": "kundapur"
        },
        "maravanthe beach": {
            "blogLinks": [
                "http://www.ticketgoose.com/bus-tickets/kundapura-to-bijapur"
            ],
            "longitude": "74.6418646",
            "address": "Maravanthe Beach, NH66, Navunda, \u0c95\u0cc1\u0c82\u0ca6\u0cbe\u0caa\u0cc1\u0cb0 \u0ca4\u0cbe\u0cb2\u0cc2\u0c95\u0cc1, Udupi district, Karnataka, 576224, India",
            "latitude": "13.7088543",
            "locType": "viewpoint",
            "closest_to": "kundapur"
        },
        "anegudde": {
            "blogLinks": [
                "http://www.sugamatourists.com/buses/42/Davanagere-to-Kundapur/"
            ],
            "longitude": "74.70466635",
            "address": "Anegudde Ganapathi Temple, Anugudde Ganapathi Temple Road, Vaderahobali, Kumbhashi, \u0c95\u0cc1\u0c82\u0ca6\u0cbe\u0caa\u0cc1\u0cb0 \u0ca4\u0cbe\u0cb2\u0cc2\u0c95\u0cc1, Udupi district, Karnataka, 576231, India",
            "latitude": "13.56926545",
            "locType": "place_of_worship",
            "closest_to": "kundapur"
        },
        "padukone": {
            "blogLinks": [
                "http://www.sugamatourists.com/buses/42/Davanagere-to-Kundapur/"
            ],
            "longitude": "74.6537596",
            "address": "Padukone, \u0c95\u0cc1\u0c82\u0ca6\u0cbe\u0caa\u0cc1\u0cb0 \u0ca4\u0cbe\u0cb2\u0cc2\u0c95\u0cc1, Udupi district, Karnataka, India",
            "latitude": "13.71144",
            "locType": "village",
            "closest_to": "kundapur"
        },
        "karwar": {
            "blogLinks": [
                "http://www.sugamatourists.com/buses/42/Davanagere-to-Kundapur/"
            ],
            "longitude": "74.1319229",
            "address": "Karwar, Karavara taluk, Uttara Kannada, Karnataka, 581300, India",
            "latitude": "14.8120931",
            "locType": "town",
            "closest_to": "kundapur"
        },
        "hampi": {
            "blogLinks": [
                "http://www.mapsofindia.com/karnataka/tourism/",
                "https://www.tripadvisor.com/ShowTopic-g297627-i2498-k6657230-Visiting_Hampi_Badami_Aihole_Pattadakal_Bijapur-Karnataka.html"
            ],
            "longitude": "76.4606199",
            "address": "Hampe, Hosapete taluk, Bellary district, Karnataka, 583239, India",
            "latitude": "15.3359769",
            "locType": "village",
            "closest_to": "kundapur"
        },
        "kota": {
            "blogLinks": [
                "http://www.sugamatourists.com/buses/42/Davanagere-to-Kundapur/"
            ],
            "longitude": "74.4225448",
            "address": "Kota, Hukkeri taluku, Belgaum district, Karnataka, India",
            "latitude": "16.0939839",
            "locType": "village",
            "closest_to": "kundapur"
        },
        "lord shiva": {
            "blogLinks": [
                "https://www.travelblog.org/Asia/India/Karnataka/Bangalore/Koramangala/blog-914055.html"
            ],
            "longitude": "77.6024995",
            "address": "Lord Shiva Temple, Marenahalli Road (South End), MICO Layout, BTM Layout, Bengaluru, Bangalore Urban, Karnataka, 560001, India",
            "latitude": "12.916875",
            "locType": "place_of_worship",
            "closest_to": "kundapur"
        },
        "agra": {
            "blogLinks": [
                "https://www.yatra.com/travel/weekend/"
            ],
            "longitude": "77.6468085",
            "address": "Agara, Geddalahalli, Bangalore Urban, Karnataka, India",
            "latitude": "13.0386734",
            "locType": "suburb",
            "closest_to": "kundapur"
        },
        "mysore": {
            "blogLinks": [
                "http://www.mapsofindia.com/karnataka/tourism/"
            ],
            "longitude": "76.6553609",
            "address": "Mysuru, Mysuru taluk, Mysuru district, Karnataka, 570001, India",
            "latitude": "12.3051828",
            "locType": "city",
            "closest_to": "kundapur"
        },
        "peenya": {
            "blogLinks": [
                "https://www.travelblog.org/Asia/India/Karnataka/Bangalore/Koramangala/blog-914055.html"
            ],
            "longitude": "77.5273253",
            "address": "Peenya, Bengaluru, Bangalore Urban, Karnataka, 560001, India",
            "latitude": "13.0329419",
            "locType": "suburb",
            "closest_to": "kundapur"
        },
        "udupi taluk": {
            "blogLinks": [
                "http://www.sugamatourists.com/buses/42/Davanagere-to-Kundapur/"
            ],
            "longitude": "74.9592512",
            "address": "Thirthahalli - Udupi Highway, Shivapura, Karkala taluk, Udupi district, Karnataka, India",
            "latitude": "13.4249325",
            "locType": "trunk",
            "closest_to": "kundapur"
        },
        "haladi river": {
            "blogLinks": [
                "http://www.sugamatourists.com/buses/42/Davanagere-to-Kundapur/"
            ],
            "longitude": "74.7990736",
            "address": "Haladi, \u0c95\u0cc1\u0c82\u0ca6\u0cbe\u0caa\u0cc1\u0cb0 \u0ca4\u0cbe\u0cb2\u0cc2\u0c95\u0cc1, Udupi district, Karnataka, India",
            "latitude": "13.5455011",
            "locType": "village",
            "closest_to": "kundapur"
        },
        "uppinakudru - uppinakudru": {
            "blogLinks": [
                "http://www.sugamatourists.com/buses/42/Davanagere-to-Kundapur/"
            ],
            "longitude": "74.6908524",
            "address": "Uppinakudru, \u0c95\u0cc1\u0c82\u0ca6\u0cbe\u0caa\u0cc1\u0cb0 \u0ca4\u0cbe\u0cb2\u0cc2\u0c95\u0cc1, Udupi district, Karnataka, India",
            "latitude": "13.6587767",
            "locType": "village",
            "closest_to": "kundapur"
        },
        "delhi": {
            "blogLinks": [
                "https://in.via.com/bus-tickets/from-kundapur-to-bijapur",
                "https://www.yatra.com/travel/weekend/"
            ],
            "longitude": "77.6666062",
            "address": "Outer Ring Road, Green Glen Layout, Iblur, Bengaluru, Bangalore Urban, Karnataka, 560001, India",
            "latitude": "12.9212473",
            "locType": "trunk",
            "closest_to": "kundapur"
        },
        "manali": {
            "blogLinks": [
                "https://www.yatra.com/travel/weekend/"
            ],
            "longitude": "76.2758251256998",
            "address": "Manali Sugar, Malaghana, Sindagi taluku, Bijapur district, Karnataka, India",
            "latitude": "17.0266098",
            "locType": "industrial",
            "closest_to": "bijapur"
        },
        "kundeshwara temple": {
            "blogLinks": [
                "http://www.ticketgoose.com/bus-tickets/kundapura-to-bijapur"
            ],
            "longitude": "74.6883382002292",
            "address": "Kundeshwara Temple, Church Road, Vaderahobali, Kundapura, \u0c95\u0cc1\u0c82\u0ca6\u0cbe\u0caa\u0cc1\u0cb0 \u0ca4\u0cbe\u0cb2\u0cc2\u0c95\u0cc1, Udupi district, Karnataka, 576200, India",
            "latitude": "13.62498995",
            "locType": "place_of_worship",
            "closest_to": "kundapur"
        },
        "singapore": {
            "blogLinks": [
                "https://www.yatra.com/india-tour-packages/holidays-in-thrissur",
                "https://www.yatra.com/travel/weekend/"
            ],
            "longitude": "77.5483703",
            "address": "Singapore Gardens, Vajrahalli, Bengaluru, Bangalore Urban, Karnataka, 560001, India",
            "latitude": "12.8861812",
            "locType": "neighbourhood",
            "closest_to": "kundapur"
        },
        "south goa": {
            "blogLinks": [
                "https://www.tripoto.com/weekend-getaways/from-kundapur"
            ],
            "longitude": "73.9583411",
            "address": "Karnataka bank, NH66, Aquem, Fatorda, Margao, South Goa, Goa, 403600, India",
            "latitude": "15.2740083",
            "locType": "bank",
            "closest_to": "kundapur"
        },
        "almatti dam": {
            "blogLinks": [
                "http://www.holidayiq.com/Bijapur-Sightseeing-646.html",
                "http://www.ticketgoose.com/bus-tickets/bijapur-to-kumbashi",
                "http://www.ticketgoose.com/bus-tickets/kundapura-to-bijapur",
                "https://www.travelblog.org/Asia/India/Karnataka/Bangalore/Koramangala/blog-914055.html"
            ],
            "longitude": "75.9517801",
            "address": "Almatti Left Bank Canal, Basavana Bagevadi Taluku, Bijapur district, Karnataka, India",
            "latitude": "16.3648934",
            "locType": "canal",
            "closest_to": "kundapur"
        },
        "kudle": {
            "blogLinks": [
                "https://www.tripadvisor.com/ShowTopic-g297627-i2498-k9156401-Somewhere_to_stay_between_Kundapur_and_Kudle_please-Karnataka.html"
            ],
            "longitude": "74.3178853",
            "address": "Kudle Ocean Front resort, Om beach road, Gokarna, Kumata taluk, Uttara Kannada, Karnataka, 581326, India",
            "latitude": "14.5290707",
            "locType": "hotel",
            "closest_to": "kundapur"
        },
        "north kerala": {
            "blogLinks": [
                "http://www.nivalink.com/destination/kundapura"
            ],
            "longitude": "77.6382683",
            "address": "New Life Kerala Mess, Sai Baba Mandira Road, Mottappanapalaya, Indiranagar, Bengaluru, Bangalore Urban, Karnataka, 560001, India",
            "latitude": "12.9726449",
            "locType": "restaurant",
            "closest_to": "kundapur"
        },
        "souparnika river": {
            "blogLinks": [
                "http://www.sugamatourists.com/buses/42/Davanagere-to-Kundapur/"
            ],
            "longitude": "74.8095156",
            "address": "Souparnika Bathing Ghat Road, Kollur, \u0c95\u0cc1\u0c82\u0ca6\u0cbe\u0caa\u0cc1\u0cb0 \u0ca4\u0cbe\u0cb2\u0cc2\u0c95\u0cc1, Udupi district, Karnataka, 576220, India",
            "latitude": "13.8642453",
            "locType": "unclassified",
            "closest_to": "kundapur"
        },
        "kolkata": {
            "blogLinks": [
                "https://www.yatra.com/india-tour-packages/holidays-in-thrissur"
            ],
            "longitude": "77.5478044",
            "address": "Kolkata Biryani And Rolls, 1st Main Basaveshwaranagar, Rajajinagar 3rd Block, Dasarahalli, Bengaluru, Bangalore Urban, Karnataka, 560010, India",
            "latitude": "12.9845159",
            "locType": "restaurant",
            "closest_to": "kundapur"
        },
        "kundapura railway station": {
            "blogLinks": [
                "http://www.ticketgoose.com/bus-tickets/kundapura-to-bijapur"
            ],
            "longitude": "74.7288534",
            "address": "Kundapura, Railway Station Road, Vaderahobali, Koni, \u0c95\u0cc1\u0c82\u0ca6\u0cbe\u0caa\u0cc1\u0cb0 \u0ca4\u0cbe\u0cb2\u0cc2\u0c95\u0cc1, Udupi district, Karnataka, 576200, India",
            "latitude": "13.6133238",
            "locType": "station",
            "closest_to": "kundapur"
        },
        "panaji": {
            "blogLinks": [
                "https://www.tripoto.com/weekend-getaways/from-kundapur"
            ],
            "longitude": "74.4876784",
            "address": "Belgaum - Panaji Highway, Londa, Khanapura taluku, Belgaum district, Karnataka, India",
            "latitude": "15.4422981",
            "locType": "trunk",
            "closest_to": "kundapur"
        },
        "sri vinayaka temple": {
            "blogLinks": [
                "http://www.sugamatourists.com/buses/42/Davanagere-to-Kundapur/"
            ],
            "longitude": "77.6225532",
            "address": "Sri Varasiddhi Vinayaka Temple, Butterfly Way, MSO Colony, Cox Town, Bengaluru, Bangalore Urban, Karnataka, 560001, India",
            "latitude": "12.9975424",
            "locType": "place_of_worship",
            "closest_to": "kundapur"
        },
        "bagalkot": {
            "blogLinks": [
                "http://www.holidayiq.com/Bijapur-Sightseeing-646.html"
            ],
            "longitude": "75.6967919",
            "address": "Bagalakote, Bagalakote taluk, Bagalkote district, Karnataka, India",
            "latitude": "16.1853166",
            "locType": "city",
            "closest_to": "kundapur"
        },
        "kalaseshwara temple": {
            "blogLinks": [
                "http://www.nivalink.com/destination/kundapura"
            ],
            "longitude": "75.363446975",
            "address": "Kalaseshwara Temple, SH66, Kalasa, Mudigere taluk, Chikkamagaluru district, Karnataka, 577124, India",
            "latitude": "13.23228505",
            "locType": "place_of_worship",
            "closest_to": "kundapur"
        },
        "coastal karnataka": {
            "blogLinks": [
                "http://www.sugamatourists.com/buses/42/Davanagere-to-Kundapur/",
                "http://www.nivalink.com/destination/kundapura"
            ],
            "longitude": "74.8137275833157",
            "address": "Bharat Petroleum Mangalore Coastal Installation, Baikampady, Mangaluru taluk, Dakshina Kannada, Karnataka, 575014, India",
            "latitude": "12.96014675",
            "locType": "industrial",
            "closest_to": "kundapur"
        },
        "udipi": {
            "blogLinks": [
                "http://www.nivalink.com/destination/kundapura"
            ],
            "longitude": "77.652888",
            "address": "Udipi Park, 2nd Cross Road, Muniyappa Layout, Murugeshpalaya, Belure Ambedkar Nagar, Bangalore Urban, Karnataka, 560067, India",
            "latitude": "12.9530588",
            "locType": "restaurant",
            "closest_to": "kundapur"
        },
        "varahi river": {
            "blogLinks": [
                "http://www.sugamatourists.com/buses/42/Davanagere-to-Kundapur/"
            ],
            "longitude": "74.9489117",
            "address": "Varahi, \u0c95\u0cc1\u0c82\u0ca6\u0cbe\u0caa\u0cc1\u0cb0 \u0ca4\u0cbe\u0cb2\u0cc2\u0c95\u0cc1, Udupi district, Karnataka, India",
            "latitude": "13.6582668",
            "locType": "river",
            "closest_to": "kundapur"
        },
        "red fort": {
            "blogLinks": [
                "https://www.yatra.com/travel/weekend/"
            ],
            "longitude": "77.5854655",
            "address": "Calliandra Haematocephala - Red powderpuff, Lalbagh Fort Road, Mavalli, Wilson Garden, Bengaluru, Bangalore Urban, Karnataka, 560001, India",
            "latitude": "12.9527112",
            "locType": "tree",
            "closest_to": "kundapur"
        },
        "gulbarga": {
            "blogLinks": [
                "http://www.holidayiq.com/Bijapur-Sightseeing-646.html"
            ],
            "longitude": "77.083333",
            "address": "Kalaburgi, Kalaburagi district, Karnataka, India",
            "latitude": "17.166667",
            "locType": "county",
            "closest_to": "bijapur"
        },
        "venkatappa art gallery": {
            "blogLinks": [
                "http://www.mapsofindia.com/karnataka/tourism/"
            ],
            "longitude": "77.5952077",
            "address": "Venkatappa Art Gallery, Kasturba Road, Shantala Nagar, MacIvor Town, Bengaluru, Bangalore Urban, Karnataka, 560001, India",
            "latitude": "12.9742592",
            "locType": "museum",
            "closest_to": "kundapur"
        },
        "mumbai": {
            "blogLinks": [
                "http://www.sugamatourists.com/buses/42/Davanagere-to-Kundapur/",
                "https://in.via.com/bus-tickets/from-kundapur-to-bijapur",
                "https://www.yatra.com/india-tour-packages/holidays-in-thrissur"
            ],
            "longitude": "77.5718472",
            "address": "Mumbai Spice, 18/2, 10th Cross, Malleswaram, Vyalikaval, Malleswaram, Bengaluru, Bangalore Urban, Karnataka, 560003, India",
            "latitude": "13.0002869",
            "locType": "restaurant",
            "closest_to": "kundapur"
        },
        "mookambika temple": {
            "blogLinks": [
                "http://www.ticketgoose.com/bus-tickets/kundapura-to-bijapur"
            ],
            "longitude": "74.8145296",
            "address": "Mukambika Devasthana, NH766C;SH26, Halkal, \u0c95\u0cc1\u0c82\u0ca6\u0cbe\u0caa\u0cc1\u0cb0 \u0ca4\u0cbe\u0cb2\u0cc2\u0c95\u0cc1, Udupi district, Karnataka, 576220, India",
            "latitude": "13.8638043",
            "locType": "place_of_worship",
            "closest_to": "kundapur"
        },
        "barkuru": {
            "blogLinks": [
                "http://www.sugamatourists.com/buses/42/Davanagere-to-Kundapur/"
            ],
            "longitude": "74.7536442",
            "address": "Barkuru, Udupi taluku, Udupi district, Karnataka, India",
            "latitude": "13.4674306",
            "locType": "village",
            "closest_to": "kundapur"
        },
        "kirimanjeshwara": {
            "blogLinks": [
                "http://www.sugamatourists.com/buses/42/Davanagere-to-Kundapur/"
            ],
            "longitude": "74.6402601",
            "address": "Government Lower Primary Kannada School, Nagoor, Kirimanjeshwara, NH66, Navunda, \u0c95\u0cc1\u0c82\u0ca6\u0cbe\u0caa\u0cc1\u0cb0 \u0ca4\u0cbe\u0cb2\u0cc2\u0c95\u0cc1, Udupi district, Karnataka, 576224, India",
            "latitude": "13.7931089",
            "locType": "school",
            "closest_to": "kundapur"
        },
        "pattadakal": {
            "blogLinks": [
                "https://www.tripadvisor.com/ShowTopic-g297627-i2498-k6657230-Visiting_Hampi_Badami_Aihole_Pattadakal_Bijapur-Karnataka.html",
                "http://www.mapsofindia.com/karnataka/tourism/",
                "https://www.travelblog.org/Asia/India/Karnataka/Bangalore/Koramangala/blog-914055.html"
            ],
            "longitude": "75.815884048161",
            "address": "Pattadakal Temples, SH14, \u0cac\u0cbe\u0c9a\u0cbf\u0ca8\u0c97\u0cc1\u0ca1\u0ccd\u0ca1, Badami taluku, Bagalkote district, Karnataka, 587211, India",
            "latitude": "15.9506349",
            "locType": "attraction",
            "closest_to": "kundapur"
        },
        "hubli": {
            "blogLinks": [
                "http://www.nivalink.com/destination/kundapura"
            ],
            "longitude": "75.1379848",
            "address": "Hubballi - \u0cb9\u0cc1\u0cac\u0ccd\u0cac\u0cb3\u0ccd\u0cb3\u0cbf, Hubballi taluku, Dharwad district, Karnataka, 580020, India",
            "latitude": "15.3518378",
            "locType": "city",
            "closest_to": "kundapur"
        },
        "maharashtra": {
            "blogLinks": [
                "https://www.travelblog.org/Asia/India/Karnataka/Bangalore/Koramangala/blog-914055.html"
            ],
            "longitude": "77.5856013",
            "address": "Bank of Maharashtra, 24th Main, K R Layout, Puttenahalli, Bengaluru, Bangalore Urban, Karnataka, 560001, India",
            "latitude": "12.9049455",
            "locType": "bank",
            "closest_to": "kundapur"
        },
        "aihole": {
            "blogLinks": [
                "https://www.tripadvisor.com/ShowTopic-g297627-i2498-k6657230-Visiting_Hampi_Badami_Aihole_Pattadakal_Bijapur-Karnataka.html",
                "https://www.travelblog.org/Asia/India/Karnataka/Bangalore/Koramangala/blog-914055.html"
            ],
            "longitude": "75.8819129",
            "address": "Aihole, Hunagunda taluku, Bagalkote district, Karnataka, India",
            "latitude": "16.0192298",
            "locType": "village",
            "closest_to": "kundapur"
        },
        "nandi hills": {
            "blogLinks": [
                "http://www.mapsofindia.com/karnataka/tourism/"
            ],
            "longitude": "77.7194741670394",
            "address": "Nandi Upahara, Nandhi Hills Road, Kottige Thimmanahalli, Devanahalli taluk, Bangalore Rural, Karnataka, India",
            "latitude": "13.268142",
            "locType": "hotel",
            "closest_to": "kundapur"
        },
        "badami": {
            "blogLinks": [
                "http://www.mapsofindia.com/karnataka/tourism/",
                "https://www.tripadvisor.com/ShowTopic-g297627-i2498-k6657230-Visiting_Hampi_Badami_Aihole_Pattadakal_Bijapur-Karnataka.html"
            ],
            "longitude": "75.6807865",
            "address": "Badami, Badami taluku, Bagalkote district, Karnataka, 587200, India",
            "latitude": "15.9203874",
            "locType": "town",
            "closest_to": "kundapur"
        },
        "kudalasangama": {
            "blogLinks": [
                "http://www.holidayiq.com/Bijapur-Sightseeing-646.html"
            ],
            "longitude": "76.0604244",
            "address": "Kudala Sangama, Hunagunda taluku, Bagalkote district, Karnataka, India",
            "latitude": "16.2033992",
            "locType": "village",
            "closest_to": "kundapur"
        },
        "chitradurga": {
            "blogLinks": [
                "https://www.travelblog.org/Asia/India/Karnataka/Bangalore/Koramangala/blog-914055.html"
            ],
            "longitude": "76.4005122",
            "address": "Chitradurga, Chitradurga taluku, Chitradurga district, Karnataka, 577500, India",
            "latitude": "14.2266443",
            "locType": "town",
            "closest_to": "kundapur"
        },
        "old delhi": {
            "blogLinks": [
                "https://www.yatra.com/travel/weekend/"
            ],
            "longitude": "77.6666062",
            "address": "Outer Ring Road, Green Glen Layout, Iblur, Bengaluru, Bangalore Urban, Karnataka, 560001, India",
            "latitude": "12.9212473",
            "locType": "trunk",
            "closest_to": "kundapur"
        },
        "bangalore": {
            "blogLinks": [
                "https://www.travelblog.org/Asia/India/Karnataka/Bangalore/Koramangala/blog-914055.html",
                "http://www.nivalink.com/destination/kundapura",
                "http://www.mapsofindia.com/karnataka/tourism/",
                "https://in.via.com/bus-tickets/from-kundapur-to-bijapur",
                "https://www.yatra.com/travel/weekend/",
                "http://www.ticketgoose.com/bus-tickets/bijapur-to-kumbashi",
                "http://www.ticketgoose.com/bus-tickets/kundapura-to-bijapur",
                "https://www.tripadvisor.com/ShowTopic-g297627-i2498-k6657230-Visiting_Hampi_Badami_Aihole_Pattadakal_Bijapur-Karnataka.html"
            ],
            "longitude": "77.5912997",
            "address": "Bengaluru, Bangalore Urban, Karnataka, 560001, India",
            "latitude": "12.9791198",
            "locType": "city",
            "closest_to": "kundapur"
        },
        "kundapura": {
            "blogLinks": [
                "http://www.sugamatourists.com/buses/42/Davanagere-to-Kundapur/",
                "http://www.nivalink.com/destination/kundapura",
                "http://www.ticketgoose.com/bus-tickets/kundapura-to-bijapur"
            ],
            "longitude": "74.6915722",
            "address": "Kundapura, \u0c95\u0cc1\u0c82\u0ca6\u0cbe\u0caa\u0cc1\u0cb0 \u0ca4\u0cbe\u0cb2\u0cc2\u0c95\u0cc1, Udupi district, Karnataka, 576200, India",
            "latitude": "13.6250993",
            "locType": "town",
            "closest_to": "kundapur"
        },
        "chalukya": {
            "blogLinks": [
                "https://www.travelblog.org/Asia/India/Karnataka/Bangalore/Koramangala/blog-914055.html"
            ],
            "longitude": "77.5192989605445",
            "address": "Chalukya Nagar, Chandra Layout, GKW Layout, Bangalore Urban, Karnataka, 560072, India",
            "latitude": "12.9617207",
            "locType": "residential",
            "closest_to": "kundapur"
        },
        "mangalore international airport": {
            "blogLinks": [
                "http://www.ticketgoose.com/bus-tickets/kundapura-to-bijapur"
            ],
            "longitude": "74.887492668144",
            "address": "Mangalore International Airport, Airport Entry Road, Gandhinagar, Kenjar, Mangaluru taluk, Dakshina Kannada, Karnataka, 575015, India",
            "latitude": "12.95518575",
            "locType": "aerodrome",
            "closest_to": "kundapur"
        },
        "bijapur city": {
            "blogLinks": [
                "http://www.holidayiq.com/Bijapur-Sightseeing-646.html"
            ],
            "longitude": "75.7175387",
            "address": "Vijayapura, Vijayapura taluk, Bijapur district, Karnataka, 586101, India",
            "latitude": "16.8269911",
            "locType": "city",
            "closest_to": "kundapur"
        },
        "beach resort": {
            "blogLinks": [
                "http://www.sugamatourists.com/buses/42/Davanagere-to-Kundapur/"
            ],
            "longitude": "74.1148522500997",
            "address": "Devbagh Beach Resort, NH66, Kodibag, Chittakula, Karavara taluk, Uttara Kannada, Karnataka, 581352, India",
            "latitude": "14.84646145",
            "locType": "attraction",
            "closest_to": "kundapur"
        },
        "malayalam": {
            "blogLinks": [
                "http://www.ticketgoose.com/bus-tickets/bijapur-to-kumbashi",
                "https://www.yatra.com/india-tour-packages/holidays-in-thrissur"
            ],
            "longitude": "77.6774283",
            "address": "Lowry Adventist Malayalam Church, A Narayanapura Main Road, Darga Mohalla, Udaya Nagar, A Narayanapura, Bangalore Urban, Karnataka, 560016, India",
            "latitude": "12.9985726",
            "locType": "place_of_worship",
            "closest_to": "kundapur"
        },
        "kerela": {
            "blogLinks": [
                "https://www.yatra.com/travel/weekend/"
            ],
            "longitude": "77.6371987",
            "address": "Kerela Pavilion, 1st Main Road, Domlur 1st Stage, Domlur, Bengaluru, Bangalore Urban, Karnataka, 560001, India",
            "latitude": "12.9603147",
            "locType": "restaurant",
            "closest_to": "kundapur"
        },
        "garden": {
            "blogLinks": [
                "http://www.mapsofindia.com/karnataka/tourism/"
            ],
            "longitude": "77.9285817637065",
            "address": "garden, N Hosahalli, Hosakote taluk, Bangalore Rural, Karnataka, India",
            "latitude": "13.19253335",
            "locType": "orchard",
            "closest_to": "kundapur"
        },
        "barkur": {
            "blogLinks": [
                "http://www.ticketgoose.com/bus-tickets/bijapur-to-kumbashi"
            ],
            "longitude": "74.7600136",
            "address": "Barkur, Barkuru Mandarthi Road, Mandarti, Udupi taluku, Udupi district, Karnataka, India",
            "latitude": "13.4771583",
            "locType": "station",
            "closest_to": "kundapur"
        },
        "kozhikode": {
            "blogLinks": [
                "https://www.yatra.com/india-tour-packages/holidays-in-thrissur"
            ],
            "longitude": "76.6598864",
            "address": "Kozhikode - Kollegal Highway, Ittigegudu, Mysuru, Mysuru taluk, Mysuru district, Karnataka, 570001, India",
            "latitude": "12.2926117",
            "locType": "primary",
            "closest_to": "kundapur"
        },
        "udupi": {
            "blogLinks": [
                "http://www.sugamatourists.com/buses/42/Davanagere-to-Kundapur/",
                "http://www.nivalink.com/destination/kundapura",
                "http://www.ticketgoose.com/bus-tickets/kundapura-to-bijapur",
                "http://www.mapsofindia.com/karnataka/tourism/",
                "http://www.ticketgoose.com/bus-tickets/bijapur-to-kumbashi"
            ],
            "longitude": "74.7473232",
            "address": "Udupi, Udupi taluku, Udupi district, Karnataka, 576101, India",
            "latitude": "13.3419169",
            "locType": "city",
            "closest_to": "kundapur"
        },
        "ghataprabha river": {
            "blogLinks": [
                "http://www.holidayiq.com/Bijapur-Sightseeing-646.html"
            ],
            "longitude": "74.9165235",
            "address": "Ghataprabha, Gokak taluku, Belgaum district, Karnataka, India",
            "latitude": "16.2124344",
            "locType": "river",
            "closest_to": "kundapur"
        },
        "belgaum": {
            "blogLinks": [
                "http://www.ticketgoose.com/bus-tickets/bijapur-to-kumbashi",
                "http://www.ticketgoose.com/bus-tickets/kundapura-to-bijapur"
            ],
            "longitude": "74.75",
            "address": "Belgaum, Belgaum district, Karnataka, India",
            "latitude": "16.333333",
            "locType": "county",
            "closest_to": "kundapur"
        }
    },
    "bijapur": {
        "lat": "16.8269911",
        "class": "place",
        "importance": 0.55,
        "osm_type": "node",
        "lon": "75.7175387",
        "place_id": "640991",
        "display_name": "Vijayapura, Vijayapura taluk, Bijapur district, Karnataka, 586101, India",
        "osm_id": "245638671",
        "boundingbox": [
            "16.6669911",
            "16.9869911",
            "75.5575387",
            "75.8775387"
        ],
        "type": "city",
        "licence": "Data \u00a9 OpenStreetMap contributors, ODbL 1.0. http://www.openstreetmap.org/copyright",
        "icon": "https://nominatim.openstreetmap.org/images/mapicons/poi_place_city.p.20.png"
    }
}