{
    "davanagere": {
        "lat": "14.4661266",
        "class": "place",
        "importance": 0.55,
        "osm_type": "node",
        "lon": "75.9206361",
        "place_id": "5056634",
        "display_name": "Davanagere, Davanagere taluku, Davanagere district, Karnataka, 577000, India",
        "osm_id": "571395225",
        "boundingbox": [
            "14.3061266",
            "14.6261266",
            "75.7606361",
            "76.0806361"
        ],
        "type": "city",
        "licence": "Data \u00a9 OpenStreetMap contributors, ODbL 1.0. http://www.openstreetmap.org/copyright",
        "icon": "https://nominatim.openstreetmap.org/images/mapicons/poi_place_city.p.20.png"
    },
    "mentions": {
        "india": {
            "blogLinks": [
                "https://www.tripoto.com/weekend-getaways/from-davangere",
                "http://distancecalculator.globefeed.com/India_Distance_Calculator.asp?state=19",
                "http://visitingplacesofgreatindia.blogspot.com/2013/07/bijapur-district-karnataka.html",
                "https://www.yatra.com/india-tourism/bijapur/best-time-to-visit",
                "http://www.holidayiq.com/Bijapur-Sightseeing-646.html",
                "https://www.travelblog.org/Asia/India/Karnataka/Bangalore/Koramangala/blog-914055.html",
                "http://www.fameofcity.com/KARNATAKA/DAVANAGERE/DAVANGERE",
                "http://www.distancesfrom.com/distance-from-Bijapur-City-Bus-Stand-to-Davanagere-via-Hospet-KSRTC-Bus-Stand/DistanceHistory/27625024.aspx",
                "http://www.nivalink.com/destination/badami",
                "http://www.mapsofindia.com/karnataka/tourism/",
                "http://www.mapsofindia.com/maps/karnataka/",
                "http://www.distancesfrom.com/distance-from-Bijapur-City-Bus-Stand-to-Davanagere-via-Ilkal-Bus-Stand-Hospet-KSRTC-Bus-Stand/DistanceHistory/27625066.aspx"
            ],
            "longitude": "75.7223521",
            "address": "Karnataka, India",
            "latitude": "14.5203896",
            "locType": "administrative",
            "closest_to": "davanagere"
        },
        "madurai": {
            "blogLinks": [
                "https://www.tripoto.com/weekend-getaways/from-davangere"
            ],
            "longitude": "77.6320535",
            "address": "Madurai Idly Shop, 5th Main Road, Teachers Colony, HSR Layout, Bengaluru, Bangalore Urban, Karnataka, 560001, India",
            "latitude": "12.9185419",
            "locType": "restaurant",
            "closest_to": "davanagere"
        },
        "bijapur": {
            "blogLinks": [
                "http://www.holidayiq.com/Bijapur-Sightseeing-646.html",
                "http://www.distancesfrom.com/distance-from-Bijapur-City-Bus-Stand-to-Davanagere-via-Hospet-KSRTC-Bus-Stand/DistanceHistory/27625024.aspx",
                "https://www.travelblog.org/Asia/India/Karnataka/Bangalore/Koramangala/blog-914055.html",
                "http://visitingplacesofgreatindia.blogspot.com/2013/07/bijapur-district-karnataka.html"
            ],
            "longitude": "75.7175387",
            "address": "Vijayapura, Vijayapura taluk, Bijapur district, Karnataka, 586101, India",
            "latitude": "16.8269911",
            "locType": "city",
            "closest_to": "davanagere"
        },
        "haveri": {
            "blogLinks": [
                "http://www.mapsofindia.com/maps/karnataka/"
            ],
            "longitude": "75.3996731",
            "address": "Haveri, Haveri taluku, Haveri district, Karnataka, 581110, India",
            "latitude": "14.7874825",
            "locType": "town",
            "closest_to": "davanagere"
        },
        "pattadakal": {
            "blogLinks": [
                "http://visitingplacesofgreatindia.blogspot.com/2013/07/bijapur-district-karnataka.html",
                "http://www.nivalink.com/destination/badami",
                "https://www.travelblog.org/Asia/India/Karnataka/Bangalore/Koramangala/blog-914055.html",
                "http://www.mapsofindia.com/karnataka/tourism/"
            ],
            "longitude": "75.815884048161",
            "address": "Pattadakal Temples, SH14, \u0cac\u0cbe\u0c9a\u0cbf\u0ca8\u0c97\u0cc1\u0ca1\u0ccd\u0ca1, Badami taluku, Bagalkote district, Karnataka, 587211, India",
            "latitude": "15.9506349",
            "locType": "attraction",
            "closest_to": "davanagere"
        },
        "ulsoor lake": {
            "blogLinks": [
                "http://www.mapsofindia.com/karnataka/tourism/"
            ],
            "longitude": "77.6191669052984",
            "address": "Halasuru lake, Annaswamy Mudaliar Road, Kothandram Layout, Halasuru, Bengaluru, Bangalore Urban, Karnataka, 560001, India",
            "latitude": "12.9823891",
            "locType": "water",
            "closest_to": "davanagere"
        },
        "bijapur district of karnataka": {
            "blogLinks": [
                "http://visitingplacesofgreatindia.blogspot.com/2013/07/bijapur-district-karnataka.html"
            ],
            "longitude": "75.897147327785",
            "address": "Bijapur district, Karnataka, India",
            "latitude": "16.81105965",
            "locType": "administrative",
            "closest_to": "davanagere"
        },
        "margao": {
            "blogLinks": [
                "https://www.tripoto.com/weekend-getaways/from-davangere"
            ],
            "longitude": "73.9583411",
            "address": "Karnataka bank, NH66, Aquem, Fatorda, Margao, South Goa, Goa, 403600, India",
            "latitude": "15.2740083",
            "locType": "bank",
            "closest_to": "davanagere"
        },
        "chitradurga district": {
            "blogLinks": [
                "http://www.fameofcity.com/KARNATAKA/DAVANAGERE/DAVANGERE",
                "http://journeymart.com/de/india/karnataka/davangere/nearby-places/default.aspx"
            ],
            "longitude": "76.5299366059272",
            "address": "Chitradurga district, Karnataka, India",
            "latitude": "14.3051049",
            "locType": "administrative",
            "closest_to": "davanagere"
        },
        "shivamogga district": {
            "blogLinks": [
                "http://www.fameofcity.com/KARNATAKA/DAVANAGERE/DAVANGERE"
            ],
            "longitude": "75.569737",
            "address": "Shivamogga, Shivamogga taluku, Shimoga district, Karnataka, 577200, India",
            "latitude": "13.9311723",
            "locType": "city",
            "closest_to": "davanagere"
        },
        "sindagi road": {
            "blogLinks": [
                "http://visitingplacesofgreatindia.blogspot.com/2013/07/bijapur-district-karnataka.html"
            ],
            "longitude": "76.1447595",
            "address": "Sindagi Road, Kannolli, Sindagi taluku, Bijapur district, Karnataka, 586159, India",
            "latitude": "16.850652",
            "locType": "trunk",
            "closest_to": "bijapur"
        },
        "gol gumbaz": {
            "blogLinks": [
                "http://visitingplacesofgreatindia.blogspot.com/2013/07/bijapur-district-karnataka.html"
            ],
            "longitude": "75.7360929",
            "address": "Gol Gumbaz, Station Road, Ibrahimpura, Vijayapura, Vijayapura taluk, Bijapur district, Karnataka, 586101, India",
            "latitude": "16.8300223",
            "locType": "attraction",
            "closest_to": "bijapur"
        },
        "maharastra": {
            "blogLinks": [
                "http://visitingplacesofgreatindia.blogspot.com/2013/07/bijapur-district-karnataka.html"
            ],
            "longitude": "77.606263",
            "address": "Maharastra Bank, 7th Main Road, BTM Layout 2nd Stage, BTM Layout, Bengaluru, Bangalore Urban, Karnataka, 560001, India",
            "latitude": "12.9132591",
            "locType": "atm",
            "closest_to": "davanagere"
        },
        "udupi hotel": {
            "blogLinks": [
                "https://www.travelblog.org/Asia/India/Karnataka/Bangalore/Koramangala/blog-914055.html"
            ],
            "longitude": "74.8346487",
            "address": "Udupi Hotel, Nataraj Raod, Sirsi, Shirasi taluk, Uttara Kannada, Karnataka, 581400, India",
            "latitude": "14.6157772",
            "locType": "hotel",
            "closest_to": "davanagere"
        },
        "bengaluru": {
            "blogLinks": [
                "https://www.tripoto.com/weekend-getaways/from-davangere"
            ],
            "longitude": "77.5912997",
            "address": "Bengaluru, Bangalore Urban, Karnataka, 560001, India",
            "latitude": "12.9791198",
            "locType": "city",
            "closest_to": "davanagere"
        },
        "tungabhadra": {
            "blogLinks": [
                "https://www.tripoto.com/weekend-getaways/from-davangere"
            ],
            "longitude": "76.4931607",
            "address": "Tungabhadra, Gangavati taluku, Koppal district, Karnataka, India",
            "latitude": "15.3446123",
            "locType": "river",
            "closest_to": "davanagere"
        },
        "palani": {
            "blogLinks": [
                "https://www.tripoto.com/weekend-getaways/from-davangere"
            ],
            "longitude": "77.6168951",
            "address": "Palani, Neelasandra Bazaar Street, Austin Town BDA Layout, Neelasandra, Bengaluru, Bangalore Urban, Karnataka, 560001, India",
            "latitude": "12.9537341",
            "locType": "recycling",
            "closest_to": "davanagere"
        },
        "cubbon park": {
            "blogLinks": [
                "http://www.mapsofindia.com/karnataka/tourism/"
            ],
            "longitude": "77.5977565",
            "address": "Cubbon Park, Cubbon Road, Tasker Town, Shivajinagar, Bengaluru, Bangalore Urban, Karnataka, 560001, India",
            "latitude": "12.9808487",
            "locType": "station",
            "closest_to": "davanagere"
        },
        "mangalore": {
            "blogLinks": [
                "http://visitingplacesofgreatindia.blogspot.com/2013/07/bijapur-district-karnataka.html",
                "http://www.mapsofindia.com/karnataka/tourism/"
            ],
            "longitude": "74.8430082",
            "address": "Mangaluru, Mangaluru taluk, Dakshina Kannada, Karnataka, 575001, India",
            "latitude": "12.8698101",
            "locType": "city",
            "closest_to": "davanagere"
        },
        "karwar": {
            "blogLinks": [
                "http://visitingplacesofgreatindia.blogspot.com/2013/07/bijapur-district-karnataka.html"
            ],
            "longitude": "74.1319229",
            "address": "Karwar, Karavara taluk, Uttara Kannada, Karnataka, 581300, India",
            "latitude": "14.8120931",
            "locType": "town",
            "closest_to": "davanagere"
        },
        "dakshina kannada": {
            "blogLinks": [
                "http://www.mapsofindia.com/maps/karnataka/"
            ],
            "longitude": "75.1008028650794",
            "address": "Dakshina Kannada, Karnataka, India",
            "latitude": "12.8114089",
            "locType": "administrative",
            "closest_to": "davanagere"
        },
        "raichur": {
            "blogLinks": [
                "http://www.mapsofindia.com/maps/karnataka/"
            ],
            "longitude": "77.166667",
            "address": "Raichur, Raichur district, Karnataka, India",
            "latitude": "16.083333",
            "locType": "county",
            "closest_to": "davanagere"
        },
        "shivapur": {
            "blogLinks": [
                "http://visitingplacesofgreatindia.blogspot.com/2013/07/bijapur-district-karnataka.html"
            ],
            "longitude": "77.23513",
            "address": "Government Higher Primary School Shivapur, \u0cb6\u0cb9\u0cbe\u0caa\u0cc1\u0cb0, Shahapura taluku, Yadagiri district, Karnataka, India",
            "latitude": "16.43109",
            "locType": "school",
            "closest_to": "davanagere"
        },
        "kodagu": {
            "blogLinks": [
                "http://www.mapsofindia.com/maps/karnataka/",
                "http://www.mapsofindia.com/karnataka/tourism/"
            ],
            "longitude": "75.6677235950852",
            "address": "Kodagu, Karnataka, India",
            "latitude": "12.38117345",
            "locType": "administrative",
            "closest_to": "davanagere"
        },
        "shamanur": {
            "blogLinks": [
                "http://www.nivalink.com/destination/davanagere"
            ],
            "longitude": "75.9170613",
            "address": "Shamanur Road, K.T. Jambanna Nagara, Davanagere, Davanagere taluku, Davanagere district, Karnataka, 577000, India",
            "latitude": "14.4584516",
            "locType": "secondary",
            "closest_to": "davanagere"
        },
        "karnataka": {
            "blogLinks": [
                "https://www.tripoto.com/weekend-getaways/from-davangere",
                "http://distancecalculator.globefeed.com/India_Distance_Calculator.asp?state=19",
                "http://visitingplacesofgreatindia.blogspot.com/2013/07/bijapur-district-karnataka.html",
                "http://www.holidayiq.com/Bijapur-Sightseeing-646.html",
                "https://www.travelblog.org/Asia/India/Karnataka/Bangalore/Koramangala/blog-914055.html",
                "http://www.nivalink.com/destination/davanagere",
                "http://www.fameofcity.com/KARNATAKA/DAVANAGERE/DAVANGERE",
                "http://www.distancesfrom.com/distance-from-Bijapur-City-Bus-Stand-to-Davanagere-via-Hospet-KSRTC-Bus-Stand/DistanceHistory/27625024.aspx",
                "http://www.nivalink.com/destination/badami",
                "http://www.mapsofindia.com/karnataka/tourism/",
                "http://www.mapsofindia.com/maps/karnataka/",
                "http://www.distancesfrom.com/distance-from-Bijapur-City-Bus-Stand-to-Davanagere-via-Ilkal-Bus-Stand-Hospet-KSRTC-Bus-Stand/DistanceHistory/27625066.aspx",
                "http://www.karnatakatourism.org/"
            ],
            "longitude": "76.6639936",
            "address": "Karnataka, Shalivahana Road, Nazarbad, Mysuru, Mysuru taluk, Mysuru district, Karnataka, 570001, India",
            "latitude": "12.3084901",
            "locType": "atm",
            "closest_to": "davanagere"
        },
        "bijapur district": {
            "blogLinks": [
                "http://www.holidayiq.com/Bijapur-Sightseeing-646.html",
                "http://visitingplacesofgreatindia.blogspot.com/2013/07/bijapur-district-karnataka.html",
                "http://journeymart.com/de/india/karnataka/davangere/nearby-places/default.aspx"
            ],
            "longitude": "75.897147327785",
            "address": "Bijapur district, Karnataka, India",
            "latitude": "16.81105965",
            "locType": "administrative",
            "closest_to": "davanagere"
        },
        "north karnataka": {
            "blogLinks": [
                "https://www.travelblog.org/Asia/India/Karnataka/Bangalore/Koramangala/blog-914055.html"
            ],
            "longitude": "77.7660547",
            "address": "N, Chaithanya Samarpan, Kadugodi, Kannamangala, Bangalore Urban, Karnataka, 560066, India",
            "latitude": "13.0217151",
            "locType": "service",
            "closest_to": "davanagere"
        },
        "malaprabha": {
            "blogLinks": [
                "https://www.travelblog.org/Asia/India/Karnataka/Bangalore/Koramangala/blog-914055.html"
            ],
            "longitude": "75.1982668",
            "address": "Malaprabha, Ramadurga taluku, Belgaum district, Karnataka, India",
            "latitude": "15.8914192",
            "locType": "river",
            "closest_to": "davanagere"
        },
        "sangameshwara": {
            "blogLinks": [
                "http://visitingplacesofgreatindia.blogspot.com/2013/07/bijapur-district-karnataka.html"
            ],
            "longitude": "74.87651",
            "address": "Sangameshwara, Kalaghatagi taluku, Dharwad district, Karnataka, India",
            "latitude": "15.184341",
            "locType": "village",
            "closest_to": "davanagere"
        },
        "chennakesava temple": {
            "blogLinks": [
                "http://www.mapsofindia.com/karnataka/tourism/"
            ],
            "longitude": "75.8603311",
            "address": "Chennakesava Temple, NH73, Navilahalli, Beluru taluk, Hassan district, Karnataka, India",
            "latitude": "13.1629239",
            "locType": "place_of_worship",
            "closest_to": "davanagere"
        },
        "davanagere district": {
            "blogLinks": [
                "http://www.fameofcity.com/KARNATAKA/DAVANAGERE/DAVANGERE"
            ],
            "longitude": "75.8904782659728",
            "address": "Davanagere district, Karnataka, India",
            "latitude": "14.37090835",
            "locType": "administrative",
            "closest_to": "davanagere"
        },
        "ooty": {
            "blogLinks": [
                "http://journeymart.com/de/india/karnataka/davangere/nearby-places/default.aspx"
            ],
            "longitude": "76.6586807",
            "address": "Ooty Road, Vidyaranyapuram, Mysuru, Mysuru taluk, Mysuru district, Karnataka, 570001, India",
            "latitude": "12.2774807",
            "locType": "primary",
            "closest_to": "davanagere"
        },
        "manipal": {
            "blogLinks": [
                "http://www.mapsofindia.com/karnataka/tourism/"
            ],
            "longitude": "74.7870308",
            "address": "Manipal, Udupi taluku, Udupi district, Karnataka, India",
            "latitude": "13.3519723",
            "locType": "town",
            "closest_to": "davanagere"
        },
        "mecca": {
            "blogLinks": [
                "http://visitingplacesofgreatindia.blogspot.com/2013/07/bijapur-district-karnataka.html"
            ],
            "longitude": "77.5509669",
            "address": "masjid e mecca, 7th cross padarayana pura, Hosahalli Main Road, Rajajinagar 6th Block, Goripalya, Bengaluru, Bangalore Urban, Karnataka, 560001, India",
            "latitude": "12.9618838",
            "locType": "place_of_worship",
            "closest_to": "davanagere"
        },
        "bengal": {
            "blogLinks": [
                "https://www.travelblog.org/Asia/India/Karnataka/Bangalore/Koramangala/blog-914055.html",
                "http://visitingplacesofgreatindia.blogspot.com/2013/07/bijapur-district-karnataka.html"
            ],
            "longitude": "77.7517038151245",
            "address": "Bengal Lamps, Konadasapura, Bangalore Urban, Karnataka, 560066, India",
            "latitude": "13.0492646",
            "locType": "industrial",
            "closest_to": "davanagere"
        },
        "dharwad": {
            "blogLinks": [
                "http://www.mapsofindia.com/maps/karnataka/",
                "http://visitingplacesofgreatindia.blogspot.com/2013/07/bijapur-district-karnataka.html"
            ],
            "longitude": "75.0066516",
            "address": "Dharwad, Dharawada taluku, Dharwad district, Karnataka, 580001, India",
            "latitude": "15.4540505",
            "locType": "city",
            "closest_to": "davanagere"
        },
        "harihareshwara temple": {
            "blogLinks": [
                "http://journeymart.com/de/india/karnataka/davangere/nearby-places/default.aspx"
            ],
            "longitude": "74.7930728229472",
            "address": "Harihareshwara Temple, NH66, Charanthipete, Karnad, Mulki, Mangaluru taluk, Dakshina Kannada, Karnataka, 574154, India",
            "latitude": "13.0824827",
            "locType": "place_of_worship",
            "closest_to": "davanagere"
        },
        "hampi": {
            "blogLinks": [
                "http://distancecalculator.globefeed.com/India_Distance_Calculator.asp?state=19",
                "http://www.mapsofindia.com/karnataka/tourism/"
            ],
            "longitude": "76.4606199",
            "address": "Hampe, Hosapete taluk, Bellary district, Karnataka, 583239, India",
            "latitude": "15.3359769",
            "locType": "village",
            "closest_to": "davanagere"
        },
        "hyderabad": {
            "blogLinks": [
                "http://visitingplacesofgreatindia.blogspot.com/2013/07/bijapur-district-karnataka.html"
            ],
            "longitude": "77.5344002",
            "address": "Hyderabad Road, Old City, Bidar, Bidar taluku, Bidar district, Karnataka, 585400, India",
            "latitude": "17.9003114",
            "locType": "primary",
            "closest_to": "bijapur"
        },
        "north goa": {
            "blogLinks": [
                "https://www.tripoto.com/weekend-getaways/from-davangere"
            ],
            "longitude": "77.6200027",
            "address": "Carnival De Goa, Bhaskaran Road, Gupta Layout, Halasuru, Bengaluru, Bangalore Urban, Karnataka, 560001, India",
            "latitude": "12.9750047",
            "locType": "restaurant",
            "closest_to": "davanagere"
        },
        "gadag": {
            "blogLinks": [
                "http://www.mapsofindia.com/maps/karnataka/",
                "http://visitingplacesofgreatindia.blogspot.com/2013/07/bijapur-district-karnataka.html"
            ],
            "longitude": "75.6300786",
            "address": "Gadag, Gadag taluk, Gadag district, Karnataka, 582101, India",
            "latitude": "15.4263647",
            "locType": "town",
            "closest_to": "davanagere"
        },
        "kidney hospital": {
            "blogLinks": [
                "http://visitingplacesofgreatindia.blogspot.com/2013/07/bijapur-district-karnataka.html"
            ],
            "longitude": "77.555816",
            "address": "Bangalore Kidney Foundation - NU Hospital, 15th Main, Seven Hills Layout, Padmanabha Nagar, Bengaluru, Bangalore Urban, Karnataka, 560001, India",
            "latitude": "12.9179548",
            "locType": "hospital",
            "closest_to": "davanagere"
        },
        "hoysala": {
            "blogLinks": [
                "http://www.nivalink.com/destination/davanagere",
                "http://www.mapsofindia.com/karnataka/tourism/"
            ],
            "longitude": "77.6375990817051",
            "address": "Hoysala Nagar, Bengaluru, Bangalore Urban, Karnataka, 560001, India",
            "latitude": "12.97813815",
            "locType": "administrative",
            "closest_to": "davanagere"
        },
        "chitradurga fort": {
            "blogLinks": [
                "http://www.mapsofindia.com/maps/karnataka/"
            ],
            "longitude": "76.3948635401208",
            "address": "Chitradurga Fort, Kote Road, Devalagiri 1st Phase, Chitradurga, Chitradurga taluku, Chitradurga district, Karnataka, 577500, India",
            "latitude": "14.21296355",
            "locType": "attraction",
            "closest_to": "davanagere"
        },
        "gokarna": {
            "blogLinks": [
                "http://www.mapsofindia.com/karnataka/tourism/"
            ],
            "longitude": "74.3184418",
            "address": "Gokarna, Kumata taluk, Uttara Kannada, Karnataka, 581326, India",
            "latitude": "14.5439629",
            "locType": "town",
            "closest_to": "davanagere"
        },
        "baga": {
            "blogLinks": [
                "https://www.tripoto.com/weekend-getaways/from-davangere"
            ],
            "longitude": "76.9300452",
            "address": "Baga Hipparaga, Basavakalyana taluku, Bidar district, Karnataka, India",
            "latitude": "17.6148763",
            "locType": "village",
            "closest_to": "bijapur"
        },
        "ramanagara": {
            "blogLinks": [
                "http://www.mapsofindia.com/maps/karnataka/"
            ],
            "longitude": "74.4900863",
            "address": "Ramanagara, Khanapura taluku, Belgaum district, Karnataka, India",
            "latitude": "15.422047",
            "locType": "town",
            "closest_to": "davanagere"
        },
        "mecca gate": {
            "blogLinks": [
                "http://www.holidayiq.com/Bijapur-Sightseeing-646.html"
            ],
            "longitude": "77.5509669",
            "address": "masjid e mecca, 7th cross padarayana pura, Hosahalli Main Road, Rajajinagar 6th Block, Goripalya, Bengaluru, Bangalore Urban, Karnataka, 560001, India",
            "latitude": "12.9618838",
            "locType": "place_of_worship",
            "closest_to": "davanagere"
        },
        "harihar": {
            "blogLinks": [
                "http://www.nivalink.com/destination/davanagere",
                "http://journeymart.com/de/india/karnataka/davangere/nearby-places/default.aspx"
            ],
            "longitude": "75.809288",
            "address": "Harihara, Harihara taluku, Davanagere district, Karnataka, 577600, India",
            "latitude": "14.5116874",
            "locType": "town",
            "closest_to": "davanagere"
        },
        "japanese garden": {
            "blogLinks": [
                "https://www.tripoto.com/weekend-getaways/from-davangere"
            ],
            "longitude": "77.6055915",
            "address": "Hae Kum Gang (Korean/Japanese), 20, Castle Street, Shantala Nagar, Ashok Nagar, Bengaluru, Bangalore Urban, Karnataka, 560001, India",
            "latitude": "12.9655328",
            "locType": "restaurant",
            "closest_to": "davanagere"
        },
        "bagalkote": {
            "blogLinks": [
                "http://www.mapsofindia.com/maps/karnataka/"
            ],
            "longitude": "75.5825586777167",
            "address": "Bagalkote district, Karnataka, India",
            "latitude": "16.28998085",
            "locType": "administrative",
            "closest_to": "davanagere"
        },
        "hyderabadi": {
            "blogLinks": [
                "http://visitingplacesofgreatindia.blogspot.com/2013/07/bijapur-district-karnataka.html"
            ],
            "longitude": "77.6034541",
            "address": "Hyderabadi Briyani, Outer Ring Road, BTM Layout 1st Stage, BTM Layout, Bengaluru, Bangalore Urban, Karnataka, 560001, India",
            "latitude": "12.9168527",
            "locType": "restaurant",
            "closest_to": "davanagere"
        },
        "nataraja": {
            "blogLinks": [
                "https://www.travelblog.org/Asia/India/Karnataka/Bangalore/Koramangala/blog-914055.html"
            ],
            "longitude": "77.5730381173154",
            "address": "Nataraja, Sirur Park Road, Vyalikaval, Seshadripuram, Bengaluru, Bangalore Urban, Karnataka, 560001, India",
            "latitude": "12.9900332",
            "locType": "cinema",
            "closest_to": "davanagere"
        },
        "kerala": {
            "blogLinks": [
                "http://www.mapsofindia.com/maps/karnataka/"
            ],
            "longitude": "77.6382683",
            "address": "New Life Kerala Mess, Sai Baba Mandira Road, Mottappanapalaya, Indiranagar, Bengaluru, Bangalore Urban, Karnataka, 560001, India",
            "latitude": "12.9726449",
            "locType": "restaurant",
            "closest_to": "davanagere"
        },
        "hasan": {
            "blogLinks": [
                "http://www.mapsofindia.com/karnataka/tourism/"
            ],
            "longitude": "76.0992703",
            "address": "Hassan, Hasana taluk, Hassan district, Karnataka, 573201, India",
            "latitude": "13.0070817",
            "locType": "town",
            "closest_to": "davanagere"
        },
        "sainik": {
            "blogLinks": [
                "http://visitingplacesofgreatindia.blogspot.com/2013/07/bijapur-district-karnataka.html"
            ],
            "longitude": "75.6946917",
            "address": "Sainik School, Toravi Road, Vijayapura, Vijayapura taluk, Bijapur district, Karnataka, 586101, India",
            "latitude": "16.8332977",
            "locType": "school",
            "closest_to": "bijapur"
        },
        "kabaddi": {
            "blogLinks": [
                "http://visitingplacesofgreatindia.blogspot.com/2013/07/bijapur-district-karnataka.html"
            ],
            "longitude": "77.7162612999651",
            "address": "Dr. Rajkumar Flood Lit Kabaddi Pitch, Hoodi Main Road, Ayyappanagar, Hoodi, Tigalarapalya, Bangalore Urban, Karnataka, 560048, India",
            "latitude": "12.9928701",
            "locType": "pitch",
            "closest_to": "davanagere"
        },
        "panaji": {
            "blogLinks": [
                "https://www.tripoto.com/weekend-getaways/from-davangere"
            ],
            "longitude": "74.4876784",
            "address": "Belgaum - Panaji Highway, Londa, Khanapura taluku, Belgaum district, Karnataka, India",
            "latitude": "15.4422981",
            "locType": "trunk",
            "closest_to": "davanagere"
        },
        "bagalkot district": {
            "blogLinks": [
                "http://visitingplacesofgreatindia.blogspot.com/2013/07/bijapur-district-karnataka.html"
            ],
            "longitude": "75.6967919",
            "address": "Bagalakote, Bagalakote taluk, Bagalkote district, Karnataka, India",
            "latitude": "16.1853166",
            "locType": "city",
            "closest_to": "davanagere"
        },
        "bellary district": {
            "blogLinks": [
                "http://www.fameofcity.com/KARNATAKA/DAVANAGERE/DAVANGERE"
            ],
            "longitude": "76.7137978546465",
            "address": "Bellary district, Karnataka, India",
            "latitude": "15.20597305",
            "locType": "administrative",
            "closest_to": "davanagere"
        },
        "shahapur": {
            "blogLinks": [
                "http://visitingplacesofgreatindia.blogspot.com/2013/07/bijapur-district-karnataka.html"
            ],
            "longitude": "77.19816",
            "address": "Government Higher Primary School Katagi Shahapur, SH15, Hattikuni, Yadagiri taluku, Yadagiri district, Karnataka, India",
            "latitude": "16.85278",
            "locType": "school",
            "closest_to": "bijapur"
        },
        "koppal": {
            "blogLinks": [
                "http://www.mapsofindia.com/maps/karnataka/"
            ],
            "longitude": "76.1547421",
            "address": "Koppala, Koppala taluku, Koppal district, Karnataka, 583231, India",
            "latitude": "15.3484144",
            "locType": "town",
            "closest_to": "davanagere"
        },
        "krishna river": {
            "blogLinks": [
                "http://www.holidayiq.com/Bijapur-Sightseeing-646.html"
            ],
            "longitude": "77.0529845",
            "address": "Krishna, Shahapura taluku, Yadagiri district, Karnataka, India",
            "latitude": "16.5209569",
            "locType": "river",
            "closest_to": "davanagere"
        },
        "chikkaballapur": {
            "blogLinks": [
                "http://www.mapsofindia.com/maps/karnataka/"
            ],
            "longitude": "77.7306866",
            "address": "Chikkaballapura, Chikkaballapura taluk, Chikkaballapura district, Karnataka, 562101, India",
            "latitude": "13.4352549",
            "locType": "town",
            "closest_to": "davanagere"
        },
        "river tungabhadra": {
            "blogLinks": [
                "http://journeymart.com/de/india/karnataka/davangere/nearby-places/default.aspx"
            ],
            "longitude": "76.4931607",
            "address": "Tungabhadra, Gangavati taluku, Koppal district, Karnataka, India",
            "latitude": "15.3446123",
            "locType": "river",
            "closest_to": "davanagere"
        },
        "hubli airport": {
            "blogLinks": [
                "https://www.yatra.com/india-tourism/bijapur/best-time-to-visit"
            ],
            "longitude": "75.0860974",
            "address": "Hubli Airport, \u0c97\u0ccb\u0c95\u0cc1\u0cb2 \u0cb0\u0ccb\u0ca1\u0ccd, Padmaraj Nagar, Gokul, Hubballi taluku, Dharwad district, Karnataka, 580030, India",
            "latitude": "15.3598315",
            "locType": "aerodrome",
            "closest_to": "davanagere"
        },
        "mandya": {
            "blogLinks": [
                "http://www.mapsofindia.com/maps/karnataka/"
            ],
            "longitude": "76.8937392",
            "address": "Mandya, Mandya taluk, Mandya district, Karnataka, 571401, India",
            "latitude": "12.5217836",
            "locType": "town",
            "closest_to": "davanagere"
        },
        "peenya": {
            "blogLinks": [
                "https://www.travelblog.org/Asia/India/Karnataka/Bangalore/Koramangala/blog-914055.html"
            ],
            "longitude": "77.5273253",
            "address": "Peenya, Bengaluru, Bangalore Urban, Karnataka, 560001, India",
            "latitude": "13.0329419",
            "locType": "suburb",
            "closest_to": "davanagere"
        },
        "harihareshwara": {
            "blogLinks": [
                "http://www.nivalink.com/destination/davanagere"
            ],
            "longitude": "74.7930728229472",
            "address": "Harihareshwara Temple, NH66, Charanthipete, Karnad, Mulki, Mangaluru taluk, Dakshina Kannada, Karnataka, 574154, India",
            "latitude": "13.0824827",
            "locType": "place_of_worship",
            "closest_to": "davanagere"
        },
        "delhi": {
            "blogLinks": [
                "http://visitingplacesofgreatindia.blogspot.com/2013/07/bijapur-district-karnataka.html"
            ],
            "longitude": "77.6666062",
            "address": "Outer Ring Road, Green Glen Layout, Iblur, Bengaluru, Bangalore Urban, Karnataka, 560001, India",
            "latitude": "12.9212473",
            "locType": "trunk",
            "closest_to": "davanagere"
        },
        "silicon valley": {
            "blogLinks": [
                "https://www.tripoto.com/weekend-getaways/from-davangere"
            ],
            "longitude": "77.6053133563105",
            "address": "RK Estates : Silicon Valley Layout, Vidyanagar, Bengaluru, Bangalore Urban, Karnataka, 560001, India",
            "latitude": "13.1650062",
            "locType": "residential",
            "closest_to": "davanagere"
        },
        "harihara": {
            "blogLinks": [
                "http://journeymart.com/de/india/karnataka/davangere/nearby-places/default.aspx"
            ],
            "longitude": "75.809288",
            "address": "Harihara, Harihara taluku, Davanagere district, Karnataka, 577600, India",
            "latitude": "14.5116874",
            "locType": "town",
            "closest_to": "davanagere"
        },
        "honnali": {
            "blogLinks": [
                "http://journeymart.com/de/india/karnataka/davangere/nearby-places/default.aspx"
            ],
            "longitude": "75.6457434",
            "address": "Honnali, Honnali taluku, Davanagere district, Karnataka, 577217, India",
            "latitude": "14.2389785",
            "locType": "town",
            "closest_to": "davanagere"
        },
        "lal bagh": {
            "blogLinks": [
                "https://www.tripoto.com/weekend-getaways/from-davangere"
            ],
            "longitude": "74.8386152",
            "address": "Lal Bagh Bus Stop, Mahatma Gandhi Road, Lalbagh, Ladyhill, Mangaluru, Mangaluru taluk, Dakshina Kannada, Karnataka, 575001, India",
            "latitude": "12.8859223",
            "locType": "bus_stop",
            "closest_to": "davanagere"
        },
        "almatti dam": {
            "blogLinks": [
                "http://www.holidayiq.com/Bijapur-Sightseeing-646.html",
                "https://www.travelblog.org/Asia/India/Karnataka/Bangalore/Koramangala/blog-914055.html"
            ],
            "longitude": "75.9517801",
            "address": "Almatti Left Bank Canal, Basavana Bagevadi Taluku, Bijapur district, Karnataka, India",
            "latitude": "16.3648934",
            "locType": "canal",
            "closest_to": "davanagere"
        },
        "navagraha temple": {
            "blogLinks": [
                "https://www.tripoto.com/weekend-getaways/from-davangere"
            ],
            "longitude": "76.9364719",
            "address": "Navagraha Temple, Gatti Layout Main Road, Gubbi, Gubbi taluk, Tumkur district, Karnataka, 572216, India",
            "latitude": "13.3106354",
            "locType": "place_of_worship",
            "closest_to": "davanagere"
        },
        "goa": {
            "blogLinks": [
                "https://www.tripoto.com/weekend-getaways/from-davangere",
                "http://www.mapsofindia.com/maps/karnataka/"
            ],
            "longitude": "77.6200027",
            "address": "Carnival De Goa, Bhaskaran Road, Gupta Layout, Halasuru, Bengaluru, Bangalore Urban, Karnataka, 560001, India",
            "latitude": "12.9750047",
            "locType": "restaurant",
            "closest_to": "davanagere"
        },
        "uttara kannada": {
            "blogLinks": [
                "http://www.nivalink.com/destination/davanagere",
                "http://visitingplacesofgreatindia.blogspot.com/2013/07/bijapur-district-karnataka.html"
            ],
            "longitude": "74.4729163045979",
            "address": "Uttara Kannada, Karnataka, India",
            "latitude": "14.6726379",
            "locType": "administrative",
            "closest_to": "davanagere"
        },
        "bombay": {
            "blogLinks": [
                "http://visitingplacesofgreatindia.blogspot.com/2013/07/bijapur-district-karnataka.html"
            ],
            "longitude": "77.5500256",
            "address": "Bombay tea hotel, Hosahalli Main Road, Rajajinagar 6th Block, Goripalya, Bengaluru, Bangalore Urban, Karnataka, 560001, India",
            "latitude": "12.9632318",
            "locType": "cafe",
            "closest_to": "davanagere"
        },
        "chikmagalur": {
            "blogLinks": [
                "http://www.fameofcity.com/KARNATAKA/DAVANAGERE/DAVANGERE"
            ],
            "longitude": "75.5",
            "address": "Chikmagalur, Chikkamagaluru district, Karnataka, India",
            "latitude": "13.5",
            "locType": "county",
            "closest_to": "davanagere"
        },
        "kalaseshwara temple": {
            "blogLinks": [
                "http://www.nivalink.com/destination/davanagere"
            ],
            "longitude": "75.363446975",
            "address": "Kalaseshwara Temple, SH66, Kalasa, Mudigere taluk, Chikkamagaluru district, Karnataka, 577124, India",
            "latitude": "13.23228505",
            "locType": "place_of_worship",
            "closest_to": "davanagere"
        },
        "lotus lake": {
            "blogLinks": [
                "http://visitingplacesofgreatindia.blogspot.com/2013/07/bijapur-district-karnataka.html"
            ],
            "longitude": "77.6310461724866",
            "address": "Anugraha Lotus, Hennur, Bengaluru, Bangalore Urban, Karnataka, 560001, India",
            "latitude": "13.0197832",
            "locType": "residential",
            "closest_to": "davanagere"
        },
        "haveri district": {
            "blogLinks": [
                "http://www.fameofcity.com/KARNATAKA/DAVANAGERE/DAVANGERE"
            ],
            "longitude": "75.3845674304742",
            "address": "Haveri district, Karnataka, India",
            "latitude": "14.714635",
            "locType": "administrative",
            "closest_to": "davanagere"
        },
        "udipi": {
            "blogLinks": [
                "http://www.nivalink.com/destination/davanagere"
            ],
            "longitude": "77.652888",
            "address": "Udipi Park, 2nd Cross Road, Muniyappa Layout, Murugeshpalaya, Belure Ambedkar Nagar, Bangalore Urban, Karnataka, 560067, India",
            "latitude": "12.9530588",
            "locType": "restaurant",
            "closest_to": "davanagere"
        },
        "davanagere": {
            "blogLinks": [
                "http://www.fameofcity.com/KARNATAKA/DAVANAGERE/DAVANGERE",
                "http://www.distancesfrom.com/distance-from-Bijapur-City-Bus-Stand-to-Davanagere-via-Hospet-KSRTC-Bus-Stand/DistanceHistory/27625024.aspx",
                "http://www.distancesfrom.com/distance-from-Bijapur-City-Bus-Stand-to-Davanagere-via-Ilkal-Bus-Stand-Hospet-KSRTC-Bus-Stand/DistanceHistory/27625066.aspx"
            ],
            "longitude": "75.9206361",
            "address": "Davanagere, Davanagere taluku, Davanagere district, Karnataka, 577000, India",
            "latitude": "14.4661266",
            "locType": "city",
            "closest_to": "davanagere"
        },
        "gulbarga": {
            "blogLinks": [
                "http://www.mapsofindia.com/maps/karnataka/",
                "http://www.holidayiq.com/Bijapur-Sightseeing-646.html",
                "http://visitingplacesofgreatindia.blogspot.com/2013/07/bijapur-district-karnataka.html"
            ],
            "longitude": "77.083333",
            "address": "Kalaburgi, Kalaburagi district, Karnataka, India",
            "latitude": "17.166667",
            "locType": "county",
            "closest_to": "bijapur"
        },
        "venkatappa art gallery": {
            "blogLinks": [
                "http://www.mapsofindia.com/karnataka/tourism/"
            ],
            "longitude": "77.5952077",
            "address": "Venkatappa Art Gallery, Kasturba Road, Shantala Nagar, MacIvor Town, Bengaluru, Bangalore Urban, Karnataka, 560001, India",
            "latitude": "12.9742592",
            "locType": "museum",
            "closest_to": "davanagere"
        },
        "mumbai": {
            "blogLinks": [
                "http://www.fameofcity.com/KARNATAKA/DAVANAGERE/DAVANGERE",
                "http://visitingplacesofgreatindia.blogspot.com/2013/07/bijapur-district-karnataka.html"
            ],
            "longitude": "77.5718472",
            "address": "Mumbai Spice, 18/2, 10th Cross, Malleswaram, Vyalikaval, Malleswaram, Bengaluru, Bangalore Urban, Karnataka, 560003, India",
            "latitude": "13.0002869",
            "locType": "restaurant",
            "closest_to": "davanagere"
        },
        "badami of karnataka": {
            "blogLinks": [
                "http://www.mapsofindia.com/karnataka/tourism/"
            ],
            "longitude": "75.6419100722642",
            "address": "Badami taluku, Bagalkote district, Karnataka, India",
            "latitude": "15.98301895",
            "locType": "administrative",
            "closest_to": "davanagere"
        },
        "hubli": {
            "blogLinks": [
                "http://www.nivalink.com/destination/davanagere",
                "http://www.fameofcity.com/KARNATAKA/DAVANAGERE/DAVANGERE",
                "http://www.nivalink.com/destination/badami",
                "http://visitingplacesofgreatindia.blogspot.com/2013/07/bijapur-district-karnataka.html"
            ],
            "longitude": "75.1379848",
            "address": "Hubballi - \u0cb9\u0cc1\u0cac\u0ccd\u0cac\u0cb3\u0ccd\u0cb3\u0cbf, Hubballi taluku, Dharwad district, Karnataka, 580020, India",
            "latitude": "15.3518378",
            "locType": "city",
            "closest_to": "davanagere"
        },
        "maharashtra": {
            "blogLinks": [
                "http://www.mapsofindia.com/maps/karnataka/",
                "https://www.travelblog.org/Asia/India/Karnataka/Bangalore/Koramangala/blog-914055.html",
                "http://visitingplacesofgreatindia.blogspot.com/2013/07/bijapur-district-karnataka.html"
            ],
            "longitude": "77.5856013",
            "address": "Bank of Maharashtra, 24th Main, K R Layout, Puttenahalli, Bengaluru, Bangalore Urban, Karnataka, 560001, India",
            "latitude": "12.9049455",
            "locType": "bank",
            "closest_to": "davanagere"
        },
        "aihole": {
            "blogLinks": [
                "https://www.travelblog.org/Asia/India/Karnataka/Bangalore/Koramangala/blog-914055.html",
                "http://visitingplacesofgreatindia.blogspot.com/2013/07/bijapur-district-karnataka.html"
            ],
            "longitude": "75.8819129",
            "address": "Aihole, Hunagunda taluku, Bagalkote district, Karnataka, India",
            "latitude": "16.0192298",
            "locType": "village",
            "closest_to": "davanagere"
        },
        "nandi hills": {
            "blogLinks": [
                "http://www.mapsofindia.com/karnataka/tourism/"
            ],
            "longitude": "77.7194741670394",
            "address": "Nandi Upahara, Nandhi Hills Road, Kottige Thimmanahalli, Devanahalli taluk, Bangalore Rural, Karnataka, India",
            "latitude": "13.268142",
            "locType": "hotel",
            "closest_to": "davanagere"
        },
        "badami": {
            "blogLinks": [
                "http://www.nivalink.com/destination/badami",
                "https://www.travelblog.org/Asia/India/Karnataka/Bangalore/Koramangala/blog-914055.html",
                "http://visitingplacesofgreatindia.blogspot.com/2013/07/bijapur-district-karnataka.html"
            ],
            "longitude": "75.6807865",
            "address": "Badami, Badami taluku, Bagalkote district, Karnataka, 587200, India",
            "latitude": "15.9203874",
            "locType": "town",
            "closest_to": "davanagere"
        },
        "kudalasangama": {
            "blogLinks": [
                "http://www.holidayiq.com/Bijapur-Sightseeing-646.html"
            ],
            "longitude": "76.0604244",
            "address": "Kudala Sangama, Hunagunda taluku, Bagalkote district, Karnataka, India",
            "latitude": "16.2033992",
            "locType": "village",
            "closest_to": "davanagere"
        },
        "chitradurga": {
            "blogLinks": [
                "http://www.mapsofindia.com/maps/karnataka/",
                "https://www.travelblog.org/Asia/India/Karnataka/Bangalore/Koramangala/blog-914055.html",
                "http://visitingplacesofgreatindia.blogspot.com/2013/07/bijapur-district-karnataka.html"
            ],
            "longitude": "76.4005122",
            "address": "Chitradurga, Chitradurga taluku, Chitradurga district, Karnataka, 577500, India",
            "latitude": "14.2266443",
            "locType": "town",
            "closest_to": "davanagere"
        },
        "basaveshwara": {
            "blogLinks": [
                "http://visitingplacesofgreatindia.blogspot.com/2013/07/bijapur-district-karnataka.html"
            ],
            "longitude": "76.9311912",
            "address": "Basaveshwara Nagara, Old Shahabad, Chitapura taluku, Kalaburagi district, Karnataka, India",
            "latitude": "17.1294741",
            "locType": "locality",
            "closest_to": "bijapur"
        },
        "bangalore": {
            "blogLinks": [
                "https://www.tripoto.com/weekend-getaways/from-davangere",
                "http://visitingplacesofgreatindia.blogspot.com/2013/07/bijapur-district-karnataka.html",
                "http://journeymart.com/de/india/karnataka/bijapur/nearby-places/default.aspx",
                "https://www.travelblog.org/Asia/India/Karnataka/Bangalore/Koramangala/blog-914055.html",
                "http://www.nivalink.com/destination/badami",
                "http://www.mapsofindia.com/karnataka/tourism/",
                "http://www.mapsofindia.com/maps/karnataka/"
            ],
            "longitude": "77.5912997",
            "address": "Bengaluru, Bangalore Urban, Karnataka, 560001, India",
            "latitude": "12.9791198",
            "locType": "city",
            "closest_to": "davanagere"
        },
        "bellary": {
            "blogLinks": [
                "http://www.mapsofindia.com/maps/karnataka/",
                "http://visitingplacesofgreatindia.blogspot.com/2013/07/bijapur-district-karnataka.html"
            ],
            "longitude": "76.8323648",
            "address": "Bellary, Bellary district, Karnataka, India",
            "latitude": "15.2485413",
            "locType": "county",
            "closest_to": "davanagere"
        },
        "kundapura": {
            "blogLinks": [
                "http://www.nivalink.com/destination/davanagere"
            ],
            "longitude": "74.6915722",
            "address": "Kundapura, \u0c95\u0cc1\u0c82\u0ca6\u0cbe\u0caa\u0cc1\u0cb0 \u0ca4\u0cbe\u0cb2\u0cc2\u0c95\u0cc1, Udupi district, Karnataka, 576200, India",
            "latitude": "13.6250993",
            "locType": "town",
            "closest_to": "davanagere"
        },
        "bijapur city": {
            "blogLinks": [
                "https://www.tripoto.com/weekend-getaways/from-davangere",
                "http://www.holidayiq.com/Bijapur-Sightseeing-646.html",
                "http://www.distancesfrom.com/distance-from-Bijapur-City-Bus-Stand-to-Davanagere-via-Hospet-KSRTC-Bus-Stand/DistanceHistory/27625024.aspx",
                "http://www.distancesfrom.com/distance-from-Bijapur-City-Bus-Stand-to-Davanagere-via-Ilkal-Bus-Stand-Hospet-KSRTC-Bus-Stand/DistanceHistory/27625066.aspx",
                "http://www.mapsofindia.com/karnataka/tourism/"
            ],
            "longitude": "75.7175387",
            "address": "Vijayapura, Vijayapura taluk, Bijapur district, Karnataka, 586101, India",
            "latitude": "16.8269911",
            "locType": "city",
            "closest_to": "davanagere"
        },
        "davangere": {
            "blogLinks": [
                "http://www.nivalink.com/destination/davanagere",
                "http://www.fameofcity.com/KARNATAKA/DAVANAGERE/DAVANGERE",
                "http://journeymart.com/de/india/karnataka/davangere/nearby-places/default.aspx"
            ],
            "longitude": "75.9197507909343",
            "address": "Davangere City Corporation Offices, K.B. Extension, Davanagere, Davanagere taluku, Davanagere district, Karnataka, 577000, India",
            "latitude": "14.4664457",
            "locType": "commercial",
            "closest_to": "davanagere"
        },
        "durgambika temple": {
            "blogLinks": [
                "https://www.tripoto.com/weekend-getaways/from-davangere"
            ],
            "longitude": "75.9293719",
            "address": "Durgambika Temple, PB Road to Nituvalli Link Road, Nituvalli, Davanagere, Davanagere taluku, Davanagere district, Karnataka, 577000, India",
            "latitude": "14.4500974",
            "locType": "place_of_worship",
            "closest_to": "davanagere"
        },
        "garden": {
            "blogLinks": [
                "http://www.mapsofindia.com/karnataka/tourism/"
            ],
            "longitude": "77.9285817637065",
            "address": "garden, N Hosahalli, Hosakote taluk, Bangalore Rural, Karnataka, India",
            "latitude": "13.19253335",
            "locType": "orchard",
            "closest_to": "davanagere"
        },
        "udupi": {
            "blogLinks": [
                "http://www.mapsofindia.com/karnataka/tourism/"
            ],
            "longitude": "74.7473232",
            "address": "Udupi, Udupi taluku, Udupi district, Karnataka, 576101, India",
            "latitude": "13.3419169",
            "locType": "city",
            "closest_to": "davanagere"
        },
        "ghataprabha river": {
            "blogLinks": [
                "http://www.holidayiq.com/Bijapur-Sightseeing-646.html"
            ],
            "longitude": "74.9165235",
            "address": "Ghataprabha, Gokak taluku, Belgaum district, Karnataka, India",
            "latitude": "16.2124344",
            "locType": "river",
            "closest_to": "davanagere"
        }
    },
    "bijapur": {
        "lat": "16.8269911",
        "class": "place",
        "importance": 0.55,
        "osm_type": "node",
        "lon": "75.7175387",
        "place_id": "640991",
        "display_name": "Vijayapura, Vijayapura taluk, Bijapur district, Karnataka, 586101, India",
        "osm_id": "245638671",
        "boundingbox": [
            "16.6669911",
            "16.9869911",
            "75.5575387",
            "75.8775387"
        ],
        "type": "city",
        "licence": "Data \u00a9 OpenStreetMap contributors, ODbL 1.0. http://www.openstreetmap.org/copyright",
        "icon": "https://nominatim.openstreetmap.org/images/mapicons/poi_place_city.p.20.png"
    }
}