{
    "hassan": {
        "lat": "13.0070817",
        "class": "place",
        "importance": 0.490701435537,
        "osm_type": "node",
        "lon": "76.0992703",
        "place_id": "1806238",
        "display_name": "Hassan, Hasana taluk, Hassan district, Karnataka, 573201, India",
        "osm_id": "340748436",
        "boundingbox": [
            "12.9670817",
            "13.0470817",
            "76.0592703",
            "76.1392703"
        ],
        "type": "town",
        "licence": "Data \u00a9 OpenStreetMap contributors, ODbL 1.0. http://www.openstreetmap.org/copyright",
        "icon": "https://nominatim.openstreetmap.org/images/mapicons/poi_place_town.p.20.png"
    },
    "mentions": {
        "kamala": {
            "blogLinks": [
                "https://en.wikipedia.org/wiki/Tourism_in_Karnataka"
            ],
            "longitude": "77.5664867",
            "address": "Kamala Nehru Patashala (Emmanual English School), 5th A Cross Road, Yediyur, Thyagaraja Nagar, Bengaluru, Bangalore Urban, Karnataka, 560001, India",
            "latitude": "12.9339482",
            "locType": "school",
            "closest_to": "hassan"
        },
        "varaha": {
            "blogLinks": [
                "https://en.wikipedia.org/wiki/Tourism_in_Karnataka"
            ],
            "longitude": "75.3718812",
            "address": "Varaha, Hirekeruru taluk, Haveri district, Karnataka, India",
            "latitude": "14.390777",
            "locType": "village",
            "closest_to": "hassan"
        },
        "ranganathittu bird sanctuary": {
            "blogLinks": [
                "https://en.wikipedia.org/wiki/Tourism_in_Karnataka"
            ],
            "longitude": "76.6553081",
            "address": "Ranganathittu Bird Sanctuary, SH154, Palahalli, Srirangapattana taluk, Mandya district, Karnataka, 571438, India",
            "latitude": "12.4238524",
            "locType": "attraction",
            "closest_to": "hassan"
        },
        "shravana": {
            "blogLinks": [
                "https://en.wikipedia.org/wiki/Hassan_district"
            ],
            "longitude": "76.38333",
            "address": "Government Lower Primary School Shravana Halli, NH275, Jadaganakoppalu, Hunasuru taluk, Mysuru district, Karnataka, India",
            "latitude": "12.36212",
            "locType": "school",
            "closest_to": "hassan"
        },
        "narasimha swamy temple": {
            "blogLinks": [
                "https://en.wikipedia.org/wiki/Tourism_in_Karnataka"
            ],
            "longitude": "76.2427318",
            "address": "Narasimha Swamy Temple, Attavara Mudigere Road, Attavara, Hasana taluk, Hassan district, Karnataka, India",
            "latitude": "13.0943931",
            "locType": "place_of_worship",
            "closest_to": "hassan"
        },
        "hogari river": {
            "blogLinks": [
                "https://en.wikipedia.org/wiki/Hassan_district"
            ],
            "longitude": "78.0909699",
            "address": "Hogari Gollahalli, Kolar taluk, Kolar district, Karnataka, India",
            "latitude": "13.1583357",
            "locType": "village",
            "closest_to": "hassan"
        },
        "kagal": {
            "blogLinks": [
                "https://en.wikipedia.org/wiki/Tourism_in_Karnataka"
            ],
            "longitude": "74.3575302591262",
            "address": "Kagal Fort, Birkodi Village, Kumata taluk, Uttara Kannada, Karnataka, India",
            "latitude": "14.5055819",
            "locType": "grass",
            "closest_to": "hassan"
        },
        "madurai": {
            "blogLinks": [
                "http://travel.india.com/explore/historical-places-south-india/"
            ],
            "longitude": "77.6320535",
            "address": "Madurai Idly Shop, 5th Main Road, Teachers Colony, HSR Layout, Bengaluru, Bangalore Urban, Karnataka, 560001, India",
            "latitude": "12.9185419",
            "locType": "restaurant",
            "closest_to": "hassan"
        },
        "malaprabha": {
            "blogLinks": [
                "https://en.wikipedia.org/wiki/Tourism_in_Karnataka"
            ],
            "longitude": "75.1982668",
            "address": "Malaprabha, Ramadurga taluku, Belgaum district, Karnataka, India",
            "latitude": "15.8914192",
            "locType": "river",
            "closest_to": "hassan"
        },
        "ramanagara": {
            "blogLinks": [
                "http://blog.indianluxurytrains.com/2014/09/best-places-to-visit-in-karnataka.html"
            ],
            "longitude": "74.4900863",
            "address": "Ramanagara, Khanapura taluku, Belgaum district, Karnataka, India",
            "latitude": "15.422047",
            "locType": "town",
            "closest_to": "hassan"
        },
        "hemavathi river": {
            "blogLinks": [
                "https://en.wikipedia.org/wiki/Hassan_district"
            ],
            "longitude": "76.0556931",
            "address": "Hemavathi Reservoir, Hasana taluk, Hassan district, Karnataka, India",
            "latitude": "12.8267596",
            "locType": "dam",
            "closest_to": "hassan"
        },
        "lushington falls": {
            "blogLinks": [
                "https://en.wikipedia.org/wiki/Tourism_in_Karnataka"
            ],
            "longitude": "74.7477592",
            "address": "\u0c89\u0c82\u0c9a\u0cb3\u0ccd\u0cb3\u0cbf \u0c9c\u0cb2\u0caa\u0cbe\u0ca4, Siddapura taluk, Uttara Kannada, Karnataka, India",
            "latitude": "14.4097755",
            "locType": "waterfall",
            "closest_to": "hassan"
        },
        "lokapura": {
            "blogLinks": [
                "https://en.wikipedia.org/wiki/Tourism_in_Karnataka"
            ],
            "longitude": "75.3685939",
            "address": "Lokapura, Mudhola taluku, Bagalkote district, Karnataka, 587122, India",
            "latitude": "16.1627427",
            "locType": "town",
            "closest_to": "hassan"
        },
        "shimoga": {
            "blogLinks": [
                "https://en.wikipedia.org/wiki/Tourism_in_Karnataka"
            ],
            "longitude": "75.569737",
            "address": "Shivamogga, Shivamogga taluku, Shimoga district, Karnataka, 577200, India",
            "latitude": "13.9311723",
            "locType": "city",
            "closest_to": "hassan"
        },
        "vishnu": {
            "blogLinks": [
                "https://en.wikipedia.org/wiki/Tourism_in_Karnataka"
            ],
            "longitude": "77.7198022157059",
            "address": "Vishnu Residency Apartments, Thubarahalli, Siddapura, Bangalore Urban, Karnataka, 560066, India",
            "latitude": "12.95388635",
            "locType": "residential",
            "closest_to": "hassan"
        },
        "kalyani": {
            "blogLinks": [
                "https://www.goibibo.com/routeplanner/bijapur-hassan/",
                "https://en.wikipedia.org/wiki/Tourism_in_Karnataka",
                "https://en.wikipedia.org/wiki/Hassan_district"
            ],
            "longitude": "77.6286090192686",
            "address": "Kalyani, Neeladri Road, Electronics City Phase 1, Bettadasana Pura, Bangalore Urban, Karnataka, 560100, India",
            "latitude": "12.8406466",
            "locType": "water",
            "closest_to": "hassan"
        },
        "karanji lake": {
            "blogLinks": [
                "http://blog.indianluxurytrains.com/2014/09/best-places-to-visit-in-karnataka.html"
            ],
            "longitude": "77.5474867",
            "address": "Karanji, Aurad taluku, Bidar district, Karnataka, India",
            "latitude": "18.2681849",
            "locType": "village",
            "closest_to": "bijapur"
        },
        "kumta": {
            "blogLinks": [
                "https://en.wikipedia.org/wiki/Tourism_in_Karnataka"
            ],
            "longitude": "74.4107617",
            "address": "Kumta, Kumata taluk, Uttara Kannada, Karnataka, India",
            "latitude": "14.4261647",
            "locType": "town",
            "closest_to": "hassan"
        },
        "tamil nadu": {
            "blogLinks": [
                "https://en.wikipedia.org/wiki/Tourism_in_Karnataka",
                "http://travel.india.com/explore/historical-places-south-india/"
            ],
            "longitude": "76.9514152",
            "address": "KARNATAKA BANK, Diwan Bhadur Road, Five Corner, RS Puram, Coimbatore, Coimbatore district, Tamil Nadu, 641001, India",
            "latitude": "11.0025894",
            "locType": "bank",
            "closest_to": "hassan"
        },
        "mysore district": {
            "blogLinks": [
                "https://en.wikipedia.org/wiki/Tourism_in_Karnataka"
            ],
            "longitude": "76.6553609",
            "address": "Mysuru, Mysuru taluk, Mysuru district, Karnataka, 570001, India",
            "latitude": "12.3051828",
            "locType": "city",
            "closest_to": "hassan"
        },
        "maharaja park": {
            "blogLinks": [
                "http://www.holidayiq.com/Hassan-Sightseeing-374.html"
            ],
            "longitude": "76.0999163058945",
            "address": "Maharaja Park, AVK College Road, Ravindra Nagar, Rangoli Halla, Hassan, Hasana taluk, Hassan district, Karnataka, 573201, India",
            "latitude": "13.007876",
            "locType": "park",
            "closest_to": "hassan"
        },
        "kodachadri": {
            "blogLinks": [
                "https://en.wikipedia.org/wiki/Tourism_in_Karnataka"
            ],
            "longitude": "74.8705395",
            "address": "Kodachadri, \u0c95\u0cc1\u0c82\u0ca6\u0cbe\u0caa\u0cc1\u0cb0 \u0ca4\u0cbe\u0cb2\u0cc2\u0c95\u0cc1, Udupi district, Karnataka, India",
            "latitude": "13.8565758",
            "locType": "peak",
            "closest_to": "hassan"
        },
        "kudremukh national park": {
            "blogLinks": [
                "https://en.wikipedia.org/wiki/Tourism_in_Karnataka"
            ],
            "longitude": "75.1828713712862",
            "address": "Kudremukh National Park, SH66, Sringeri taluku, Chikkamagaluru district, Karnataka, India",
            "latitude": "13.25397485",
            "locType": "national_park",
            "closest_to": "hassan"
        },
        "aihole": {
            "blogLinks": [
                "https://www.tripadvisor.com/ShowTopic-g297627-i2498-k6657230-Visiting_Hampi_Badami_Aihole_Pattadakal_Bijapur-Karnataka.html"
            ],
            "longitude": "75.8819129",
            "address": "Aihole, Hunagunda taluku, Bagalkote district, Karnataka, India",
            "latitude": "16.0192298",
            "locType": "village",
            "closest_to": "hassan"
        },
        "gorur dam": {
            "blogLinks": [
                "http://www.holidayiq.com/Hassan-Sightseeing-374.html"
            ],
            "longitude": "76.0644435",
            "address": "Gorur, Hasana taluk, Hassan district, Karnataka, 573120, India",
            "latitude": "12.8238999",
            "locType": "village",
            "closest_to": "hassan"
        },
        "new delhi": {
            "blogLinks": [
                "https://en.wikipedia.org/wiki/Hassan_district"
            ],
            "longitude": "76.6142178649055",
            "address": "Regional Institute of Education, Chaduranga Road, Jayalakshmipuram, Mysuru, Mysuru taluk, Mysuru district, Karnataka, 570001, India",
            "latitude": "12.30911465",
            "locType": "college",
            "closest_to": "hassan"
        },
        "siddheshwara": {
            "blogLinks": [
                "https://en.wikipedia.org/wiki/Tourism_in_Karnataka"
            ],
            "longitude": "77.5876527",
            "address": "Siddheshwara Medicals, Judicial Layout, Allalasandra, Bangalore, 7th Main Road, Judicial Layout, Bengaluru, Bangalore Urban, Karnataka, 560001, India",
            "latitude": "13.0797146",
            "locType": "pharmacy",
            "closest_to": "hassan"
        },
        "gomateshwara": {
            "blogLinks": [
                "https://en.wikipedia.org/wiki/Hassan_district"
            ],
            "longitude": "76.4846128",
            "address": "Bahubali Statue, SH8, Shravanabelagola, Channarayapattana taluk, Hassan district, Karnataka, 573135, India",
            "latitude": "12.8540505",
            "locType": "place_of_worship",
            "closest_to": "hassan"
        },
        "chelavara falls": {
            "blogLinks": [
                "http://blog.indianluxurytrains.com/2014/09/best-places-to-visit-in-karnataka.html"
            ],
            "longitude": "75.6734811730693",
            "address": "Chelavara Falls, Madikeri taluku, Kodagu, Karnataka, India",
            "latitude": "12.20601005",
            "locType": "waterfall",
            "closest_to": "hassan"
        },
        "bhatkal": {
            "blogLinks": [
                "https://en.wikipedia.org/wiki/Tourism_in_Karnataka"
            ],
            "longitude": "74.5485295",
            "address": "Bhatkal, Bhatkala taluk, Uttara Kannada, Karnataka, 581320, India",
            "latitude": "13.9952114",
            "locType": "town",
            "closest_to": "hassan"
        },
        "gangavadi": {
            "blogLinks": [
                "https://en.wikipedia.org/wiki/Hassan_district"
            ],
            "longitude": "77.0659307",
            "address": "Gangavadi, Chamarajanagara taluk, Chamarajanagar district, Karnataka, India",
            "latitude": "12.0014487",
            "locType": "village",
            "closest_to": "hassan"
        },
        "dakshina kannada": {
            "blogLinks": [
                "https://en.wikipedia.org/wiki/Tourism_in_Karnataka",
                "https://en.wikipedia.org/wiki/Hassan_district"
            ],
            "longitude": "75.1008028650794",
            "address": "Dakshina Kannada, Karnataka, India",
            "latitude": "12.8114089",
            "locType": "administrative",
            "closest_to": "hassan"
        },
        "halebid": {
            "blogLinks": [
                "http://blog.indianluxurytrains.com/2014/09/best-places-to-visit-in-karnataka.html",
                "http://www.mapsofindia.com/karnataka/tourism/",
                "http://timesofindia.indiatimes.com/india/Karnataka-sites-make-to-Unesco-world-heritage-tentative-list/articleshow/35485585.cms"
            ],
            "longitude": "75.9918793",
            "address": "Halebidu, Beluru taluk, Hassan district, Karnataka, 573121, India",
            "latitude": "13.2167959",
            "locType": "village",
            "closest_to": "hassan"
        },
        "kanakapura road": {
            "blogLinks": [
                "https://en.wikipedia.org/wiki/Tourism_in_Karnataka"
            ],
            "longitude": "77.5733483",
            "address": "Kanakapura Road, Rajotsava Nagar, Kaderenahalli, Bengaluru, Bangalore Urban, Karnataka, 560001, India",
            "latitude": "12.9064528",
            "locType": "trunk",
            "closest_to": "hassan"
        },
        "unchalli falls": {
            "blogLinks": [
                "https://en.wikipedia.org/wiki/Tourism_in_Karnataka"
            ],
            "longitude": "74.7477592",
            "address": "\u0c89\u0c82\u0c9a\u0cb3\u0ccd\u0cb3\u0cbf \u0c9c\u0cb2\u0caa\u0cbe\u0ca4, Siddapura taluk, Uttara Kannada, Karnataka, India",
            "latitude": "14.4097755",
            "locType": "waterfall",
            "closest_to": "hassan"
        },
        "channarayapatna": {
            "blogLinks": [
                "https://en.wikipedia.org/wiki/Hassan_district"
            ],
            "longitude": "77.797084",
            "address": "Channarayapatna, Devanahalli taluk, Bangalore Rural, Karnataka, India",
            "latitude": "13.2455918",
            "locType": "village",
            "closest_to": "hassan"
        },
        "dandeli": {
            "blogLinks": [
                "http://travel.india.com/explore/historical-places-south-india/"
            ],
            "longitude": "74.6236037",
            "address": "Dandeli, Haliyala taluku, Uttara Kannada, Karnataka, 581325, India",
            "latitude": "15.2490284",
            "locType": "town",
            "closest_to": "hassan"
        },
        "bannerghatta": {
            "blogLinks": [
                "https://en.wikipedia.org/wiki/Tourism_in_Karnataka"
            ],
            "longitude": "77.5789509",
            "address": "Bannerghatta, Bangalore Urban, Karnataka, India",
            "latitude": "12.813337",
            "locType": "village",
            "closest_to": "hassan"
        },
        "bagamandala": {
            "blogLinks": [
                "https://en.wikipedia.org/wiki/Tourism_in_Karnataka"
            ],
            "longitude": "75.748408",
            "address": "Madikeri - Bagamandala ,Tala Kaveri Road, Mekeri, Madikeri taluku, Kodagu, Karnataka, India",
            "latitude": "12.388062",
            "locType": "primary",
            "closest_to": "hassan"
        },
        "shivanasamudra": {
            "blogLinks": [
                "https://en.wikipedia.org/wiki/Tourism_in_Karnataka"
            ],
            "longitude": "77.1703215",
            "address": "Shivanasamudra, Kollegala taluk, Chamarajanagar district, Karnataka, India",
            "latitude": "12.2719056",
            "locType": "village",
            "closest_to": "hassan"
        },
        "ulsoor lake": {
            "blogLinks": [
                "http://www.mapsofindia.com/karnataka/tourism/"
            ],
            "longitude": "77.6191669052984",
            "address": "Halasuru lake, Annaswamy Mudaliar Road, Kothandram Layout, Halasuru, Bengaluru, Bangalore Urban, Karnataka, 560001, India",
            "latitude": "12.9823891",
            "locType": "water",
            "closest_to": "hassan"
        },
        "' hassan district": {
            "blogLinks": [
                "https://en.wikipedia.org/wiki/Hassan_district"
            ],
            "longitude": "76.1745460751981",
            "address": "Hassan district, Karnataka, India",
            "latitude": "13.0315068",
            "locType": "administrative",
            "closest_to": "hassan"
        },
        "vittala": {
            "blogLinks": [
                "http://blog.indianluxurytrains.com/2014/09/best-places-to-visit-in-karnataka.html",
                "http://travel.india.com/explore/historical-places-south-india/"
            ],
            "longitude": "76.6237847175927",
            "address": "Vijaya Vittala PU College, Sahukar Chennaiah Road, Sarasvatipuram, Mysuru, Mysuru taluk, Mysuru district, Karnataka, 570001, India",
            "latitude": "12.30129655",
            "locType": "yes",
            "closest_to": "hassan"
        },
        "arkalgud": {
            "blogLinks": [
                "https://en.wikipedia.org/wiki/Hassan_district"
            ],
            "longitude": "76.0623411",
            "address": "Arkalgud, Arakalagudu taluk, Hassan district, Karnataka, 573102, India",
            "latitude": "12.7627771",
            "locType": "town",
            "closest_to": "hassan"
        },
        "mookambika": {
            "blogLinks": [
                "https://en.wikipedia.org/wiki/Tourism_in_Karnataka"
            ],
            "longitude": "74.8145296",
            "address": "Mukambika Devasthana, NH766C;SH26, Halkal, \u0c95\u0cc1\u0c82\u0ca6\u0cbe\u0caa\u0cc1\u0cb0 \u0ca4\u0cbe\u0cb2\u0cc2\u0c95\u0cc1, Udupi district, Karnataka, 576220, India",
            "latitude": "13.8638043",
            "locType": "place_of_worship",
            "closest_to": "hassan"
        },
        "manipal": {
            "blogLinks": [
                "https://en.wikipedia.org/wiki/Tourism_in_Karnataka"
            ],
            "longitude": "74.7870308",
            "address": "Manipal, Udupi taluku, Udupi district, Karnataka, India",
            "latitude": "13.3519723",
            "locType": "town",
            "closest_to": "hassan"
        },
        "chalukya": {
            "blogLinks": [
                "https://en.wikipedia.org/wiki/Tourism_in_Karnataka"
            ],
            "longitude": "77.5192989605445",
            "address": "Chalukya Nagar, Chandra Layout, GKW Layout, Bangalore Urban, Karnataka, 560072, India",
            "latitude": "12.9617207",
            "locType": "residential",
            "closest_to": "hassan"
        },
        "south karnataka": {
            "blogLinks": [
                "https://en.wikipedia.org/wiki/Tourism_in_Karnataka"
            ],
            "longitude": "77.8040874",
            "address": "s, Vijayapura, Devanahalli taluk, Bangalore Rural, Karnataka, 562135, India",
            "latitude": "13.2942848",
            "locType": "residential",
            "closest_to": "hassan"
        },
        "malpe": {
            "blogLinks": [
                "https://en.wikipedia.org/wiki/Tourism_in_Karnataka"
            ],
            "longitude": "74.7036914",
            "address": "Malpe, Udupi taluku, Udupi district, Karnataka, India",
            "latitude": "13.3507423",
            "locType": "village",
            "closest_to": "hassan"
        },
        "itagi": {
            "blogLinks": [
                "https://en.wikipedia.org/wiki/Tourism_in_Karnataka"
            ],
            "longitude": "75.6701043",
            "address": "Itagi, Ranebennuru taluk, Haveri district, Karnataka, India",
            "latitude": "14.550374",
            "locType": "village",
            "closest_to": "hassan"
        },
        "gokak": {
            "blogLinks": [
                "https://en.wikipedia.org/wiki/Tourism_in_Karnataka"
            ],
            "longitude": "74.8224338",
            "address": "Gokak, Gokak taluku, Belgaum district, Karnataka, 591307, India",
            "latitude": "16.1693033",
            "locType": "town",
            "closest_to": "hassan"
        },
        "gadag": {
            "blogLinks": [
                "https://en.wikipedia.org/wiki/Tourism_in_Karnataka"
            ],
            "longitude": "75.6300786",
            "address": "Gadag, Gadag taluk, Gadag district, Karnataka, 582101, India",
            "latitude": "15.4263647",
            "locType": "town",
            "closest_to": "hassan"
        },
        "belur": {
            "blogLinks": [
                "https://en.wikipedia.org/wiki/Hassan_district",
                "http://timesofindia.indiatimes.com/india/Karnataka-sites-make-to-Unesco-world-heritage-tentative-list/articleshow/35485585.cms"
            ],
            "longitude": "75.8634851",
            "address": "Belur, Beluru taluk, Hassan district, Karnataka, 573115, India",
            "latitude": "13.1645671",
            "locType": "town",
            "closest_to": "hassan"
        },
        "nagarhole national park": {
            "blogLinks": [
                "http://blog.indianluxurytrains.com/2014/09/best-places-to-visit-in-karnataka.html",
                "https://en.wikipedia.org/wiki/Tourism_in_Karnataka"
            ],
            "longitude": "76.1537073415874",
            "address": "Nagarahole National Park, Virajpet taluk, Kodagu, Karnataka, India",
            "latitude": "12.0600362",
            "locType": "national_park",
            "closest_to": "hassan"
        },
        "hoysala": {
            "blogLinks": [
                "https://www.goibibo.com/routeplanner/bijapur-hassan/",
                "http://www.mapsofindia.com/karnataka/tourism/",
                "https://en.wikipedia.org/wiki/Tourism_in_Karnataka",
                "https://en.wikipedia.org/wiki/Hassan_district"
            ],
            "longitude": "77.6375990817051",
            "address": "Hoysala Nagar, Bengaluru, Bangalore Urban, Karnataka, 560001, India",
            "latitude": "12.97813815",
            "locType": "administrative",
            "closest_to": "hassan"
        },
        "virupaksha temple": {
            "blogLinks": [
                "https://en.wikipedia.org/wiki/Tourism_in_Karnataka"
            ],
            "longitude": "76.4587777156223",
            "address": "Virupaksha Temple, Hampi Bazaar, Hampe, Hosapete taluk, Bellary district, Karnataka, 583239, India",
            "latitude": "15.3351754",
            "locType": "place_of_worship",
            "closest_to": "hassan"
        },
        "gudavi": {
            "blogLinks": [
                "https://en.wikipedia.org/wiki/Tourism_in_Karnataka"
            ],
            "longitude": "75.009649",
            "address": "Gudavi, Soraba taluk, Shimoga district, Karnataka, India",
            "latitude": "14.4400296",
            "locType": "village",
            "closest_to": "hassan"
        },
        "gokarna": {
            "blogLinks": [
                "https://en.wikipedia.org/wiki/Tourism_in_Karnataka",
                "http://www.mapsofindia.com/karnataka/tourism/"
            ],
            "longitude": "74.3184418",
            "address": "Gokarna, Kumata taluk, Uttara Kannada, Karnataka, 581326, India",
            "latitude": "14.5439629",
            "locType": "town",
            "closest_to": "hassan"
        },
        "haveri": {
            "blogLinks": [
                "https://en.wikipedia.org/wiki/Tourism_in_Karnataka"
            ],
            "longitude": "75.3996731",
            "address": "Haveri, Haveri taluku, Haveri district, Karnataka, 581110, India",
            "latitude": "14.7874825",
            "locType": "town",
            "closest_to": "hassan"
        },
        "kaveri river": {
            "blogLinks": [
                "https://en.wikipedia.org/wiki/Hassan_district"
            ],
            "longitude": "77.1600751",
            "address": "Kaveri, Malavalli taluk, Mandya district, Karnataka, India",
            "latitude": "12.2873835",
            "locType": "river",
            "closest_to": "hassan"
        },
        "banavasi": {
            "blogLinks": [
                "https://en.wikipedia.org/wiki/Tourism_in_Karnataka"
            ],
            "longitude": "75.0129845",
            "address": "Banavasi, Shirasi taluk, Uttara Kannada, Karnataka, India",
            "latitude": "14.5389738",
            "locType": "town",
            "closest_to": "hassan"
        },
        "karkala": {
            "blogLinks": [
                "https://en.wikipedia.org/wiki/Tourism_in_Karnataka"
            ],
            "longitude": "74.9959586",
            "address": "Karkala, Karkala taluk, Udupi district, Karnataka, 574104, India",
            "latitude": "13.2112826",
            "locType": "town",
            "closest_to": "hassan"
        },
        "goa": {
            "blogLinks": [
                "https://en.wikipedia.org/wiki/Tourism_in_Karnataka",
                "http://travelmasti.com/domestic/karnataka/bijapur.htm"
            ],
            "longitude": "77.6200027",
            "address": "Carnival De Goa, Bhaskaran Road, Gupta Layout, Halasuru, Bengaluru, Bangalore Urban, Karnataka, 560001, India",
            "latitude": "12.9750047",
            "locType": "restaurant",
            "closest_to": "hassan"
        },
        "chandramoulishwara": {
            "blogLinks": [
                "https://en.wikipedia.org/wiki/Tourism_in_Karnataka"
            ],
            "longitude": "76.6290267",
            "address": "Chandramoulishwara Temple, Adipampa Road, Gokulam, Mysuru, Mysuru taluk, Mysuru district, Karnataka, 570001, India",
            "latitude": "12.3225663",
            "locType": "place_of_worship",
            "closest_to": "hassan"
        },
        "bannerghatta national park": {
            "blogLinks": [
                "https://www.goibibo.com/routeplanner/bijapur-hassan/",
                "https://en.wikipedia.org/wiki/Tourism_in_Karnataka"
            ],
            "longitude": "77.5722783830694",
            "address": "Bannerghatta National Park, Anekal Road, Begihalli, Bangalore Urban, Karnataka, 560076, India",
            "latitude": "12.77900335",
            "locType": "national_park",
            "closest_to": "hassan"
        },
        "sharavati": {
            "blogLinks": [
                "https://en.wikipedia.org/wiki/Tourism_in_Karnataka"
            ],
            "longitude": "74.7647294",
            "address": "Sharavati, Sagara taluk, Shimoga district, Karnataka, India",
            "latitude": "14.2360979",
            "locType": "river",
            "closest_to": "hassan"
        },
        "kerala": {
            "blogLinks": [
                "http://travel.india.com/explore/historical-places-south-india/"
            ],
            "longitude": "77.6382683",
            "address": "New Life Kerala Mess, Sai Baba Mandira Road, Mottappanapalaya, Indiranagar, Bengaluru, Bangalore Urban, Karnataka, 560001, India",
            "latitude": "12.9726449",
            "locType": "restaurant",
            "closest_to": "hassan"
        },
        "bhadra river": {
            "blogLinks": [
                "https://en.wikipedia.org/wiki/Tourism_in_Karnataka"
            ],
            "longitude": "75.527118",
            "address": "Bhadra, Chikkamagaluru taluku, Chikkamagaluru district, Karnataka, India",
            "latitude": "13.4888356",
            "locType": "river",
            "closest_to": "hassan"
        },
        "hasan": {
            "blogLinks": [
                "http://www.mapsofindia.com/karnataka/tourism/"
            ],
            "longitude": "76.0992703",
            "address": "Hassan, Hasana taluk, Hassan district, Karnataka, 573201, India",
            "latitude": "13.0070817",
            "locType": "town",
            "closest_to": "hassan"
        },
        "venkataramana temple": {
            "blogLinks": [
                "http://blog.indianluxurytrains.com/2014/09/best-places-to-visit-in-karnataka.html"
            ],
            "longitude": "77.6895365754579",
            "address": "Venkataramana Temple, 20th Cross Road, Anantnagar, Sampige Nagara, Bangalore Urban, Karnataka, 560099, India",
            "latitude": "12.8380349",
            "locType": "place_of_worship",
            "closest_to": "hassan"
        },
        "narayana": {
            "blogLinks": [
                "https://en.wikipedia.org/wiki/Tourism_in_Karnataka"
            ],
            "longitude": "76.201037",
            "address": "Narayana Gondanahalli, Holalkere taluk, Chitradurga district, Karnataka, India",
            "latitude": "13.9181889",
            "locType": "village",
            "closest_to": "hassan"
        },
        "nethrani island": {
            "blogLinks": [
                "https://en.wikipedia.org/wiki/Tourism_in_Karnataka"
            ],
            "longitude": "74.3272086675849",
            "address": "Netrani, Uttara Kannada, Karnataka, India",
            "latitude": "14.0174924",
            "locType": "island",
            "closest_to": "hassan"
        },
        "puducherry": {
            "blogLinks": [
                "http://travel.india.com/explore/historical-places-south-india/"
            ],
            "longitude": "79.831569",
            "address": "Karnataka Bank, Mission Street, Grand Bazaar, Puducherry, Puducherry district, Puducherry, 605001, India",
            "latitude": "11.9365727",
            "locType": "bank",
            "closest_to": "hassan"
        },
        "bellary district": {
            "blogLinks": [
                "https://en.wikipedia.org/wiki/Tourism_in_Karnataka"
            ],
            "longitude": "76.7137978546465",
            "address": "Bellary district, Karnataka, India",
            "latitude": "15.20597305",
            "locType": "administrative",
            "closest_to": "hassan"
        },
        "kuknur": {
            "blogLinks": [
                "https://en.wikipedia.org/wiki/Tourism_in_Karnataka"
            ],
            "longitude": "75.9934934",
            "address": "Kukanura, Yelaburga taluku, Koppal district, Karnataka, 583232, India",
            "latitude": "15.4902753",
            "locType": "village",
            "closest_to": "hassan"
        },
        "nilgiris": {
            "blogLinks": [
                "https://en.wikipedia.org/wiki/Tourism_in_Karnataka"
            ],
            "longitude": "77.6069792",
            "address": "Nilgiris, Brigade Road, Tasker Town, Ashok Nagar, Bengaluru, Bangalore Urban, Karnataka, 560001, India",
            "latitude": "12.9725052",
            "locType": "supermarket",
            "closest_to": "hassan"
        },
        "hampi": {
            "blogLinks": [
                "http://blog.indianluxurytrains.com/2014/09/best-places-to-visit-in-karnataka.html",
                "https://en.wikipedia.org/wiki/Tourism_in_Karnataka",
                "http://www.mapsofindia.com/karnataka/tourism/",
                "http://www.distancesfrom.com/distance-from-Hassan-to-Bijapur-City-Bus-Stand-Vijayapura/DistanceHistory/30614599.aspx",
                "https://www.tripadvisor.com/ShowTopic-g297627-i2498-k6657230-Visiting_Hampi_Badami_Aihole_Pattadakal_Bijapur-Karnataka.html",
                "http://travel.india.com/explore/historical-places-south-india/",
                "http://timesofindia.indiatimes.com/india/Karnataka-sites-make-to-Unesco-world-heritage-tentative-list/articleshow/35485585.cms"
            ],
            "longitude": "76.4606199",
            "address": "Hampe, Hosapete taluk, Bellary district, Karnataka, 583239, India",
            "latitude": "15.3359769",
            "locType": "village",
            "closest_to": "hassan"
        },
        "koppal": {
            "blogLinks": [
                "https://en.wikipedia.org/wiki/Tourism_in_Karnataka"
            ],
            "longitude": "76.1547421",
            "address": "Koppala, Koppala taluku, Koppal district, Karnataka, 583231, India",
            "latitude": "15.3484144",
            "locType": "town",
            "closest_to": "hassan"
        },
        "mastikatte": {
            "blogLinks": [
                "https://en.wikipedia.org/wiki/Tourism_in_Karnataka"
            ],
            "longitude": "74.4604101",
            "address": "Mastikatte, Ankola taluk, Uttara Kannada, Karnataka, India",
            "latitude": "14.6857168",
            "locType": "village",
            "closest_to": "hassan"
        },
        "harangi dam": {
            "blogLinks": [
                "http://blog.indianluxurytrains.com/2014/09/best-places-to-visit-in-karnataka.html"
            ],
            "longitude": "75.9056999171375",
            "address": "Harangi dam, Somawarpet taluk, Kodagu, Karnataka, India",
            "latitude": "12.4928663",
            "locType": "dam",
            "closest_to": "hassan"
        },
        "netravati river": {
            "blogLinks": [
                "https://en.wikipedia.org/wiki/Hassan_district"
            ],
            "longitude": "75.1562182",
            "address": "Netravati, Bantwal taluk, Dakshina Kannada, Karnataka, India",
            "latitude": "12.8537655",
            "locType": "river",
            "closest_to": "hassan"
        },
        "netravati": {
            "blogLinks": [
                "https://en.wikipedia.org/wiki/Tourism_in_Karnataka"
            ],
            "longitude": "75.1562182",
            "address": "Netravati, Bantwal taluk, Dakshina Kannada, Karnataka, India",
            "latitude": "12.8537655",
            "locType": "river",
            "closest_to": "hassan"
        },
        "kabini river": {
            "blogLinks": [
                "https://en.wikipedia.org/wiki/Tourism_in_Karnataka"
            ],
            "longitude": "76.6477184",
            "address": "Kabini right bank canal, Nanjanagudu taluk, Mysuru district, Karnataka, India",
            "latitude": "12.0780998",
            "locType": "canal",
            "closest_to": "hassan"
        },
        "channarayapatna of hassan": {
            "blogLinks": [
                "http://blog.indianluxurytrains.com/2014/09/best-places-to-visit-in-karnataka.html"
            ],
            "longitude": "76.4628912",
            "address": "Tiptur - Channarayapatna Road, Rampura, Channarayapattana taluk, Hassan district, Karnataka, India",
            "latitude": "13.0775815",
            "locType": "primary",
            "closest_to": "hassan"
        },
        "shiggaon taluk": {
            "blogLinks": [
                "https://en.wikipedia.org/wiki/Tourism_in_Karnataka"
            ],
            "longitude": "75.1756764988777",
            "address": "Shiggaon taluk, Haveri district, Karnataka, India",
            "latitude": "15.0138079",
            "locType": "administrative",
            "closest_to": "hassan"
        },
        "mysore": {
            "blogLinks": [
                "http://blog.indianluxurytrains.com/2014/09/best-places-to-visit-in-karnataka.html",
                "https://en.wikipedia.org/wiki/Hassan_district"
            ],
            "longitude": "76.6553609",
            "address": "Mysuru, Mysuru taluk, Mysuru district, Karnataka, 570001, India",
            "latitude": "12.3051828",
            "locType": "city",
            "closest_to": "hassan"
        },
        "sakaleshpura taluk": {
            "blogLinks": [
                "http://www.holidayiq.com/Hassan-Sightseeing-374.html"
            ],
            "longitude": "75.7862318",
            "address": "Sakaleshpura, Sakaleshapura taluk, Hassan district, Karnataka, 573134, India",
            "latitude": "12.9434349",
            "locType": "town",
            "closest_to": "hassan"
        },
        "gotagodi village": {
            "blogLinks": [
                "https://en.wikipedia.org/wiki/Tourism_in_Karnataka"
            ],
            "longitude": "75.0452834",
            "address": "Gotagodi, Hanagal taluk, Haveri district, Karnataka, India",
            "latitude": "14.7634556",
            "locType": "village",
            "closest_to": "hassan"
        },
        "andhra pradesh": {
            "blogLinks": [
                "http://www.holidayiq.com/Bijapur-Sightseeing-646.html"
            ],
            "longitude": "79.3452447",
            "address": "Karnataka, West Mada Street, Srivari Temple, Tirumala, Chittoor, Andhra Pradesh, 517504, India",
            "latitude": "13.6841958",
            "locType": "hotel",
            "closest_to": "hassan"
        },
        "mercara": {
            "blogLinks": [
                "https://en.wikipedia.org/wiki/Tourism_in_Karnataka"
            ],
            "longitude": "75.740031",
            "address": "Madikeri, Madikeri taluku, Kodagu, Karnataka, India",
            "latitude": "12.4204003",
            "locType": "town",
            "closest_to": "hassan"
        },
        "delhi": {
            "blogLinks": [
                "http://blog.indianluxurytrains.com/2014/09/best-places-to-visit-in-karnataka.html",
                "https://en.wikipedia.org/wiki/Hassan_district",
                "http://timesofindia.indiatimes.com/india/Karnataka-sites-make-to-Unesco-world-heritage-tentative-list/articleshow/35485585.cms"
            ],
            "longitude": "77.6666062",
            "address": "Outer Ring Road, Green Glen Layout, Iblur, Bengaluru, Bangalore Urban, Karnataka, 560001, India",
            "latitude": "12.9212473",
            "locType": "trunk",
            "closest_to": "hassan"
        },
        "afzalpur": {
            "blogLinks": [
                "https://en.wikipedia.org/wiki/Tourism_in_Karnataka"
            ],
            "longitude": "76.3605783",
            "address": "Afzalpur, Afzalpura taluku, Kalaburagi district, Karnataka, 585301, India",
            "latitude": "17.2005764",
            "locType": "town",
            "closest_to": "bijapur"
        },
        "sannati": {
            "blogLinks": [
                "https://en.wikipedia.org/wiki/Tourism_in_Karnataka"
            ],
            "longitude": "76.9080631",
            "address": "Sannati, Chitapura taluku, Kalaburagi district, Karnataka, India",
            "latitude": "16.8293201",
            "locType": "village",
            "closest_to": "bijapur"
        },
        "railway museum": {
            "blogLinks": [
                "http://blog.indianluxurytrains.com/2014/09/best-places-to-visit-in-karnataka.html"
            ],
            "longitude": "77.6182271274845",
            "address": "Bangalore East Railway Station, Cox Town, Bengaluru, Bangalore Urban, Karnataka, 560001, India",
            "latitude": "13.001147",
            "locType": "railway",
            "closest_to": "hassan"
        },
        "dharma river": {
            "blogLinks": [
                "https://en.wikipedia.org/wiki/Tourism_in_Karnataka"
            ],
            "longitude": "77.5575864485219",
            "address": "Dharma Naidu Udhyanavana, 44th cross, Rajajinagar 4th Block, Rajaji Nagar, Bengaluru, Bangalore Urban, Karnataka, 560001, India",
            "latitude": "12.98914885",
            "locType": "park",
            "closest_to": "hassan"
        },
        "lal bagh": {
            "blogLinks": [
                "http://blog.indianluxurytrains.com/2014/09/best-places-to-visit-in-karnataka.html"
            ],
            "longitude": "74.8386152",
            "address": "Lal Bagh Bus Stop, Mahatma Gandhi Road, Lalbagh, Ladyhill, Mangaluru, Mangaluru taluk, Dakshina Kannada, Karnataka, 575001, India",
            "latitude": "12.8859223",
            "locType": "bus_stop",
            "closest_to": "hassan"
        },
        "hemavathi": {
            "blogLinks": [
                "https://en.wikipedia.org/wiki/Hassan_district"
            ],
            "longitude": "76.0556931",
            "address": "Hemavathi Reservoir, Hasana taluk, Hassan district, Karnataka, India",
            "latitude": "12.8267596",
            "locType": "dam",
            "closest_to": "hassan"
        },
        "arabhavi": {
            "blogLinks": [
                "https://en.wikipedia.org/wiki/Tourism_in_Karnataka"
            ],
            "longitude": "74.8213227",
            "address": "Arabhavi, Gokak taluku, Belgaum district, Karnataka, India",
            "latitude": "16.2193552",
            "locType": "village",
            "closest_to": "hassan"
        },
        "tungabhadra river": {
            "blogLinks": [
                "https://en.wikipedia.org/wiki/Hassan_district"
            ],
            "longitude": "76.4931607",
            "address": "Tungabhadra, Gangavati taluku, Koppal district, Karnataka, India",
            "latitude": "15.3446123",
            "locType": "river",
            "closest_to": "hassan"
        },
        "chamarajnagar": {
            "blogLinks": [
                "http://timesofindia.indiatimes.com/india/Karnataka-sites-make-to-Unesco-world-heritage-tentative-list/articleshow/35485585.cms"
            ],
            "longitude": "76.6962245",
            "address": "Gundlupet-Chamarajnagar Road, Gundlupet, Gundlupet taluk, Chamarajanagar district, Karnataka, 571111, India",
            "latitude": "11.8095174",
            "locType": "primary",
            "closest_to": "hassan"
        },
        "bombay": {
            "blogLinks": [
                "http://timesofindia.indiatimes.com/india/Karnataka-sites-make-to-Unesco-world-heritage-tentative-list/articleshow/35485585.cms"
            ],
            "longitude": "77.5500256",
            "address": "Bombay tea hotel, Hosahalli Main Road, Rajajinagar 6th Block, Goripalya, Bengaluru, Bangalore Urban, Karnataka, 560001, India",
            "latitude": "12.9632318",
            "locType": "cafe",
            "closest_to": "hassan"
        },
        "kenya": {
            "blogLinks": [
                "https://en.wikipedia.org/wiki/Hassan_district"
            ],
            "longitude": "75.5001151",
            "address": "Kenya, Sulya taluk, Dakshina Kannada, Karnataka, India",
            "latitude": "12.6920464",
            "locType": "hamlet",
            "closest_to": "hassan"
        },
        "mallikarjuna": {
            "blogLinks": [
                "http://travelmasti.com/domestic/karnataka/bijapur.htm"
            ],
            "longitude": "77.0590502",
            "address": "Mallikarjuna Vadi, Basavakalyana taluku, Bidar district, Karnataka, India",
            "latitude": "17.8106693",
            "locType": "village",
            "closest_to": "bijapur"
        },
        "sagara taluk": {
            "blogLinks": [
                "https://en.wikipedia.org/wiki/Tourism_in_Karnataka"
            ],
            "longitude": "74.9610874491152",
            "address": "Sagara taluk, Shimoga district, Karnataka, India",
            "latitude": "14.09993045",
            "locType": "administrative",
            "closest_to": "hassan"
        },
        "venkatappa art gallery": {
            "blogLinks": [
                "http://blog.indianluxurytrains.com/2014/09/best-places-to-visit-in-karnataka.html",
                "http://www.mapsofindia.com/karnataka/tourism/"
            ],
            "longitude": "77.5952077",
            "address": "Venkatappa Art Gallery, Kasturba Road, Shantala Nagar, MacIvor Town, Bengaluru, Bangalore Urban, Karnataka, 560001, India",
            "latitude": "12.9742592",
            "locType": "museum",
            "closest_to": "hassan"
        },
        "jupiter": {
            "blogLinks": [
                "https://en.wikipedia.org/wiki/Hassan_district"
            ],
            "longitude": "77.6182367",
            "address": "Jupiter Capital Pvt Ltd., 54, Richmond Road, Gowthampuram, Ashok Nagar, Bengaluru, Bangalore Urban, Karnataka, 560001, India",
            "latitude": "12.9711385",
            "locType": "company",
            "closest_to": "hassan"
        },
        "mandya": {
            "blogLinks": [
                "https://www.goibibo.com/routeplanner/bijapur-hassan/",
                "https://en.wikipedia.org/wiki/Tourism_in_Karnataka",
                "http://www.holidayiq.com/India/Karnataka-Tourism/Heritage-in-Karnataka-13-8-p4.html"
            ],
            "longitude": "76.8937392",
            "address": "Mandya, Mandya taluk, Mandya district, Karnataka, 571401, India",
            "latitude": "12.5217836",
            "locType": "town",
            "closest_to": "hassan"
        },
        "srirangapatna": {
            "blogLinks": [
                "https://en.wikipedia.org/wiki/Tourism_in_Karnataka",
                "http://timesofindia.indiatimes.com/india/Karnataka-sites-make-to-Unesco-world-heritage-tentative-list/articleshow/35485585.cms"
            ],
            "longitude": "76.6850743",
            "address": "Srirangapatna, Srirangapattana taluk, Mandya district, Karnataka, 571438, India",
            "latitude": "12.4225604",
            "locType": "town",
            "closest_to": "hassan"
        },
        "pattadakal": {
            "blogLinks": [
                "http://blog.indianluxurytrains.com/2014/09/best-places-to-visit-in-karnataka.html",
                "https://en.wikipedia.org/wiki/Tourism_in_Karnataka",
                "http://www.mapsofindia.com/karnataka/tourism/",
                "http://travelmasti.com/domestic/karnataka/bijapur.htm",
                "https://www.tripadvisor.com/ShowTopic-g297627-i2498-k6657230-Visiting_Hampi_Badami_Aihole_Pattadakal_Bijapur-Karnataka.html",
                "http://timesofindia.indiatimes.com/india/Karnataka-sites-make-to-Unesco-world-heritage-tentative-list/articleshow/35485585.cms"
            ],
            "longitude": "75.815884048161",
            "address": "Pattadakal Temples, SH14, \u0cac\u0cbe\u0c9a\u0cbf\u0ca8\u0c97\u0cc1\u0ca1\u0ccd\u0ca1, Badami taluku, Bagalkote district, Karnataka, 587211, India",
            "latitude": "15.9506349",
            "locType": "attraction",
            "closest_to": "hassan"
        },
        "maharashtra": {
            "blogLinks": [
                "https://en.wikipedia.org/wiki/Tourism_in_Karnataka"
            ],
            "longitude": "77.5856013",
            "address": "Bank of Maharashtra, 24th Main, K R Layout, Puttenahalli, Bengaluru, Bangalore Urban, Karnataka, 560001, India",
            "latitude": "12.9049455",
            "locType": "bank",
            "closest_to": "hassan"
        },
        "subramanya": {
            "blogLinks": [
                "https://en.wikipedia.org/wiki/Tourism_in_Karnataka"
            ],
            "longitude": "77.6015800913134",
            "address": "Subramanya Arcade, Marenahalli, Bengaluru, Bangalore Urban, Karnataka, 560001, India",
            "latitude": "12.9251206",
            "locType": "commercial",
            "closest_to": "hassan"
        },
        "gulbarga": {
            "blogLinks": [
                "https://en.wikipedia.org/wiki/Tourism_in_Karnataka",
                "http://timesofindia.indiatimes.com/india/Karnataka-sites-make-to-Unesco-world-heritage-tentative-list/articleshow/35485585.cms",
                "http://www.holidayiq.com/Bijapur-Sightseeing-646.html"
            ],
            "longitude": "77.083333",
            "address": "Kalaburgi, Kalaburagi district, Karnataka, India",
            "latitude": "17.166667",
            "locType": "county",
            "closest_to": "bijapur"
        },
        "hoysaleswara temple": {
            "blogLinks": [
                "https://www.goibibo.com/routeplanner/bijapur-hassan/",
                "http://www.mapsofindia.com/karnataka/tourism/"
            ],
            "longitude": "75.9941649",
            "address": "Hoysaleswara Temple, SH21, Halebidu, Beluru taluk, Hassan district, Karnataka, 573121, India",
            "latitude": "13.2127193",
            "locType": "place_of_worship",
            "closest_to": "hassan"
        },
        "dharwad": {
            "blogLinks": [
                "https://en.wikipedia.org/wiki/Tourism_in_Karnataka"
            ],
            "longitude": "75.0066516",
            "address": "Dharwad, Dharawada taluku, Dharwad district, Karnataka, 580001, India",
            "latitude": "15.4540505",
            "locType": "city",
            "closest_to": "hassan"
        },
        "chitradurga": {
            "blogLinks": [
                "https://en.wikipedia.org/wiki/Tourism_in_Karnataka"
            ],
            "longitude": "76.4005122",
            "address": "Chitradurga, Chitradurga taluku, Chitradurga district, Karnataka, 577500, India",
            "latitude": "14.2266443",
            "locType": "town",
            "closest_to": "hassan"
        },
        "bankapura": {
            "blogLinks": [
                "https://en.wikipedia.org/wiki/Tourism_in_Karnataka"
            ],
            "longitude": "75.2639298",
            "address": "Bankapura, Shiggaon taluk, Haveri district, Karnataka, 581202, India",
            "latitude": "14.9217443",
            "locType": "town",
            "closest_to": "hassan"
        },
        "vijayanagara": {
            "blogLinks": [
                "https://en.wikipedia.org/wiki/Tourism_in_Karnataka"
            ],
            "longitude": "74.7380455",
            "address": "Vijayanagara, Chikodi taluk, Belgaum district, Karnataka, India",
            "latitude": "16.3270486",
            "locType": "village",
            "closest_to": "hassan"
        },
        "bellary": {
            "blogLinks": [
                "https://en.wikipedia.org/wiki/Tourism_in_Karnataka"
            ],
            "longitude": "76.8323648",
            "address": "Bellary, Bellary district, Karnataka, India",
            "latitude": "15.2485413",
            "locType": "county",
            "closest_to": "hassan"
        },
        "chikmagalur district": {
            "blogLinks": [
                "https://en.wikipedia.org/wiki/Tourism_in_Karnataka",
                "https://en.wikipedia.org/wiki/Hassan_district"
            ],
            "longitude": "75.5",
            "address": "Chikmagalur, Chikkamagaluru district, Karnataka, India",
            "latitude": "13.5",
            "locType": "county",
            "closest_to": "hassan"
        },
        "kudala sangama": {
            "blogLinks": [
                "https://en.wikipedia.org/wiki/Tourism_in_Karnataka"
            ],
            "longitude": "76.0604244",
            "address": "Kudala Sangama, Hunagunda taluku, Bagalkote district, Karnataka, India",
            "latitude": "16.2033992",
            "locType": "village",
            "closest_to": "hassan"
        },
        "varadaraja": {
            "blogLinks": [
                "https://en.wikipedia.org/wiki/Tourism_in_Karnataka"
            ],
            "longitude": "77.5542736",
            "address": "Varadaraja Petrol / Gas Station, Dr. Rajkumar Road, Rajajinagar 1st Block, Subrahmanya Nagar, Bengaluru, Bangalore Urban, Karnataka, 560001, India",
            "latitude": "13.005885",
            "locType": "fuel",
            "closest_to": "hassan"
        },
        "hebbe falls": {
            "blogLinks": [
                "https://en.wikipedia.org/wiki/Tourism_in_Karnataka"
            ],
            "longitude": "75.7253701",
            "address": "Hebbe falls, Kemmannagundi Road, Attigundi, Chikkamagaluru taluku, Chikkamagaluru district, Karnataka, India",
            "latitude": "13.5414025",
            "locType": "attraction",
            "closest_to": "hassan"
        },
        "hassan district": {
            "blogLinks": [
                "https://en.wikipedia.org/wiki/Tourism_in_Karnataka",
                "http://www.holidayiq.com/Hassan-Sightseeing-374.html"
            ],
            "longitude": "76.1745460751981",
            "address": "Hassan district, Karnataka, India",
            "latitude": "13.0315068",
            "locType": "administrative",
            "closest_to": "hassan"
        },
        "varada": {
            "blogLinks": [
                "https://en.wikipedia.org/wiki/Tourism_in_Karnataka"
            ],
            "longitude": "75.47206",
            "address": "Varada, Savanura taluk, Haveri district, Karnataka, India",
            "latitude": "14.8717792",
            "locType": "river",
            "closest_to": "hassan"
        },
        "jaina": {
            "blogLinks": [
                "https://en.wikipedia.org/wiki/Hassan_district"
            ],
            "longitude": "75.8840813",
            "address": "Meguti Jaina temple, SH133, Aihole, Hunagunda taluku, Bagalkote district, Karnataka, India",
            "latitude": "16.0173371",
            "locType": "place_of_worship",
            "closest_to": "hassan"
        },
        "kalasa": {
            "blogLinks": [
                "https://en.wikipedia.org/wiki/Tourism_in_Karnataka"
            ],
            "longitude": "75.3582366",
            "address": "Kalasa, Mudigere taluk, Chikkamagaluru district, Karnataka, 577124, India",
            "latitude": "13.2322235",
            "locType": "town",
            "closest_to": "hassan"
        },
        "kambadahalli": {
            "blogLinks": [
                "https://en.wikipedia.org/wiki/Tourism_in_Karnataka"
            ],
            "longitude": "77.1671918",
            "address": "Kambadahalli, Madhugiri taluk, Tumkur district, Karnataka, India",
            "latitude": "13.6843692",
            "locType": "village",
            "closest_to": "hassan"
        },
        "india": {
            "blogLinks": [
                "http://blog.indianluxurytrains.com/2014/09/best-places-to-visit-in-karnataka.html",
                "https://en.wikipedia.org/wiki/Tourism_in_Karnataka",
                "http://www.mapsofindia.com/karnataka/tourism/",
                "http://travelmasti.com/domestic/karnataka/bijapur.htm",
                "https://www.distancecalculator.net/from-bijapur-to-hassan",
                "http://distancecalculator.globefeed.com/India_Distance_Calculator.asp?state=19",
                "http://www.holidayiq.com/India/Karnataka-Tourism/Heritage-in-Karnataka-13-8-p4.html",
                "http://www.distancesfrom.com/distance-from-Hassan-to-Bijapur-City-Bus-Stand-Vijayapura/DistanceHistory/30614599.aspx",
                "http://www.holidayiq.com/Bijapur-Sightseeing-646.html",
                "https://www.tripadvisor.com/ShowTopic-g297627-i2498-k6657230-Visiting_Hampi_Badami_Aihole_Pattadakal_Bijapur-Karnataka.html",
                "https://en.wikipedia.org/wiki/Hassan_district",
                "http://timesofindia.indiatimes.com/india/Karnataka-sites-make-to-Unesco-world-heritage-tentative-list/articleshow/35485585.cms",
                "http://travel.india.com/explore/historical-places-south-india/"
            ],
            "longitude": "75.7223521",
            "address": "Karnataka, India",
            "latitude": "14.5203896",
            "locType": "administrative",
            "closest_to": "hassan"
        },
        "bijapur": {
            "blogLinks": [
                "https://en.wikipedia.org/wiki/Tourism_in_Karnataka",
                "http://travelmasti.com/domestic/karnataka/bijapur.htm",
                "http://www.holidayiq.com/Hassan-Sightseeing-374.html",
                "http://www.holidayiq.com/Bijapur-Sightseeing-646.html",
                "https://www.tripadvisor.com/ShowTopic-g297627-i2498-k6657230-Visiting_Hampi_Badami_Aihole_Pattadakal_Bijapur-Karnataka.html",
                "http://timesofindia.indiatimes.com/india/Karnataka-sites-make-to-Unesco-world-heritage-tentative-list/articleshow/35485585.cms"
            ],
            "longitude": "75.7175387",
            "address": "Vijayapura, Vijayapura taluk, Bijapur district, Karnataka, 586101, India",
            "latitude": "16.8269911",
            "locType": "city",
            "closest_to": "hassan"
        },
        "yagachi": {
            "blogLinks": [
                "https://en.wikipedia.org/wiki/Hassan_district"
            ],
            "longitude": "75.950911",
            "address": "Yagachi, Beluru taluk, Hassan district, Karnataka, India",
            "latitude": "13.0658494",
            "locType": "river",
            "closest_to": "hassan"
        },
        "2nd cross road": {
            "blogLinks": [
                "https://www.goibibo.com/routeplanner/bijapur-hassan/"
            ],
            "longitude": "77.6481158",
            "address": "2nd Cross Road, BM Kaval, Thippasandra, Bengaluru, Bangalore Urban, Karnataka, 560001, India",
            "latitude": "12.9823398",
            "locType": "residential",
            "closest_to": "hassan"
        },
        "hemavathy river": {
            "blogLinks": [
                "http://www.holidayiq.com/Hassan-Sightseeing-374.html"
            ],
            "longitude": "76.5150009",
            "address": "T Subramanian Hemavathy Irrigation Canal, Tipaturu taluk, Tumkur district, Karnataka, India",
            "latitude": "13.2293083",
            "locType": "canal",
            "closest_to": "hassan"
        },
        "lalbagh botanical garden": {
            "blogLinks": [
                "https://www.goibibo.com/routeplanner/bijapur-hassan/"
            ],
            "longitude": "77.5869868789796",
            "address": "Lalbagh Botanical Gardens, Siddapura Road, Mavalli, Someshwaranagar, Bengaluru, Bangalore Urban, Karnataka, 560001, India",
            "latitude": "12.9489367",
            "locType": "attraction",
            "closest_to": "hassan"
        },
        "nagareshwara": {
            "blogLinks": [
                "https://en.wikipedia.org/wiki/Tourism_in_Karnataka"
            ],
            "longitude": "77.3934679",
            "address": "Nagareshwara Temple, SH126, Dantapur, Yadagiri taluku, Yadagiri district, Karnataka, India",
            "latitude": "16.8662525",
            "locType": "place_of_worship",
            "closest_to": "bijapur"
        },
        "anshi national park": {
            "blogLinks": [
                "https://en.wikipedia.org/wiki/Tourism_in_Karnataka"
            ],
            "longitude": "74.3934408094182",
            "address": "Anshi National Park, SH46, Bidoli, Joida taluk, Uttara Kannada, Karnataka, India",
            "latitude": "14.9994424",
            "locType": "national_park",
            "closest_to": "hassan"
        },
        "anegundi": {
            "blogLinks": [
                "https://en.wikipedia.org/wiki/Tourism_in_Karnataka"
            ],
            "longitude": "76.4924232",
            "address": "Anegundi, Gangavati taluku, Koppal district, Karnataka, India",
            "latitude": "15.3509583",
            "locType": "village",
            "closest_to": "hassan"
        },
        "tumkur": {
            "blogLinks": [
                "https://en.wikipedia.org/wiki/Tourism_in_Karnataka"
            ],
            "longitude": "77.0002445",
            "address": "Tumakuru, Tumkur district, Karnataka, India",
            "latitude": "13.4999406",
            "locType": "county",
            "closest_to": "hassan"
        },
        "shirali": {
            "blogLinks": [
                "https://en.wikipedia.org/wiki/Tourism_in_Karnataka"
            ],
            "longitude": "74.5286591",
            "address": "Shirali, Bhatkala taluk, Uttara Kannada, Karnataka, 581354, India",
            "latitude": "14.0280925",
            "locType": "village",
            "closest_to": "hassan"
        },
        "gadag district": {
            "blogLinks": [
                "https://en.wikipedia.org/wiki/Tourism_in_Karnataka"
            ],
            "longitude": "75.6807542794645",
            "address": "Gadag district, Karnataka, India",
            "latitude": "15.416337",
            "locType": "administrative",
            "closest_to": "hassan"
        },
        "yagachi river": {
            "blogLinks": [
                "https://en.wikipedia.org/wiki/Hassan_district",
                "http://travel.india.com/explore/historical-places-south-india/"
            ],
            "longitude": "75.950911",
            "address": "Yagachi, Beluru taluk, Hassan district, Karnataka, India",
            "latitude": "13.0658494",
            "locType": "river",
            "closest_to": "hassan"
        },
        "tungabhadra": {
            "blogLinks": [
                "https://en.wikipedia.org/wiki/Tourism_in_Karnataka"
            ],
            "longitude": "76.4931607",
            "address": "Tungabhadra, Gangavati taluku, Koppal district, Karnataka, India",
            "latitude": "15.3446123",
            "locType": "river",
            "closest_to": "hassan"
        },
        "lakkundi": {
            "blogLinks": [
                "https://en.wikipedia.org/wiki/Tourism_in_Karnataka"
            ],
            "longitude": "76.4084687",
            "address": "Lakkundi, Muddebihala taluku, Bijapur district, Karnataka, India",
            "latitude": "16.5255464",
            "locType": "village",
            "closest_to": "hassan"
        },
        "kanaganahalli": {
            "blogLinks": [
                "https://en.wikipedia.org/wiki/Tourism_in_Karnataka"
            ],
            "longitude": "76.5876958",
            "address": "Kanaganahalli, Pandavapura taluk, Mandya district, Karnataka, India",
            "latitude": "12.5588444",
            "locType": "village",
            "closest_to": "hassan"
        },
        "cubbon park": {
            "blogLinks": [
                "http://blog.indianluxurytrains.com/2014/09/best-places-to-visit-in-karnataka.html",
                "https://www.goibibo.com/routeplanner/bijapur-hassan/",
                "http://www.mapsofindia.com/karnataka/tourism/"
            ],
            "longitude": "77.5977565",
            "address": "Cubbon Park, Cubbon Road, Tasker Town, Shivajinagar, Bengaluru, Bangalore Urban, Karnataka, 560001, India",
            "latitude": "12.9808487",
            "locType": "station",
            "closest_to": "hassan"
        },
        "mangalore": {
            "blogLinks": [
                "https://en.wikipedia.org/wiki/Tourism_in_Karnataka",
                "http://www.mapsofindia.com/karnataka/tourism/",
                "http://www.buzzntravel.com/hassan--how-to-reach",
                "http://www.holidayiq.com/Hassan-Sightseeing-374.html"
            ],
            "longitude": "74.8430082",
            "address": "Mangaluru, Mangaluru taluk, Dakshina Kannada, Karnataka, 575001, India",
            "latitude": "12.8698101",
            "locType": "city",
            "closest_to": "hassan"
        },
        "belgaum": {
            "blogLinks": [
                "https://en.wikipedia.org/wiki/Tourism_in_Karnataka"
            ],
            "longitude": "74.75",
            "address": "Belgaum, Belgaum district, Karnataka, India",
            "latitude": "16.333333",
            "locType": "county",
            "closest_to": "hassan"
        },
        "bandipur national park": {
            "blogLinks": [
                "http://blog.indianluxurytrains.com/2014/09/best-places-to-visit-in-karnataka.html",
                "https://en.wikipedia.org/wiki/Tourism_in_Karnataka"
            ],
            "longitude": "76.4314968740264",
            "address": "Bandipur National Park, Kozhikode - Kollegal Highway, Gundlupet taluk, Chamarajanagar district, Karnataka, India",
            "latitude": "11.76682425",
            "locType": "national_park",
            "closest_to": "hassan"
        },
        "kodagu": {
            "blogLinks": [
                "http://blog.indianluxurytrains.com/2014/09/best-places-to-visit-in-karnataka.html",
                "https://en.wikipedia.org/wiki/Tourism_in_Karnataka",
                "http://www.mapsofindia.com/karnataka/tourism/",
                "https://en.wikipedia.org/wiki/Hassan_district"
            ],
            "longitude": "75.6677235950852",
            "address": "Kodagu, Karnataka, India",
            "latitude": "12.38117345",
            "locType": "administrative",
            "closest_to": "hassan"
        },
        "chola": {
            "blogLinks": [
                "https://en.wikipedia.org/wiki/Tourism_in_Karnataka"
            ],
            "longitude": "76.098782",
            "address": "Chola Gold Loan, Bengaluru - Mangaluru Road, Ravindra Nagar, Santhe Pete, Hassan, Hasana taluk, Hassan district, Karnataka, 573201, India",
            "latitude": "13.0023906",
            "locType": "yes",
            "closest_to": "hassan"
        },
        "karnataka": {
            "blogLinks": [
                "http://blog.indianluxurytrains.com/2014/09/best-places-to-visit-in-karnataka.html",
                "https://en.wikipedia.org/wiki/Tourism_in_Karnataka",
                "http://www.mapsofindia.com/karnataka/tourism/",
                "http://travelmasti.com/domestic/karnataka/bijapur.htm",
                "https://www.distancecalculator.net/from-bijapur-to-hassan",
                "http://distancecalculator.globefeed.com/India_Distance_Calculator.asp?state=19",
                "http://www.holidayiq.com/India/Karnataka-Tourism/Heritage-in-Karnataka-13-8-p4.html",
                "http://www.distancesfrom.com/distance-from-Hassan-to-Bijapur-City-Bus-Stand-Vijayapura/DistanceHistory/30614599.aspx",
                "http://www.holidayiq.com/Bijapur-Sightseeing-646.html",
                "https://www.goibibo.com/routeplanner/bijapur-hassan/",
                "http://www.karnatakatourism.org/",
                "https://en.wikipedia.org/wiki/Hassan_district",
                "http://travel.india.com/explore/historical-places-south-india/"
            ],
            "longitude": "76.6639936",
            "address": "Karnataka, Shalivahana Road, Nazarbad, Mysuru, Mysuru taluk, Mysuru district, Karnataka, 570001, India",
            "latitude": "12.3084901",
            "locType": "atm",
            "closest_to": "hassan"
        },
        "bijapur district": {
            "blogLinks": [
                "http://www.holidayiq.com/Bijapur-Sightseeing-646.html"
            ],
            "longitude": "75.897147327785",
            "address": "Bijapur district, Karnataka, India",
            "latitude": "16.81105965",
            "locType": "administrative",
            "closest_to": "hassan"
        },
        "north karnataka": {
            "blogLinks": [
                "http://www.indiamike.com/india/karnataka-f38/chennai-belur-hampi-bijapur-need-advice-t94885/",
                "https://en.wikipedia.org/wiki/Tourism_in_Karnataka"
            ],
            "longitude": "77.7660547",
            "address": "N, Chaithanya Samarpan, Kadugodi, Kannamangala, Bangalore Urban, Karnataka, 560066, India",
            "latitude": "13.0217151",
            "locType": "service",
            "closest_to": "hassan"
        },
        "bagalkot": {
            "blogLinks": [
                "http://blog.indianluxurytrains.com/2014/09/best-places-to-visit-in-karnataka.html",
                "http://travel.india.com/explore/historical-places-south-india/",
                "http://www.holidayiq.com/Bijapur-Sightseeing-646.html"
            ],
            "longitude": "75.6967919",
            "address": "Bagalakote, Bagalakote taluk, Bagalkote district, Karnataka, India",
            "latitude": "16.1853166",
            "locType": "city",
            "closest_to": "hassan"
        },
        "sangameshwara": {
            "blogLinks": [
                "https://en.wikipedia.org/wiki/Tourism_in_Karnataka"
            ],
            "longitude": "74.87651",
            "address": "Sangameshwara, Kalaghatagi taluku, Dharwad district, Karnataka, India",
            "latitude": "15.184341",
            "locType": "village",
            "closest_to": "hassan"
        },
        "sagara": {
            "blogLinks": [
                "https://en.wikipedia.org/wiki/Tourism_in_Karnataka"
            ],
            "longitude": "75.0262551",
            "address": "Sagara, Sagara taluk, Shimoga district, Karnataka, 577400, India",
            "latitude": "14.1666594",
            "locType": "town",
            "closest_to": "hassan"
        },
        "chennakesava temple": {
            "blogLinks": [
                "http://www.mapsofindia.com/karnataka/tourism/"
            ],
            "longitude": "75.8603311",
            "address": "Chennakesava Temple, NH73, Navilahalli, Beluru taluk, Hassan district, Karnataka, India",
            "latitude": "13.1629239",
            "locType": "place_of_worship",
            "closest_to": "hassan"
        },
        "irupu falls": {
            "blogLinks": [
                "https://en.wikipedia.org/wiki/Tourism_in_Karnataka"
            ],
            "longitude": "75.9839484",
            "address": "Iruppu Falls, SH89, Taila, Virajpet taluk, Kodagu, Karnataka, 571217, India",
            "latitude": "11.9667954",
            "locType": "attraction",
            "closest_to": "hassan"
        },
        "mumbai": {
            "blogLinks": [
                "http://www.indiamike.com/india/karnataka-f38/chennai-belur-hampi-bijapur-need-advice-t94885/",
                "http://travelmasti.com/domestic/karnataka/bijapur.htm"
            ],
            "longitude": "77.5718472",
            "address": "Mumbai Spice, 18/2, 10th Cross, Malleswaram, Vyalikaval, Malleswaram, Bengaluru, Bangalore Urban, Karnataka, 560003, India",
            "latitude": "13.0002869",
            "locType": "restaurant",
            "closest_to": "hassan"
        },
        "gorur": {
            "blogLinks": [
                "https://en.wikipedia.org/wiki/Hassan_district"
            ],
            "longitude": "76.0644435",
            "address": "Gorur, Hasana taluk, Hassan district, Karnataka, 573120, India",
            "latitude": "12.8238999",
            "locType": "village",
            "closest_to": "hassan"
        },
        "chennakesava": {
            "blogLinks": [
                "http://blog.indianluxurytrains.com/2014/09/best-places-to-visit-in-karnataka.html",
                "http://travel.india.com/explore/historical-places-south-india/"
            ],
            "longitude": "75.8603311",
            "address": "Chennakesava Temple, NH73, Navilahalli, Beluru taluk, Hassan district, Karnataka, India",
            "latitude": "13.1629239",
            "locType": "place_of_worship",
            "closest_to": "hassan"
        },
        "hassan": {
            "blogLinks": [
                "http://blog.indianluxurytrains.com/2014/09/best-places-to-visit-in-karnataka.html",
                "https://en.wikipedia.org/wiki/Tourism_in_Karnataka",
                "https://en.wikipedia.org/wiki/Hassan_district",
                "http://travel.india.com/explore/historical-places-south-india/"
            ],
            "longitude": "76.0992703",
            "address": "Hassan, Hasana taluk, Hassan district, Karnataka, 573201, India",
            "latitude": "13.0070817",
            "locType": "town",
            "closest_to": "hassan"
        },
        "bheemeshwari": {
            "blogLinks": [
                "https://en.wikipedia.org/wiki/Tourism_in_Karnataka"
            ],
            "longitude": "77.2778171",
            "address": "Bheemeshwari, Muttatti, Malavalli taluk, Mandya district, Karnataka, India",
            "latitude": "12.3124122",
            "locType": "locality",
            "closest_to": "hassan"
        },
        "hyderabad": {
            "blogLinks": [
                "http://travel.india.com/explore/historical-places-south-india/"
            ],
            "longitude": "77.5344002",
            "address": "Hyderabad Road, Old City, Bidar, Bidar taluku, Bidar district, Karnataka, 585400, India",
            "latitude": "17.9003114",
            "locType": "primary",
            "closest_to": "bijapur"
        },
        "varur": {
            "blogLinks": [
                "https://en.wikipedia.org/wiki/Tourism_in_Karnataka"
            ],
            "longitude": "75.1387568",
            "address": "Varur, Hubballi taluku, Dharwad district, Karnataka, India",
            "latitude": "15.2077105",
            "locType": "village",
            "closest_to": "hassan"
        },
        "shimoga district": {
            "blogLinks": [
                "https://en.wikipedia.org/wiki/Tourism_in_Karnataka"
            ],
            "longitude": "75.1312533993886",
            "address": "Shimoga district, Karnataka, India",
            "latitude": "14.0558284",
            "locType": "administrative",
            "closest_to": "hassan"
        },
        "district": {
            "blogLinks": [
                "https://en.wikipedia.org/wiki/Hassan_district"
            ],
            "longitude": "76.6639936",
            "address": "Karnataka, Shalivahana Road, Nazarbad, Mysuru, Mysuru taluk, Mysuru district, Karnataka, 570001, India",
            "latitude": "12.3084901",
            "locType": "atm",
            "closest_to": "hassan"
        },
        "bahubali": {
            "blogLinks": [
                "https://en.wikipedia.org/wiki/Tourism_in_Karnataka"
            ],
            "longitude": "76.4846128",
            "address": "Bahubali Statue, SH8, Shravanabelagola, Channarayapattana taluk, Hassan district, Karnataka, 573135, India",
            "latitude": "12.8540505",
            "locType": "place_of_worship",
            "closest_to": "hassan"
        },
        "nagarahole national park": {
            "blogLinks": [
                "https://en.wikipedia.org/wiki/Tourism_in_Karnataka"
            ],
            "longitude": "76.1537073415874",
            "address": "Nagarahole National Park, Virajpet taluk, Kodagu, Karnataka, India",
            "latitude": "12.0600362",
            "locType": "national_park",
            "closest_to": "hassan"
        },
        "vijaynagara": {
            "blogLinks": [
                "http://blog.indianluxurytrains.com/2014/09/best-places-to-visit-in-karnataka.html"
            ],
            "longitude": "77.5383681",
            "address": "Vijaynagara, Chord Road, Marenahalli, Vijaya Nagar, Binny Layout, Bangalore Urban, Karnataka, 560040, India",
            "latitude": "12.9726377",
            "locType": "bus_stop",
            "closest_to": "hassan"
        },
        "koppal district": {
            "blogLinks": [
                "https://en.wikipedia.org/wiki/Tourism_in_Karnataka"
            ],
            "longitude": "76.310639117029",
            "address": "Koppal district, Karnataka, India",
            "latitude": "15.57825725",
            "locType": "administrative",
            "closest_to": "hassan"
        },
        "mecca gate": {
            "blogLinks": [
                "http://www.holidayiq.com/Bijapur-Sightseeing-646.html"
            ],
            "longitude": "77.5509669",
            "address": "masjid e mecca, 7th cross padarayana pura, Hosahalli Main Road, Rajajinagar 6th Block, Goripalya, Bengaluru, Bangalore Urban, Karnataka, 560001, India",
            "latitude": "12.9618838",
            "locType": "place_of_worship",
            "closest_to": "hassan"
        },
        "bahmani": {
            "blogLinks": [
                "http://blog.indianluxurytrains.com/2014/09/best-places-to-visit-in-karnataka.html",
                "http://timesofindia.indiatimes.com/india/Karnataka-sites-make-to-Unesco-world-heritage-tentative-list/articleshow/35485585.cms"
            ],
            "longitude": "76.8315008",
            "address": "Bahmani Fort, Alanda Road, Fort, Rauza, Kalaburagi, Gulbarga taluku, Kalaburagi district, Karnataka, 585101, India",
            "latitude": "17.3415485",
            "locType": "castle",
            "closest_to": "bijapur"
        },
        "krishna river": {
            "blogLinks": [
                "http://www.holidayiq.com/Bijapur-Sightseeing-646.html"
            ],
            "longitude": "77.0529845",
            "address": "Krishna, Shahapura taluku, Yadagiri district, Karnataka, India",
            "latitude": "16.5209569",
            "locType": "river",
            "closest_to": "hassan"
        },
        "papanatha": {
            "blogLinks": [
                "http://blog.indianluxurytrains.com/2014/09/best-places-to-visit-in-karnataka.html"
            ],
            "longitude": "75.8164391839286",
            "address": "Papanatha Temple, SH14, \u0cac\u0cbe\u0c9a\u0cbf\u0ca8\u0c97\u0cc1\u0ca1\u0ccd\u0ca1, Badami taluku, Bagalkote district, Karnataka, 587211, India",
            "latitude": "15.94762935",
            "locType": "yes",
            "closest_to": "hassan"
        },
        "bagalkote": {
            "blogLinks": [
                "https://en.wikipedia.org/wiki/Tourism_in_Karnataka"
            ],
            "longitude": "75.5825586777167",
            "address": "Bagalkote district, Karnataka, India",
            "latitude": "16.28998085",
            "locType": "administrative",
            "closest_to": "hassan"
        },
        "kudalasangama": {
            "blogLinks": [
                "https://en.wikipedia.org/wiki/Tourism_in_Karnataka",
                "http://www.holidayiq.com/Bijapur-Sightseeing-646.html"
            ],
            "longitude": "76.0604244",
            "address": "Kudala Sangama, Hunagunda taluku, Bagalkote district, Karnataka, India",
            "latitude": "16.2033992",
            "locType": "village",
            "closest_to": "hassan"
        },
        "mahatma gandhi park": {
            "blogLinks": [
                "http://blog.indianluxurytrains.com/2014/09/best-places-to-visit-in-karnataka.html"
            ],
            "longitude": "77.5997033330292",
            "address": "Mahatma Gandhi Park, Mahatma Gandhi Road, Shantala Nagar, MacIvor Town, Bengaluru, Bangalore Urban, Karnataka, 560001, India",
            "latitude": "12.9772144",
            "locType": "park",
            "closest_to": "hassan"
        },
        "karwar": {
            "blogLinks": [
                "https://en.wikipedia.org/wiki/Tourism_in_Karnataka"
            ],
            "longitude": "74.1319229",
            "address": "Karwar, Karavara taluk, Uttara Kannada, Karnataka, 581300, India",
            "latitude": "14.8120931",
            "locType": "town",
            "closest_to": "hassan"
        },
        "south": {
            "blogLinks": [
                "https://en.wikipedia.org/wiki/Tourism_in_Karnataka"
            ],
            "longitude": "77.8040874",
            "address": "s, Vijayapura, Devanahalli taluk, Bangalore Rural, Karnataka, 562135, India",
            "latitude": "13.2942848",
            "locType": "residential",
            "closest_to": "hassan"
        },
        "kabini": {
            "blogLinks": [
                "https://en.wikipedia.org/wiki/Tourism_in_Karnataka"
            ],
            "longitude": "76.4152088",
            "address": "Kabini, Heggadadevanakote taluk, Mysuru district, Karnataka, India",
            "latitude": "12.0140065",
            "locType": "river",
            "closest_to": "hassan"
        },
        "uma maheshwara temple": {
            "blogLinks": [
                "http://blog.indianluxurytrains.com/2014/09/best-places-to-visit-in-karnataka.html"
            ],
            "longitude": "74.3120254424635",
            "address": "Uma-maheshwara temple, Om beach road, Gokarna, Kumata taluk, Uttara Kannada, Karnataka, 581326, India",
            "latitude": "14.5234594",
            "locType": "place_of_worship",
            "closest_to": "hassan"
        },
        "bagalkot district": {
            "blogLinks": [
                "https://en.wikipedia.org/wiki/Tourism_in_Karnataka"
            ],
            "longitude": "75.6967919",
            "address": "Bagalakote, Bagalakote taluk, Bagalkote district, Karnataka, India",
            "latitude": "16.1853166",
            "locType": "city",
            "closest_to": "hassan"
        },
        "kemmangundi": {
            "blogLinks": [
                "https://en.wikipedia.org/wiki/Tourism_in_Karnataka"
            ],
            "longitude": "75.7520082",
            "address": "Kemmannagundi, Tarikere taluku, Chikkamagaluru district, Karnataka, India",
            "latitude": "13.5463048",
            "locType": "village",
            "closest_to": "hassan"
        },
        "bankpur fort": {
            "blogLinks": [
                "https://en.wikipedia.org/wiki/Tourism_in_Karnataka"
            ],
            "longitude": "75.2512090188504",
            "address": "Bankapura Fort, SH137, Guddada Channapura, Shiggaon taluk, Haveri district, Karnataka, 581202, India",
            "latitude": "14.9231815",
            "locType": "archaeological_site",
            "closest_to": "hassan"
        },
        "hoysaleswara": {
            "blogLinks": [
                "http://blog.indianluxurytrains.com/2014/09/best-places-to-visit-in-karnataka.html",
                "https://www.goibibo.com/routeplanner/bijapur-hassan/"
            ],
            "longitude": "75.9941649",
            "address": "Hoysaleswara Temple, SH21, Halebidu, Beluru taluk, Hassan district, Karnataka, 573121, India",
            "latitude": "13.2127193",
            "locType": "place_of_worship",
            "closest_to": "hassan"
        },
        "hampapura": {
            "blogLinks": [
                "https://en.wikipedia.org/wiki/Hassan_district"
            ],
            "longitude": "76.8445235",
            "address": "Hampapura, Mandya taluk, Mandya district, Karnataka, India",
            "latitude": "12.6396071",
            "locType": "village",
            "closest_to": "hassan"
        },
        "agra": {
            "blogLinks": [
                "http://travelmasti.com/domestic/karnataka/bijapur.htm"
            ],
            "longitude": "77.6468085",
            "address": "Agara, Geddalahalli, Bangalore Urban, Karnataka, India",
            "latitude": "13.0386734",
            "locType": "suburb",
            "closest_to": "hassan"
        },
        "bangalore - mangalore": {
            "blogLinks": [
                "http://www.indiamike.com/india/karnataka-f38/chennai-belur-hampi-bijapur-need-advice-t94885/"
            ],
            "longitude": "76.7990601",
            "address": "Bangalore Mangalore Highway, Irubanahalli, Nagamangala taluk, Mandya district, Karnataka, India",
            "latitude": "12.9699132",
            "locType": "trunk",
            "closest_to": "hassan"
        },
        "banashankari temple": {
            "blogLinks": [
                "https://en.wikipedia.org/wiki/Tourism_in_Karnataka"
            ],
            "longitude": "77.5731752886765",
            "address": "Banashankari Temple, Kanakapura Road, JP Nagar 1st Phase, Kaderenahalli, Bengaluru, Bangalore Urban, Karnataka, 560001, India",
            "latitude": "12.91568785",
            "locType": "place_of_worship",
            "closest_to": "hassan"
        },
        "nagarahole": {
            "blogLinks": [
                "https://en.wikipedia.org/wiki/Tourism_in_Karnataka"
            ],
            "longitude": "76.2286805",
            "address": "Nagarahole, Heggadadevanakote taluk, Mysuru district, Karnataka, India",
            "latitude": "12.0229466",
            "locType": "river",
            "closest_to": "hassan"
        },
        "netrani island of uttara kannada": {
            "blogLinks": [
                "https://en.wikipedia.org/wiki/Tourism_in_Karnataka"
            ],
            "longitude": "74.3272086675849",
            "address": "Netrani, Uttara Kannada, Karnataka, India",
            "latitude": "14.0174924",
            "locType": "island",
            "closest_to": "hassan"
        },
        "kaveri": {
            "blogLinks": [
                "https://en.wikipedia.org/wiki/Tourism_in_Karnataka",
                "https://en.wikipedia.org/wiki/Hassan_district",
                "http://travel.india.com/explore/historical-places-south-india/"
            ],
            "longitude": "77.0635531",
            "address": "Kaveri, Kollegala taluk, Chamarajanagar district, Karnataka, India",
            "latitude": "12.1687878",
            "locType": "river",
            "closest_to": "hassan"
        },
        "dattatreya": {
            "blogLinks": [
                "https://en.wikipedia.org/wiki/Tourism_in_Karnataka"
            ],
            "longitude": "75.7539724",
            "address": "Inam Dattatreya Pitha, Chikkamagaluru taluku, Chikkamagaluru district, Karnataka, India",
            "latitude": "13.4315216",
            "locType": "hamlet",
            "closest_to": "hassan"
        },
        "bidar district": {
            "blogLinks": [
                "https://en.wikipedia.org/wiki/Tourism_in_Karnataka"
            ],
            "longitude": "77.2496344350342",
            "address": "Bidar district, Karnataka, India",
            "latitude": "18.0158574",
            "locType": "administrative",
            "closest_to": "bijapur"
        },
        "kasturba road": {
            "blogLinks": [
                "https://www.goibibo.com/routeplanner/bijapur-hassan/"
            ],
            "longitude": "77.592125",
            "address": "Kasturba Road, Sampangirama Nagar, MacIvor Town, Bengaluru, Bangalore Urban, Karnataka, 560001, India",
            "latitude": "12.9705169",
            "locType": "primary",
            "closest_to": "hassan"
        },
        "hemavathi dam": {
            "blogLinks": [
                "https://en.wikipedia.org/wiki/Hassan_district"
            ],
            "longitude": "76.0556931",
            "address": "Hemavathi Reservoir, Hasana taluk, Hassan district, Karnataka, India",
            "latitude": "12.8267596",
            "locType": "dam",
            "closest_to": "hassan"
        },
        "venur": {
            "blogLinks": [
                "https://en.wikipedia.org/wiki/Tourism_in_Karnataka"
            ],
            "longitude": "75.1443252",
            "address": "Venoor, Beltangadi taluk, Dakshina Kannada, Karnataka, 574242, India",
            "latitude": "13.0122097",
            "locType": "village",
            "closest_to": "hassan"
        },
        "naganur": {
            "blogLinks": [
                "https://en.wikipedia.org/wiki/Tourism_in_Karnataka"
            ],
            "longitude": "74.4824431",
            "address": "Naganur, Hukkeri taluku, Belgaum district, Karnataka, India",
            "latitude": "16.073351",
            "locType": "village",
            "closest_to": "hassan"
        },
        "river cauvery": {
            "blogLinks": [
                "http://www.buzzntravel.com/hassan--how-to-reach"
            ],
            "longitude": "77.5832796015599",
            "address": "Cauvery, 1st Main Road, Lower Palace Orchard, Guttahalli, Bengaluru, Bangalore Urban, Karnataka, 560001, India",
            "latitude": "13.00262215",
            "locType": "cinema",
            "closest_to": "hassan"
        },
        "lakshmeshwar": {
            "blogLinks": [
                "https://en.wikipedia.org/wiki/Tourism_in_Karnataka"
            ],
            "longitude": "75.4741167",
            "address": "Lakshmeshwar KSRTC Bus stand, SH6, Bastibana, Lakshmeshvara, Shirahatti taluku, Gadag district, Karnataka, 582116, India",
            "latitude": "15.12373",
            "locType": "bus_station",
            "closest_to": "hassan"
        },
        "almatti dam": {
            "blogLinks": [
                "http://www.holidayiq.com/Bijapur-Sightseeing-646.html"
            ],
            "longitude": "75.9517801",
            "address": "Almatti Left Bank Canal, Basavana Bagevadi Taluku, Bijapur district, Karnataka, India",
            "latitude": "16.3648934",
            "locType": "canal",
            "closest_to": "hassan"
        },
        "north kerala": {
            "blogLinks": [
                "http://travel.india.com/explore/historical-places-south-india/"
            ],
            "longitude": "77.6382683",
            "address": "New Life Kerala Mess, Sai Baba Mandira Road, Mottappanapalaya, Indiranagar, Bengaluru, Bangalore Urban, Karnataka, 560001, India",
            "latitude": "12.9726449",
            "locType": "restaurant",
            "closest_to": "hassan"
        },
        "' river varahi": {
            "blogLinks": [
                "https://en.wikipedia.org/wiki/Tourism_in_Karnataka"
            ],
            "longitude": "74.9489117",
            "address": "Varahi, \u0c95\u0cc1\u0c82\u0ca6\u0cbe\u0caa\u0cc1\u0cb0 \u0ca4\u0cbe\u0cb2\u0cc2\u0c95\u0cc1, Udupi district, Karnataka, India",
            "latitude": "13.6582668",
            "locType": "river",
            "closest_to": "hassan"
        },
        "chamarajanagar": {
            "blogLinks": [
                "https://en.wikipedia.org/wiki/Tourism_in_Karnataka"
            ],
            "longitude": "76.9331345",
            "address": "Chamarajanagar, Nanjangudu-Chamarajanagar Road, Kadahalli, Chamarajanagara taluk, Chamarajanagar district, Karnataka, 571313, India",
            "latitude": "11.9346624",
            "locType": "station",
            "closest_to": "hassan"
        },
        "uttara kannada": {
            "blogLinks": [
                "https://en.wikipedia.org/wiki/Tourism_in_Karnataka"
            ],
            "longitude": "74.4729163045979",
            "address": "Uttara Kannada, Karnataka, India",
            "latitude": "14.6726379",
            "locType": "administrative",
            "closest_to": "hassan"
        },
        "gulbarga district": {
            "blogLinks": [
                "https://en.wikipedia.org/wiki/Tourism_in_Karnataka"
            ],
            "longitude": "77.083333",
            "address": "Kalaburgi, Kalaburagi district, Karnataka, India",
            "latitude": "17.166667",
            "locType": "county",
            "closest_to": "bijapur"
        },
        "us": {
            "blogLinks": [
                "http://www.mapsofindia.com/karnataka/tourism/",
                "https://en.wikipedia.org/wiki/Hassan_district"
            ],
            "longitude": "75.7223521",
            "address": "Karnataka, India",
            "latitude": "14.5203896",
            "locType": "administrative",
            "closest_to": "hassan"
        },
        "belavadi": {
            "blogLinks": [
                "https://en.wikipedia.org/wiki/Tourism_in_Karnataka"
            ],
            "longitude": "75.3760773",
            "address": "Belavadi, Koppa taluk, Chikkamagaluru district, Karnataka, India",
            "latitude": "13.5284899",
            "locType": "village",
            "closest_to": "hassan"
        },
        "badami of karnataka": {
            "blogLinks": [
                "http://www.mapsofindia.com/karnataka/tourism/"
            ],
            "longitude": "75.6419100722642",
            "address": "Badami taluku, Bagalkote district, Karnataka, India",
            "latitude": "15.98301895",
            "locType": "administrative",
            "closest_to": "hassan"
        },
        "khan temple": {
            "blogLinks": [
                "http://travelmasti.com/domestic/karnataka/bijapur.htm"
            ],
            "longitude": "77.5857215958443",
            "address": "Abbas Khan College, Dharmaraya Temple Road, Ganigarpet, Chickpet, Bengaluru, Bangalore Urban, Karnataka, 560001, India",
            "latitude": "12.966133",
            "locType": "college",
            "closest_to": "hassan"
        },
        "coastal karnataka": {
            "blogLinks": [
                "https://en.wikipedia.org/wiki/Tourism_in_Karnataka"
            ],
            "longitude": "74.8137275833157",
            "address": "Bharat Petroleum Mangalore Coastal Installation, Baikampady, Mangaluru taluk, Dakshina Kannada, Karnataka, 575014, India",
            "latitude": "12.96014675",
            "locType": "industrial",
            "closest_to": "hassan"
        },
        "haveri district": {
            "blogLinks": [
                "https://en.wikipedia.org/wiki/Tourism_in_Karnataka"
            ],
            "longitude": "75.3845674304742",
            "address": "Haveri district, Karnataka, India",
            "latitude": "14.714635",
            "locType": "administrative",
            "closest_to": "hassan"
        },
        "manjusha museum": {
            "blogLinks": [
                "https://en.wikipedia.org/wiki/Tourism_in_Karnataka"
            ],
            "longitude": "75.3821342838196",
            "address": "Manjusha Museum, SH37, Dharmasthala, Beltangadi taluk, Dakshina Kannada, Karnataka, 574216, India",
            "latitude": "12.95116975",
            "locType": "museum",
            "closest_to": "hassan"
        },
        "telangana": {
            "blogLinks": [
                "http://www.karnatakatourism.org/",
                "http://travel.india.com/explore/historical-places-south-india/"
            ],
            "longitude": "78.4605921",
            "address": "Karnataka Bank, Raj Bhavan Road, MS Makta, Somajiguda, Hyderabad, Medak, Telangana, 500082, India",
            "latitude": "17.4233276",
            "locType": "bank",
            "closest_to": "bijapur"
        },
        "nandi hills": {
            "blogLinks": [
                "http://www.mapsofindia.com/karnataka/tourism/"
            ],
            "longitude": "77.7194741670394",
            "address": "Nandi Upahara, Nandhi Hills Road, Kottige Thimmanahalli, Devanahalli taluk, Bangalore Rural, Karnataka, India",
            "latitude": "13.268142",
            "locType": "hotel",
            "closest_to": "hassan"
        },
        "bandipur": {
            "blogLinks": [
                "https://en.wikipedia.org/wiki/Tourism_in_Karnataka"
            ],
            "longitude": "76.6285739",
            "address": "Bandipur, Gundlupet taluk, Chamarajanagar district, Karnataka, India",
            "latitude": "11.6662708",
            "locType": "village",
            "closest_to": "hassan"
        },
        "east": {
            "blogLinks": [
                "https://en.wikipedia.org/wiki/Tourism_in_Karnataka",
                "https://en.wikipedia.org/wiki/Hassan_district"
            ],
            "longitude": "77.6601401",
            "address": "East, 43, Velankani Drive, Electronics City Phase 1, Doddathoguru, Bangalore Urban, Karnataka, 560100, India",
            "latitude": "12.8504319",
            "locType": "restaurant",
            "closest_to": "hassan"
        },
        "district bagalkot": {
            "blogLinks": [
                "https://en.wikipedia.org/wiki/Tourism_in_Karnataka"
            ],
            "longitude": "75.6736388363024",
            "address": "District Commissioner's Office, Bagalkot, Navanagara, Bagalakote, Bagalakote taluk, Bagalkote district, Karnataka, India",
            "latitude": "16.16028195",
            "locType": "commercial",
            "closest_to": "hassan"
        },
        "hubli": {
            "blogLinks": [
                "https://en.wikipedia.org/wiki/Tourism_in_Karnataka",
                "http://www.buzzntravel.com/hassan--how-to-reach"
            ],
            "longitude": "75.1379848",
            "address": "Hubballi - \u0cb9\u0cc1\u0cac\u0ccd\u0cac\u0cb3\u0ccd\u0cb3\u0cbf, Hubballi taluku, Dharwad district, Karnataka, 580020, India",
            "latitude": "15.3518378",
            "locType": "city",
            "closest_to": "hassan"
        },
        "tibet": {
            "blogLinks": [
                "http://travelmasti.com/domestic/karnataka/bijapur.htm"
            ],
            "longitude": "77.6068828",
            "address": "Tibet Bazaar, Brigade Road, Tasker Town, Ashok Nagar, Bengaluru, Bangalore Urban, Karnataka, 560001, India",
            "latitude": "12.9722398",
            "locType": "supermarket",
            "closest_to": "hassan"
        },
        "kannada": {
            "blogLinks": [
                "https://en.wikipedia.org/wiki/Hassan_district"
            ],
            "longitude": "75.1008028650794",
            "address": "Dakshina Kannada, Karnataka, India",
            "latitude": "12.8114089",
            "locType": "administrative",
            "closest_to": "hassan"
        },
        "badami": {
            "blogLinks": [
                "https://en.wikipedia.org/wiki/Tourism_in_Karnataka",
                "https://www.tripadvisor.com/ShowTopic-g297627-i2498-k6657230-Visiting_Hampi_Badami_Aihole_Pattadakal_Bijapur-Karnataka.html"
            ],
            "longitude": "75.6807865",
            "address": "Badami, Badami taluku, Bagalkote district, Karnataka, 587200, India",
            "latitude": "15.9203874",
            "locType": "town",
            "closest_to": "hassan"
        },
        "sirigere": {
            "blogLinks": [
                "https://en.wikipedia.org/wiki/Tourism_in_Karnataka"
            ],
            "longitude": "76.2051907",
            "address": "Sirigere, Chitradurga taluku, Chitradurga district, Karnataka, India",
            "latitude": "14.2840739",
            "locType": "village",
            "closest_to": "hassan"
        },