{
    "chikmagalur": {
        "lat": "13.5",
        "class": "place",
        "importance": 0.65,
        "osm_type": "node",
        "lon": "75.5",
        "place_id": "1426840",
        "display_name": "Chikmagalur, Chikkamagaluru district, Karnataka, India",
        "osm_id": "316417001",
        "boundingbox": [
            "12.86",
            "14.14",
            "74.86",
            "76.14"
        ],
        "type": "county",
        "licence": "Data \u00a9 OpenStreetMap contributors, ODbL 1.0. http://www.openstreetmap.org/copyright",
        "icon": "https://nominatim.openstreetmap.org/images/mapicons/poi_boundary_administrative.p.20.png"
    },
    "mentions": {
        "chikkamagalur": {
            "blogLinks": [
                "http://www.ticketgoose.com/bus-tickets/bijapur-to-chikmagalur",
                "http://www.nivalink.com/destination/chikmagalur",
                "http://www.ticketgoose.com/bus-tickets/chikmagalur-to-bijapur"
            ],
            "longitude": "75.789501",
            "address": "Chikkamagalur, SH57, Hosamane Badavane, Hiremagaluru, Chikkamagaluru taluku, Chikkamagaluru district, Karnataka, 577101, India",
            "latitude": "13.3030706",
            "locType": "station",
            "closest_to": "chikmagalur"
        },
        "bilagi": {
            "blogLinks": [
                "http://timesofindia.indiatimes.com/city/bengaluru/Lokayukta-nets-Rs-7-5-cr-in-illegal-assets-from-7-officials/articleshow/23128494.cms"
            ],
            "longitude": "75.624457614941",
            "address": "Bilagi, Bagalkote district, Karnataka, India",
            "latitude": "16.36758645",
            "locType": "administrative",
            "closest_to": "chikmagalur"
        },
        "railway museum": {
            "blogLinks": [
                "http://blog.indianluxurytrains.com/2014/09/best-places-to-visit-in-karnataka.html"
            ],
            "longitude": "77.6182271274845",
            "address": "Bangalore East Railway Station, Cox Town, Bengaluru, Bangalore Urban, Karnataka, 560001, India",
            "latitude": "13.001147",
            "locType": "railway",
            "closest_to": "chikmagalur"
        },
        "dattatreya temple": {
            "blogLinks": [
                "https://www.tripoto.com/travel-guide/chikkamagaluru"
            ],
            "longitude": "77.5401435953887",
            "address": "Dattatreya Temple, 7th Main Road, Seven Hills Layout, Ittamadu, Bengaluru, Bangalore Urban, Karnataka, 560001, India",
            "latitude": "12.92479825",
            "locType": "place_of_worship",
            "closest_to": "chikmagalur"
        },
        "yelahanka": {
            "blogLinks": [
                "http://timesofindia.indiatimes.com/city/bengaluru/Lokayukta-nets-Rs-7-5-cr-in-illegal-assets-from-7-officials/articleshow/23128494.cms"
            ],
            "longitude": "77.5963454",
            "address": "Yelahanka, Jakkur, Bangalore Urban, Karnataka, India",
            "latitude": "13.1006982",
            "locType": "suburb",
            "closest_to": "chikmagalur"
        },
        "channarayapatna of hassan": {
            "blogLinks": [
                "http://blog.indianluxurytrains.com/2014/09/best-places-to-visit-in-karnataka.html"
            ],
            "longitude": "76.4628912",
            "address": "Tiptur - Channarayapatna Road, Rampura, Channarayapattana taluk, Hassan district, Karnataka, India",
            "latitude": "13.0775815",
            "locType": "primary",
            "closest_to": "chikmagalur"
        },
        "india": {
            "blogLinks": [
                "https://en.wikipedia.org/wiki/Bijapur_district,_Karnataka",
                "http://www.ticketgoose.com/bus-tickets/bijapur-to-chikmagalur",
                "http://blog.indianluxurytrains.com/2014/09/best-places-to-visit-in-karnataka.html",
                "http://travelmasti.com/domestic/karnataka/bijapur.htm",
                "http://travelersdiary.net/blog/2013/03/18/classification-of-destinations-for-karnataka-tour/",
                "http://www.ticketgoose.com/bus-tickets/chikmagalur-to-bijapur",
                "http://distancecalculator.globefeed.com/India_Distance_Calculator.asp?state=19",
                "http://www.mouthshut.com/review/Chikmaglur-review-momnpmmooom",
                "http://timesofindia.indiatimes.com/city/bengaluru/Lokayukta-nets-Rs-7-5-cr-in-illegal-assets-from-7-officials/articleshow/23128494.cms",
                "http://www.nivalink.com/destination/chikmagalur",
                "http://www.buzzntravel.com/chikmagalur",
                "http://www.mapsofindia.com/maps/karnataka/"
            ],
            "longitude": "75.7223521",
            "address": "Karnataka, India",
            "latitude": "14.5203896",
            "locType": "administrative",
            "closest_to": "chikmagalur"
        },
        "anjutagi": {
            "blogLinks": [
                "https://en.wikipedia.org/wiki/Bijapur_district,_Karnataka"
            ],
            "longitude": "75.8622923",
            "address": "Anjutagi, Indi taluku, Bijapur district, Karnataka, India",
            "latitude": "17.2125581",
            "locType": "village",
            "closest_to": "bijapur"
        },
        "calcutta": {
            "blogLinks": [
                "https://en.wikipedia.org/wiki/Bijapur_district,_Karnataka"
            ],
            "longitude": "77.6031547",
            "address": "Oh! Calcutta, Church Street, Tasker Town, Ashok Nagar, Bengaluru, Bangalore Urban, Karnataka, 560001, India",
            "latitude": "12.9753406",
            "locType": "restaurant",
            "closest_to": "chikmagalur"
        },
        "bijapur": {
            "blogLinks": [
                "https://en.wikipedia.org/wiki/Bijapur_district,_Karnataka",
                "http://www.ticketgoose.com/bus-tickets/bijapur-to-chikmagalur",
                "http://blog.indianluxurytrains.com/2014/09/best-places-to-visit-in-karnataka.html",
                "http://travelmasti.com/domestic/karnataka/bijapur.htm",
                "http://www.holidayiq.com/Bijapur-Lakes-A-646-9.html",
                "http://travelersdiary.net/blog/2013/03/18/classification-of-destinations-for-karnataka-tour/",
                "http://www.ticketgoose.com/bus-tickets/chikmagalur-to-bijapur",
                "https://www.ixigo.com/distance-between-from/bijapur-to-chikmagalur-distance",
                "http://timesofindia.indiatimes.com/city/bengaluru/Lokayukta-nets-Rs-7-5-cr-in-illegal-assets-from-7-officials/articleshow/23128494.cms",
                "https://www.tripoto.com/travel-guide/chikkamagaluru",
                "http://www.mapsofindia.com/maps/karnataka/"
            ],
            "longitude": "75.7175387",
            "address": "Vijayapura, Vijayapura taluk, Bijapur district, Karnataka, 586101, India",
            "latitude": "16.8269911",
            "locType": "city",
            "closest_to": "bijapur"
        },
        "basava": {
            "blogLinks": [
                "https://en.wikipedia.org/wiki/Bijapur_district,_Karnataka"
            ],
            "longitude": "77.5887445688",
            "address": "Basava Bhavan, High Grounds, Bengaluru, Bangalore Urban, Karnataka, 560001, India",
            "latitude": "12.9854607",
            "locType": "commercial",
            "closest_to": "chikmagalur"
        },
        "platinum city": {
            "blogLinks": [
                "http://timesofindia.indiatimes.com/city/bengaluru/Lokayukta-nets-Rs-7-5-cr-in-illegal-assets-from-7-officials/articleshow/23128494.cms"
            ],
            "longitude": "77.5331705911094",
            "address": "Platinum City, Peenya, Bengaluru, Bangalore Urban, Karnataka, 560001, India",
            "latitude": "13.0361976",
            "locType": "residential",
            "closest_to": "chikmagalur"
        },
        "sainik": {
            "blogLinks": [
                "https://en.wikipedia.org/wiki/Bijapur_district,_Karnataka"
            ],
            "longitude": "75.6946917",
            "address": "Sainik School, Toravi Road, Vijayapura, Vijayapura taluk, Bijapur district, Karnataka, 586101, India",
            "latitude": "16.8332977",
            "locType": "school",
            "closest_to": "bijapur"
        },
        "kalyani": {
            "blogLinks": [
                "https://en.wikipedia.org/wiki/Bijapur_district,_Karnataka"
            ],
            "longitude": "77.6286090192686",
            "address": "Kalyani, Neeladri Road, Electronics City Phase 1, Bettadasana Pura, Bangalore Urban, Karnataka, 560100, India",
            "latitude": "12.8406466",
            "locType": "water",
            "closest_to": "chikmagalur"
        },
        "mysore": {
            "blogLinks": [
                "http://blog.indianluxurytrains.com/2014/09/best-places-to-visit-in-karnataka.html"
            ],
            "longitude": "76.6553609",
            "address": "Mysuru, Mysuru taluk, Mysuru district, Karnataka, 570001, India",
            "latitude": "12.3051828",
            "locType": "city",
            "closest_to": "chikmagalur"
        },
        "yadgir": {
            "blogLinks": [
                "http://timesofindia.indiatimes.com/city/bengaluru/Lokayukta-nets-Rs-7-5-cr-in-illegal-assets-from-7-officials/articleshow/23128494.cms"
            ],
            "longitude": "77.1380381",
            "address": "Yadgir, Yadagiri taluku, Yadagiri district, Karnataka, 585200, India",
            "latitude": "16.7689044",
            "locType": "town",
            "closest_to": "bijapur"
        },
        "karanji lake": {
            "blogLinks": [
                "http://blog.indianluxurytrains.com/2014/09/best-places-to-visit-in-karnataka.html"
            ],
            "longitude": "77.5474867",
            "address": "Karanji, Aurad taluku, Bidar district, Karnataka, India",
            "latitude": "18.2681849",
            "locType": "village",
            "closest_to": "bijapur"
        },
        "kenya": {
            "blogLinks": [
                "http://timesofindia.indiatimes.com/city/bengaluru/Lokayukta-nets-Rs-7-5-cr-in-illegal-assets-from-7-officials/articleshow/23128494.cms"
            ],
            "longitude": "75.5001151",
            "address": "Kenya, Sulya taluk, Dakshina Kannada, Karnataka, India",
            "latitude": "12.6920464",
            "locType": "hamlet",
            "closest_to": "chikmagalur"
        },
        "bababudan range": {
            "blogLinks": [
                "https://www.tripoto.com/travel-guide/chikkamagaluru"
            ],
            "longitude": "75.7606996",
            "address": "Baba Budangiri, Chikkamagaluru, Chikkamagaluru taluku, Chikkamagaluru district, Karnataka, 577101, India",
            "latitude": "13.4210884",
            "locType": "peak",
            "closest_to": "chikmagalur"
        },
        "tamil nadu": {
            "blogLinks": [
                "http://www.mapsofindia.com/maps/karnataka/"
            ],
            "longitude": "76.9514152",
            "address": "KARNATAKA BANK, Diwan Bhadur Road, Five Corner, RS Puram, Coimbatore, Coimbatore district, Tamil Nadu, 641001, India",
            "latitude": "11.0025894",
            "locType": "bank",
            "closest_to": "chikmagalur"
        },
        "chikmagalur district": {
            "blogLinks": [
                "https://www.tripoto.com/travel-guide/chikkamagaluru"
            ],
            "longitude": "75.5",
            "address": "Chikmagalur, Chikkamagaluru district, Karnataka, India",
            "latitude": "13.5",
            "locType": "county",
            "closest_to": "chikmagalur"
        },
        "cubbon park": {
            "blogLinks": [
                "http://blog.indianluxurytrains.com/2014/09/best-places-to-visit-in-karnataka.html"
            ],
            "longitude": "77.5977565",
            "address": "Cubbon Park, Cubbon Road, Tasker Town, Shivajinagar, Bengaluru, Bangalore Urban, Karnataka, 560001, India",
            "latitude": "12.9808487",
            "locType": "station",
            "closest_to": "chikmagalur"
        },
        "karnataka state": {
            "blogLinks": [
                "http://www.promotraveller.com/2016/08/03/places-to-visit-around-chikmagalur/"
            ],
            "longitude": "76.6236231",
            "address": "Karnataka State Open University, \u0cb9\u0cc1\u0ca3\u0cb8\u0cc2\u0cb0\u0cc1 \u0cb0\u0cb8\u0ccd\u0ca4\u0cc6, Gokulam, Mysuru, Mysuru taluk, Mysuru district, Karnataka, 570001, India",
            "latitude": "12.315382",
            "locType": "university",
            "closest_to": "chikmagalur"
        },
        "khan temple": {
            "blogLinks": [
                "http://travelmasti.com/domestic/karnataka/bijapur.htm"
            ],
            "longitude": "77.5857215958443",
            "address": "Abbas Khan College, Dharmaraya Temple Road, Ganigarpet, Chickpet, Bengaluru, Bangalore Urban, Karnataka, 560001, India",
            "latitude": "12.966133",
            "locType": "college",
            "closest_to": "chikmagalur"
        },
        "new delhi": {
            "blogLinks": [
                "https://en.wikipedia.org/wiki/Bijapur_district,_Karnataka"
            ],
            "longitude": "76.6142178649055",
            "address": "Regional Institute of Education, Chaduranga Road, Jayalakshmipuram, Mysuru, Mysuru taluk, Mysuru district, Karnataka, 570001, India",
            "latitude": "12.30911465",
            "locType": "college",
            "closest_to": "chikmagalur"
        },
        "kadur": {
            "blogLinks": [
                "http://www.mouthshut.com/review/Chikmaglur-review-momnpmmooom",
                "http://www.ticketgoose.com/bus-tickets/bijapur-to-chikmagalur",
                "http://www.promotraveller.com/2016/08/03/places-to-visit-around-chikmagalur/",
                "http://www.ticketgoose.com/bus-tickets/chikmagalur-to-bijapur"
            ],
            "longitude": "75.7820095",
            "address": "Mudigere-Kadur Road, Basavannahalli, Chikkamagaluru, Chikkamagaluru taluku, Chikkamagaluru district, Karnataka, 577101, India",
            "latitude": "13.3283654",
            "locType": "trunk",
            "closest_to": "chikmagalur"
        },
        "sindagi": {
            "blogLinks": [
                "https://en.wikipedia.org/wiki/Bijapur_district,_Karnataka"
            ],
            "longitude": "76.2350305",
            "address": "Sindagi, Sindagi taluku, Bijapur district, Karnataka, 586128, India",
            "latitude": "16.9194778",
            "locType": "town",
            "closest_to": "bijapur"
        },
        "yeshwantpur": {
            "blogLinks": [
                "http://timesofindia.indiatimes.com/city/bengaluru/Lokayukta-nets-Rs-7-5-cr-in-illegal-assets-from-7-officials/articleshow/23128494.cms"
            ],
            "longitude": "77.5566302",
            "address": "Yeshwantpur, Deewanarapalya, Bangalore Urban, Karnataka, India",
            "latitude": "13.0236062",
            "locType": "suburb",
            "closest_to": "chikmagalur"
        },
        "mangalore": {
            "blogLinks": [
                "http://www.ticketgoose.com/bus-tickets/bijapur-to-chikmagalur",
                "http://www.nivalink.com/destination/chikmagalur",
                "http://www.promotraveller.com/2016/08/03/places-to-visit-around-chikmagalur/",
                "http://www.ticketgoose.com/bus-tickets/chikmagalur-to-bijapur"
            ],
            "longitude": "74.8430082",
            "address": "Mangaluru, Mangaluru taluk, Dakshina Kannada, Karnataka, 575001, India",
            "latitude": "12.8698101",
            "locType": "city",
            "closest_to": "chikmagalur"
        },
        "bagalkot district": {
            "blogLinks": [
                "https://en.wikipedia.org/wiki/Bijapur_district,_Karnataka"
            ],
            "longitude": "75.6967919",
            "address": "Bagalakote, Bagalakote taluk, Bagalkote district, Karnataka, India",
            "latitude": "16.1853166",
            "locType": "city",
            "closest_to": "chikmagalur"
        },
        "dakshina kannada": {
            "blogLinks": [
                "http://www.mapsofindia.com/maps/karnataka/"
            ],
            "longitude": "75.1008028650794",
            "address": "Dakshina Kannada, Karnataka, India",
            "latitude": "12.8114089",
            "locType": "administrative",
            "closest_to": "chikmagalur"
        },
        "nelamangala": {
            "blogLinks": [
                "http://www.mouthshut.com/review/Chikmaglur-review-momnpmmooom",
                "http://timesofindia.indiatimes.com/city/bengaluru/Lokayukta-nets-Rs-7-5-cr-in-illegal-assets-from-7-officials/articleshow/23128494.cms"
            ],
            "longitude": "77.3963586",
            "address": "Nelamangala, Nelamangala taluk, Bangalore Rural, Karnataka, India",
            "latitude": "13.0953024",
            "locType": "town",
            "closest_to": "chikmagalur"
        },
        "bagalkot": {
            "blogLinks": [
                "http://timesofindia.indiatimes.com/city/bengaluru/Lokayukta-nets-Rs-7-5-cr-in-illegal-assets-from-7-officials/articleshow/23128494.cms",
                "http://blog.indianluxurytrains.com/2014/09/best-places-to-visit-in-karnataka.html",
                "https://en.wikipedia.org/wiki/Bijapur_district,_Karnataka"
            ],
            "longitude": "75.6967919",
            "address": "Bagalakote, Bagalakote taluk, Bagalkote district, Karnataka, India",
            "latitude": "16.1853166",
            "locType": "city",
            "closest_to": "chikmagalur"
        },
        "baba": {
            "blogLinks": [
                "http://www.promotraveller.com/2016/08/03/places-to-visit-around-chikmagalur/"
            ],
            "longitude": "75.7606996",
            "address": "Baba Budangiri, Chikkamagaluru, Chikkamagaluru taluku, Chikkamagaluru district, Karnataka, 577101, India",
            "latitude": "13.4210884",
            "locType": "peak",
            "closest_to": "chikmagalur"
        },
        "kodagu": {
            "blogLinks": [
                "http://blog.indianluxurytrains.com/2014/09/best-places-to-visit-in-karnataka.html",
                "http://www.mapsofindia.com/maps/karnataka/"
            ],
            "longitude": "75.6677235950852",
            "address": "Kodagu, Karnataka, India",
            "latitude": "12.38117345",
            "locType": "administrative",
            "closest_to": "chikmagalur"
        },
        "halebidu": {
            "blogLinks": [
                "http://www.nivalink.com/destination/chikmagalur",
                "http://www.promotraveller.com/2016/08/03/places-to-visit-around-chikmagalur/"
            ],
            "longitude": "76.4607075",
            "address": "Halebidu, Hunasuru taluk, Mysuru district, Karnataka, India",
            "latitude": "12.359893",
            "locType": "village",
            "closest_to": "chikmagalur"
        },
        "karnataka": {
            "blogLinks": [
                "http://www.ticketgoose.com/bus-tickets/bijapur-to-chikmagalur"
            ],
            "longitude": "76.6639936",
            "address": "Karnataka, Shalivahana Road, Nazarbad, Mysuru, Mysuru taluk, Mysuru district, Karnataka, 570001, India",
            "latitude": "12.3084901",
            "locType": "atm",
            "closest_to": "chikmagalur"
        },
        "bijapur district": {
            "blogLinks": [
                "https://en.wikipedia.org/wiki/Bijapur_district,_Karnataka"
            ],
            "longitude": "75.897147327785",
            "address": "Bijapur district, Karnataka, India",
            "latitude": "16.81105965",
            "locType": "administrative",
            "closest_to": "chikmagalur"
        },
        "channarayapatna": {
            "blogLinks": [
                "http://www.mouthshut.com/review/Chikmaglur-review-momnpmmooom"
            ],
            "longitude": "77.797084",
            "address": "Channarayapatna, Devanahalli taluk, Bangalore Rural, Karnataka, India",
            "latitude": "13.2455918",
            "locType": "village",
            "closest_to": "chikmagalur"
        },
        "vittala": {
            "blogLinks": [
                "http://blog.indianluxurytrains.com/2014/09/best-places-to-visit-in-karnataka.html"
            ],
            "longitude": "76.6237847175927",
            "address": "Vijaya Vittala PU College, Sahukar Chennaiah Road, Sarasvatipuram, Mysuru, Mysuru taluk, Mysuru district, Karnataka, 570001, India",
            "latitude": "12.30129655",
            "locType": "yes",
            "closest_to": "chikmagalur"
        },
        "parvati": {
            "blogLinks": [
                "http://www.nivalink.com/destination/chikmagalur"
            ],
            "longitude": "75.7898501",
            "address": "Parvati, Badami taluku, Bagalkote district, Karnataka, India",
            "latitude": "16.0395701",
            "locType": "village",
            "closest_to": "chikmagalur"
        },
        "hunagund": {
            "blogLinks": [
                "https://en.wikipedia.org/wiki/Bijapur_district,_Karnataka"
            ],
            "longitude": "76.0603359",
            "address": "Hunagund, Hunagunda taluku, Bagalkote district, Karnataka, 587118, India",
            "latitude": "16.0618821",
            "locType": "town",
            "closest_to": "chikmagalur"
        },
        "ooty": {
            "blogLinks": [
                "http://www.nivalink.com/destination/chikmagalur"
            ],
            "longitude": "76.6586807",
            "address": "Ooty Road, Vidyaranyapuram, Mysuru, Mysuru taluk, Mysuru district, Karnataka, 570001, India",
            "latitude": "12.2774807",
            "locType": "primary",
            "closest_to": "chikmagalur"
        },
        "badami": {
            "blogLinks": [
                "https://en.wikipedia.org/wiki/Bijapur_district,_Karnataka"
            ],
            "longitude": "75.6807865",
            "address": "Badami, Badami taluku, Bagalkote district, Karnataka, 587200, India",
            "latitude": "15.9203874",
            "locType": "town",
            "closest_to": "chikmagalur"
        },
        "hubli": {
            "blogLinks": [
                "https://en.wikipedia.org/wiki/Bijapur_district,_Karnataka"
            ],
            "longitude": "75.1379848",
            "address": "Hubballi - \u0cb9\u0cc1\u0cac\u0ccd\u0cac\u0cb3\u0ccd\u0cb3\u0cbf, Hubballi taluku, Dharwad district, Karnataka, 580020, India",
            "latitude": "15.3518378",
            "locType": "city",
            "closest_to": "chikmagalur"
        },
        "kannada": {
            "blogLinks": [
                "http://www.buzzntravel.com/chikmagalur"
            ],
            "longitude": "75.1008028650794",
            "address": "Dakshina Kannada, Karnataka, India",
            "latitude": "12.8114089",
            "locType": "administrative",
            "closest_to": "chikmagalur"
        },
        "laggere": {
            "blogLinks": [
                "http://timesofindia.indiatimes.com/city/bengaluru/Lokayukta-nets-Rs-7-5-cr-in-illegal-assets-from-7-officials/articleshow/23128494.cms"
            ],
            "longitude": "77.5207301",
            "address": "Laggere, Bengaluru, Bangalore Urban, Karnataka, 560058, India",
            "latitude": "13.0108677",
            "locType": "suburb",
            "closest_to": "chikmagalur"
        },
        "bengal": {
            "blogLinks": [
                "https://en.wikipedia.org/wiki/Bijapur_district,_Karnataka"
            ],
            "longitude": "77.7517038151245",
            "address": "Bengal Lamps, Konadasapura, Bangalore Urban, Karnataka, 560066, India",
            "latitude": "13.0492646",
            "locType": "industrial",
            "closest_to": "chikmagalur"
        },
        "chennakesava": {
            "blogLinks": [
                "http://blog.indianluxurytrains.com/2014/09/best-places-to-visit-in-karnataka.html"
            ],
            "longitude": "75.8603311",
            "address": "Chennakesava Temple, NH73, Navilahalli, Beluru taluk, Hassan district, Karnataka, India",
            "latitude": "13.1629239",
            "locType": "place_of_worship",
            "closest_to": "chikmagalur"
        },
        "hassan": {
            "blogLinks": [
                "http://blog.indianluxurytrains.com/2014/09/best-places-to-visit-in-karnataka.html"
            ],
            "longitude": "76.0992703",
            "address": "Hassan, Hasana taluk, Hassan district, Karnataka, 573201, India",
            "latitude": "13.0070817",
            "locType": "town",
            "closest_to": "chikmagalur"
        },
        "ukkali road": {
            "blogLinks": [
                "https://en.wikipedia.org/wiki/Bijapur_district,_Karnataka"
            ],
            "longitude": "75.8836877",
            "address": "Ukkali, Basavana Bagevadi Taluku, Bijapur district, Karnataka, 586152, India",
            "latitude": "16.7254188",
            "locType": "village",
            "closest_to": "chikmagalur"
        },
        "hyderabad": {
            "blogLinks": [
                "https://en.wikipedia.org/wiki/Bijapur_district,_Karnataka"
            ],
            "longitude": "77.5344002",
            "address": "Hyderabad Road, Old City, Bidar, Bidar taluku, Bidar district, Karnataka, 585400, India",
            "latitude": "17.9003114",
            "locType": "primary",
            "closest_to": "bijapur"
        },
        "halebid": {
            "blogLinks": [
                "http://blog.indianluxurytrains.com/2014/09/best-places-to-visit-in-karnataka.html"
            ],
            "longitude": "75.9918793",
            "address": "Halebidu, Beluru taluk, Hassan district, Karnataka, 573121, India",
            "latitude": "13.2167959",
            "locType": "village",
            "closest_to": "chikmagalur"
        },
        "kalhatti falls": {
            "blogLinks": [
                "http://www.promotraveller.com/2016/08/03/places-to-visit-around-chikmagalur/"
            ],
            "longitude": "75.7889882",
            "address": "Kallathgiri falls, Tarikere taluku, Chikkamagaluru district, Karnataka, India",
            "latitude": "13.5499877",
            "locType": "waterfall",
            "closest_to": "chikmagalur"
        },
        "gadag": {
            "blogLinks": [
                "http://timesofindia.indiatimes.com/city/bengaluru/Lokayukta-nets-Rs-7-5-cr-in-illegal-assets-from-7-officials/articleshow/23128494.cms",
                "http://www.mapsofindia.com/maps/karnataka/"
            ],
            "longitude": "75.6300786",
            "address": "Gadag, Gadag taluk, Gadag district, Karnataka, 582101, India",
            "latitude": "15.4263647",
            "locType": "town",
            "closest_to": "chikmagalur"
        },
        "belur": {
            "blogLinks": [
                "http://www.nivalink.com/destination/chikmagalur",
                "http://www.promotraveller.com/2016/08/03/places-to-visit-around-chikmagalur/"
            ],
            "longitude": "75.8634851",
            "address": "Belur, Beluru taluk, Hassan district, Karnataka, 573115, India",
            "latitude": "13.1645671",
            "locType": "town",
            "closest_to": "chikmagalur"
        },
        "nagarhole national park": {
            "blogLinks": [
                "http://blog.indianluxurytrains.com/2014/09/best-places-to-visit-in-karnataka.html"
            ],
            "longitude": "76.1537073415874",
            "address": "Nagarahole National Park, Virajpet taluk, Kodagu, Karnataka, India",
            "latitude": "12.0600362",
            "locType": "national_park",
            "closest_to": "chikmagalur"
        },
        "almatti dam": {
            "blogLinks": [
                "http://www.ticketgoose.com/bus-tickets/bijapur-to-chikmagalur",
                "http://www.ticketgoose.com/bus-tickets/chikmagalur-to-bijapur"
            ],
            "longitude": "75.9517801",
            "address": "Almatti Left Bank Canal, Basavana Bagevadi Taluku, Bijapur district, Karnataka, India",
            "latitude": "16.3648934",
            "locType": "canal",
            "closest_to": "chikmagalur"
        },
        "ayyanakere": {
            "blogLinks": [
                "https://www.tripoto.com/travel-guide/chikkamagaluru"
            ],
            "longitude": "75.8778282403084",
            "address": "Ayyanakere, Mudigere-Kadur Road, Kallumaradimutta, Kaduru taluk, Chikkamagaluru district, Karnataka, 577135, India",
            "latitude": "13.44340875",
            "locType": "water",
            "closest_to": "chikmagalur"
        },
        "ramanagara": {
            "blogLinks": [
                "http://www.mapsofindia.com/maps/karnataka/"
            ],
            "longitude": "74.4900863",
            "address": "Ramanagara, Khanapura taluku, Belgaum district, Karnataka, India",
            "latitude": "15.422047",
            "locType": "town",
            "closest_to": "chikmagalur"
        },
        "vijaynagara": {
            "blogLinks": [
                "http://blog.indianluxurytrains.com/2014/09/best-places-to-visit-in-karnataka.html"
            ],
            "longitude": "77.5383681",
            "address": "Vijaynagara, Chord Road, Marenahalli, Vijaya Nagar, Binny Layout, Bangalore Urban, Karnataka, 560040, India",
            "latitude": "12.9726377",
            "locType": "bus_stop",
            "closest_to": "chikmagalur"
        },
        "rameshwara lake": {
            "blogLinks": [
                "http://www.promotraveller.com/2016/08/03/places-to-visit-around-chikmagalur/"
            ],
            "longitude": "77.5678621969321",
            "address": "Rameshwara Temple, Kranthikavi Sarvagnya Road, Rajajinagar 4th Block, Sriramapura, Bengaluru, Bangalore Urban, Karnataka, 560001, India",
            "latitude": "12.99365815",
            "locType": "place_of_worship",
            "closest_to": "chikmagalur"
        },
        "kabaddi": {
            "blogLinks": [
                "https://en.wikipedia.org/wiki/Bijapur_district,_Karnataka"
            ],
            "longitude": "77.7162612999651",
            "address": "Dr. Rajkumar Flood Lit Kabaddi Pitch, Hoodi Main Road, Ayyappanagar, Hoodi, Tigalarapalya, Bangalore Urban, Karnataka, 560048, India",
            "latitude": "12.9928701",
            "locType": "pitch",
            "closest_to": "chikmagalur"
        },
        "bangalore": {
            "blogLinks": [
                "http://travelmasti.com/domestic/karnataka/bijapur.htm",
                "http://www.ticketgoose.com/bus-tickets/chikmagalur-to-bijapur",
                "http://www.mouthshut.com/review/Chikmaglur-review-momnpmmooom",
                "http://www.promotraveller.com/2016/08/03/places-to-visit-around-chikmagalur/",
                "http://timesofindia.indiatimes.com/city/bengaluru/Lokayukta-nets-Rs-7-5-cr-in-illegal-assets-from-7-officials/articleshow/23128494.cms",
                "http://www.nivalink.com/destination/chikmagalur",
                "https://www.tripoto.com/travel-guide/chikkamagaluru",
                "http://www.ticketgoose.com/bus-tickets/bijapur-to-chikmagalur"
            ],
            "longitude": "77.5912997",
            "address": "Bengaluru, Bangalore Urban, Karnataka, 560001, India",
            "latitude": "12.9791198",
            "locType": "city",
            "closest_to": "chikmagalur"
        },
        "bahmani": {
            "blogLinks": [
                "http://blog.indianluxurytrains.com/2014/09/best-places-to-visit-in-karnataka.html"
            ],
            "longitude": "76.8315008",
            "address": "Bahmani Fort, Alanda Road, Fort, Rauza, Kalaburagi, Gulbarga taluku, Kalaburagi district, Karnataka, 585101, India",
            "latitude": "17.3415485",
            "locType": "castle",
            "closest_to": "bijapur"
        },
        "manikyadhara": {
            "blogLinks": [
                "http://www.promotraveller.com/2016/08/03/places-to-visit-around-chikmagalur/"
            ],
            "longitude": "75.7701434",
            "address": "Manikyadhara, Bababudangiri Road, Inam Dattatreya Pitha, Chikkamagaluru taluku, Chikkamagaluru district, Karnataka, India",
            "latitude": "13.4220248",
            "locType": "attraction",
            "closest_to": "chikmagalur"
        },
        "papanatha": {
            "blogLinks": [
                "http://blog.indianluxurytrains.com/2014/09/best-places-to-visit-in-karnataka.html"
            ],
            "longitude": "75.8164391839286",
            "address": "Papanatha Temple, SH14, \u0cac\u0cbe\u0c9a\u0cbf\u0ca8\u0c97\u0cc1\u0ca1\u0ccd\u0ca1, Badami taluku, Bagalkote district, Karnataka, 587211, India",
            "latitude": "15.94762935",
            "locType": "yes",
            "closest_to": "chikmagalur"
        },
        "bagalkote": {
            "blogLinks": [
                "http://www.mapsofindia.com/maps/karnataka/"
            ],
            "longitude": "75.5825586777167",
            "address": "Bagalkote district, Karnataka, India",
            "latitude": "16.28998085",
            "locType": "administrative",
            "closest_to": "chikmagalur"
        },
        "indi taluka": {
            "blogLinks": [
                "https://en.wikipedia.org/wiki/Bijapur_district,_Karnataka"
            ],
            "longitude": "76.847",
            "address": "Shahpur Taluka Hospital (FRU), NH150A, Halisagara, Vibhutihalli, Shahapura taluku, Yadagiri district, Karnataka, 585223, India",
            "latitude": "16.6934",
            "locType": "hospital",
            "closest_to": "bijapur"
        },
        "tarikere": {
            "blogLinks": [
                "http://timesofindia.indiatimes.com/city/bengaluru/Lokayukta-nets-Rs-7-5-cr-in-illegal-assets-from-7-officials/articleshow/23128494.cms"
            ],
            "longitude": "76.9606245",
            "address": "Tarikere, Madduru taluk, Mandya district, Karnataka, India",
            "latitude": "12.7569125",
            "locType": "village",
            "closest_to": "chikmagalur"
        },
        "kerala": {
            "blogLinks": [
                "http://www.promotraveller.com/2016/08/03/places-to-visit-around-chikmagalur/",
                "http://www.mapsofindia.com/maps/karnataka/"
            ],
            "longitude": "77.6382683",
            "address": "New Life Kerala Mess, Sai Baba Mandira Road, Mottappanapalaya, Indiranagar, Bengaluru, Bangalore Urban, Karnataka, 560001, India",
            "latitude": "12.9726449",
            "locType": "restaurant",
            "closest_to": "chikmagalur"
        },
        "bhadra river": {
            "blogLinks": [
                "http://www.nivalink.com/destination/chikmagalur"
            ],
            "longitude": "75.527118",
            "address": "Bhadra, Chikkamagaluru taluku, Chikkamagaluru district, Karnataka, India",
            "latitude": "13.4888356",
            "locType": "river",
            "closest_to": "chikmagalur"
        },
        "humnabad": {
            "blogLinks": [
                "http://timesofindia.indiatimes.com/city/bengaluru/Lokayukta-nets-Rs-7-5-cr-in-illegal-assets-from-7-officials/articleshow/23128494.cms"
            ],
            "longitude": "77.3126079",
            "address": "Bidar - Humnabad Road, Tugaon, Bhalki taluku, Bidar district, Karnataka, India",
            "latitude": "17.8897407",
            "locType": "trunk",
            "closest_to": "bijapur"
        },
        "delhi": {
            "blogLinks": [
                "http://timesofindia.indiatimes.com/city/bengaluru/Lokayukta-nets-Rs-7-5-cr-in-illegal-assets-from-7-officials/articleshow/23128494.cms",
                "http://blog.indianluxurytrains.com/2014/09/best-places-to-visit-in-karnataka.html"
            ],
            "longitude": "77.6666062",
            "address": "Outer Ring Road, Green Glen Layout, Iblur, Bengaluru, Bangalore Urban, Karnataka, 560001, India",
            "latitude": "12.9212473",
            "locType": "trunk",
            "closest_to": "chikmagalur"
        },
        "indi": {
            "blogLinks": [
                "https://en.wikipedia.org/wiki/Bijapur_district,_Karnataka"
            ],
            "longitude": "75.7223521",
            "address": "Karnataka, India",
            "latitude": "14.5203896",
            "locType": "administrative",
            "closest_to": "chikmagalur"
        },
        "kannur": {
            "blogLinks": [
                "http://www.nivalink.com/destination/chikmagalur"
            ],
            "longitude": "74.8858161",
            "address": "Netravati bridge - Kannur Bypass Road (Proposed), Padil, Bajal, Mangaluru taluk, Dakshina Kannada, Karnataka, 575007, India",
            "latitude": "12.8487602",
            "locType": "construction",
            "closest_to": "chikmagalur"
        },
        "venkataramana temple": {
            "blogLinks": [
                "http://blog.indianluxurytrains.com/2014/09/best-places-to-visit-in-karnataka.html"
            ],
            "longitude": "77.6895365754579",
            "address": "Venkataramana Temple, 20th Cross Road, Anantnagar, Sampige Nagara, Bangalore Urban, Karnataka, 560099, India",
            "latitude": "12.8380349",
            "locType": "place_of_worship",
            "closest_to": "chikmagalur"
        },
        "uma maheshwara temple": {
            "blogLinks": [
                "http://blog.indianluxurytrains.com/2014/09/best-places-to-visit-in-karnataka.html"
            ],
            "longitude": "74.3120254424635",
            "address": "Uma-maheshwara temple, Om beach road, Gokarna, Kumata taluk, Uttara Kannada, Karnataka, 581326, India",
            "latitude": "14.5234594",
            "locType": "place_of_worship",
            "closest_to": "chikmagalur"
        },
        "sri krishnarajendra hill station": {
            "blogLinks": [
                "http://www.nivalink.com/destination/chikmagalur"
            ],
            "longitude": "77.583027619944",
            "address": "Silver Jubilee Park, Narasimharaja Road, Ganigarpet, Kalasipalya, Bengaluru, Bangalore Urban, Karnataka, 560001, India",
            "latitude": "12.96370475",
            "locType": "park",
            "closest_to": "chikmagalur"
        },
        "district headquarters": {
            "blogLinks": [
                "https://www.tripoto.com/travel-guide/chikkamagaluru"
            ],
            "longitude": "74.8378892536638",
            "address": "District Police Headquarters, Bunder, Mangaluru, Mangaluru taluk, Dakshina Kannada, Karnataka, 575001, India",
            "latitude": "12.86008515",
            "locType": "commercial",
            "closest_to": "chikmagalur"
        },
        "tegampur": {
            "blogLinks": [
                "http://timesofindia.indiatimes.com/city/bengaluru/Lokayukta-nets-Rs-7-5-cr-in-illegal-assets-from-7-officials/articleshow/23128494.cms"
            ],
            "longitude": "77.321886",
            "address": "Tegampur, Bhalki taluku, Bidar district, Karnataka, India",
            "latitude": "18.0137818",
            "locType": "village",
            "closest_to": "bijapur"
        },
        "hampi": {
            "blogLinks": [
                "http://blog.indianluxurytrains.com/2014/09/best-places-to-visit-in-karnataka.html"
            ],
            "longitude": "76.4606199",
            "address": "Hampe, Hosapete taluk, Bellary district, Karnataka, 583239, India",
            "latitude": "15.3359769",
            "locType": "village",
            "closest_to": "chikmagalur"
        },
        "koppal": {
            "blogLinks": [
                "http://www.mapsofindia.com/maps/karnataka/"
            ],
            "longitude": "76.1547421",
            "address": "Koppala, Koppala taluku, Koppal district, Karnataka, 583231, India",
            "latitude": "15.3484144",
            "locType": "town",
            "closest_to": "chikmagalur"
        },
        "hoysaleswara": {
            "blogLinks": [
                "http://blog.indianluxurytrains.com/2014/09/best-places-to-visit-in-karnataka.html",
                "http://www.promotraveller.com/2016/08/03/places-to-visit-around-chikmagalur/"
            ],
            "longitude": "75.9941649",
            "address": "Hoysaleswara Temple, SH21, Halebidu, Beluru taluk, Hassan district, Karnataka, 573121, India",
            "latitude": "13.2127193",
            "locType": "place_of_worship",
            "closest_to": "chikmagalur"
        },
        "chikkaballapur": {
            "blogLinks": [
                "http://www.mapsofindia.com/maps/karnataka/"
            ],
            "longitude": "77.7306866",
            "address": "Chikkaballapura, Chikkaballapura taluk, Chikkaballapura district, Karnataka, 562101, India",
            "latitude": "13.4352549",
            "locType": "town",
            "closest_to": "chikmagalur"
        },
        "agra": {
            "blogLinks": [
                "http://travelmasti.com/domestic/karnataka/bijapur.htm"
            ],
            "longitude": "77.6468085",
            "address": "Agara, Geddalahalli, Bangalore Urban, Karnataka, India",
            "latitude": "13.0386734",
            "locType": "suburb",
            "closest_to": "chikmagalur"
        },
        "chikmagalur": {
            "blogLinks": [
                "http://www.nivalink.com/destination/chikmagalur",
                "http://travelmasti.com/domestic/karnataka/bijapur.htm",
                "http://www.promotraveller.com/2016/08/03/places-to-visit-around-chikmagalur/"
            ],
            "longitude": "75.5",
            "address": "Chikmagalur, Chikkamagaluru district, Karnataka, India",
            "latitude": "13.5",
            "locType": "county",
            "closest_to": "chikmagalur"
        },
        "vijayapura": {
            "blogLinks": [
                "https://en.wikipedia.org/wiki/Bijapur_district,_Karnataka"
            ],
            "longitude": "75.916667",
            "address": "Vijayapura, Bijapur district, Karnataka, India",
            "latitude": "16.666667",
            "locType": "county",
            "closest_to": "chikmagalur"
        },
        "mandya": {
            "blogLinks": [
                "http://www.mapsofindia.com/maps/karnataka/"
            ],
            "longitude": "76.8937392",
            "address": "Mandya, Mandya taluk, Mandya district, Karnataka, 571401, India",
            "latitude": "12.5217836",
            "locType": "town",
            "closest_to": "chikmagalur"
        },
        "medak": {
            "blogLinks": [
                "http://timesofindia.indiatimes.com/city/bengaluru/Lokayukta-nets-Rs-7-5-cr-in-illegal-assets-from-7-officials/articleshow/23128494.cms"
            ],
            "longitude": "77.4638843",
            "address": "Medaka, Sedam taluku, Kalaburagi district, Karnataka, India",
            "latitude": "16.9816377",
            "locType": "village",
            "closest_to": "bijapur"
        },
        "banglore": {
            "blogLinks": [
                "https://www.tripoto.com/travel-guide/chikkamagaluru"
            ],
            "longitude": "77.6240722",
            "address": "Banglore Lions Service Blood Bank, Vinayaka Temple Road, Shampura, Hennur, Bengaluru, Bangalore Urban, Karnataka, 560052, India",
            "latitude": "13.0241015",
            "locType": "pharmacy",
            "closest_to": "chikmagalur"
        },
        "rameshwara": {
            "blogLinks": [
                "http://www.nivalink.com/destination/chikmagalur"
            ],
            "longitude": "77.5678621969321",
            "address": "Rameshwara Temple, Kranthikavi Sarvagnya Road, Rajajinagar 4th Block, Sriramapura, Bengaluru, Bangalore Urban, Karnataka, 560001, India",
            "latitude": "12.99365815",
            "locType": "place_of_worship",
            "closest_to": "chikmagalur"
        },
        "krishna river": {
            "blogLinks": [
                "https://en.wikipedia.org/wiki/Bijapur_district,_Karnataka"
            ],
            "longitude": "77.0529845",
            "address": "Krishna, Shahapura taluku, Yadagiri district, Karnataka, India",
            "latitude": "16.5209569",
            "locType": "river",
            "closest_to": "bijapur"
        },
        "mahatma gandhi park": {
            "blogLinks": [
                "http://blog.indianluxurytrains.com/2014/09/best-places-to-visit-in-karnataka.html"
            ],
            "longitude": "77.5997033330292",
            "address": "Mahatma Gandhi Park, Mahatma Gandhi Road, Shantala Nagar, MacIvor Town, Bengaluru, Bangalore Urban, Karnataka, 560001, India",
            "latitude": "12.9772144",
            "locType": "park",
            "closest_to": "chikmagalur"
        },
        "bandipur national park": {
            "blogLinks": [
                "http://blog.indianluxurytrains.com/2014/09/best-places-to-visit-in-karnataka.html"
            ],
            "longitude": "76.4314968740264",
            "address": "Bandipur National Park, Kozhikode - Kollegal Highway, Gundlupet taluk, Chamarajanagar district, Karnataka, India",
            "latitude": "11.76682425",
            "locType": "national_park",
            "closest_to": "chikmagalur"
        },
        "gulbarga district": {
            "blogLinks": [
                "https://en.wikipedia.org/wiki/Bijapur_district,_Karnataka"
            ],
            "longitude": "77.083333",
            "address": "Kalaburgi, Kalaburagi district, Karnataka, India",
            "latitude": "17.166667",
            "locType": "county",
            "closest_to": "bijapur"
        },
        "chelavara falls": {
            "blogLinks": [
                "http://blog.indianluxurytrains.com/2014/09/best-places-to-visit-in-karnataka.html"
            ],
            "longitude": "75.6734811730693",
            "address": "Chelavara Falls, Madikeri taluku, Kodagu, Karnataka, India",
            "latitude": "12.20601005",
            "locType": "waterfall",
            "closest_to": "chikmagalur"
        },
        "kunigal": {
            "blogLinks": [
                "http://www.mouthshut.com/review/Chikmaglur-review-momnpmmooom"
            ],
            "longitude": "77.0236705",
            "address": "Kunigal, Kunigal taluk, Tumkur district, Karnataka, 572130, India",
            "latitude": "13.0238782",
            "locType": "town",
            "closest_to": "chikmagalur"
        },
        "belgaum district": {
            "blogLinks": [
                "https://en.wikipedia.org/wiki/Bijapur_district,_Karnataka"
            ],
            "longitude": "74.8896592460527",
            "address": "Belgaum district, Karnataka, India",
            "latitude": "16.1631253",
            "locType": "administrative",
            "closest_to": "chikmagalur"
        },
        "north kerala": {
            "blogLinks": [
                "http://www.nivalink.com/destination/chikmagalur"
            ],
            "longitude": "77.6382683",
            "address": "New Life Kerala Mess, Sai Baba Mandira Road, Mottappanapalaya, Indiranagar, Bengaluru, Bangalore Urban, Karnataka, 560001, India",
            "latitude": "12.9726449",
            "locType": "restaurant",
            "closest_to": "chikmagalur"
        },
        "chamarajanagar": {
            "blogLinks": [
                "http://www.mapsofindia.com/maps/karnataka/"
            ],
            "longitude": "76.9331345",
            "address": "Chamarajanagar, Nanjangudu-Chamarajanagar Road, Kadahalli, Chamarajanagara taluk, Chamarajanagar district, Karnataka, 571313, India",
            "latitude": "11.9346624",
            "locType": "station",
            "closest_to": "chikmagalur"
        },
        "jumma masjid": {
            "blogLinks": [
                "https://en.wikipedia.org/wiki/Bijapur_district,_Karnataka"
            ],
            "longitude": "75.0331004",
            "address": "Jumma Masjid, J. C. Road, Sagara, Sagara taluk, Shimoga district, Karnataka, 577400, India",
            "latitude": "14.166827",
            "locType": "place_of_worship",
            "closest_to": "chikmagalur"
        },
        "goa": {
            "blogLinks": [
                "http://travelmasti.com/domestic/karnataka/bijapur.htm"
            ],
            "longitude": "77.6200027",
            "address": "Carnival De Goa, Bhaskaran Road, Gupta Layout, Halasuru, Bengaluru, Bangalore Urban, Karnataka, 560001, India",
            "latitude": "12.9750047",
            "locType": "restaurant",
            "closest_to": "chikmagalur"
        },
        "uttara kannada": {
            "blogLinks": [
                "http://travelersdiary.net/blog/2013/03/18/classification-of-destinations-for-karnataka-tour/",
                "https://en.wikipedia.org/wiki/Bijapur_district,_Karnataka"
            ],
            "longitude": "74.4729163045979",
            "address": "Uttara Kannada, Karnataka, India",
            "latitude": "14.6726379",
            "locType": "administrative",
            "closest_to": "chikmagalur"
        },
        "bombay": {
            "blogLinks": [
                "http://timesofindia.indiatimes.com/city/bengaluru/Lokayukta-nets-Rs-7-5-cr-in-illegal-assets-from-7-officials/articleshow/23128494.cms",
                "https://en.wikipedia.org/wiki/Bijapur_district,_Karnataka"
            ],
            "longitude": "77.5500256",
            "address": "Bombay tea hotel, Hosahalli Main Road, Rajajinagar 6th Block, Goripalya, Bengaluru, Bangalore Urban, Karnataka, 560001, India",
            "latitude": "12.9632318",
            "locType": "cafe",
            "closest_to": "chikmagalur"
        },
        "harangi dam": {
            "blogLinks": [
                "http://blog.indianluxurytrains.com/2014/09/best-places-to-visit-in-karnataka.html"
            ],
            "longitude": "75.9056999171375",
            "address": "Harangi dam, Somawarpet taluk, Kodagu, Karnataka, India",
            "latitude": "12.4928663",
            "locType": "dam",
            "closest_to": "chikmagalur"
        },
        "us": {
            "blogLinks": [
                "http://timesofindia.indiatimes.com/city/bengaluru/Lokayukta-nets-Rs-7-5-cr-in-illegal-assets-from-7-officials/articleshow/23128494.cms",
                "https://en.wikipedia.org/wiki/Bijapur_district,_Karnataka"
            ],
            "longitude": "75.7223521",
            "address": "Karnataka, India",
            "latitude": "14.5203896",
            "locType": "administrative",
            "closest_to": "chikmagalur"
        },
        "kalaseshwara temple": {
            "blogLinks": [
                "http://www.nivalink.com/destination/chikmagalur"
            ],
            "longitude": "75.363446975",
            "address": "Kalaseshwara Temple, SH66, Kalasa, Mudigere taluk, Chikkamagaluru district, Karnataka, 577124, India",
            "latitude": "13.23228505",
            "locType": "place_of_worship",
            "closest_to": "chikmagalur"
        },
        "tumkur": {
            "blogLinks": [
                "http://www.mapsofindia.com/maps/karnataka/"
            ],
            "longitude": "77.0002445",
            "address": "Tumakuru, Tumkur district, Karnataka, India",
            "latitude": "13.4999406",
            "locType": "county",
            "closest_to": "chikmagalur"
        },
        "sauparnika": {
            "blogLinks": [
                "http://travelersdiary.net/blog/2013/03/18/classification-of-destinations-for-karnataka-tour/"
            ],
            "longitude": "74.739988",
            "address": "Sauparnika, \u0c95\u0cc1\u0c82\u0ca6\u0cbe\u0caa\u0cc1\u0cb0 \u0ca4\u0cbe\u0cb2\u0cc2\u0c95\u0cc1, Udupi district, Karnataka, India",
            "latitude": "13.771549",
            "locType": "river",
            "closest_to": "chikmagalur"
        },
        "krishnarajendra hill station": {
            "blogLinks": [
                "http://www.promotraveller.com/2016/08/03/places-to-visit-around-chikmagalur/"
            ],
            "longitude": "77.583027619944",
            "address": "Silver Jubilee Park, Narasimharaja Road, Ganigarpet, Kalasipalya, Bengaluru, Bangalore Urban, Karnataka, 560001, India",
            "latitude": "12.96370475",
            "locType": "park",
            "closest_to": "chikmagalur"
        },
        "raichur district": {
            "blogLinks": [
                "https://en.wikipedia.org/wiki/Bijapur_district,_Karnataka"
            ],
            "longitude": "76.9035293668443",
            "address": "Raichur district, Karnataka, India",
            "latitude": "16.05476235",
            "locType": "administrative",
            "closest_to": "chikmagalur"
        },
        "udipi": {
            "blogLinks": [
                "http://www.nivalink.com/destination/chikmagalur"
            ],
            "longitude": "77.652888",
            "address": "Udipi Park, 2nd Cross Road, Muniyappa Layout, Murugeshpalaya, Belure Ambedkar Nagar, Bangalore Urban, Karnataka, 560067, India",
            "latitude": "12.9530588",
            "locType": "restaurant",
            "closest_to": "chikmagalur"
        },
        "chennakesava temple": {
            "blogLinks": [
                "http://www.promotraveller.com/2016/08/03/places-to-visit-around-chikmagalur/"
            ],
            "longitude": "75.8603311",
            "address": "Chennakesava Temple, NH73, Navilahalli, Beluru taluk, Hassan district, Karnataka, India",
            "latitude": "13.1629239",
            "locType": "place_of_worship",
            "closest_to": "chikmagalur"
        },
        "davanagere": {
            "blogLinks": [
                "http://timesofindia.indiatimes.com/city/bengaluru/Lokayukta-nets-Rs-7-5-cr-in-illegal-assets-from-7-officials/articleshow/23128494.cms"
            ],
            "longitude": "75.9206361",
            "address": "Davanagere, Davanagere taluku, Davanagere district, Karnataka, 577000, India",
            "latitude": "14.4661266",
            "locType": "city",
            "closest_to": "chikmagalur"
        },
        "gulbarga": {
            "blogLinks": [
                "http://www.mapsofindia.com/maps/karnataka/",
                "http://timesofindia.indiatimes.com/city/bengaluru/Lokayukta-nets-Rs-7-5-cr-in-illegal-assets-from-7-officials/articleshow/23128494.cms",
                "https://en.wikipedia.org/wiki/Bijapur_district,_Karnataka"
            ],
            "longitude": "77.083333",
            "address": "Kalaburgi, Kalaburagi district, Karnataka, India",
            "latitude": "17.166667",
            "locType": "county",
            "closest_to": "bijapur"
        },
        "venkatappa art gallery": {
            "blogLinks": [
                "http://blog.indianluxurytrains.com/2014/09/best-places-to-visit-in-karnataka.html"
            ],
            "longitude": "77.5952077",
            "address": "Venkatappa Art Gallery, Kasturba Road, Shantala Nagar, MacIvor Town, Bengaluru, Bangalore Urban, Karnataka, 560001, India",
            "latitude": "12.9742592",
            "locType": "museum",
            "closest_to": "chikmagalur"
        },
        "chincholi": {
            "blogLinks": [
                "http://timesofindia.indiatimes.com/city/bengaluru/Lokayukta-nets-Rs-7-5-cr-in-illegal-assets-from-7-officials/articleshow/23128494.cms"
            ],
            "longitude": "77.4189669",
            "address": "Chincholi, Chincholi taluku, Kalaburagi district, Karnataka, 585307, India",
            "latitude": "17.465199",
            "locType": "town",
            "closest_to": "bijapur"
        },
        "vidyagiri": {
            "blogLinks": [
                "http://timesofindia.indiatimes.com/city/bengaluru/Lokayukta-nets-Rs-7-5-cr-in-illegal-assets-from-7-officials/articleshow/23128494.cms"
            ],
            "longitude": "75.6575216",
            "address": "Vidyagiri, Bagalakote, Bagalakote taluk, Bagalkote district, Karnataka, India",
            "latitude": "16.1786342",
            "locType": "suburb",
            "closest_to": "chikmagalur"
        },
        "pattadakal": {
            "blogLinks": [
                "http://blog.indianluxurytrains.com/2014/09/best-places-to-visit-in-karnataka.html",
                "http://travelmasti.com/domestic/karnataka/bijapur.htm"
            ],
            "longitude": "75.815884048161",
            "address": "Pattadakal Temples, SH14, \u0cac\u0cbe\u0c9a\u0cbf\u0ca8\u0c97\u0cc1\u0ca1\u0ccd\u0ca1, Badami taluku, Bagalkote district, Karnataka, 587211, India",
            "latitude": "15.9506349",
            "locType": "attraction",
            "closest_to": "chikmagalur"
        },
        "mumbai": {
            "blogLinks": [
                "http://travelmasti.com/domestic/karnataka/bijapur.htm"
            ],
            "longitude": "77.5718472",
            "address": "Mumbai Spice, 18/2, 10th Cross, Malleswaram, Vyalikaval, Malleswaram, Bengaluru, Bangalore Urban, Karnataka, 560003, India",
            "latitude": "13.0002869",
            "locType": "restaurant",
            "closest_to": "chikmagalur"
        },
        "maharashtra": {
            "blogLinks": [
                "http://www.mapsofindia.com/maps/karnataka/",
                "https://en.wikipedia.org/wiki/Bijapur_district,_Karnataka"
            ],
            "longitude": "77.5856013",
            "address": "Bank of Maharashtra, 24th Main, K R Layout, Puttenahalli, Bengaluru, Bangalore Urban, Karnataka, 560001, India",
            "latitude": "12.9049455",
            "locType": "bank",
            "closest_to": "chikmagalur"
        },
        "aihole": {
            "blogLinks": [
                "http://travelmasti.com/domestic/karnataka/bijapur.htm"
            ],
            "longitude": "75.8819129",
            "address": "Aihole, Hunagunda taluku, Bagalkote district, Karnataka, India",
            "latitude": "16.0192298",
            "locType": "village",
            "closest_to": "chikmagalur"
        },
        "lokayukta": {
            "blogLinks": [
                "http://timesofindia.indiatimes.com/city/bengaluru/Lokayukta-nets-Rs-7-5-cr-in-illegal-assets-from-7-officials/articleshow/23128494.cms"
            ],
            "longitude": "77.5889565",
            "address": "Office of the Lokayukta, Dr B R Ambedkar Veedhi, Shantala Nagar, Gandhinagar, Bengaluru, Bangalore Urban, Karnataka, 560001, India",
            "latitude": "12.976957",
            "locType": "government",
            "closest_to": "chikmagalur"
        },
        "hoysaleswara temple": {
            "blogLinks": [
                "http://www.promotraveller.com/2016/08/03/places-to-visit-around-chikmagalur/"
            ],
            "longitude": "75.9941649",
            "address": "Hoysaleswara Temple, SH21, Halebidu, Beluru taluk, Hassan district, Karnataka, 573121, India",
            "latitude": "13.2127193",
            "locType": "place_of_worship",
            "closest_to": "chikmagalur"
        },
        "dharwad": {
            "blogLinks": [
                "http://www.mapsofindia.com/maps/karnataka/",
                "https://en.wikipedia.org/wiki/Bijapur_district,_Karnataka"
            ],
            "longitude": "75.0066516",
            "address": "Dharwad, Dharawada taluku, Dharwad district, Karnataka, 580001, India",
            "latitude": "15.4540505",
            "locType": "city",
            "closest_to": "chikmagalur"
        },
        "mullayanagiri range": {
            "blogLinks": [
                "http://www.buzzntravel.com/chikmagalur"
            ],
            "longitude": "75.7214034",
            "address": "Mullayyanagiri, Chikkamagaluru, Chikkamagaluru taluku, Chikkamagaluru district, Karnataka, 577101, India",
            "latitude": "13.3909217",
            "locType": "peak",
            "closest_to": "chikmagalur"
        },
        "mysore palace": {
            "blogLinks": [
                "http://travelersdiary.net/blog/2013/03/18/classification-of-destinations-for-karnataka-tour/"
            ],
            "longitude": "76.6539249338108",
            "address": "Mysore Palace, Sayyaji Rao Road, Vani Vilas, Mysuru, Mysuru taluk, Mysuru district, Karnataka, 570001, India",
            "latitude": "12.3052915",
            "locType": "yes",
            "closest_to": "chikmagalur"
        },
        "bellary": {
            "blogLinks": [
                "http://travelersdiary.net/blog/2013/03/18/classification-of-destinations-for-karnataka-tour/",
                "http://www.mapsofindia.com/maps/karnataka/"
            ],
            "longitude": "76.8323648",
            "address": "Bellary, Bellary district, Karnataka, India",
            "latitude": "15.2485413",
            "locType": "county",
            "closest_to": "chikmagalur"
        },
        "kundapura": {
            "blogLinks": [
                "http://www.nivalink.com/destination/chikmagalur"
            ],
            "longitude": "74.6915722",
            "address": "Kundapura, \u0c95\u0cc1\u0c82\u0ca6\u0cbe\u0caa\u0cc1\u0cb0 \u0ca4\u0cbe\u0cb2\u0cc2\u0c95\u0cc1, Udupi district, Karnataka, 576200, India",
            "latitude": "13.6250993",
            "locType": "town",
            "closest_to": "chikmagalur"
        },
        "iruppu": {
            "blogLinks": [
                "http://travelersdiary.net/blog/2013/03/18/classification-of-destinations-for-karnataka-tour/"
            ],
            "longitude": "75.9839484",
            "address": "Iruppu Falls, SH89, Taila, Virajpet taluk, Kodagu, Karnataka, 571217, India",
            "latitude": "11.9667954",
            "locType": "attraction",
            "closest_to": "chikmagalur"
        },
        "sykes point": {
            "blogLinks": [
                "http://blog.indianluxurytrains.com/2014/09/best-places-to-visit-in-karnataka.html"
            ],
            "longitude": "74.6488754",
            "address": "Sykes point, Ambikanagar road, Haliyala taluku, Uttara Kannada, Karnataka, India",
            "latitude": "15.0905368",
            "locType": "viewpoint",
            "closest_to": "chikmagalur"
        },
        "hebbe falls": {
            "blogLinks": [
                "http://www.promotraveller.com/2016/08/03/places-to-visit-around-chikmagalur/"
            ],
            "longitude": "75.7253701",
            "address": "Hebbe falls, Kemmannagundi Road, Attigundi, Chikkamagaluru taluku, Chikkamagaluru district, Karnataka, India",
            "latitude": "13.5414025",
            "locType": "attraction",
            "closest_to": "chikmagalur"
        },
        "udupi": {
            "blogLinks": [
                "http://www.mapsofindia.com/maps/karnataka/"
            ],
            "longitude": "74.7473232",
            "address": "Udupi, Udupi taluku, Udupi district, Karnataka, 576101, India",
            "latitude": "13.3419169",
            "locType": "city",
            "closest_to": "chikmagalur"
        },
        "navanagar": {
            "blogLinks": [
                "http://timesofindia.indiatimes.com/city/bengaluru/Lokayukta-nets-Rs-7-5-cr-in-illegal-assets-from-7-officials/articleshow/23128494.cms"
            ],
            "longitude": "75.0820943",
            "address": "Navanagar, Amaragol, Hubballi taluku, Dharwad district, Karnataka, India",
            "latitude": "15.3938408",
            "locType": "suburb",
            "closest_to": "chikmagalur"
        },
        "research centre": {
            "blogLinks": [
                "https://en.wikipedia.org/wiki/Bijapur_district,_Karnataka"
            ],
            "longitude": "77.60424168848",
            "address": "Research Center, IBC Innner Road, Bismillah Nagar, Lakkasandra, Bengaluru, Bangalore Urban, Karnataka, 560001, India",
            "latitude": "12.93212275",
            "locType": "yes",
            "closest_to": "chikmagalur"
        },
        "belgaum": {
            "blogLinks": [
                "http://www.ticketgoose.com/bus-tickets/bijapur-to-chikmagalur",
                "http://timesofindia.indiatimes.com/city/bengaluru/Lokayukta-nets-Rs-7-5-cr-in-illegal-assets-from-7-officials/articleshow/23128494.cms",
                "http://www.ticketgoose.com/bus-tickets/chikmagalur-to-bijapur"
            ],
            "longitude": "74.75",
            "address": "Belgaum, Belgaum district, Karnataka, India",
            "latitude": "16.333333",
            "locType": "county",
            "closest_to": "chikmagalur"
        }
    },
    "bijapur": {
        "lat": "16.8269911",
        "class": "place",
        "importance": 0.55,
        "osm_type": "node",
        "lon": "75.7175387",
        "place_id": "640991",
        "display_name": "Vijayapura, Vijayapura taluk, Bijapur district, Karnataka, 586101, India",
        "osm_id": "245638671",
        "boundingbox": [
            "16.6669911",
            "16.9869911",
            "75.5575387",
            "75.8775387"
        ],
        "type": "city",
        "licence": "Data \u00a9 OpenStreetMap contributors, ODbL 1.0. http://www.openstreetmap.org/copyright",
        "icon": "https://nominatim.openstreetmap.org/images/mapicons/poi_place_city.p.20.png"
    }
}