{
    "kanakapura": {
        "lat": "12.5450268",
        "class": "place",
        "importance": 0.5,
        "osm_type": "node",
        "lon": "77.4199095",
        "place_id": "1366054",
        "display_name": "Kanakapura, Kanakapura taluk, Ramanagara district, Karnataka, 562117, India",
        "osm_id": "313178025",
        "boundingbox": [
            "12.5050268",
            "12.5850268",
            "77.3799095",
            "77.4599095"
        ],
        "type": "town",
        "licence": "Data \u00a9 OpenStreetMap contributors, ODbL 1.0. http://www.openstreetmap.org/copyright",
        "icon": "https://nominatim.openstreetmap.org/images/mapicons/poi_place_town.p.20.png"
    },
    "mentions": {
        "kamalapura": {
            "blogLinks": [
                "https://www.tripoto.com/weekend-getaways/from-bangalore"
            ],
            "longitude": "75.7316366",
            "address": "Kamalapura, Harihara taluku, Davanagere district, Karnataka, India",
            "latitude": "14.4449672",
            "locType": "village",
            "closest_to": "kanakapura"
        },
        "varaha": {
            "blogLinks": [
                "https://en.wikipedia.org/wiki/Tourism_in_Karnataka"
            ],
            "longitude": "75.3718812",
            "address": "Varaha, Hirekeruru taluk, Haveri district, Karnataka, India",
            "latitude": "14.390777",
            "locType": "village",
            "closest_to": "kanakapura"
        },
        "ranganathittu bird sanctuary": {
            "blogLinks": [
                "https://en.wikipedia.org/wiki/Tourism_in_Karnataka"
            ],
            "longitude": "76.6553081",
            "address": "Ranganathittu Bird Sanctuary, SH154, Palahalli, Srirangapattana taluk, Mandya district, Karnataka, 571438, India",
            "latitude": "12.4238524",
            "locType": "attraction",
            "closest_to": "kanakapura"
        },
        "kanakpura": {
            "blogLinks": [
                "https://www.tripoto.com/travel-guide/kanakapura/trips"
            ],
            "longitude": "77.5438085908703",
            "address": "H 902, Mantri Tranquil, Gubbalala, Off Kanakpura Road, Bengaluru - 61, Subramanyapura Main Road, Singapore Gardens, Uttarahalli, Gubbalala, Bangalore Urban, Karnataka, 560086, India",
            "latitude": "12.8866679",
            "locType": "yes",
            "closest_to": "kanakapura"
        },
        "kagal": {
            "blogLinks": [
                "https://en.wikipedia.org/wiki/Tourism_in_Karnataka"
            ],
            "longitude": "74.3575302591262",
            "address": "Kagal Fort, Birkodi Village, Kumata taluk, Uttara Kannada, Karnataka, India",
            "latitude": "14.5055819",
            "locType": "grass",
            "closest_to": "kanakapura"
        },
        "railway station": {
            "blogLinks": [
                "https://www.tripoto.com/weekend-getaways/from-bangalore"
            ],
            "longitude": "77.515738",
            "address": "Railway Station, Gauribidanuru taluk, Chikkaballapura district, Karnataka, India",
            "latitude": "13.5029417",
            "locType": "village",
            "closest_to": "kanakapura"
        },
        "malaprabha": {
            "blogLinks": [
                "https://en.wikipedia.org/wiki/Tourism_in_Karnataka",
                "https://www.travelblog.org/Asia/India/Karnataka/Bangalore/Koramangala/blog-914055.html"
            ],
            "longitude": "75.1982668",
            "address": "Malaprabha, Ramadurga taluku, Belgaum district, Karnataka, India",
            "latitude": "15.8914192",
            "locType": "river",
            "closest_to": "kanakapura"
        },
        "ramanagara": {
            "blogLinks": [
                "https://www.travelblog.org/Asia/India/Karnataka/Bangalore/Koramangala/blog-914055.html",
                "http://www.buzzntravel.com/ramanagara"
            ],
            "longitude": "74.4900863",
            "address": "Ramanagara, Khanapura taluku, Belgaum district, Karnataka, India",
            "latitude": "15.422047",
            "locType": "town",
            "closest_to": "kanakapura"
        },
        "lushington falls": {
            "blogLinks": [
                "https://en.wikipedia.org/wiki/Tourism_in_Karnataka"
            ],
            "longitude": "74.7477592",
            "address": "\u0c89\u0c82\u0c9a\u0cb3\u0ccd\u0cb3\u0cbf \u0c9c\u0cb2\u0caa\u0cbe\u0ca4, Siddapura taluk, Uttara Kannada, Karnataka, India",
            "latitude": "14.4097755",
            "locType": "waterfall",
            "closest_to": "kanakapura"
        },
        "lokapura": {
            "blogLinks": [
                "https://en.wikipedia.org/wiki/Tourism_in_Karnataka"
            ],
            "longitude": "75.3685939",
            "address": "Lokapura, Mudhola taluku, Bagalkote district, Karnataka, 587122, India",
            "latitude": "16.1627427",
            "locType": "town",
            "closest_to": "kanakapura"
        },
        "dharmastala": {
            "blogLinks": [
                "https://en.wikipedia.org/wiki/Tourism_in_Karnataka"
            ],
            "longitude": "75.3813122",
            "address": "Dharmasthala, Beltangadi taluk, Dakshina Kannada, Karnataka, 574216, India",
            "latitude": "12.9519571",
            "locType": "village",
            "closest_to": "kanakapura"
        },
        "shimoga": {
            "blogLinks": [
                "https://en.wikipedia.org/wiki/Tourism_in_Karnataka"
            ],
            "longitude": "75.569737",
            "address": "Shivamogga, Shivamogga taluku, Shimoga district, Karnataka, 577200, India",
            "latitude": "13.9311723",
            "locType": "city",
            "closest_to": "kanakapura"
        },
        "kalyani": {
            "blogLinks": [
                "https://en.wikipedia.org/wiki/Tourism_in_Karnataka",
                "https://en.wikipedia.org/wiki/Bijapur"
            ],
            "longitude": "77.6286090192686",
            "address": "Kalyani, Neeladri Road, Electronics City Phase 1, Bettadasana Pura, Bangalore Urban, Karnataka, 560100, India",
            "latitude": "12.8406466",
            "locType": "water",
            "closest_to": "kanakapura"
        },
        "naganur": {
            "blogLinks": [
                "https://en.wikipedia.org/wiki/Tourism_in_Karnataka"
            ],
            "longitude": "74.4824431",
            "address": "Naganur, Hukkeri taluku, Belgaum district, Karnataka, India",
            "latitude": "16.073351",
            "locType": "village",
            "closest_to": "kanakapura"
        },
        "pampa": {
            "blogLinks": [
                "https://www.tripoto.com/weekend-getaways/from-bangalore"
            ],
            "longitude": "77.5719518",
            "address": "Pampa Mahakavi Road, Ranasingpet, Kalasipalya, Bengaluru, Bangalore Urban, Karnataka, 560001, India",
            "latitude": "12.9581179",
            "locType": "secondary",
            "closest_to": "kanakapura"
        },
        "kumta": {
            "blogLinks": [
                "https://en.wikipedia.org/wiki/Tourism_in_Karnataka"
            ],
            "longitude": "74.4107617",
            "address": "Kumta, Kumata taluk, Uttara Kannada, Karnataka, India",
            "latitude": "14.4261647",
            "locType": "town",
            "closest_to": "kanakapura"
        },
        "chennai": {
            "blogLinks": [
                "https://en.wikipedia.org/wiki/Tourism_in_Karnataka",
                "https://www.tripoto.com/weekend-getaways/from-bangalore"
            ],
            "longitude": "80.2197941",
            "address": "Karnataka Bank, Postal Colony 2nd Street, Postal Colony, Ashok Nagar, Chennai City Corporation Limits, Chennai district, Tamil Nadu, 600033, India",
            "latitude": "13.0365141",
            "locType": "bank",
            "closest_to": "kanakapura"
        },
        "tamil nadu": {
            "blogLinks": [
                "https://en.wikipedia.org/wiki/Tourism_in_Karnataka",
                "https://www.travelblog.org/Asia/India/Karnataka/Bangalore/Koramangala/blog-914055.html",
                "https://www.tripoto.com/weekend-getaways/from-bangalore"
            ],
            "longitude": "76.9514152",
            "address": "KARNATAKA BANK, Diwan Bhadur Road, Five Corner, RS Puram, Coimbatore, Coimbatore district, Tamil Nadu, 641001, India",
            "latitude": "11.0025894",
            "locType": "bank",
            "closest_to": "kanakapura"
        },
        "annapoorna": {
            "blogLinks": [
                "http://www.holidayiq.com/Art-of-Living-International-Center-Bangalore-Sightseeing-293-19615.html"
            ],
            "longitude": "74.7952585267652",
            "address": "Annapoorna, Malpe - Manipal Road, End Point, Manipal, Udupi taluku, Udupi district, Karnataka, 576102, India",
            "latitude": "13.3434791",
            "locType": "yes",
            "closest_to": "kanakapura"
        },
        "mysore district": {
            "blogLinks": [
                "https://en.wikipedia.org/wiki/Tourism_in_Karnataka"
            ],
            "longitude": "76.6553609",
            "address": "Mysuru, Mysuru taluk, Mysuru district, Karnataka, 570001, India",
            "latitude": "12.3051828",
            "locType": "city",
            "closest_to": "kanakapura"
        },
        "prince restaurant": {
            "blogLinks": [
                "https://www.tripoto.com/weekend-getaways/from-bangalore"
            ],
            "longitude": "76.4602348",
            "address": "Prince, Hampi Bazaar, Hampe, Hosapete taluk, Bellary district, Karnataka, 583239, India",
            "latitude": "15.3355701",
            "locType": "restaurant",
            "closest_to": "kanakapura"
        },
        "kudremukh national park": {
            "blogLinks": [
                "https://en.wikipedia.org/wiki/Tourism_in_Karnataka"
            ],
            "longitude": "75.1828713712862",
            "address": "Kudremukh National Park, SH66, Sringeri taluku, Chikkamagaluru district, Karnataka, India",
            "latitude": "13.25397485",
            "locType": "national_park",
            "closest_to": "kanakapura"
        },
        "brahmagiri peak": {
            "blogLinks": [
                "https://www.tripoto.com/weekend-getaways/from-bangalore"
            ],
            "longitude": "75.490746",
            "address": "Brahmagiri, Madikeri taluku, Kodagu, Karnataka, India",
            "latitude": "12.3868578",
            "locType": "peak",
            "closest_to": "kanakapura"
        },
        "siddheshwara": {
            "blogLinks": [
                "https://en.wikipedia.org/wiki/Tourism_in_Karnataka"
            ],
            "longitude": "77.5876527",
            "address": "Siddheshwara Medicals, Judicial Layout, Allalasandra, Bangalore, 7th Main Road, Judicial Layout, Bengaluru, Bangalore Urban, Karnataka, 560001, India",
            "latitude": "13.0797146",
            "locType": "pharmacy",
            "closest_to": "kanakapura"
        },
        "bhatkal": {
            "blogLinks": [
                "https://en.wikipedia.org/wiki/Tourism_in_Karnataka"
            ],
            "longitude": "74.5485295",
            "address": "Bhatkal, Bhatkala taluk, Uttara Kannada, Karnataka, 581320, India",
            "latitude": "13.9952114",
            "locType": "town",
            "closest_to": "kanakapura"
        },
        "irupu falls": {
            "blogLinks": [
                "https://en.wikipedia.org/wiki/Tourism_in_Karnataka"
            ],
            "longitude": "75.9839484",
            "address": "Iruppu Falls, SH89, Taila, Virajpet taluk, Kodagu, Karnataka, 571217, India",
            "latitude": "11.9667954",
            "locType": "attraction",
            "closest_to": "kanakapura"
        },
        "dakshina kannada": {
            "blogLinks": [
                "https://en.wikipedia.org/wiki/Tourism_in_Karnataka",
                "https://www.tripoto.com/weekend-getaways/from-bangalore"
            ],
            "longitude": "75.1008028650794",
            "address": "Dakshina Kannada, Karnataka, India",
            "latitude": "12.8114089",
            "locType": "administrative",
            "closest_to": "kanakapura"
        },
        "halebid": {
            "blogLinks": [
                "http://www.mapsofindia.com/karnataka/tourism/"
            ],
            "longitude": "75.9918793",
            "address": "Halebidu, Beluru taluk, Hassan district, Karnataka, 573121, India",
            "latitude": "13.2167959",
            "locType": "village",
            "closest_to": "kanakapura"
        },
        "unchalli falls": {
            "blogLinks": [
                "https://en.wikipedia.org/wiki/Tourism_in_Karnataka"
            ],
            "longitude": "74.7477592",
            "address": "\u0c89\u0c82\u0c9a\u0cb3\u0ccd\u0cb3\u0cbf \u0c9c\u0cb2\u0caa\u0cbe\u0ca4, Siddapura taluk, Uttara Kannada, Karnataka, India",
            "latitude": "14.4097755",
            "locType": "waterfall",
            "closest_to": "kanakapura"
        },
        "kumarakom": {
            "blogLinks": [
                "https://www.tripoto.com/weekend-getaways/from-bangalore"
            ],
            "longitude": "77.6382858",
            "address": "Kumarakom, 23, 15th Cross Road, Sector 4, HSR Layout, Bengaluru, Bangalore Urban, Karnataka, 560102, India",
            "latitude": "12.9143715",
            "locType": "restaurant",
            "closest_to": "kanakapura"
        },
        "lakshmeshwar": {
            "blogLinks": [
                "https://en.wikipedia.org/wiki/Tourism_in_Karnataka"
            ],
            "longitude": "75.4741167",
            "address": "Lakshmeshwar KSRTC Bus stand, SH6, Bastibana, Lakshmeshvara, Shirahatti taluku, Gadag district, Karnataka, 582116, India",
            "latitude": "15.12373",
            "locType": "bus_station",
            "closest_to": "kanakapura"
        },
        "bagamandala": {
            "blogLinks": [
                "https://en.wikipedia.org/wiki/Tourism_in_Karnataka"
            ],
            "longitude": "75.748408",
            "address": "Madikeri - Bagamandala ,Tala Kaveri Road, Mekeri, Madikeri taluku, Kodagu, Karnataka, India",
            "latitude": "12.388062",
            "locType": "primary",
            "closest_to": "kanakapura"
        },
        "shivanasamudra": {
            "blogLinks": [
                "https://en.wikipedia.org/wiki/Tourism_in_Karnataka"
            ],
            "longitude": "77.1703215",
            "address": "Shivanasamudra, Kollegala taluk, Chamarajanagar district, Karnataka, India",
            "latitude": "12.2719056",
            "locType": "village",
            "closest_to": "kanakapura"
        },
        "ulsoor lake": {
            "blogLinks": [
                "http://www.mapsofindia.com/karnataka/tourism/"
            ],
            "longitude": "77.6191669052984",
            "address": "Halasuru lake, Annaswamy Mudaliar Road, Kothandram Layout, Halasuru, Bengaluru, Bangalore Urban, Karnataka, 560001, India",
            "latitude": "12.9823891",
            "locType": "water",
            "closest_to": "kanakapura"
        },
        "vittala": {
            "blogLinks": [
                "https://www.tripoto.com/weekend-getaways/from-bangalore"
            ],
            "longitude": "76.6237847175927",
            "address": "Vijaya Vittala PU College, Sahukar Chennaiah Road, Sarasvatipuram, Mysuru, Mysuru taluk, Mysuru district, Karnataka, 570001, India",
            "latitude": "12.30129655",
            "locType": "yes",
            "closest_to": "kanakapura"
        },
        "ooty": {
            "blogLinks": [
                "https://www.tripoto.com/weekend-getaways/from-bangalore"
            ],
            "longitude": "76.6586807",
            "address": "Ooty Road, Vidyaranyapuram, Mysuru, Mysuru taluk, Mysuru district, Karnataka, 570001, India",
            "latitude": "12.2774807",
            "locType": "primary",
            "closest_to": "kanakapura"
        },
        "gudavi": {
            "blogLinks": [
                "https://en.wikipedia.org/wiki/Tourism_in_Karnataka"
            ],
            "longitude": "75.009649",
            "address": "Gudavi, Soraba taluk, Shimoga district, Karnataka, India",
            "latitude": "14.4400296",
            "locType": "village",
            "closest_to": "kanakapura"
        },
        "garden city": {
            "blogLinks": [
                "https://www.audleytravel.com/india/places-to-go/bijapur",
                "https://www.tripoto.com/weekend-getaways/from-bangalore"
            ],
            "longitude": "80.2197941",
            "address": "Karnataka Bank, Postal Colony 2nd Street, Postal Colony, Ashok Nagar, Chennai City Corporation Limits, Chennai district, Tamil Nadu, 600033, India",
            "latitude": "13.0365141",
            "locType": "bank",
            "closest_to": "kanakapura"
        },
        "manipal": {
            "blogLinks": [
                "https://en.wikipedia.org/wiki/Tourism_in_Karnataka"
            ],
            "longitude": "74.7870308",
            "address": "Manipal, Udupi taluku, Udupi district, Karnataka, India",
            "latitude": "13.3519723",
            "locType": "town",
            "closest_to": "kanakapura"
        },
        "chalukya": {
            "blogLinks": [
                "https://en.wikipedia.org/wiki/Tourism_in_Karnataka"
            ],
            "longitude": "77.5192989605445",
            "address": "Chalukya Nagar, Chandra Layout, GKW Layout, Bangalore Urban, Karnataka, 560072, India",
            "latitude": "12.9617207",
            "locType": "residential",
            "closest_to": "kanakapura"
        },
        "kudagi": {
            "blogLinks": [
                "https://en.wikipedia.org/wiki/Bijapur"
            ],
            "longitude": "75.8299681",
            "address": "Kudagi, Basavana Bagevadi Taluku, Bijapur district, Karnataka, India",
            "latitude": "16.5273458",
            "locType": "village",
            "closest_to": "kanakapura"
        },
        "bengal": {
            "blogLinks": [
                "https://www.travelblog.org/Asia/India/Karnataka/Bangalore/Koramangala/blog-914055.html",
                "https://www.tripoto.com/weekend-getaways/from-bangalore"
            ],
            "longitude": "77.7517038151245",
            "address": "Bengal Lamps, Konadasapura, Bangalore Urban, Karnataka, 560066, India",
            "latitude": "13.0492646",
            "locType": "industrial",
            "closest_to": "kanakapura"
        },
        "malpe": {
            "blogLinks": [
                "https://en.wikipedia.org/wiki/Tourism_in_Karnataka"
            ],
            "longitude": "74.7036914",
            "address": "Malpe, Udupi taluku, Udupi district, Karnataka, India",
            "latitude": "13.3507423",
            "locType": "village",
            "closest_to": "kanakapura"
        },
        "itagi": {
            "blogLinks": [
                "https://en.wikipedia.org/wiki/Tourism_in_Karnataka"
            ],
            "longitude": "75.6701043",
            "address": "Itagi, Ranebennuru taluk, Haveri district, Karnataka, India",
            "latitude": "14.550374",
            "locType": "village",
            "closest_to": "kanakapura"
        },
        "gokak": {
            "blogLinks": [
                "https://en.wikipedia.org/wiki/Tourism_in_Karnataka"
            ],
            "longitude": "74.8224338",
            "address": "Gokak, Gokak taluku, Belgaum district, Karnataka, 591307, India",
            "latitude": "16.1693033",
            "locType": "town",
            "closest_to": "kanakapura"
        },
        "gadag": {
            "blogLinks": [
                "https://en.wikipedia.org/wiki/Tourism_in_Karnataka",
                "https://en.wikipedia.org/wiki/Bijapur"
            ],
            "longitude": "75.6300786",
            "address": "Gadag, Gadag taluk, Gadag district, Karnataka, 582101, India",
            "latitude": "15.4263647",
            "locType": "town",
            "closest_to": "kanakapura"
        },
        "belur": {
            "blogLinks": [
                "http://www.mapsofindia.com/karnataka/tourism/"
            ],
            "longitude": "75.8634851",
            "address": "Belur, Beluru taluk, Hassan district, Karnataka, 573115, India",
            "latitude": "13.1645671",
            "locType": "town",
            "closest_to": "kanakapura"
        },
        "nagarhole national park": {
            "blogLinks": [
                "https://en.wikipedia.org/wiki/Tourism_in_Karnataka"
            ],
            "longitude": "76.1537073415874",
            "address": "Nagarahole National Park, Virajpet taluk, Kodagu, Karnataka, India",
            "latitude": "12.0600362",
            "locType": "national_park",
            "closest_to": "kanakapura"
        },
        "hoysala": {
            "blogLinks": [
                "https://en.wikipedia.org/wiki/Tourism_in_Karnataka",
                "http://www.mapsofindia.com/karnataka/tourism/"
            ],
            "longitude": "77.6375990817051",
            "address": "Hoysala Nagar, Bengaluru, Bangalore Urban, Karnataka, 560001, India",
            "latitude": "12.97813815",
            "locType": "administrative",
            "closest_to": "kanakapura"
        },
        "virupaksha temple": {
            "blogLinks": [
                "https://en.wikipedia.org/wiki/Tourism_in_Karnataka"
            ],
            "longitude": "76.4587777156223",
            "address": "Virupaksha Temple, Hampi Bazaar, Hampe, Hosapete taluk, Bellary district, Karnataka, 583239, India",
            "latitude": "15.3351754",
            "locType": "place_of_worship",
            "closest_to": "kanakapura"
        },
        "mookambika": {
            "blogLinks": [
                "https://en.wikipedia.org/wiki/Tourism_in_Karnataka"
            ],
            "longitude": "74.8145296",
            "address": "Mukambika Devasthana, NH766C;SH26, Halkal, \u0c95\u0cc1\u0c82\u0ca6\u0cbe\u0caa\u0cc1\u0cb0 \u0ca4\u0cbe\u0cb2\u0cc2\u0c95\u0cc1, Udupi district, Karnataka, 576220, India",
            "latitude": "13.8638043",
            "locType": "place_of_worship",
            "closest_to": "kanakapura"
        },
        "gokarna": {
            "blogLinks": [
                "https://en.wikipedia.org/wiki/Tourism_in_Karnataka",
                "http://www.mapsofindia.com/karnataka/tourism/"
            ],
            "longitude": "74.3184418",
            "address": "Gokarna, Kumata taluk, Uttara Kannada, Karnataka, 581326, India",
            "latitude": "14.5439629",
            "locType": "town",
            "closest_to": "kanakapura"
        },
        "haveri": {
            "blogLinks": [
                "https://en.wikipedia.org/wiki/Tourism_in_Karnataka"
            ],
            "longitude": "75.3996731",
            "address": "Haveri, Haveri taluku, Haveri district, Karnataka, 581110, India",
            "latitude": "14.7874825",
            "locType": "town",
            "closest_to": "kanakapura"
        },
        "almatti dam": {
            "blogLinks": [
                "https://www.travelblog.org/Asia/India/Karnataka/Bangalore/Koramangala/blog-914055.html",
                "http://www.holidayiq.com/Bijapur-Sightseeing-646.html"
            ],
            "longitude": "75.9517801",
            "address": "Almatti Left Bank Canal, Basavana Bagevadi Taluku, Bijapur district, Karnataka, India",
            "latitude": "16.3648934",
            "locType": "canal",
            "closest_to": "kanakapura"
        },
        "ramanagar": {
            "blogLinks": [
                "http://www.buzzntravel.com/ramanagara",
                "https://www.tripoto.com/travel-guide/kanakapura",
                "https://www.tripoto.com/travel-guide/kanakapura/trips"
            ],
            "longitude": "77.3418018",
            "address": "Ramanagar-Kanakapura Road, Avverahalli, Ramanagara taluk, Ramanagara district, Karnataka, 562159, India",
            "latitude": "12.649356",
            "locType": "primary",
            "closest_to": "kanakapura"
        },
        "banavasi": {
            "blogLinks": [
                "https://en.wikipedia.org/wiki/Tourism_in_Karnataka"
            ],
            "longitude": "75.0129845",
            "address": "Banavasi, Shirasi taluk, Uttara Kannada, Karnataka, India",
            "latitude": "14.5389738",
            "locType": "town",
            "closest_to": "kanakapura"
        },
        "halebeedu": {
            "blogLinks": [
                "https://www.tripoto.com/weekend-getaways/from-bangalore"
            ],
            "longitude": "76.000043",
            "address": "Halebeedu Hagare Road, Harubihalli, Beluru taluk, Hassan district, Karnataka, 573121, India",
            "latitude": "13.1681662",
            "locType": "secondary",
            "closest_to": "kanakapura"
        },
        "karkala": {
            "blogLinks": [
                "https://en.wikipedia.org/wiki/Tourism_in_Karnataka"
            ],
            "longitude": "74.9959586",
            "address": "Karkala, Karkala taluk, Udupi district, Karnataka, 574104, India",
            "latitude": "13.2112826",
            "locType": "town",
            "closest_to": "kanakapura"
        },
        "chandramoulishwara": {
            "blogLinks": [
                "https://en.wikipedia.org/wiki/Tourism_in_Karnataka"
            ],
            "longitude": "76.6290267",
            "address": "Chandramoulishwara Temple, Adipampa Road, Gokulam, Mysuru, Mysuru taluk, Mysuru district, Karnataka, 570001, India",
            "latitude": "12.3225663",
            "locType": "place_of_worship",
            "closest_to": "kanakapura"
        },
        "bannerghatta national park": {
            "blogLinks": [
                "https://en.wikipedia.org/wiki/Tourism_in_Karnataka"
            ],
            "longitude": "77.5722783830694",
            "address": "Bannerghatta National Park, Anekal Road, Begihalli, Bangalore Urban, Karnataka, 560076, India",
            "latitude": "12.77900335",
            "locType": "national_park",
            "closest_to": "kanakapura"
        },
        "sharavati": {
            "blogLinks": [
                "https://en.wikipedia.org/wiki/Tourism_in_Karnataka"
            ],
            "longitude": "74.7647294",
            "address": "Sharavati, Sagara taluk, Shimoga district, Karnataka, India",
            "latitude": "14.2360979",
            "locType": "river",
            "closest_to": "kanakapura"
        },
        "nataraja": {
            "blogLinks": [
                "https://www.travelblog.org/Asia/India/Karnataka/Bangalore/Koramangala/blog-914055.html"
            ],
            "longitude": "77.5730381173154",
            "address": "Nataraja, Sirur Park Road, Vyalikaval, Seshadripuram, Bengaluru, Bangalore Urban, Karnataka, 560001, India",
            "latitude": "12.9900332",
            "locType": "cinema",
            "closest_to": "kanakapura"
        },
        "kerala": {
            "blogLinks": [
                "https://www.tripoto.com/weekend-getaways/from-bangalore"
            ],
            "longitude": "77.6382683",
            "address": "New Life Kerala Mess, Sai Baba Mandira Road, Mottappanapalaya, Indiranagar, Bengaluru, Bangalore Urban, Karnataka, 560001, India",
            "latitude": "12.9726449",
            "locType": "restaurant",
            "closest_to": "kanakapura"
        },
        "bhadra river": {
            "blogLinks": [
                "https://en.wikipedia.org/wiki/Tourism_in_Karnataka"
            ],
            "longitude": "75.527118",
            "address": "Bhadra, Chikkamagaluru taluku, Chikkamagaluru district, Karnataka, India",
            "latitude": "13.4888356",
            "locType": "river",
            "closest_to": "kanakapura"
        },
        "hasan": {
            "blogLinks": [
                "http://www.mapsofindia.com/karnataka/tourism/"
            ],
            "longitude": "76.0992703",
            "address": "Hassan, Hasana taluk, Hassan district, Karnataka, 573201, India",
            "latitude": "13.0070817",
            "locType": "town",
            "closest_to": "kanakapura"
        },
        "indi": {
            "blogLinks": [
                "https://en.wikipedia.org/wiki/Bijapur"
            ],
            "longitude": "75.7223521",
            "address": "Karnataka, India",
            "latitude": "14.5203896",
            "locType": "administrative",
            "closest_to": "kanakapura"
        },
        "emerald lake": {
            "blogLinks": [
                "https://www.tripoto.com/weekend-getaways/from-bangalore"
            ],
            "longitude": "77.8188013",
            "address": "Emerald Isle Resort, NH75, Lakshmisagara, Kolar taluk, Kolar district, Karnataka, 563133, India",
            "latitude": "13.0833534",
            "locType": "hotel",
            "closest_to": "kanakapura"
        },
        "nandi temple": {
            "blogLinks": [
                "https://en.wikipedia.org/wiki/Bijapur"
            ],
            "longitude": "77.6837645360405",
            "address": "Nandi temple, Nandi Hill Road, Kuduvati, Chikkaballapura taluk, Chikkaballapura district, Karnataka, India",
            "latitude": "13.3686043",
            "locType": "place_of_worship",
            "closest_to": "kanakapura"
        },
        "anshi national park": {
            "blogLinks": [
                "https://en.wikipedia.org/wiki/Tourism_in_Karnataka"
            ],
            "longitude": "74.3934408094182",
            "address": "Anshi National Park, SH46, Bidoli, Joida taluk, Uttara Kannada, Karnataka, India",
            "latitude": "14.9994424",
            "locType": "national_park",
            "closest_to": "kanakapura"
        },
        "beluru": {
            "blogLinks": [
                "https://en.wikipedia.org/wiki/Tourism_in_Karnataka"
            ],
            "longitude": "75.8634851",
            "address": "Belur, Beluru taluk, Hassan district, Karnataka, 573115, India",
            "latitude": "13.1645671",
            "locType": "town",
            "closest_to": "kanakapura"
        },
        "puducherry": {
            "blogLinks": [
                "https://www.tripoto.com/weekend-getaways/from-bangalore"
            ],
            "longitude": "79.831569",
            "address": "Karnataka Bank, Mission Street, Grand Bazaar, Puducherry, Puducherry district, Puducherry, 605001, India",
            "latitude": "11.9365727",
            "locType": "bank",
            "closest_to": "kanakapura"
        },
        "bellary district": {
            "blogLinks": [
                "https://en.wikipedia.org/wiki/Tourism_in_Karnataka"
            ],
            "longitude": "76.7137978546465",
            "address": "Bellary district, Karnataka, India",
            "latitude": "15.20597305",
            "locType": "administrative",
            "closest_to": "kanakapura"
        },
        "kuknur": {
            "blogLinks": [
                "https://en.wikipedia.org/wiki/Tourism_in_Karnataka"
            ],
            "longitude": "75.9934934",
            "address": "Kukanura, Yelaburga taluku, Koppal district, Karnataka, 583232, India",
            "latitude": "15.4902753",
            "locType": "village",
            "closest_to": "kanakapura"
        },
        "nilgiris": {
            "blogLinks": [
                "https://en.wikipedia.org/wiki/Tourism_in_Karnataka",
                "https://www.tripoto.com/weekend-getaways/from-bangalore"
            ],
            "longitude": "77.6069792",
            "address": "Nilgiris, Brigade Road, Tasker Town, Ashok Nagar, Bengaluru, Bangalore Urban, Karnataka, 560001, India",
            "latitude": "12.9725052",
            "locType": "supermarket",
            "closest_to": "kanakapura"
        },
        "hampi": {
            "blogLinks": [
                "https://en.wikipedia.org/wiki/Tourism_in_Karnataka",
                "https://www.tripoto.com/weekend-getaways/from-bangalore",
                "http://www.mapsofindia.com/karnataka/tourism/"
            ],
            "longitude": "76.4606199",
            "address": "Hampe, Hosapete taluk, Bellary district, Karnataka, 583239, India",
            "latitude": "15.3359769",
            "locType": "village",
            "closest_to": "kanakapura"
        },
        "koppal": {
            "blogLinks": [
                "https://en.wikipedia.org/wiki/Tourism_in_Karnataka"
            ],
            "longitude": "76.1547421",
            "address": "Koppala, Koppala taluku, Koppal district, Karnataka, 583231, India",
            "latitude": "15.3484144",
            "locType": "town",
            "closest_to": "kanakapura"
        },
        "mastikatte": {
            "blogLinks": [
                "https://en.wikipedia.org/wiki/Tourism_in_Karnataka"
            ],
            "longitude": "74.4604101",
            "address": "Mastikatte, Ankola taluk, Uttara Kannada, Karnataka, India",
            "latitude": "14.6857168",
            "locType": "village",
            "closest_to": "kanakapura"
        },
        "gulbarga district": {
            "blogLinks": [
                "https://en.wikipedia.org/wiki/Tourism_in_Karnataka"
            ],
            "longitude": "77.083333",
            "address": "Kalaburgi, Kalaburagi district, Karnataka, India",
            "latitude": "17.166667",
            "locType": "county",
            "closest_to": "bijapur"
        },
        "kabini river": {
            "blogLinks": [
                "https://en.wikipedia.org/wiki/Tourism_in_Karnataka",
                "https://www.tripoto.com/weekend-getaways/from-bangalore"
            ],
            "longitude": "76.6477184",
            "address": "Kabini right bank canal, Nanjanagudu taluk, Mysuru district, Karnataka, India",
            "latitude": "12.0780998",
            "locType": "canal",
            "closest_to": "kanakapura"
        },
        "india": {
            "blogLinks": [
                "https://www.travelblog.org/Asia/India/Karnataka/Bangalore/Koramangala/blog-914055.html",
                "https://en.wikipedia.org/wiki/Bijapur",
                "https://www.tripoto.com/weekend-getaways/from-bangalore",
                "http://distancecalculator.globefeed.com/India_Distance_Calculator.asp?state=19",
                "http://www.karnataka.com/",
                "https://en.wikipedia.org/wiki/Tourism_in_Karnataka",
                "http://www.mapsofindia.com/karnataka/tourism/"
            ],
            "longitude": "75.7223521",
            "address": "Karnataka, India",
            "latitude": "14.5203896",
            "locType": "administrative",
            "closest_to": "kanakapura"
        },
        "western india": {
            "blogLinks": [
                "https://www.audleytravel.com/ca/india/places-to-go/bijapur"
            ],
            "longitude": "75.1458521440593",
            "address": "South Western Railways Offices, Kamaripet, Hubballi - \u0cb9\u0cc1\u0cac\u0ccd\u0cac\u0cb3\u0ccd\u0cb3\u0cbf, Hubballi taluku, Dharwad district, Karnataka, 580020, India",
            "latitude": "15.35527435",
            "locType": "commercial",
            "closest_to": "kanakapura"
        },
        "coimbatore": {
            "blogLinks": [
                "https://www.tripoto.com/weekend-getaways/from-bangalore"
            ],
            "longitude": "76.6318246",
            "address": "Gundlupet - Coimbatore Highway, Bandipur, Gundlupet taluk, Chamarajanagar district, Karnataka, India",
            "latitude": "11.6793976",
            "locType": "trunk",
            "closest_to": "kanakapura"
        },
        "nagareshwara": {
            "blogLinks": [
                "https://en.wikipedia.org/wiki/Tourism_in_Karnataka"
            ],
            "longitude": "77.3934679",
            "address": "Nagareshwara Temple, SH126, Dantapur, Yadagiri taluku, Yadagiri district, Karnataka, India",
            "latitude": "16.8662525",
            "locType": "place_of_worship",
            "closest_to": "kanakapura"
        },
        "andhra pradesh": {
            "blogLinks": [
                "https://www.tripoto.com/weekend-getaways/from-bangalore",
                "http://www.holidayiq.com/Bijapur-Sightseeing-646.html"
            ],
            "longitude": "79.3452447",
            "address": "Karnataka, West Mada Street, Srivari Temple, Tirumala, Chittoor, Andhra Pradesh, 517504, India",
            "latitude": "13.6841958",
            "locType": "hotel",
            "closest_to": "kanakapura"
        },
        "mercara": {
            "blogLinks": [
                "https://en.wikipedia.org/wiki/Tourism_in_Karnataka"
            ],
            "longitude": "75.740031",
            "address": "Madikeri, Madikeri taluku, Kodagu, Karnataka, India",
            "latitude": "12.4204003",
            "locType": "town",
            "closest_to": "kanakapura"
        },
        "delhi": {
            "blogLinks": [
                "https://en.wikipedia.org/wiki/Bijapur",
                "https://www.tripoto.com/weekend-getaways/from-bangalore"
            ],
            "longitude": "77.6666062",
            "address": "Outer Ring Road, Green Glen Layout, Iblur, Bengaluru, Bangalore Urban, Karnataka, 560001, India",
            "latitude": "12.9212473",
            "locType": "trunk",
            "closest_to": "kanakapura"
        },
        "afzalpur": {
            "blogLinks": [
                "https://en.wikipedia.org/wiki/Tourism_in_Karnataka"
            ],
            "longitude": "76.3605783",
            "address": "Afzalpur, Afzalpura taluku, Kalaburagi district, Karnataka, 585301, India",
            "latitude": "17.2005764",
            "locType": "town",
            "closest_to": "bijapur"
        },
        "sannati": {
            "blogLinks": [
                "https://en.wikipedia.org/wiki/Tourism_in_Karnataka"
            ],
            "longitude": "76.9080631",
            "address": "Sannati, Chitapura taluku, Kalaburagi district, Karnataka, India",
            "latitude": "16.8293201",
            "locType": "village",
            "closest_to": "kanakapura"
        },
        "solapur": {
            "blogLinks": [
                "https://en.wikipedia.org/wiki/Bijapur"
            ],
            "longitude": "76.6763291",
            "address": "Gulbarga - Solapur Highway, Chikka Gobbura, Afzalpura taluku, Kalaburagi district, Karnataka, 585265, India",
            "latitude": "17.269752",
            "locType": "trunk",
            "closest_to": "bijapur"
        },
        "dharma river": {
            "blogLinks": [
                "https://en.wikipedia.org/wiki/Tourism_in_Karnataka"
            ],
            "longitude": "77.5575864485219",
            "address": "Dharma Naidu Udhyanavana, 44th cross, Rajajinagar 4th Block, Rajaji Nagar, Bengaluru, Bangalore Urban, Karnataka, 560001, India",
            "latitude": "12.98914885",
            "locType": "park",
            "closest_to": "kanakapura"
        },
        "lal bagh": {
            "blogLinks": [
                "https://www.tripoto.com/weekend-getaways/from-bangalore"
            ],
            "longitude": "74.8386152",
            "address": "Lal Bagh Bus Stop, Mahatma Gandhi Road, Lalbagh, Ladyhill, Mangaluru, Mangaluru taluk, Dakshina Kannada, Karnataka, 575001, India",
            "latitude": "12.8859223",
            "locType": "bus_stop",
            "closest_to": "kanakapura"
        },
        "doni": {
            "blogLinks": [
                "https://en.wikipedia.org/wiki/Bijapur"
            ],
            "longitude": "75.9361533",
            "address": "Doni, Basavana Bagevadi Taluku, Bijapur district, Karnataka, India",
            "latitude": "16.743598",
            "locType": "river",
            "closest_to": "kanakapura"
        },
        "kalaburgi": {
            "blogLinks": [
                "https://en.wikipedia.org/wiki/Bijapur"
            ],
            "longitude": "77.083333",
            "address": "Kalaburgi, Kalaburagi district, Karnataka, India",
            "latitude": "17.166667",
            "locType": "county",
            "closest_to": "bijapur"
        },
        "arabhavi": {
            "blogLinks": [
                "https://en.wikipedia.org/wiki/Tourism_in_Karnataka"
            ],
            "longitude": "74.8213227",
            "address": "Arabhavi, Gokak taluku, Belgaum district, Karnataka, India",
            "latitude": "16.2193552",
            "locType": "village",
            "closest_to": "kanakapura"
        },
        "tungabhadra river": {
            "blogLinks": [
                "https://www.tripoto.com/weekend-getaways/from-bangalore"
            ],
            "longitude": "76.4931607",
            "address": "Tungabhadra, Gangavati taluku, Koppal district, Karnataka, India",
            "latitude": "15.3446123",
            "locType": "river",
            "closest_to": "kanakapura"
        },
        "goa": {
            "blogLinks": [
                "https://en.wikipedia.org/wiki/Tourism_in_Karnataka",
                "https://www.tripoto.com/weekend-getaways/from-bangalore"
            ],
            "longitude": "77.6200027",
            "address": "Carnival De Goa, Bhaskaran Road, Gupta Layout, Halasuru, Bengaluru, Bangalore Urban, Karnataka, 560001, India",
            "latitude": "12.9750047",
            "locType": "restaurant",
            "closest_to": "kanakapura"
        },
        "bellandur lake": {
            "blogLinks": [
                "http://www.karnataka.com/"
            ],
            "longitude": "77.6666171141339",
            "address": "Bellandur Lake, Swagger Road, Green Glen Layout, Iblur, Bengaluru, Bangalore Urban, Karnataka, 530103, India",
            "latitude": "12.9361208",
            "locType": "water",
            "closest_to": "kanakapura"
        },
        "bombay": {
            "blogLinks": [
                "https://en.wikipedia.org/wiki/Bijapur"
            ],
            "longitude": "77.5500256",
            "address": "Bombay tea hotel, Hosahalli Main Road, Rajajinagar 6th Block, Goripalya, Bengaluru, Bangalore Urban, Karnataka, 560001, India",
            "latitude": "12.9632318",
            "locType": "cafe",
            "closest_to": "kanakapura"
        },
        "anegundi": {
            "blogLinks": [
                "https://en.wikipedia.org/wiki/Tourism_in_Karnataka"
            ],
            "longitude": "76.4924232",
            "address": "Anegundi, Gangavati taluku, Koppal district, Karnataka, India",
            "latitude": "15.3509583",
            "locType": "village",
            "closest_to": "kanakapura"
        },
        "mallikarjuna": {
            "blogLinks": [
                "https://en.wikipedia.org/wiki/Tourism_in_Karnataka"
            ],
            "longitude": "77.0590502",
            "address": "Mallikarjuna Vadi, Basavakalyana taluku, Bidar district, Karnataka, India",
            "latitude": "17.8106693",
            "locType": "village",
            "closest_to": "bijapur"
        },
        "gotagodi village": {
            "blogLinks": [
                "https://en.wikipedia.org/wiki/Tourism_in_Karnataka"
            ],
            "longitude": "75.0452834",
            "address": "Gotagodi, Hanagal taluk, Haveri district, Karnataka, India",
            "latitude": "14.7634556",
            "locType": "village",
            "closest_to": "kanakapura"
        },
        "botanical gardens": {
            "blogLinks": [
                "https://www.tripoto.com/weekend-getaways/from-bangalore"
            ],
            "longitude": "77.5744817798899",
            "address": "Botanical Garden, Cart road, Judicial Layout, Jakkur, Bangalore Urban, Karnataka, 560065, India",
            "latitude": "13.08099125",
            "locType": "protected_area",
            "closest_to": "kanakapura"
        },
        "sagara taluk": {
            "blogLinks": [
                "https://en.wikipedia.org/wiki/Tourism_in_Karnataka"
            ],
            "longitude": "74.9610874491152",
            "address": "Sagara taluk, Shimoga district, Karnataka, India",
            "latitude": "14.09993045",
            "locType": "administrative",
            "closest_to": "kanakapura"
        },
        "hampi bazaar": {
            "blogLinks": [
                "https://www.tripoto.com/weekend-getaways/from-bangalore"
            ],
            "longitude": "76.4621571",
            "address": "Hampi Bazaar, Hampe, Hosapete taluk, Bellary district, Karnataka, 583239, India",
            "latitude": "15.3347585",
            "locType": "unclassified",
            "closest_to": "kanakapura"
        },
        "venkatappa art gallery": {
            "blogLinks": [
                "http://www.mapsofindia.com/karnataka/tourism/"
            ],
            "longitude": "77.5952077",
            "address": "Venkatappa Art Gallery, Kasturba Road, Shantala Nagar, MacIvor Town, Bengaluru, Bangalore Urban, Karnataka, 560001, India",
            "latitude": "12.9742592",
            "locType": "museum",
            "closest_to": "kanakapura"
        },
        "earth": {
            "blogLinks": [
                "https://www.tripoto.com/weekend-getaways/from-bangalore"
            ],
            "longitude": "77.659986649248",
            "address": "Bharat Earth Movers Limited - BEML, GM Palya, Bengaluru, Bangalore Urban, Karnataka, 560001, India",
            "latitude": "12.9740596",
            "locType": "industrial",
            "closest_to": "kanakapura"
        },
        "mandya": {
            "blogLinks": [
                "https://en.wikipedia.org/wiki/Tourism_in_Karnataka",
                "https://www.tripoto.com/weekend-getaways/from-bangalore"
            ],
            "longitude": "76.8937392",
            "address": "Mandya, Mandya taluk, Mandya district, Karnataka, 571401, India",
            "latitude": "12.5217836",
            "locType": "town",
            "closest_to": "kanakapura"
        },
        "srirangapatna": {
            "blogLinks": [
                "https://en.wikipedia.org/wiki/Tourism_in_Karnataka"
            ],
            "longitude": "76.6850743",
            "address": "Srirangapatna, Srirangapattana taluk, Mandya district, Karnataka, 571438, India",
            "latitude": "12.4225604",
            "locType": "town",
            "closest_to": "kanakapura"
        },
        "pattadakal": {
            "blogLinks": [
                "https://en.wikipedia.org/wiki/Tourism_in_Karnataka",
                "https://www.travelblog.org/Asia/India/Karnataka/Bangalore/Koramangala/blog-914055.html",
                "https://en.wikipedia.org/wiki/Bijapur",
                "http://www.mapsofindia.com/karnataka/tourism/"
            ],
            "longitude": "75.815884048161",
            "address": "Pattadakal Temples, SH14, \u0cac\u0cbe\u0c9a\u0cbf\u0ca8\u0c97\u0cc1\u0ca1\u0ccd\u0ca1, Badami taluku, Bagalkote district, Karnataka, 587211, India",
            "latitude": "15.9506349",
            "locType": "attraction",
            "closest_to": "kanakapura"
        },
        "maharashtra": {
            "blogLinks": [
                "https://en.wikipedia.org/wiki/Tourism_in_Karnataka",
                "https://www.travelblog.org/Asia/India/Karnataka/Bangalore/Koramangala/blog-914055.html",
                "https://en.wikipedia.org/wiki/Bijapur"
            ],
            "longitude": "77.5856013",
            "address": "Bank of Maharashtra, 24th Main, K R Layout, Puttenahalli, Bengaluru, Bangalore Urban, Karnataka, 560001, India",
            "latitude": "12.9049455",
            "locType": "bank",
            "closest_to": "kanakapura"
        },
        "subramanya": {
            "blogLinks": [
                "https://en.wikipedia.org/wiki/Tourism_in_Karnataka"
            ],
            "longitude": "77.6015800913134",
            "address": "Subramanya Arcade, Marenahalli, Bengaluru, Bangalore Urban, Karnataka, 560001, India",
            "latitude": "12.9251206",
            "locType": "commercial",
            "closest_to": "kanakapura"
        },
        "gulbarga": {
            "blogLinks": [
                "https://en.wikipedia.org/wiki/Tourism_in_Karnataka",
                "https://en.wikipedia.org/wiki/Bijapur",
                "http://www.holidayiq.com/Bijapur-Sightseeing-646.html"
            ],
            "longitude": "77.083333",
            "address": "Kalaburgi, Kalaburagi district, Karnataka, India",
            "latitude": "17.166667",
            "locType": "county",
            "closest_to": "bijapur"
        },
        "hoysaleswara temple": {
            "blogLinks": [
                "http://www.mapsofindia.com/karnataka/tourism/"
            ],
            "longitude": "75.9941649",
            "address": "Hoysaleswara Temple, SH21, Halebidu, Beluru taluk, Hassan district, Karnataka, 573121, India",
            "latitude": "13.2127193",
            "locType": "place_of_worship",
            "closest_to": "kanakapura"
        },
        "dharwad": {
            "blogLinks": [
                "https://en.wikipedia.org/wiki/Tourism_in_Karnataka",
                "https://en.wikipedia.org/wiki/Bijapur"
            ],
            "longitude": "75.0066516",
            "address": "Dharwad, Dharawada taluku, Dharwad district, Karnataka, 580001, India",
            "latitude": "15.4540505",
            "locType": "city",
            "closest_to": "kanakapura"
        },
        "chitradurga": {
            "blogLinks": [
                "https://en.wikipedia.org/wiki/Tourism_in_Karnataka"
            ],
            "longitude": "76.4005122",
            "address": "Chitradurga, Chitradurga taluku, Chitradurga district, Karnataka, 577500, India",
            "latitude": "14.2266443",
            "locType": "town",
            "closest_to": "kanakapura"
        },
        "bankapura": {
            "blogLinks": [
                "https://en.wikipedia.org/wiki/Tourism_in_Karnataka"
            ],
            "longitude": "75.2639298",
            "address": "Bankapura, Shiggaon taluk, Haveri district, Karnataka, 581202, India",
            "latitude": "14.9217443",
            "locType": "town",
            "closest_to": "kanakapura"
        },
        "vijayanagara": {
            "blogLinks": [
                "https://en.wikipedia.org/wiki/Tourism_in_Karnataka"
            ],
            "longitude": "74.7380455",
            "address": "Vijayanagara, Chikodi taluk, Belgaum district, Karnataka, India",
            "latitude": "16.3270486",
            "locType": "village",
            "closest_to": "bijapur"
        },
        "bellary": {
            "blogLinks": [
                "https://en.wikipedia.org/wiki/Tourism_in_Karnataka",
                "https://en.wikipedia.org/wiki/Bijapur"
            ],
            "longitude": "76.8323648",
            "address": "Bellary, Bellary district, Karnataka, India",
            "latitude": "15.2485413",
            "locType": "county",
            "closest_to": "kanakapura"
        },
        "chikmagalur district": {
            "blogLinks": [
                "https://en.wikipedia.org/wiki/Tourism_in_Karnataka"
            ],
            "longitude": "75.5",
            "address": "Chikmagalur, Chikkamagaluru district, Karnataka, India",
            "latitude": "13.5",
            "locType": "county",
            "closest_to": "kanakapura"
        },
        "kanakapura": {
            "blogLinks": [
                "http://www.buzzntravel.com/ramanagara",
                "https://www.tripoto.com/travel-guide/kanakapura",
                "https://www.tripoto.com/travel-guide/kanakapura/trips"
            ],
            "longitude": "77.4199095",
            "address": "Kanakapura, Kanakapura taluk, Ramanagara district, Karnataka, 562117, India",
            "latitude": "12.5450268",
            "locType": "town",
            "closest_to": "kanakapura"
        },
        "london": {
            "blogLinks": [
                "https://en.wikipedia.org/wiki/Bijapur"
            ],
            "longitude": "75.7223521",
            "address": "Karnataka, India",
            "latitude": "14.5203896",
            "locType": "administrative",
            "closest_to": "kanakapura"
        },
        "kodachadri": {
            "blogLinks": [
                "https://en.wikipedia.org/wiki/Tourism_in_Karnataka"
            ],
            "longitude": "74.8705395",
            "address": "Kodachadri, \u0c95\u0cc1\u0c82\u0ca6\u0cbe\u0caa\u0cc1\u0cb0 \u0ca4\u0cbe\u0cb2\u0cc2\u0c95\u0cc1, Udupi district, Karnataka, India",
            "latitude": "13.8565758",
            "locType": "peak",
            "closest_to": "kanakapura"
        },
        "varadaraja": {
            "blogLinks": [
                "https://en.wikipedia.org/wiki/Tourism_in_Karnataka"
            ],
            "longitude": "77.5542736",
            "address": "Varadaraja Petrol / Gas Station, Dr. Rajkumar Road, Rajajinagar 1st Block, Subrahmanya Nagar, Bengaluru, Bangalore Urban, Karnataka, 560001, India",
            "latitude": "13.005885",
            "locType": "fuel",
            "closest_to": "kanakapura"
        },
        "hebbe falls": {
            "blogLinks": [
                "https://en.wikipedia.org/wiki/Tourism_in_Karnataka"
            ],
            "longitude": "75.7253701",
            "address": "Hebbe falls, Kemmannagundi Road, Attigundi, Chikkamagaluru taluku, Chikkamagaluru district, Karnataka, India",
            "latitude": "13.5414025",
            "locType": "attraction",
            "closest_to": "kanakapura"
        },
        "belavadi": {
            "blogLinks": [
                "https://en.wikipedia.org/wiki/Tourism_in_Karnataka"
            ],
            "longitude": "75.3760773",
            "address": "Belavadi, Koppa taluk, Chikkamagaluru district, Karnataka, India",
            "latitude": "13.5284899",
            "locType": "village",
            "closest_to": "kanakapura"
        },
        "vishalakshi mantap": {
            "blogLinks": [
                "http://www.holidayiq.com/Art-of-Living-International-Center-Bangalore-Sightseeing-293-19615.html"
            ],
            "longitude": "77.5087514749852",
            "address": "Vishalakshi Mantap, Kanakapura Road, Banjarapalya, Udayapura, Bangalore Urban, Karnataka, 560076, India",
            "latitude": "12.82588495",
            "locType": "yes",
            "closest_to": "kanakapura"
        },
        "varada": {
            "blogLinks": [
                "https://en.wikipedia.org/wiki/Tourism_in_Karnataka"
            ],
            "longitude": "75.47206",
            "address": "Varada, Savanura taluk, Haveri district, Karnataka, India",
            "latitude": "14.8717792",
            "locType": "river",
            "closest_to": "kanakapura"
        },
        "shravanabelagola": {
            "blogLinks": [
                "https://en.wikipedia.org/wiki/Tourism_in_Karnataka"
            ],
            "longitude": "76.4869997",
            "address": "Shravanabelagola, Channarayapattana taluk, Hassan district, Karnataka, 573135, India",
            "latitude": "12.8581305",
            "locType": "town",
            "closest_to": "kanakapura"
        },
        "east": {
            "blogLinks": [
                "https://en.wikipedia.org/wiki/Tourism_in_Karnataka",
                "https://en.wikipedia.org/wiki/Bijapur"
            ],
            "longitude": "77.6601401",
            "address": "East, 43, Velankani Drive, Electronics City Phase 1, Doddathoguru, Bangalore Urban, Karnataka, 560100, India",
            "latitude": "12.8504319",
            "locType": "restaurant",
            "closest_to": "kanakapura"
        },
        "karnatak state": {
            "blogLinks": [
                "https://en.wikipedia.org/wiki/Bijapur"
            ],
            "longitude": "77.5866552",
            "address": "Karnatak State Tourism Development Corporation - KSTDC, Proposed Hudson Cricle - Minerva Circle Flyover, Ganigarpet, Kalasipalya, Bengaluru, Bangalore Urban, Karnataka, 560001, India",
            "latitude": "12.9661723",
            "locType": "government",
            "closest_to": "kanakapura"
        },
        "kalasa": {
            "blogLinks": [
                "https://en.wikipedia.org/wiki/Tourism_in_Karnataka"
            ],
            "longitude": "75.3582366",
            "address": "Kalasa, Mudigere taluk, Chikkamagaluru district, Karnataka, 577124, India",
            "latitude": "13.2322235",
            "locType": "town",
            "closest_to": "kanakapura"
        },
        "kambadahalli": {
            "blogLinks": [
                "https://en.wikipedia.org/wiki/Tourism_in_Karnataka"
            ],
            "longitude": "77.1671918",
            "address": "Kambadahalli, Madhugiri taluk, Tumkur district, Karnataka, India",
            "latitude": "13.6843692",
            "locType": "village",
            "closest_to": "kanakapura"
        },
        "kaladagi": {
            "blogLinks": [
                "https://en.wikipedia.org/wiki/Bijapur"
            ],
            "longitude": "75.4996999",
            "address": "Kaladagi, Bagalakote taluk, Bagalkote district, Karnataka, 587204, India",
            "latitude": "16.2071441",
            "locType": "village",
            "closest_to": "kanakapura"
        },
        "bijapur": {
            "blogLinks": [
                "https://www.travelblog.org/Asia/India/Karnataka/Bangalore/Koramangala/blog-914055.html",
                "https://en.wikipedia.org/wiki/Bijapur",
                "https://www.tripoto.com/weekend-getaways/from-bangalore",
                "http://journeymart.com/de/india/karnataka/bijapur/nearby-places/default.aspx",
                "http://www.holidayiq.com/Bijapur-Sightseeing-646.html",
                "http://www.karnatakatourism.org/",
                "https://www.audleytravel.com/ca/india/places-to-go/bijapur",
                "https://www.audleytravel.com/india/places-to-go/bijapur",
                "http://www.buzzntravel.com/ramanagara",
                "https://www.tripoto.com/travel-guide/kanakapura",
                "https://en.wikipedia.org/wiki/Tourism_in_Karnataka"
            ],
            "longitude": "75.7175387",
            "address": "Vijayapura, Vijayapura taluk, Bijapur district, Karnataka, 586101, India",
            "latitude": "16.8269911",
            "locType": "city",
            "closest_to": "kanakapura"
        },
        "southern india": {
            "blogLinks": [
                "http://www.karnataka.com/"
            ],
            "longitude": "77.6227757667762",
            "address": "Survey Of India - Southern Zone, Madivala, Bengaluru, Bangalore Urban, Karnataka, 560001, India",
            "latitude": "12.92588785",
            "locType": "commercial",
            "closest_to": "kanakapura"
        },
        "chamarajanagar": {
            "blogLinks": [
                "https://en.wikipedia.org/wiki/Tourism_in_Karnataka"
            ],
            "longitude": "76.9331345",
            "address": "Chamarajanagar, Nanjangudu-Chamarajanagar Road, Kadahalli, Chamarajanagara taluk, Chamarajanagar district, Karnataka, 571313, India",
            "latitude": "11.9346624",
            "locType": "station",
            "closest_to": "kanakapura"
        },
        "south": {
            "blogLinks": [
                "https://en.wikipedia.org/wiki/Tourism_in_Karnataka"
            ],
            "longitude": "77.8040874",
            "address": "s, Vijayapura, Devanahalli taluk, Bangalore Rural, Karnataka, 562135, India",
            "latitude": "13.2942848",
            "locType": "residential",
            "closest_to": "kanakapura"
        },
        "nippani": {
            "blogLinks": [
                "https://en.wikipedia.org/wiki/Tourism_in_Karnataka"
            ],
            "longitude": "74.3842372",
            "address": "Nippani, Chikodi taluk, Belgaum district, Karnataka, 591237, India",
            "latitude": "16.4020402",
            "locType": "town",
            "closest_to": "bijapur"
        },
        "badami of karnataka": {
            "blogLinks": [
                "http://www.mapsofindia.com/karnataka/tourism/"
            ],
            "longitude": "75.6419100722642",
            "address": "Badami taluku, Bagalkote district, Karnataka, India",
            "latitude": "15.98301895",
            "locType": "administrative",
            "closest_to": "kanakapura"
        },
        "bheemeshwari": {
            "blogLinks": [
                "https://en.wikipedia.org/wiki/Tourism_in_Karnataka"
            ],
            "longitude": "77.2778171",
            "address": "Bheemeshwari, Muttatti, Malavalli taluk, Mandya district, Karnataka, India",
            "latitude": "12.3124122",
            "locType": "locality",
            "closest_to": "kanakapura"
        },
        "bijapur district of karnataka": {
            "blogLinks": [
                "https://en.wikipedia.org/wiki/Bijapur"
            ],
            "longitude": "75.897147327785",
            "address": "Bijapur district, Karnataka, India",
            "latitude": "16.81105965",
            "locType": "administrative",
            "closest_to": "kanakapura"
        },
        "narayana": {
            "blogLinks": [
                "https://en.wikipedia.org/wiki/Tourism_in_Karnataka"
            ],
            "longitude": "76.201037",
            "address": "Narayana Gondanahalli, Holalkere taluk, Chitradurga district, Karnataka, India",
            "latitude": "13.9181889",
            "locType": "village",
            "closest_to": "kanakapura"
        },
        "madras": {
            "blogLinks": [
                "https://www.tripoto.com/weekend-getaways/from-bangalore"
            ],
            "longitude": "77.6449595",
            "address": "Swami Vivekananda Road, Swamy Vivekananda Road (Old Madras Road), Sudgunte Palya, Baiyyappanahalli, Benniganahalli, Bangalore Urban, Karnataka, 560016, India",
            "latitude": "12.9859442",
            "locType": "station",
            "closest_to": "kanakapura"
        },
        "tumkur": {
            "blogLinks": [
                "https://en.wikipedia.org/wiki/Tourism_in_Karnataka"
            ],
            "longitude": "77.0002445",
            "address": "Tumakuru, Tumkur district, Karnataka, India",
            "latitude": "13.4999406",
            "locType": "county",
            "closest_to": "kanakapura"
        },
        "shirali": {
            "blogLinks": [
                "https://en.wikipedia.org/wiki/Tourism_in_Karnataka"
            ],
            "longitude": "74.5286591",
            "address": "Shirali, Bhatkala taluk, Uttara Kannada, Karnataka, 581354, India",
            "latitude": "14.0280925",
            "locType": "village",
            "closest_to": "kanakapura"
        },
        "nethrani island": {
            "blogLinks": [
                "https://en.wikipedia.org/wiki/Tourism_in_Karnataka"
            ],
            "longitude": "74.3272086675849",
            "address": "Netrani, Uttara Kannada, Karnataka, India",
            "latitude": "14.0174924",
            "locType": "island",
            "closest_to": "kanakapura"
        },
        "gadag district": {
            "blogLinks": [
                "https://en.wikipedia.org/wiki/Tourism_in_Karnataka"
            ],
            "longitude": "75.6807542794645",
            "address": "Gadag district, Karnataka, India",
            "latitude": "15.416337",
            "locType": "administrative",
            "closest_to": "kanakapura"
        },
        "kanakpura road": {
            "blogLinks": [
                "https://www.tripoto.com/weekend-getaways/from-bangalore"
            ],
            "longitude": "77.5438085908703",
            "address": "H 902, Mantri Tranquil, Gubbalala, Off Kanakpura Road, Bengaluru - 61, Subramanyapura Main Road, Singapore Gardens, Uttarahalli, Gubbalala, Bangalore Urban, Karnataka, 560086, India",
            "latitude": "12.8866679",
            "locType": "yes",
            "closest_to": "kanakapura"
        },
        "udupi hotel": {
            "blogLinks": [
                "https://www.travelblog.org/Asia/India/Karnataka/Bangalore/Koramangala/blog-914055.html"
            ],
            "longitude": "74.8346487",
            "address": "Udupi Hotel, Nataraj Raod, Sirsi, Shirasi taluk, Uttara Kannada, Karnataka, 581400, India",
            "latitude": "14.6157772",
            "locType": "hotel",
            "closest_to": "kanakapura"
        },
        "tungabhadra": {
            "blogLinks": [
                "https://en.wikipedia.org/wiki/Tourism_in_Karnataka",
                "https://www.tripoto.com/weekend-getaways/from-bangalore"
            ],
            "longitude": "76.4931607",
            "address": "Tungabhadra, Gangavati taluku, Koppal district, Karnataka, India",
            "latitude": "15.3446123",
            "locType": "river",
            "closest_to": "kanakapura"
        },
        "aihole": {
            "blogLinks": [
                "https://en.wikipedia.org/wiki/Tourism_in_Karnataka",
                "https://www.travelblog.org/Asia/India/Karnataka/Bangalore/Koramangala/blog-914055.html",
                "https://en.wikipedia.org/wiki/Bijapur"
            ],
            "longitude": "75.8819129",
            "address": "Aihole, Hunagunda taluku, Bagalkote district, Karnataka, India",
            "latitude": "16.0192298",
            "locType": "village",
            "closest_to": "kanakapura"
        },
        "kanaganahalli": {
            "blogLinks": [
                "https://en.wikipedia.org/wiki/Tourism_in_Karnataka"
            ],
            "longitude": "76.5876958",
            "address": "Kanaganahalli, Pandavapura taluk, Mandya district, Karnataka, India",
            "latitude": "12.5588444",
            "locType": "village",
            "closest_to": "kanakapura"
        },
        "cubbon park": {
            "blogLinks": [
                "http://www.mapsofindia.com/karnataka/tourism/"
            ],
            "longitude": "77.5977565",
            "address": "Cubbon Park, Cubbon Road, Tasker Town, Shivajinagar, Bengaluru, Bangalore Urban, Karnataka, 560001, India",
            "latitude": "12.9808487",
            "locType": "station",
            "closest_to": "kanakapura"
        },
        "coorg": {
            "blogLinks": [
                "https://www.tripoto.com/weekend-getaways/from-bangalore"
            ],
            "longitude": "75.740031",
            "address": "Madikeri, Madikeri taluku, Kodagu, Karnataka, India",
            "latitude": "12.4204003",
            "locType": "town",
            "closest_to": "kanakapura"
        },
        "belgaum": {
            "blogLinks": [
                "https://en.wikipedia.org/wiki/Tourism_in_Karnataka"
            ],
            "longitude": "74.75",
            "address": "Belgaum, Belgaum district, Karnataka, India",
            "latitude": "16.333333",
            "locType": "county",
            "closest_to": "bijapur"
        },
        "kodagu": {
            "blogLinks": [
                "https://en.wikipedia.org/wiki/Tourism_in_Karnataka",
                "https://www.tripoto.com/weekend-getaways/from-bangalore",
                "http://www.mapsofindia.com/karnataka/tourism/"
            ],
            "longitude": "75.6677235950852",
            "address": "Kodagu, Karnataka, India",
            "latitude": "12.38117345",
            "locType": "administrative",
            "closest_to": "kanakapura"
        },
        "chola": {
            "blogLinks": [
                "https://en.wikipedia.org/wiki/Tourism_in_Karnataka"
            ],
            "longitude": "76.098782",
            "address": "Chola Gold Loan, Bengaluru - Mangaluru Road, Ravindra Nagar, Santhe Pete, Hassan, Hasana taluk, Hassan district, Karnataka, 573201, India",
            "latitude": "13.0023906",
            "locType": "yes",
            "closest_to": "kanakapura"
        },
        "karnataka": {
            "blogLinks": [
                "https://www.travelblog.org/Asia/India/Karnataka/Bangalore/Koramangala/blog-914055.html",
                "https://en.wikipedia.org/wiki/Bijapur",
                "https://www.tripoto.com/weekend-getaways/from-bangalore",
                "http://www.indiamike.com/india/karnataka-f38/lesser-known-sightseeing-places-in-karnataka-t94972/",
                "http://www.holidayiq.com/Bijapur-Sightseeing-646.html",
                "http://distancecalculator.globefeed.com/India_Distance_Calculator.asp?state=19",
                "http://journeymart.com/de/india/karnataka/bijapur/nearby-places/default.aspx",
                "http://www.karnatakatourism.org/",
                "http://www.buzzntravel.com/ramanagara",
                "http://www.holidayiq.com/Art-of-Living-International-Center-Bangalore-Sightseeing-293-19615.html",
                "https://www.tripoto.com/travel-guide/kanakapura/trips",
                "http://www.karnataka.com/",
                "https://www.tripoto.com/travel-guide/kanakapura",
                "https://en.wikipedia.org/wiki/Tourism_in_Karnataka",
                "http://www.mapsofindia.com/karnataka/tourism/"
            ],
            "longitude": "76.6639936",
            "address": "Karnataka, Shalivahana Road, Nazarbad, Mysuru, Mysuru taluk, Mysuru district, Karnataka, 570001, India",
            "latitude": "12.3084901",
            "locType": "atm",
            "closest_to": "kanakapura"
        },
        "bijapur district": {
            "blogLinks": [
                "https://en.wikipedia.org/wiki/Bijapur",
                "http://www.holidayiq.com/Bijapur-Sightseeing-646.html"
            ],
            "longitude": "75.897147327785",
            "address": "Bijapur district, Karnataka, India",
            "latitude": "16.81105965",
            "locType": "administrative",
            "closest_to": "kanakapura"
        },
        "north karnataka": {
            "blogLinks": [
                "https://en.wikipedia.org/wiki/Tourism_in_Karnataka",
                "https://www.travelblog.org/Asia/India/Karnataka/Bangalore/Koramangala/blog-914055.html"
            ],
            "longitude": "77.7660547",
            "address": "N, Chaithanya Samarpan, Kadugodi, Kannamangala, Bangalore Urban, Karnataka, 560066, India",
            "latitude": "13.0217151",
            "locType": "service",
            "closest_to": "kanakapura"
        },
        "bagalkot": {
            "blogLinks": [
                "https://en.wikipedia.org/wiki/Bijapur",
                "http://www.holidayiq.com/Bijapur-Sightseeing-646.html"
            ],
            "longitude": "75.6967919",
            "address": "Bagalakote, Bagalakote taluk, Bagalkote district, Karnataka, India",
            "latitude": "16.1853166",
            "locType": "city",
            "closest_to": "kanakapura"
        },
        "mangalore": {
            "blogLinks": [
                "https://en.wikipedia.org/wiki/Tourism_in_Karnataka",
                "https://en.wikipedia.org/wiki/Bijapur",
                "http://www.mapsofindia.com/karnataka/tourism/"
            ],
            "longitude": "74.8430082",
            "address": "Mangaluru, Mangaluru taluk, Dakshina Kannada, Karnataka, 575001, India",
            "latitude": "12.8698101",
            "locType": "city",
            "closest_to": "kanakapura"
        },
        "sangameshwara": {
            "blogLinks": [
                "https://en.wikipedia.org/wiki/Tourism_in_Karnataka"
            ],
            "longitude": "74.87651",
            "address": "Sangameshwara, Kalaghatagi taluku, Dharwad district, Karnataka, India",
            "latitude": "15.184341",
            "locType": "village",
            "closest_to": "kanakapura"
        },
        "sagara": {
            "blogLinks": [
                "https://en.wikipedia.org/wiki/Tourism_in_Karnataka"
            ],
            "longitude": "75.0262551",
            "address": "Sagara, Sagara taluk, Shimoga district, Karnataka, 577400, India",
            "latitude": "14.1666594",
            "locType": "town",
            "closest_to": "kanakapura"
        },
        "chennakesava temple": {
            "blogLinks": [
                "http://www.mapsofindia.com/karnataka/tourism/"
            ],
            "longitude": "75.8603311",
            "address": "Chennakesava Temple, NH73, Navilahalli, Beluru taluk, Hassan district, Karnataka, India",
            "latitude": "13.1629239",
            "locType": "place_of_worship",
            "closest_to": "kanakapura"
        },
        "kanakapura road": {
            "blogLinks": [
                "https://en.wikipedia.org/wiki/Tourism_in_Karnataka",
                "http://www.holidayiq.com/Art-of-Living-International-Center-Bangalore-Sightseeing-293-19615.html",
                "https://www.tripoto.com/travel-guide/kanakapura",
                "https://www.tripoto.com/travel-guide/kanakapura/trips"
            ],
            "longitude": "77.5733483",
            "address": "Kanakapura Road, Rajotsava Nagar, Kaderenahalli, Bengaluru, Bangalore Urban, Karnataka, 560001, India",
            "latitude": "12.9064528",
            "locType": "trunk",
            "closest_to": "kanakapura"
        },
        "almatti": {
            "blogLinks": [
                "https://en.wikipedia.org/wiki/Bijapur"
            ],
            "longitude": "75.9517801",
            "address": "Almatti Left Bank Canal, Basavana Bagevadi Taluku, Bijapur district, Karnataka, India",
            "latitude": "16.3648934",
            "locType": "canal",
            "closest_to": "kanakapura"
        },
        "hubli": {
            "blogLinks": [
                "https://en.wikipedia.org/wiki/Tourism_in_Karnataka",
                "https://en.wikipedia.org/wiki/Bijapur",
                "https://www.tripoto.com/weekend-getaways/from-bangalore"
            ],
            "longitude": "75.1379848",
            "address": "Hubballi - \u0cb9\u0cc1\u0cac\u0ccd\u0cac\u0cb3\u0ccd\u0cb3\u0cbf, Hubballi taluku, Dharwad district, Karnataka, 580020, India",
            "latitude": "15.3518378",
            "locType": "city",
            "closest_to": "kanakapura"
        },
        "hassan": {
            "blogLinks": [
                "https://en.wikipedia.org/wiki/Tourism_in_Karnataka"
            ],
            "longitude": "76.0992703",
            "address": "Hassan, Hasana taluk, Hassan district, Karnataka, 573201, India",
            "latitude": "13.0070817",
            "locType": "town",
            "closest_to": "kanakapura"
        },
        "hosur": {
            "blogLinks": [
                "https://www.tripoto.com/weekend-getaways/from-bangalore"
            ],
            "longitude": "75.1035836",
            "address": "Hosur, Hanagal taluk, Haveri district, Karnataka, India",
            "latitude": "14.6526995",
            "locType": "village",
            "closest_to": "kanakapura"
        },
        "hyderabad": {
            "blogLinks": [
                "https://en.wikipedia.org/wiki/Bijapur",
                "https://www.tripoto.com/weekend-getaways/from-bangalore"
            ],
            "longitude": "77.5344002",
            "address": "Hyderabad Road, Old City, Bidar, Bidar taluku, Bidar district, Karnataka, 585400, India",
            "latitude": "17.9003114",
            "locType": "primary",
            "closest_to": "bijapur"
        },
        "gopalakrishna": {
            "blogLinks": [
                "http://www.holidayiq.com/Bijapur-Sightseeing-646.html"
            ],
            "longitude": "77.6091761",
            "address": "Gopalakrishna Complex, Residency Cross Road, Tasker Town, Ashok Nagar, Bengaluru, Bangalore Urban, Karnataka, 560001, India",
            "latitude": "12.97359615",
            "locType": "yes",
            "closest_to": "kanakapura"
        },
        "varur": {
            "blogLinks": [
                "https://en.wikipedia.org/wiki/Tourism_in_Karnataka"
            ],
            "longitude": "75.1387568",
            "address": "Varur, Hubballi taluku, Dharwad district, Karnataka, India",
            "latitude": "15.2077105",
            "locType": "village",
            "closest_to": "kanakapura"
        },
        "karnatka": {
            "blogLinks": [
                "https://en.wikipedia.org/wiki/Bijapur"
            ],
            "longitude": "77.5679508",
            "address": "Karnatka Rajya Kaigarika Sahakari Bank, Bull Temple Road, Mavalli, Chamarajapete, Bengaluru, Bangalore Urban, Karnataka, 560001, India",
            "latitude": "12.9500847",
            "locType": "bank",
            "closest_to": "kanakapura"
        },
        "ramagiri": {
            "blogLinks": [
                "http://www.buzzntravel.com/ramanagara"
            ],
            "longitude": "76.122208",
            "address": "Ramagiri, Holalkere taluk, Chitradurga district, Karnataka, India",
            "latitude": "13.9535932",
            "locType": "village",
            "closest_to": "kanakapura"
        },
        "shimoga district": {
            "blogLinks": [
                "https://en.wikipedia.org/wiki/Tourism_in_Karnataka"
            ],
            "longitude": "75.1312533993886",
            "address": "Shimoga district, Karnataka, India",
            "latitude": "14.0558284",
            "locType": "administrative",
            "closest_to": "kanakapura"
        },
        "hemakuta hill": {
            "blogLinks": [
                "https://www.tripoto.com/weekend-getaways/from-bangalore"
            ],
            "longitude": "76.4602971",
            "address": "Hemakuta Hill, Hosapete taluk, Bellary district, Karnataka, India",
            "latitude": "15.332915",
            "locType": "peak",
            "closest_to": "kanakapura"
        },
        "bahubali": {
            "blogLinks": [
                "https://en.wikipedia.org/wiki/Tourism_in_Karnataka"
            ],
            "longitude": "76.4846128",
            "address": "Bahubali Statue, SH8, Shravanabelagola, Channarayapattana taluk, Hassan district, Karnataka, 573135, India",
            "latitude": "12.8540505",
            "locType": "place_of_worship",
            "closest_to": "kanakapura"
        },
        "tikota": {
            "blogLinks": [
                "https://en.wikipedia.org/wiki/Bijapur"
            ],
            "longitude": "75.5226828",
            "address": "Tikota, Vijayapura taluk, Bijapur district, Karnataka, 586180, India",
            "latitude": "16.8431559",
            "locType": "town",
            "closest_to": "bijapur"
        },
        "baker street": {
            "blogLinks": [
                "https://www.tripoto.com/weekend-getaways/from-bangalore"
            ],
            "longitude": "77.5859336",
            "address": "Donut Baker, 24th Main, K R Layout, Puttenahalli, Bengaluru, Bangalore Urban, Karnataka, 560001, India",
            "latitude": "12.899527",
            "locType": "bakery",
            "closest_to": "kanakapura"
        },
        "koppal district": {
            "blogLinks": [
                "https://en.wikipedia.org/wiki/Tourism_in_Karnataka"
            ],
            "longitude": "76.310639117029",
            "address": "Koppal district, Karnataka, India",
            "latitude": "15.57825725",
            "locType": "administrative",
            "closest_to": "kanakapura"
        },
        "kannur": {
            "blogLinks": [
                "https://www.tripoto.com/weekend-getaways/from-bangalore"
            ],
            "longitude": "74.8858161",
            "address": "Netravati bridge - Kannur Bypass Road (Proposed), Padil, Bajal, Mangaluru taluk, Dakshina Kannada, Karnataka, 575007, India",
            "latitude": "12.8487602",
            "locType": "construction",
            "closest_to": "kanakapura"
        },
        "mecca gate": {
            "blogLinks": [
                "http://www.holidayiq.com/Bijapur-Sightseeing-646.html"
            ],
            "longitude": "77.5509669",
            "address": "masjid e mecca, 7th cross padarayana pura, Hosahalli Main Road, Rajajinagar 6th Block, Goripalya, Bengaluru, Bangalore Urban, Karnataka, 560001, India",
            "latitude": "12.9618838",
            "locType": "place_of_worship",
            "closest_to": "kanakapura"
        },
        "gol gumbaz": {
            "blogLinks": [
                "https://en.wikipedia.org/wiki/Bijapur"
            ],
            "longitude": "75.7360929",
            "address": "Gol Gumbaz, Station Road, Ibrahimpura, Vijayapura, Vijayapura taluk, Bijapur district, Karnataka, 586101, India",
            "latitude": "16.8300223",
            "locType": "attraction",
            "closest_to": "kanakapura"
        },
        "nilgiri range": {
            "blogLinks": [
                "https://www.tripoto.com/weekend-getaways/from-bangalore"
            ],
            "longitude": "76.658639",
            "address": "Bangalore Nilgiri Road, Ittigegudu, Mysuru, Mysuru taluk, Mysuru district, Karnataka, 570001, India",
            "latitude": "12.304105",
            "locType": "primary",
            "closest_to": "kanakapura"
        },
        "krishna river": {
            "blogLinks": [
                "http://www.holidayiq.com/Bijapur-Sightseeing-646.html"
            ],
            "longitude": "77.0529845",
            "address": "Krishna, Shahapura taluku, Yadagiri district, Karnataka, India",
            "latitude": "16.5209569",
            "locType": "river",
            "closest_to": "kanakapura"
        },
        "halebidu": {
            "blogLinks": [
                "https://en.wikipedia.org/wiki/Tourism_in_Karnataka"
            ],
            "longitude": "76.4607075",
            "address": "Halebidu, Hunasuru taluk, Mysuru district, Karnataka, India",
            "latitude": "12.359893",
            "locType": "village",
            "closest_to": "kanakapura"
        },
        "arasikere": {
            "blogLinks": [
                "https://en.wikipedia.org/wiki/Tourism_in_Karnataka"
            ],
            "longitude": "76.2568436",
            "address": "Arasikere, Arasikere taluku, Hassan district, Karnataka, 573103, India",
            "latitude": "13.3159809",
            "locType": "town",
            "closest_to": "kanakapura"
        },
        "bagalkote": {
            "blogLinks": [
                "https://en.wikipedia.org/wiki/Tourism_in_Karnataka"
            ],
            "longitude": "75.5825586777167",
            "address": "Bagalkote district, Karnataka, India",
            "latitude": "16.28998085",
            "locType": "administrative",
            "closest_to": "kanakapura"
        },
        "bannerghatta": {
            "blogLinks": [
                "https://en.wikipedia.org/wiki/Tourism_in_Karnataka"
            ],
            "longitude": "77.5789509",
            "address": "Bannerghatta, Bangalore Urban, Karnataka, India",
            "latitude": "12.813337",
            "locType": "village",
            "closest_to": "kanakapura"
        },
        "kudalasangama": {
            "blogLinks": [
                "https://en.wikipedia.org/wiki/Tourism_in_Karnataka",
                "http://www.holidayiq.com/Bijapur-Sightseeing-646.html"
            ],
            "longitude": "76.0604244",
            "address": "Kudala Sangama, Hunagunda taluku, Bagalkote district, Karnataka, India",
            "latitude": "16.2033992",
            "locType": "village",
            "closest_to": "kanakapura"
        },
        "karwar": {
            "blogLinks": [
                "https://en.wikipedia.org/wiki/Tourism_in_Karnataka"
            ],
            "longitude": "74.1319229",
            "address": "Karwar, Karavara taluk, Uttara Kannada, Karnataka, 581300, India",
            "latitude": "14.8120931",
            "locType": "town",
            "closest_to": "kanakapura"
        },
        "pondicherry": {
            "blogLinks": [
                "https://www.tripoto.com/weekend-getaways/from-bangalore"
            ],
            "longitude": "79.831569",
            "address": "Karnataka Bank, Mission Street, Grand Bazaar, Puducherry, Puducherry district, Puducherry, 605001, India",
            "latitude": "11.9365727",
            "locType": "bank",
            "closest_to": "kanakapura"
        },
        "dubare elephant camp": {
            "blogLinks": [
                "https://www.tripoto.com/weekend-getaways/from-bangalore"
            ],
            "longitude": "75.9066719",
            "address": "Dubare Elephant Camp, SH91, Dodda Bettageri, Somawarpet taluk, Kodagu, Karnataka, India",
            "latitude": "12.3716865",
            "locType": "attraction",
            "closest_to": "kanakapura"
        },
        "kabini": {
            "blogLinks": [
                "https://en.wikipedia.org/wiki/Tourism_in_Karnataka"
            ],
            "longitude": "76.4152088",
            "address": "Kabini, Heggadadevanakote taluk, Mysuru district, Karnataka, India",
            "latitude": "12.0140065",
            "locType": "river",
            "closest_to": "kanakapura"
        },
        "bagalkot district": {
            "blogLinks": [
                "https://en.wikipedia.org/wiki/Tourism_in_Karnataka"
            ],
            "longitude": "75.6967919",
            "address": "Bagalakote, Bagalakote taluk, Bagalkote district, Karnataka, India",
            "latitude": "16.1853166",
            "locType": "city",
            "closest_to": "kanakapura"
        },
        "kemmangundi": {
            "blogLinks": [
                "https://en.wikipedia.org/wiki/Tourism_in_Karnataka"
            ],
            "longitude": "75.7520082",
            "address": "Kemmannagundi, Tarikere taluku, Chikkamagaluru district, Karnataka, India",
            "latitude": "13.5463048",
            "locType": "village",
            "closest_to": "kanakapura"
        },
        "west coast": {
            "blogLinks": [
                "https://en.wikipedia.org/wiki/Bijapur"
            ],
            "longitude": "75.1129163",
            "address": "The Coast, R N Shetty Road, Chetana Colony, Padmaraj Nagar, Hubballi - \u0cb9\u0cc1\u0cac\u0ccd\u0cac\u0cb3\u0ccd\u0cb3\u0cbf, Hubballi taluku, Dharwad district, Karnataka, 580020, India",
            "latitude": "15.3485904",
            "locType": "restaurant",
            "closest_to": "kanakapura"
        },
        "shahapur": {
            "blogLinks": [
                "https://en.wikipedia.org/wiki/Bijapur"
            ],
            "longitude": "77.19816",
            "address": "Government Higher Primary School Katagi Shahapur, SH15, Hattikuni, Yadagiri taluku, Yadagiri district, Karnataka, India",
            "latitude": "16.85278",
            "locType": "school",
            "closest_to": "kanakapura"
        },
        "bankpur fort": {
            "blogLinks": [
                "https://en.wikipedia.org/wiki/Tourism_in_Karnataka"
            ],
            "longitude": "75.2512090188504",
            "address": "Bankapura Fort, SH137, Guddada Channapura, Shiggaon taluk, Haveri district, Karnataka, 581202, India",
            "latitude": "14.9231815",
            "locType": "archaeological_site",
            "closest_to": "kanakapura"
        },
        "shivamogga": {
            "blogLinks": [
                "http://www.karnataka.com/"
            ],
            "longitude": "75.569737",
            "address": "Shivamogga, Shivamogga taluku, Shimoga district, Karnataka, 577200, India",
            "latitude": "13.9311723",
            "locType": "city",
            "closest_to": "kanakapura"
        },
        "agumbe": {
            "blogLinks": [
                "https://www.tripoto.com/weekend-getaways/from-bangalore"
            ],
            "longitude": "75.0965525",
            "address": "Agumbe, Tirthahalli taluk, Shimoga district, Karnataka, 577411, India",
            "latitude": "13.5094998",
            "locType": "village",
            "closest_to": "kanakapura"
        },
        "banashankari temple": {
            "blogLinks": [
                "https://en.wikipedia.org/wiki/Tourism_in_Karnataka"
            ],
            "longitude": "77.5731752886765",
            "address": "Banashankari Temple, Kanakapura Road, JP Nagar 1st Phase, Kaderenahalli, Bengaluru, Bangalore Urban, Karnataka, 560001, India",
            "latitude": "12.91568785",
            "locType": "place_of_worship",
            "closest_to": "kanakapura"
        },
        "belagavi": {
            "blogLinks": [
                "https://en.wikipedia.org/wiki/Bijapur"
            ],
            "longitude": "74.75",
            "address": "Belgaum, Belgaum district, Karnataka, India",
            "latitude": "16.333333",
            "locType": "county",
            "closest_to": "bijapur"
        },
        "peenya": {
            "blogLinks": [
                "https://www.travelblog.org/Asia/India/Karnataka/Bangalore/Koramangala/blog-914055.html"
            ],
            "longitude": "77.5273253",
            "address": "Peenya, Bengaluru, Bangalore Urban, Karnataka, 560001, India",
            "latitude": "13.0329419",
            "locType": "suburb",
            "closest_to": "kanakapura"
        },
        "netrani island of uttara kannada": {
            "blogLinks": [
                "https://en.wikipedia.org/wiki/Tourism_in_Karnataka"
            ],
            "longitude": "74.3272086675849",
            "address": "Netrani, Uttara Kannada, Karnataka, India",
            "latitude": "14.0174924",
            "locType": "island",
            "closest_to": "kanakapura"
        },
        "kaveri": {
            "blogLinks": [
                "https://en.wikipedia.org/wiki/Tourism_in_Karnataka"
            ],
            "longitude": "77.0635531",
            "address": "Kaveri, Kollegala taluk, Chamarajanagar district, Karnataka, India",
            "latitude": "12.1687878",
            "locType": "river",
            "closest_to": "kanakapura"
        },
        "sagar": {
            "blogLinks": [
                "https://en.wikipedia.org/wiki/Bijapur"
            ],
            "longitude": "75.0262551",
            "address": "Sagara, Sagara taluk, Shimoga district, Karnataka, 577400, India",
            "latitude": "14.1666594",
            "locType": "town",
            "closest_to": "kanakapura"
        },
        "bidar district": {
            "blogLinks": [
                "https://en.wikipedia.org/wiki/Tourism_in_Karnataka"
            ],
            "longitude": "77.2496344350342",
            "address": "Bidar district, Karnataka, India",
            "latitude": "18.0158574",
            "locType": "administrative",
            "closest_to": "bijapur"
        },
        "ooty lake": {
            "blogLinks": [
                "https://www.tripoto.com/weekend-getaways/from-bangalore"
            ],
            "longitude": "76.6586807",
            "address": "Ooty Road, Vidyaranyapuram, Mysuru, Mysuru taluk, Mysuru district, Karnataka, 570001, India",
            "latitude": "12.2774807",
            "locType": "primary",
            "closest_to": "kanakapura"
        },
        "madabhavi": {
            "blogLinks": [
                "https://en.wikipedia.org/wiki/Bijapur"
            ],
            "longitude": "74.9566919",
            "address": "Madabhavi, Athani taluku, Belgaum district, Karnataka, India",
            "latitude": "16.803471",
            "locType": "village",
            "closest_to": "bijapur"
        },
        "narasimha swamy temple": {
            "blogLinks": [
                "https://en.wikipedia.org/wiki/Tourism_in_Karnataka"
            ],
            "longitude": "76.2427318",
            "address": "Narasimha Swamy Temple, Attavara Mudigere Road, Attavara, Hasana taluk, Hassan district, Karnataka, India",
            "latitude": "13.0943931",
            "locType": "place_of_worship",
            "closest_to": "kanakapura"
        },
        "venur": {
            "blogLinks": [
                "https://en.wikipedia.org/wiki/Tourism_in_Karnataka"
            ],
            "longitude": "75.1443252",
            "address": "Venoor, Beltangadi taluk, Dakshina Kannada, Karnataka, 574242, India",
            "latitude": "13.0122097",
            "locType": "village",
            "closest_to": "kanakapura"
        },
        "vijayapura": {
            "blogLinks": [
                "https://en.wikipedia.org/wiki/Bijapur"
            ],
            "longitude": "75.916667",
            "address": "Vijayapura, Bijapur district, Karnataka, India",
            "latitude": "16.666667",
            "locType": "county",
            "closest_to": "kanakapura"
        },
        "bandipur national park": {
            "blogLinks": [
                "https://en.wikipedia.org/wiki/Tourism_in_Karnataka"
            ],
            "longitude": "76.4314968740264",
            "address": "Bandipur National Park, Kozhikode - Kollegal Highway, Gundlupet taluk, Chamarajanagar district, Karnataka, India",
            "latitude": "11.76682425",
            "locType": "national_park",
            "closest_to": "kanakapura"
        },
        "south karnataka": {
            "blogLinks": [
                "https://en.wikipedia.org/wiki/Tourism_in_Karnataka"
            ],
            "longitude": "77.8040874",
            "address": "s, Vijayapura, Devanahalli taluk, Bangalore Rural, Karnataka, 562135, India",
            "latitude": "13.2942848",
            "locType": "residential",
            "closest_to": "kanakapura"
        },
        "' river varahi": {
            "blogLinks": [
                "https://en.wikipedia.org/wiki/Tourism_in_Karnataka"
            ],
            "longitude": "74.9489117",
            "address": "Varahi, \u0c95\u0cc1\u0c82\u0ca6\u0cbe\u0caa\u0cc1\u0cb0 \u0ca4\u0cbe\u0cb2\u0cc2\u0c95\u0cc1, Udupi district, Karnataka, India",
            "latitude": "13.6582668",
            "locType": "river",
            "closest_to": "kanakapura"
        },
        "kolkata": {
            "blogLinks": [
                "https://en.wikipedia.org/wiki/Bijapur"
            ],
            "longitude": "77.5478044",
            "address": "Kolkata Biryani And Rolls, 1st Main Basaveshwaranagar, Rajajinagar 3rd Block, Dasarahalli, Bengaluru, Bangalore Urban, Karnataka, 560010, India",
            "latitude": "12.9845159",
            "locType": "restaurant",
            "closest_to": "kanakapura"
        },
        "uttara kannada": {
            "blogLinks": [
                "https://en.wikipedia.org/wiki/Tourism_in_Karnataka"
            ],
            "longitude": "74.4729163045979",
            "address": "Uttara Kannada, Karnataka, India",
            "latitude": "14.6726379",
            "locType": "administrative",
            "closest_to": "kanakapura"
        },
        "gujarat": {
            "blogLinks": [
                "https://en.wikipedia.org/wiki/Bijapur"
            ],
            "longitude": "75.1370469",
            "address": "Gujarat Bhavan, Casualty and Emergency, Ashok Nagar, Vidyanagar, Hubballi - \u0cb9\u0cc1\u0cac\u0ccd\u0cac\u0cb3\u0ccd\u0cb3\u0cbf, Hubballi taluku, Dharwad district, Karnataka, 580020, India",
            "latitude": "15.3595169",
            "locType": "yes",
            "closest_to": "kanakapura"
        },
        "hassan district": {
            "blogLinks": [
                "https://en.wikipedia.org/wiki/Tourism_in_Karnataka"
            ],
            "longitude": "76.1745460751981",
            "address": "Hassan district, Karnataka, India",
            "latitude": "13.0315068",
            "locType": "administrative",
            "closest_to": "kanakapura"
        },
        "new city": {
            "blogLinks": [
                "https://en.wikipedia.org/wiki/Bijapur"
            ],
            "longitude": "77.6736268",
            "address": "New City Super Market, Kaggadasspura Main Road, Putanna Garden, C V Raman Nagar, A Narayanapura, Bangalore Urban, Karnataka, 560093, India",
            "latitude": "12.9851864",
            "locType": "supermarket",
            "closest_to": "kanakapura"
        },
        "coastal karnataka": {
            "blogLinks": [
                "https://en.wikipedia.org/wiki/Tourism_in_Karnataka"
            ],
            "longitude": "74.8137275833157",
            "address": "Bharat Petroleum Mangalore Coastal Installation, Baikampady, Mangaluru taluk, Dakshina Kannada, Karnataka, 575014, India",
            "latitude": "12.96014675",
            "locType": "industrial",
            "closest_to": "kanakapura"
        },
        "mysuru": {
            "blogLinks": [
                "https://en.wikipedia.org/wiki/Bijapur"
            ],
            "longitude": "76.6553609",
            "address": "Mysuru, Mysuru taluk, Mysuru district, Karnataka, 570001, India",
            "latitude": "12.3051828",
            "locType": "city",
            "closest_to": "kanakapura"
        },
        "haveri district": {
            "blogLinks": [
                "https://en.wikipedia.org/wiki/Tourism_in_Karnataka"
            ],
            "longitude": "75.3845674304742",
            "address": "Haveri district, Karnataka, India",
            "latitude": "14.714635",
            "locType": "administrative",
            "closest_to": "kanakapura"
        },
        "manjusha museum": {
            "blogLinks": [
                "https://en.wikipedia.org/wiki/Tourism_in_Karnataka"
            ],
            "longitude": "75.3821342838196",
            "address": "Manjusha Museum, SH37, Dharmasthala, Beltangadi taluk, Dakshina Kannada, Karnataka, 574216, India",
            "latitude": "12.95116975",
            "locType": "museum",
            "closest_to": "kanakapura"
        },
        "nandi hills": {
            "blogLinks": [
                "https://www.tripoto.com/weekend-getaways/from-bangalore",
                "http://www.mapsofindia.com/karnataka/tourism/"
            ],
            "longitude": "77.7194741670394",
            "address": "Nandi Upahara, Nandhi Hills Road, Kottige Thimmanahalli, Devanahalli taluk, Bangalore Rural, Karnataka, India",
            "latitude": "13.268142",
            "locType": "hotel",
            "closest_to": "kanakapura"
        },
        "nagarahole national park": {
            "blogLinks": [
                "https://en.wikipedia.org/wiki/Tourism_in_Karnataka"
            ],
            "longitude": "76.1537073415874",
            "address": "Nagarahole National Park, Virajpet taluk, Kodagu, Karnataka, India",
            "latitude": "12.0600362",
            "locType": "national_park",
            "closest_to": "kanakapura"
        },