{
    "carlsbad": {
        "type": "city",
        "osm_id": "2305279",
        "class": "place",
        "importance": 0.66828891079931,
        "lat": "33.1580933",
        "lon": "-117.3505938",
        "boundingbox": [
            "33.0601812",
            "33.1824213",
            "-117.3588312",
            "-117.2162645"
        ],
        "display_name": "Carlsbad, San Diego County, California, United States of America",
        "licence": "Data \u00a9 OpenStreetMap contributors, ODbL 1.0. http://www.openstreetmap.org/copyright",
        "icon": "https://nominatim.openstreetmap.org/images/mapicons/poi_place_city.p.20.png",
        "place_id": "159570669",
        "osm_type": "relation"
    },
    "mentions": {
        "highway 101": {
            "latitude": "32.9967358",
            "closest_to": "carlsbad",
            "address": "Highway 101, Solana Beach, San Diego County, California, 92075, United States of America",
            "locType": "primary",
            "blogLinks": [
                "http://www.sandiego.org/articles/tours-sightseeing/highway-101-california.aspx"
            ],
            "longitude": "-117.2731974"
        },
        "sunset strip": {
            "latitude": "33.7224763",
            "closest_to": "carlsbad",
            "address": "Sunset Strip, Happy Wanderer, Indio, Riverside County, California, 92201, United States of America",
            "locType": "living_street",
            "blogLinks": [
                "https://www.virtualtourist.com/travel/North_America/United_States_of_America/California/Things_To_Do-California-TG-C-1.html"
            ],
            "longitude": "-116.1940439"
        },
        "lemoore": {
            "latitude": "36.3007835",
            "closest_to": "sacramento",
            "address": "Lemoore, Kings County, California, United States of America",
            "locType": "city",
            "blogLinks": [
                "http://www.roadsideamerica.com/location/ca"
            ],
            "longitude": "-119.7829106"
        },
        "kayenta": {
            "latitude": "36.3575999",
            "closest_to": "sacramento",
            "address": "North Kayenta Street, Visalia, Tulare County, California, 93291, United States of America",
            "locType": "residential",
            "blogLinks": [
                "http://travel.nationalgeographic.com/travel/road-trips/four-corners-southwest-road-trip/"
            ],
            "longitude": "-119.3356583"
        },
        "norco": {
            "latitude": "33.9323307",
            "closest_to": "sacramento",
            "address": "Norco, Riverside County, California, 92860, United States of America",
            "locType": "city",
            "blogLinks": [
                "http://www.roadsideamerica.com/location/ca"
            ],
            "longitude": "-117.55089"
        },
        "la cienega boulevard": {
            "latitude": "34.0459813",
            "closest_to": "sacramento",
            "address": "La Cienega Boulevard, South Carthay, The Village Green, LA, Los Angeles County, California, 90035, United States of America",
            "locType": "primary",
            "blogLinks": [
                "https://www.pinterest.com/aliciadelacruz/places-ive-been/"
            ],
            "longitude": "-118.376447"
        },
        "cortez": {
            "latitude": "37.4753394",
            "closest_to": "sacramento",
            "address": "Cortez, Ballico, Merced County, California, United States of America",
            "locType": "locality",
            "blogLinks": [
                "http://travel.nationalgeographic.com/travel/road-trips/four-corners-southwest-road-trip/"
            ],
            "longitude": "-120.739782"
        },
        "mount san gorgonio ca": {
            "latitude": "33.9121294",
            "closest_to": "sacramento",
            "address": "San Gorgonio Avenue, Banning, Riverside County, California, 92220, United States of America",
            "locType": "secondary",
            "blogLinks": [
                "http://www.california-blog.com/"
            ],
            "longitude": "-116.8766731"
        },
        "cotati": {
            "latitude": "38.3266798",
            "closest_to": "sacramento",
            "address": "Cotati, Sonoma County, California, United States of America",
            "locType": "city",
            "blogLinks": [
                "http://www.roadsideamerica.com/location/ca"
            ],
            "longitude": "-122.706844"
        },
        "palmdale": {
            "latitude": "34.5793131",
            "closest_to": "sacramento",
            "address": "Palmdale, Los Angeles County, California, United States of America",
            "locType": "city",
            "blogLinks": [
                "http://www.roadsideamerica.com/location/ca"
            ],
            "longitude": "-118.1171107"
        },
        "aspen": {
            "latitude": "33.46699845",
            "closest_to": "sacramento",
            "address": "Aspen, Wolf Creek, Temecula, Riverside County, California, 92592, United States of America",
            "locType": "residential",
            "blogLinks": [
                "http://travel.nationalgeographic.com/travel/road-trips/four-corners-southwest-road-trip/"
            ],
            "longitude": "-117.109218500677"
        },
        "lake isabella": {
            "latitude": "35.637646",
            "closest_to": "sacramento",
            "address": "Lake Isabella, Keyesville Road, Kern County, California, 93240, United States of America",
            "locType": "administrative",
            "blogLinks": [
                "https://www.virtualtourist.com/travel/North_America/United_States_of_America/California/Things_To_Do-California-TG-C-1.html"
            ],
            "longitude": "-118.484657714814"
        },
        "moreno valley ca": {
            "latitude": "33.937517",
            "closest_to": "sacramento",
            "address": "Moreno Valley, Riverside County, California, United States of America",
            "locType": "city",
            "blogLinks": [
                "http://www.california-blog.com/"
            ],
            "longitude": "-117.2305943"
        },
        "ukiah": {
            "latitude": "39.1501662",
            "closest_to": "sacramento",
            "address": "Ukiah, Mendocino County, California, United States of America",
            "locType": "city",
            "blogLinks": [
                "http://www.roadsideamerica.com/location/ca"
            ],
            "longitude": "-123.207786"
        },
        "del mar fairgrounds": {
            "latitude": "32.97578065",
            "closest_to": "carlsbad",
            "address": "Del Mar Fairgrounds, 2260, Jimmy Durante Boulevard, Del Mar, San Diego County, California, 92014, United States of America",
            "locType": "pitch",
            "blogLinks": [
                "http://www.sandiego.org/articles/tours-sightseeing/highway-101-california.aspx"
            ],
            "longitude": "-117.261735377207"
        },
        "ca": {
            "latitude": "37.8242285466918",
            "closest_to": "sacramento",
            "address": "Piedmont, Alameda County, California, ca, United States of America",
            "locType": "postcode",
            "blogLinks": [
                "http://www.distancesfrom.com/us/travel-from-Sacramento-to-Carlsbad/TravelFromHistory/16958456.aspx"
            ],
            "longitude": "-122.232613735941"
        },
        "la jolla": {
            "latitude": "32.8472711",
            "closest_to": "carlsbad",
            "address": "La Jolla, San Diego, San Diego County, California, United States of America",
            "locType": "suburb",
            "blogLinks": [
                "http://www.sandiego.org/articles/tours-sightseeing/highway-101-california.aspx"
            ],
            "longitude": "-117.2742085"
        },
        "death valley national park": {
            "latitude": "36.4914385",
            "closest_to": "sacramento",
            "address": "Death Valley National Park, Lucky Wash Road, Skidoo, Inyo County, California, United States of America",
            "locType": "national_park",
            "blogLinks": [
                "http://www.roadsideamerica.com/location/ca"
            ],
            "longitude": "-117.102293507719"
        },
        "tonga": {
            "latitude": "32.579494",
            "closest_to": "carlsbad",
            "address": "Via Tonga, Otay Mesa West, San Ysidro, San Diego, San Diego County, California, 92154, United States of America",
            "locType": "residential",
            "blogLinks": [
                "http://www.roadsideamerica.com/location/ca"
            ],
            "longitude": "-117.0612559"
        },
        "encinitas": {
            "latitude": "33.0369867",
            "closest_to": "carlsbad",
            "address": "Encinitas, San Diego County, California, United States of America",
            "locType": "city",
            "blogLinks": [
                "http://www.sandiego.org/articles/tours-sightseeing/highway-101-california.aspx"
            ],
            "longitude": "-117.2919817"
        },
        "lake crowley": {
            "latitude": "37.61903895",
            "closest_to": "sacramento",
            "address": "Lake Crowley, Layton Springs Road, North Landing, Mono County, California, United States of America",
            "locType": "water",
            "blogLinks": [
                "https://www.virtualtourist.com/travel/North_America/United_States_of_America/California/Things_To_Do-California-TG-C-1.html"
            ],
            "longitude": "-118.731056945814"
        },
        "southern california": {
            "latitude": "34.0224149",
            "closest_to": "sacramento",
            "address": "University of Southern California, Watt Way, Saint James Park, LA, Los Angeles County, California, 90089, United States of America",
            "locType": "university",
            "blogLinks": [
                "http://www.sandiego.org/articles/tours-sightseeing/highway-101-california.aspx",
                "https://www.virtualtourist.com/travel/North_America/United_States_of_America/California/Things_To_Do-California-TG-C-1.html"
            ],
            "longitude": "-118.286343973446"
        },
        "coachella": {
            "latitude": "33.6795519",
            "closest_to": "carlsbad",
            "address": "Coachella, Riverside County, California, United States of America",
            "locType": "administrative",
            "blogLinks": [
                "https://www.virtualtourist.com/travel/North_America/United_States_of_America/California/Things_To_Do-California-TG-C-1.html"
            ],
            "longitude": "-116.1763379"
        },
        "monument valley": {
            "latitude": "32.6722183",
            "closest_to": "carlsbad",
            "address": "Cabrillo National Monument, Humphreys Road, San Diego, San Diego County, California, 92106, United States of America",
            "locType": "national_park",
            "blogLinks": [
                "http://travel.nationalgeographic.com/travel/road-trips/four-corners-southwest-road-trip/"
            ],
            "longitude": "-117.240985998975"
        },
        "guadalupe": {
            "latitude": "29.0350656",
            "closest_to": "carlsbad",
            "address": "Isla Guadalupe, Ensenada, Baja California, M\u00e9xico",
            "locType": "island",
            "blogLinks": [
                "http://www.roadsideamerica.com/location/ca"
            ],
            "longitude": "-118.269896818344"
        },
        "colorado": {
            "latitude": "33.71351445",
            "closest_to": "sacramento",
            "address": "Colorado, Walnut, Irvine, Orange County, California, 92606, United States of America",
            "locType": "residential",
            "blogLinks": [
                "http://travel.nationalgeographic.com/travel/road-trips/four-corners-southwest-road-trip/"
            ],
            "longitude": "-117.791165718199"
        },
        "old town san diego": {
            "latitude": "32.7542167",
            "closest_to": "carlsbad",
            "address": "Old Town San Diego, San Diego County, California, United States of America",
            "locType": "hamlet",
            "blogLinks": [
                "http://www.california-blog.com/"
            ],
            "longitude": "-117.1969792"
        },
        "san francisco - san francisco": {
            "latitude": "37.7792808",
            "closest_to": "sacramento",
            "address": "SF, California, United States of America",
            "locType": "city",
            "blogLinks": [
                "https://www.pinterest.com/aliciadelacruz/places-ive-been/"
            ],
            "longitude": "-122.4192362"
        },
        "san jose": {
            "latitude": "37.3361905",
            "closest_to": "sacramento",
            "address": "San Jos\u00e9, Santa Clara County, California, United States of America",
            "locType": "city",
            "blogLinks": [
                "http://www.roadsideamerica.com/location/ca"
            ],
            "longitude": "-121.8905832"
        },
        "bodie state historic park": {
            "latitude": "38.2154734",
            "closest_to": "sacramento",
            "address": "Bodie State Historic Park, Street, Bodie, Mono County, California, United States of America",
            "locType": "park",
            "blogLinks": [
                "http://www.roadsideamerica.com/location/ca"
            ],
            "longitude": "-119.0109761"
        },
        "rockies": {
            "latitude": "33.9859411",
            "closest_to": "sacramento",
            "address": "Rockies Avenue, Desert Hot Springs, Riverside County, California, 92240, United States of America",
            "locType": "residential",
            "blogLinks": [
                "http://travel.nationalgeographic.com/travel/road-trips/four-corners-southwest-road-trip/"
            ],
            "longitude": "-116.5443644"
        },
        "hollywood": {
            "latitude": "34.1028268",
            "closest_to": "sacramento",
            "address": "Hollywood, LA, Los Angeles County, California, United States of America",
            "locType": "suburb",
            "blogLinks": [
                "http://www.roadsideamerica.com/location/ca",
                "http://www.sandiego.org/articles/tours-sightseeing/highway-101-california.aspx"
            ],
            "longitude": "-118.3299898"
        },
        "cabazon": {
            "latitude": "33.9090305",
            "closest_to": "sacramento",
            "address": "Cabazon, Cabazon Street, Cabazon, Riverside County, California, 92230, United States of America",
            "locType": "administrative",
            "blogLinks": [
                "https://www.pinterest.com/aliciadelacruz/places-ive-been/"
            ],
            "longitude": "-116.779534350758"
        },
        "costa mesa": {
            "latitude": "33.6633386",
            "closest_to": "sacramento",
            "address": "Costa Mesa, Orange County, California, United States of America",
            "locType": "city",
            "blogLinks": [
                "http://www.roadsideamerica.com/location/ca"
            ],
            "longitude": "-117.9033169"
        },
        "mount palomar ca": {
            "latitude": "33.1278146",
            "closest_to": "carlsbad",
            "address": "California Bank & Trust, 2501, Palomar Airport Road, Carlsbad, San Diego County, California, 92011, United States of America",
            "locType": "bank",
            "blogLinks": [
                "http://www.california-blog.com/"
            ],
            "longitude": "-117.270809764613"
        },
        "bohemia": {
            "latitude": "39.446293",
            "closest_to": "sacramento",
            "address": "Bohemia Avenue, Palermo, Butte County, California, 95966, United States of America",
            "locType": "residential",
            "blogLinks": [
                "http://www.sandiego.org/articles/tours-sightseeing/highway-101-california.aspx"
            ],
            "longitude": "-121.5351519"
        },
        "san pedro": {
            "latitude": "33.7358518",
            "closest_to": "sacramento",
            "address": "San Pedro, LA, Los Angeles County, California, United States of America",
            "locType": "suburb",
            "blogLinks": [
                "http://www.roadsideamerica.com/location/ca"
            ],
            "longitude": "-118.2922933"
        },
        "north san diego county": {
            "latitude": "32.7976084",
            "closest_to": "carlsbad",
            "address": "Northwest, Pacific Beach, San Diego, San Diego County, California, 92109, United States of America",
            "locType": "residential",
            "blogLinks": [
                "https://www.yelp.com/biz/the-flower-fields-carlsbad"
            ],
            "longitude": "-117.2194385"
        },
        "morro bay ca": {
            "latitude": "35.3658075",
            "closest_to": "sacramento",
            "address": "Morro Bay, San Luis Obispo County, California, United States of America",
            "locType": "city",
            "blogLinks": [
                "http://www.california-blog.com/"
            ],
            "longitude": "-120.8499012"
        },
        "us": {
            "latitude": "36.7014631",
            "closest_to": "sacramento",
            "address": "California, United States of America",
            "locType": "administrative",
            "blogLinks": [
                "https://www.virtualtourist.com/travel/North_America/United_States_of_America/California/Things_To_Do-California-TG-C-1.html",
                "http://distancecalculator.globefeed.com/US_Distance_Calculator.asp?state=CA",
                "http://www.distancesfrom.com/us/travel-from-Carlsbad-to-Sacramento-CA/TravelFromHistory/6731057.aspx"
            ],
            "longitude": "-118.7559973"
        },
        "berkeley": {
            "latitude": "37.8708393",
            "closest_to": "sacramento",
            "address": "Berkeley, Alameda County, California, United States of America",
            "locType": "city",
            "blogLinks": [
                "http://www.roadsideamerica.com/location/ca"
            ],
            "longitude": "-122.2728638"
        },
        "west coast": {
            "latitude": "34.0222263",
            "closest_to": "sacramento",
            "address": "West Coast, Motor Avenue, Palms, LA, Los Angeles County, California, 90034-5702, United States of America",
            "locType": "plumber",
            "blogLinks": [
                "http://www.sandiego.org/articles/tours-sightseeing/highway-101-california.aspx",
                "https://www.virtualtourist.com/travel/North_America/United_States_of_America/California/Things_To_Do-California-TG-C-1.html"
            ],
            "longitude": "-118.4051087"
        },
        "san luis obispo": {
            "latitude": "35.2827525",
            "closest_to": "sacramento",
            "address": "San Luis Obispo, San Luis Obispo County, California, United States of America",
            "locType": "city",
            "blogLinks": [
                "http://www.roadsideamerica.com/location/ca"
            ],
            "longitude": "-120.6596155"
        },
        "fresno": {
            "latitude": "36.748793",
            "closest_to": "sacramento",
            "address": "Fresno, Fresno County, California, United States of America",
            "locType": "city",
            "blogLinks": [
                "http://www.roadsideamerica.com/location/ca",
                "https://www.virtualtourist.com/travel/North_America/United_States_of_America/California/Things_To_Do-California-TG-C-1.html"
            ],
            "longitude": "-119.714839601149"
        },
        "healdsburg": {
            "latitude": "38.6106812",
            "closest_to": "sacramento",
            "address": "Healdsburg, Sonoma County, California, United States of America",
            "locType": "city",
            "blogLinks": [
                "http://www.roadsideamerica.com/location/ca"
            ],
            "longitude": "-122.8701379"
        },
        "sierra nevada": {
            "latitude": "39.097593",
            "closest_to": "sacramento",
            "address": "Sierra, Wolf, Nevada County, California, 95949, United States of America",
            "locType": "residential",
            "blogLinks": [
                "https://www.virtualtourist.com/travel/North_America/United_States_of_America/California/Things_To_Do-California-TG-C-1.html"
            ],
            "longitude": "-121.1396689"
        },
        "indio": {
            "latitude": "33.7192808",
            "closest_to": "carlsbad",
            "address": "Indio, Riverside County, California, United States of America",
            "locType": "city",
            "blogLinks": [
                "http://www.roadsideamerica.com/location/ca"
            ],
            "longitude": "-116.2188053"
        },
        "monterey peninsula ca": {
            "latitude": "36.5878734",
            "closest_to": "sacramento",
            "address": "Monterey Regional Airport, Airport Road, Seaside, Del Monte Heights, Monterey County, California, 93940, United States of America",
            "locType": "aerodrome",
            "blogLinks": [
                "http://www.california-blog.com/"
            ],
            "longitude": "-121.843618374407"
        },
        "califia": {
            "latitude": "34.4290422",
            "closest_to": "sacramento",
            "address": "Califia Court, Santa Barbara County, California, 93111, United States of America",
            "locType": "residential",
            "blogLinks": [
                "http://www.roadsideamerica.com/location/ca"
            ],
            "longitude": "-119.8065791"
        },
        "mammoth creek": {
            "latitude": "37.6055761",
            "closest_to": "sacramento",
            "address": "Mammoth Creek, Mammoth Lakes, Mono County, California, United States of America",
            "locType": "stream",
            "blogLinks": [
                "https://www.virtualtourist.com/travel/North_America/United_States_of_America/California/Things_To_Do-California-TG-C-1.html"
            ],
            "longitude": "-119.0090048"
        },
        "simi valley": {
            "latitude": "34.2694474",
            "closest_to": "sacramento",
            "address": "Simi Valley, Ventura County, California, United States of America",
            "locType": "city",
            "blogLinks": [
                "http://www.roadsideamerica.com/location/ca"
            ],
            "longitude": "-118.7814819"
        },
        "jerusalem": {
            "latitude": "40.5175442",
            "closest_to": "sacramento",
            "address": "Jerusalem Creek, Shasta County, California, United States of America",
            "locType": "stream",
            "blogLinks": [
                "http://www.roadsideamerica.com/location/ca"
            ],
            "longitude": "-122.7581059"
        },
        "santa cruz": {
            "latitude": "36.9735903",
            "closest_to": "sacramento",
            "address": "Santa Cruz, Santa Cruz County, California, United States of America",
            "locType": "city",
            "blogLinks": [
                "http://www.roadsideamerica.com/location/ca"
            ],
            "longitude": "-122.0260569"
        },
        "armstrong": {
            "latitude": "39.3282394",
            "closest_to": "sacramento",
            "address": "Armstrong, Nevada County, California, United States of America",
            "locType": "hamlet",
            "blogLinks": [
                "https://www.yelp.com/biz/the-flower-fields-carlsbad"
            ],
            "longitude": "-120.23631"
        },
        "east bay": {
            "latitude": "38.156964",
            "closest_to": "sacramento",
            "address": "East Bay, San Joaquin County, California, United States of America",
            "locType": "track",
            "blogLinks": [
                "http://visitcarlsbad.com/"
            ],
            "longitude": "-121.0270079"
        },
        "lanai": {
            "latitude": "34.1480559",
            "closest_to": "sacramento",
            "address": "Lanai Road, Encino, LA, Los Angeles County, California, 91436, United States of America",
            "locType": "residential",
            "blogLinks": [
                "http://www.sandiego.org/articles/tours-sightseeing/highway-101-california.aspx"
            ],
            "longitude": "-118.4922841"
        },
        "mount san jacinto ca": {
            "latitude": "33.7839084",
            "closest_to": "sacramento",
            "address": "San Jacinto, Riverside County, California, United States of America",
            "locType": "city",
            "blogLinks": [
                "http://www.california-blog.com/"
            ],
            "longitude": "-116.9586349"
        },
        "yermo": {
            "latitude": "34.9049849",
            "closest_to": "sacramento",
            "address": "Yermo, San Bernardino County, California, United States of America",
            "locType": "hamlet",
            "blogLinks": [
                "http://www.roadsideamerica.com/location/ca"
            ],
            "longitude": "-116.8203126"
        },
        "turlock": {
            "latitude": "37.4946568",
            "closest_to": "sacramento",
            "address": "Turlock, Stanislaus County, California, United States of America",
            "locType": "city",
            "blogLinks": [
                "http://www.roadsideamerica.com/location/ca"
            ],
            "longitude": "-120.846594"
        },
        "pebble beach ca": {
            "latitude": "36.5664874",
            "closest_to": "sacramento",
            "address": "Pebble Beach, Monterey County, California, United States of America",
            "locType": "hamlet",
            "blogLinks": [
                "http://www.california-blog.com/"
            ],
            "longitude": "-121.9466112"
        },
        "ojai valley": {
            "latitude": "34.4480495",
            "closest_to": "sacramento",
            "address": "Ojai, Ventura County, California, United States of America",
            "locType": "city",
            "blogLinks": [
                "http://www.california-blog.com/"
            ],
            "longitude": "-119.2428889"
        },
        "oceanside": {
            "latitude": "33.1958696",
            "closest_to": "sacramento",
            "address": "Oceanside, San Diego County, California, United States of America",
            "locType": "city",
            "blogLinks": [
                "http://www.sandiego.org/articles/tours-sightseeing/highway-101-california.aspx",
                "https://www.virtualtourist.com/travel/North_America/United_States_of_America/California/Things_To_Do-California-TG-C-1.html"
            ],
            "longitude": "-117.3794833"
        },
        "mission bay ca": {
            "latitude": "37.7707742",
            "closest_to": "sacramento",
            "address": "Mission Bay, SF, California, 94158, United States of America",
            "locType": "neighbourhood",
            "blogLinks": [
                "http://www.california-blog.com/"
            ],
            "longitude": "-122.3911711"
        },
        "buellton": {
            "latitude": "34.6134727",
            "closest_to": "sacramento",
            "address": "Buellton, Santa Barbara County, California, United States of America",
            "locType": "city",
            "blogLinks": [
                "http://www.roadsideamerica.com/location/ca"
            ],
            "longitude": "-120.1936691"
        },
        "moscow": {
            "latitude": "37.7131859",
            "closest_to": "sacramento",
            "address": "Moscow Street, Crocker-Amazon, SF, California, 94112, United States of America",
            "locType": "residential",
            "blogLinks": [
                "http://karolinapatryk.com/karlovy-vary-travel-guide/"
            ],
            "longitude": "-122.4337084"
        },
        "trona": {
            "latitude": "35.7627322",
            "closest_to": "sacramento",
            "address": "Trona, San Bernardino County, California, United States of America",
            "locType": "hamlet",
            "blogLinks": [
                "http://www.roadsideamerica.com/location/ca"
            ],
            "longitude": "-117.3728345"
        },
        "emeryville": {
            "latitude": "37.8314089",
            "closest_to": "sacramento",
            "address": "Emeryville, Alameda County, California, United States of America",
            "locType": "administrative",
            "blogLinks": [
                "http://www.roadsideamerica.com/location/ca"
            ],
            "longitude": "-122.2865265"
        },
        "placerville": {
            "latitude": "38.7296252",
            "closest_to": "sacramento",
            "address": "Placerville, El Dorado County, California, United States of America",
            "locType": "city",
            "blogLinks": [
                "http://www.roadsideamerica.com/location/ca"
            ],
            "longitude": "-120.7985459"
        },
        "east los angeles": {
            "latitude": "34.0239015",
            "closest_to": "sacramento",
            "address": "East Los Angeles, Belvedere Gardens, Los Angeles County, California, United States of America",
            "locType": "suburb",
            "blogLinks": [
                "http://www.roadsideamerica.com/location/ca"
            ],
            "longitude": "-118.1720156"
        },
        "coalinga": {
            "latitude": "36.1298952",
            "closest_to": "sacramento",
            "address": "Coalinga, Fresno County, California, United States of America",
            "locType": "city",
            "blogLinks": [
                "http://www.roadsideamerica.com/location/ca"
            ],
            "longitude": "-120.245046293019"
        },
        "carlsbad route": {
            "latitude": "33.1580933",
            "closest_to": "sacramento",
            "address": "Carlsbad, San Diego County, California, United States of America",
            "locType": "city",
            "blogLinks": [
                "http://www.distancesfrom.com/us/travel-from-Sacramento-to-Carlsbad/TravelFromHistory/8727189.aspx",
                "http://www.distancesfrom.com/us/travel-from-Sacramento-to-Carlsbad/TravelFromHistory/16958456.aspx"
            ],
            "longitude": "-117.3505938"
        },
        "los angeles": {
            "latitude": "34.0543942",
            "closest_to": "sacramento",
            "address": "LA, Los Angeles County, California, United States of America",
            "locType": "city",
            "blogLinks": [
                "http://www.roadsideamerica.com/location/ca"
            ],
            "longitude": "-118.2439408"
        },
        "geyserville": {
            "latitude": "38.707687",
            "closest_to": "sacramento",
            "address": "Geyserville, Sonoma County, California, United States of America",
            "locType": "hamlet",
            "blogLinks": [
                "http://www.roadsideamerica.com/location/ca"
            ],
            "longitude": "-122.9024963"
        },
        "united states": {
            "latitude": "36.7014631",
            "closest_to": "sacramento",
            "address": "California, United States of America",
            "locType": "administrative",
            "blogLinks": [
                "http://www.sandiego.org/articles/tours-sightseeing/highway-101-california.aspx",
                "http://www.distancesfrom.com/us/travel-from-Sacramento-to-Carlsbad/TravelFromHistory/8727189.aspx"
            ],
            "longitude": "-118.7559973"
        },
        "rock spring": {
            "latitude": "33.6940465",
            "closest_to": "sacramento",
            "address": "Rock Spring, El Camino Real, Irvine, Orange County, California, 92604, United States of America",
            "locType": "residential",
            "blogLinks": [
                "http://karolinapatryk.com/karlovy-vary-travel-guide/"
            ],
            "longitude": "-117.7884599"
        },
        "carlsbad village": {
            "latitude": "33.1717184",
            "closest_to": "carlsbad",
            "address": "Carlsbad Village Drive, Carlsbad, San Diego County, California, 92008, United States of America",
            "locType": "secondary",
            "blogLinks": [
                "http://www.sandiego.org/articles/tours-sightseeing/highway-101-california.aspx",
                "http://carlsbad-village.com/"
            ],
            "longitude": "-117.322507"
        },
        "san jacinto": {
            "latitude": "33.7839084",
            "closest_to": "sacramento",
            "address": "San Jacinto, Riverside County, California, United States of America",
            "locType": "city",
            "blogLinks": [
                "https://www.virtualtourist.com/travel/North_America/United_States_of_America/California/Things_To_Do-California-TG-C-1.html"
            ],
            "longitude": "-116.9586349"
        },
        "redwood city": {
            "latitude": "37.4852152",
            "closest_to": "sacramento",
            "address": "Redwood City, San Mateo County, California, United States of America",
            "locType": "city",
            "blogLinks": [
                "http://www.roadsideamerica.com/location/ca"
            ],
            "longitude": "-122.2363547"
        },
        "glacier point": {
            "latitude": "37.499192",
            "closest_to": "sacramento",
            "address": "Glacier Point, Darrah, Mariposa County, California, 95338, United States of America",
            "locType": "residential",
            "blogLinks": [
                "https://www.virtualtourist.com/travel/North_America/United_States_of_America/California/Things_To_Do-California-TG-C-1.html"
            ],
            "longitude": "-119.8282379"
        },
        "mono lake ca": {
            "latitude": "38.0077189",
            "closest_to": "sacramento",
            "address": "Mono Lake, Mono County, California, United States of America",
            "locType": "water",
            "blogLinks": [
                "http://www.california-blog.com/"
            ],
            "longitude": "-118.967033937845"
        },
        "inglewood": {
            "latitude": "33.9616801",
            "closest_to": "sacramento",
            "address": "Inglewood, Los Angeles County, California, United States of America",
            "locType": "city",
            "blogLinks": [
                "http://www.roadsideamerica.com/location/ca",
                "https://www.pinterest.com/aliciadelacruz/places-ive-been/"
            ],
            "longitude": "-118.353131"
        },
        "gambling hall": {
            "latitude": "33.4942129",
            "closest_to": "sacramento",
            "address": "The Gambling Cowboy, 5th Street, Villa Del Sol, Old Town, Temecula, Riverside County, California, 92590, United States of America",
            "locType": "restaurant",
            "blogLinks": [
                "http://karolinapatryk.com/karlovy-vary-travel-guide/"
            ],
            "longitude": "-117.1507214"
        },
        "napa valley ca": {
            "latitude": "38.2972603",
            "closest_to": "sacramento",
            "address": "California Boulevard, Napa, Napa County, California, 94558, United States of America",
            "locType": "secondary",
            "blogLinks": [
                "http://www.california-blog.com/"
            ],
            "longitude": "-122.3002947"
        },
        "california resort": {
            "latitude": "33.80638705",
            "closest_to": "sacramento",
            "address": "DCA, 1620, South Disneyland Drive, Anaheim Resort District, Anaheim, Orange County, California, 92802, United States of America",
            "locType": "theme_park",
            "blogLinks": [
                "http://visitcarlsbad.com/attractions",
                "http://www.sandiego.org/articles/tours-sightseeing/highway-101-california.aspx"
            ],
            "longitude": "-117.919940244086"
        },
        "benicia": {
            "latitude": "38.049365",
            "closest_to": "sacramento",
            "address": "Benicia, Solano County, California, United States of America",
            "locType": "administrative",
            "blogLinks": [
                "https://www.virtualtourist.com/travel/North_America/United_States_of_America/California/Things_To_Do-California-TG-C-1.html"
            ],
            "longitude": "-122.1585776"
        },
        "seal beach": {
            "latitude": "33.741176",
            "closest_to": "sacramento",
            "address": "Seal Beach, Orange County, California, United States of America",
            "locType": "city",
            "blogLinks": [
                "http://www.sandiego.org/articles/tours-sightseeing/highway-101-california.aspx"
            ],
            "longitude": "-118.1046355"
        },
        "utah": {
            "latitude": "37.413408",
            "closest_to": "sacramento",
            "address": "Utah, Rovana, Inyo County, California, United States of America",
            "locType": "residential",
            "blogLinks": [
                "http://travel.nationalgeographic.com/travel/road-trips/four-corners-southwest-road-trip/"
            ],
            "longitude": "-118.6125359"
        },
        "san simeon": {
            "latitude": "35.6438587",
            "closest_to": "sacramento",
            "address": "San Simeon, San Luis Obispo County, California, United States of America",
            "locType": "hamlet",
            "blogLinks": [
                "http://www.roadsideamerica.com/location/ca"
            ],
            "longitude": "-121.1907532"
        },
        "sacramento": {
            "latitude": "38.5815719",
            "closest_to": "sacramento",
            "address": "Sacramento, Sacramento County, California, United States of America",
            "locType": "city",
            "blogLinks": [
                "http://www.distancesfrom.com/us/travel-from-Sacramento-to-Carlsbad/TravelFromHistory/8727189.aspx",
                "http://www.distancesfrom.com/us/travel-from-Sacramento-to-Carlsbad/TravelFromHistory/16958456.aspx",
                "https://www.virtualtourist.com/travel/North_America/United_States_of_America/California/Things_To_Do-California-TG-C-1.html",
                "http://www.distancesfrom.com/us/travel-from-Carlsbad-to-Sacramento-CA/TravelFromHistory/6731057.aspx",
                "http://carlsbad-village.com/"
            ],
            "longitude": "-121.4943995"
        },
        "pasadena": {
            "latitude": "34.1476452",
            "closest_to": "sacramento",
            "address": "Pasadena, Los Angeles County, California, United States of America",
            "locType": "city",
            "blogLinks": [
                "http://www.roadsideamerica.com/location/ca"
            ],
            "longitude": "-118.1444778"
        },
        "mount wilson": {
            "latitude": "34.2263926",
            "closest_to": "sacramento",
            "address": "Mount Wilson, Los Angeles County, California, United States of America",
            "locType": "hamlet",
            "blogLinks": [
                "http://travel.nationalgeographic.com/travel/road-trips/four-corners-southwest-road-trip/"
            ],
            "longitude": "-118.0661796"
        },
        "navajo tribal park": {
            "latitude": "37.385755",
            "closest_to": "sacramento",
            "address": "Navajo Circle, Brockmans Corner, Inyo County, California, 93514, United States of America",
            "locType": "residential",
            "blogLinks": [
                "http://travel.nationalgeographic.com/travel/road-trips/four-corners-southwest-road-trip/"
            ],
            "longitude": "-118.4187679"
        },
        "la jolla cove": {
            "latitude": "32.85051835",
            "closest_to": "carlsbad",
            "address": "La Jolla Cove, Coast Boulevard, La Jolla, San Diego, San Diego County, California, 92037, United States of America",
            "locType": "beach",
            "blogLinks": [
                "https://www.virtualtourist.com/travel/North_America/United_States_of_America/California/Things_To_Do-California-TG-C-1.html"
            ],
            "longitude": "-117.273024234204"
        },
        "hollywood blvd": {
            "latitude": "34.1016312",
            "closest_to": "sacramento",
            "address": "Hollywood Boulevard, Hollywood, LA, Los Angeles County, California, 90028, United States of America",
            "locType": "secondary",
            "blogLinks": [
                "https://www.virtualtourist.com/travel/North_America/United_States_of_America/California/Things_To_Do-California-TG-C-1.html"
            ],
            "longitude": "-118.32684"
        },
        "fort irwin": {
            "latitude": "35.2627527",
            "closest_to": "sacramento",
            "address": "Fort Irwin, San Bernardino County, California, United States of America",
            "locType": "hamlet",
            "blogLinks": [
                "http://www.roadsideamerica.com/location/ca"
            ],
            "longitude": "-116.6847523"
        },
        "mentone": {
            "latitude": "34.05884",
            "closest_to": "sacramento",
            "address": "Mentone, Reservoir Canal Road, Crafton, San Bernardino County, California, 92374, United States of America",
            "locType": "administrative",
            "blogLinks": [
                "http://www.roadsideamerica.com/location/ca"
            ],
            "longitude": "-117.109606374724"
        },
        "castroville": {
            "latitude": "36.7657904",
            "closest_to": "sacramento",
            "address": "Castroville, Monterey County, California, United States of America",
            "locType": "administrative",
            "blogLinks": [
                "http://www.roadsideamerica.com/location/ca"
            ],
            "longitude": "-121.7580049"
        },
        "malibu": {
            "latitude": "33.7932142",
            "closest_to": "sacramento",
            "address": "Malibu, Palm Springs, Riverside County, California, 92264, United States of America",
            "locType": "residential",
            "blogLinks": [
                "http://www.roadsideamerica.com/location/ca"
            ],
            "longitude": "-116.5023561"
        },
        "palm springs tramway": {
            "latitude": "33.85839515",
            "closest_to": "sacramento",
            "address": "Palm Springs Visitors Center, 2901, Tramway Road, Palm Springs, Riverside County, California, 92262, United States of America",
            "locType": "information",
            "blogLinks": [
                "https://www.virtualtourist.com/travel/North_America/United_States_of_America/California/Things_To_Do-California-TG-C-1.html"
            ],
            "longitude": "-116.558183152534"
        },
        "winchester blvd": {
            "latitude": "37.2573553",
            "closest_to": "sacramento",
            "address": "Winchester Boulevard, Los Gatos, Santa Clara County, California, 95030, United States of America",
            "locType": "primary",
            "blogLinks": [
                "https://www.virtualtourist.com/travel/North_America/United_States_of_America/California/Things_To_Do-California-TG-C-1.html"
            ],
            "longitude": "-121.965075"
        },
        "garberville": {
            "latitude": "40.1005685",
            "closest_to": "sacramento",
            "address": "Garberville, Humboldt County, California, United States of America",
            "locType": "village",
            "blogLinks": [
                "http://www.roadsideamerica.com/location/ca"
            ],
            "longitude": "-123.7961393"
        },
        "sebastopol": {
            "latitude": "38.4021359",
            "closest_to": "sacramento",
            "address": "Sebastopol, Sonoma County, California, United States of America",
            "locType": "city",
            "blogLinks": [
                "http://www.roadsideamerica.com/location/ca"
            ],
            "longitude": "-122.8238805"
        },
        "sunol": {
            "latitude": "37.5943781",
            "closest_to": "sacramento",
            "address": "Sunol, Alameda County, California, United States of America",
            "locType": "hamlet",
            "blogLinks": [
                "http://www.roadsideamerica.com/location/ca"
            ],
            "longitude": "-121.8885682"
        },
        "oroville": {
            "latitude": "39.5137752",
            "closest_to": "sacramento",
            "address": "Oroville, Butte County, California, United States of America",
            "locType": "city",
            "blogLinks": [
                "http://www.roadsideamerica.com/location/ca"
            ],
            "longitude": "-121.5563589"
        },
        "mojave desert ca": {
            "latitude": "35.1456319",
            "closest_to": "sacramento",
            "address": "Mojave Desert, Utility Road, San Bernardino County, California, United States of America",
            "locType": "desert",
            "blogLinks": [
                "http://www.california-blog.com/"
            ],
            "longitude": "-115.548963686646"
        },
        "santa cruz wharf": {
            "latitude": "36.9604473",
            "closest_to": "sacramento",
            "address": "Santa Cruz Bay Company, Municipal Wharf, Beach & Boardwalk District (Commercial), Downtown, Santa Cruz, Santa Cruz County, California, 95060, United States of America",
            "locType": "gift",
            "blogLinks": [
                "https://www.virtualtourist.com/travel/North_America/United_States_of_America/California/Things_To_Do-California-TG-C-1.html"
            ],
            "longitude": "-122.0205393"
        },
        "america": {
            "latitude": "36.2573198",
            "closest_to": "sacramento",
            "address": "America, Kings County, California, 93246, United States of America",
            "locType": "residential",
            "blogLinks": [
                "http://www.roadsideamerica.com/location/ca",
                "http://www.sandiego.org/articles/tours-sightseeing/highway-101-california.aspx",
                "https://www.virtualtourist.com/travel/North_America/United_States_of_America/California/Things_To_Do-California-TG-C-1.html"
            ],
            "longitude": "-119.8948706"
        },
        "arcata": {
            "latitude": "40.8665166",
            "closest_to": "sacramento",
            "address": "Arcata, Humboldt County, California, United States of America",
            "locType": "city",
            "blogLinks": [
                "http://www.roadsideamerica.com/location/ca"
            ],
            "longitude": "-124.0828395"
        },
        "kern river": {
            "latitude": "36.6816956",
            "closest_to": "sacramento",
            "address": "Kern River, Tulare County, California, United States of America",
            "locType": "river",
            "blogLinks": [
                "http://www.california-blog.com/"
            ],
            "longitude": "-118.4124188"
        },
        "forestville": {
            "latitude": "38.4833405",
            "closest_to": "sacramento",
            "address": "Forestville, Trenton Road, Trenton, Sonoma County, California, 95436, United States of America",
            "locType": "administrative",
            "blogLinks": [
                "http://www.roadsideamerica.com/location/ca"
            ],
            "longitude": "-122.861584174866"
        },
        "north hollywood": {
            "latitude": "34.1729044",
            "closest_to": "sacramento",
            "address": "North Hollywood, LA, Los Angeles County, California, United States of America",
            "locType": "suburb",
            "blogLinks": [
                "http://www.roadsideamerica.com/location/ca"
            ],
            "longitude": "-118.374037"
        },
        "historic highway 101": {
            "latitude": "33.7388166",
            "closest_to": "sacramento",
            "address": "Historic, Orchard Hills, Irvine, Orange County, California, 92602, United States of America",
            "locType": "residential",
            "blogLinks": [
                "http://www.sandiego.org/articles/tours-sightseeing/highway-101-california.aspx"
            ],
            "longitude": "-117.7608795"
        },
        "hotel derby": {
            "latitude": "37.3343828",
            "closest_to": "sacramento",
            "address": "Hotel De Anza, 233, West Santa Clara Street, Little Italy, Japantown, San Jos\u00e9, Santa Clara County, California, 95113, United States of America",
            "locType": "hotel",
            "blogLinks": [
                "http://karolinapatryk.com/karlovy-vary-travel-guide/"
            ],
            "longitude": "-121.895065751971"
        },
        "barstow": {
            "latitude": "34.8957684",
            "closest_to": "sacramento",
            "address": "Barstow, San Bernardino County, California, United States of America",
            "locType": "administrative",
            "blogLinks": [
                "http://www.roadsideamerica.com/location/ca"
            ],
            "longitude": "-117.0172076"
        },
        "fairbanks ranch": {
            "latitude": "33.7438604",
            "closest_to": "sacramento",
            "address": "Fairbanks Drive, Tustin Ranch, Tustin, Orange County, California, 92782, United States of America",
            "locType": "residential",
            "blogLinks": [
                "http://www.sandiego.org/articles/tours-sightseeing/highway-101-california.aspx"
            ],
            "longitude": "-117.7880668"
        },
        "palos verdes peninsula ca": {
            "latitude": "33.77984925",
            "closest_to": "sacramento",
            "address": "Palos Verdes Peninsula High School, Hawthorne Boulevard, Rolling Hills Estates, Los Angeles County, California, 90274, United States of America",
            "locType": "school",
            "blogLinks": [
                "http://www.california-blog.com/"
            ],
            "longitude": "-118.372196730215"
        },
        "glendale": {
            "latitude": "34.1423455",
            "closest_to": "sacramento",
            "address": "Glendale, Los Angeles County, California, United States of America",
            "locType": "city",
            "blogLinks": [
                "http://www.roadsideamerica.com/location/ca"
            ],
            "longitude": "-118.248367"
        },
        "usa": {
            "latitude": "36.7014631",
            "closest_to": "sacramento",
            "address": "California, United States of America",
            "locType": "administrative",
            "blogLinks": [
                "http://www.sandiego.org/articles/tours-sightseeing/highway-101-california.aspx",
                "http://www.distancesfrom.com/us/travel-from-Sacramento-to-Carlsbad/TravelFromHistory/16958456.aspx"
            ],
            "longitude": "-118.7559973"
        },
        "arizona": {
            "latitude": "34.4631398",
            "closest_to": "sacramento",
            "address": "Arizona, San Bernardino County, California, 92371, United States of America",
            "locType": "track",
            "blogLinks": [
                "http://travel.nationalgeographic.com/travel/road-trips/four-corners-southwest-road-trip/"
            ],
            "longitude": "-117.5060679"
        },
        "guerneville": {
            "latitude": "38.5116609",
            "closest_to": "sacramento",
            "address": "Guerneville, Orchard Road, El Bonita, Sonoma County, California, 95446, United States of America",
            "locType": "administrative",
            "blogLinks": [
                "http://www.roadsideamerica.com/location/ca"
            ],
            "longitude": "-122.987128549631"
        },
        "el captain": {
            "latitude": "39.9234913",
            "closest_to": "sacramento",
            "address": "Captain Jones Rapids, Tehama County, California, United States of America",
            "locType": "rapids",
            "blogLinks": [
                "https://www.virtualtourist.com/travel/North_America/United_States_of_America/California/Things_To_Do-California-TG-C-1.html"
            ],
            "longitude": "-122.0827639"
        },
        "mammoth lakes": {
            "latitude": "37.6432525",
            "closest_to": "sacramento",
            "address": "Mammoth Lakes, Mono County, California, United States of America",
            "locType": "administrative",
            "blogLinks": [
                "https://www.virtualtourist.com/travel/North_America/United_States_of_America/California/Things_To_Do-California-TG-C-1.html"
            ],
            "longitude": "-118.9668508"
        },
        "huntington beach": {
            "latitude": "33.6783336",
            "closest_to": "sacramento",
            "address": "Huntington Beach, Orange County, California, United States of America",
            "locType": "city",
            "blogLinks": [
                "http://www.roadsideamerica.com/location/ca",
                "https://www.virtualtourist.com/travel/North_America/United_States_of_America/California/Things_To_Do-California-TG-C-1.html"
            ],
            "longitude": "-118.0000165"
        },
        "kettleman city": {
            "latitude": "36.008937",
            "closest_to": "sacramento",
            "address": "Kettleman City, 7th Street, Kettleman City, Kings County, California, 93239, United States of America",
            "locType": "administrative",
            "blogLinks": [
                "http://www.roadsideamerica.com/location/ca"
            ],
            "longitude": "-119.962676860725"
        },
        "west manchester boulevard": {
            "latitude": "33.9600841",
            "closest_to": "sacramento",
            "address": "West Manchester Boulevard, Florence, LA, Los Angeles County, California, 90003, United States of America",
            "locType": "primary",
            "blogLinks": [
                "https://www.pinterest.com/aliciadelacruz/places-ive-been/"
            ],
            "longitude": "-118.2803198"
        },
        "venice": {
            "latitude": "33.995044",
            "closest_to": "sacramento",
            "address": "Venice, LA, Los Angeles County, California, United States of America",
            "locType": "suburb",
            "blogLinks": [
                "http://www.roadsideamerica.com/location/ca"
            ],
            "longitude": "-118.4668874"
        },
        "montenegro": {
            "latitude": "34.179739",
            "closest_to": "sacramento",
            "address": "Montenegro Circle, Thousand Oaks, Ventura County, California, 91320, United States of America",
            "locType": "residential",
            "blogLinks": [
                "http://karolinapatryk.com/karlovy-vary-travel-guide/"
            ],
            "longitude": "-118.9543239"
        },
        "prague": {
            "latitude": "37.722053",
            "closest_to": "sacramento",
            "address": "Prague Street, Crocker-Amazon, SF, California, 94112, United States of America",
            "locType": "residential",
            "blogLinks": [
                "http://karolinapatryk.com/karlovy-vary-travel-guide/"
            ],
            "longitude": "-122.4248479"
        },
        "boonville": {
            "latitude": "39.0091667",
            "closest_to": "sacramento",
            "address": "Boonville, Mendocino County, California, 95415, United States of America",
            "locType": "village",
            "blogLinks": [
                "http://www.roadsideamerica.com/location/ca"
            ],
            "longitude": "-123.366111"
        },
        "santa fe springs": {
            "latitude": "33.9482434",
            "closest_to": "sacramento",
            "address": "Santa Fe Springs, Los Angeles County, California, United States of America",
            "locType": "city",
            "blogLinks": [
                "http://www.roadsideamerica.com/location/ca"
            ],
            "longitude": "-118.0676102"
        },
        "lone pine": {
            "latitude": "36.583176",
            "closest_to": "sacramento",
            "address": "Lone Pine, Tuttle Creek Road, Alabama Hills, Inyo County, California, 93545, United States of America",
            "locType": "administrative",
            "blogLinks": [
                "https://www.virtualtourist.com/travel/North_America/United_States_of_America/California/Things_To_Do-California-TG-C-1.html"
            ],
            "longitude": "-118.078359194897"
        },
        "san rafael": {
            "latitude": "37.9735346",
            "closest_to": "sacramento",
            "address": "San Rafael, Marin County, California, United States of America",
            "locType": "city",
            "blogLinks": [
                "http://www.roadsideamerica.com/location/ca"
            ],
            "longitude": "-122.5310873"
        },
        "pebble": {
            "latitude": "33.6678374",
            "closest_to": "sacramento",
            "address": "Pebble, Woodbridge, Irvine, Orange County, California, 92604, United States of America",
            "locType": "residential",
            "blogLinks": [
                "https://www.virtualtourist.com/travel/North_America/United_States_of_America/California/Things_To_Do-California-TG-C-1.html"
            ],
            "longitude": "-117.7975199"
        },
        "pacific": {
            "latitude": "38.7601815",
            "closest_to": "sacramento",
            "address": "Pacific, El Dorado County, California, United States of America",
            "locType": "hamlet",
            "blogLinks": [
                "http://www.sandiego.org/articles/tours-sightseeing/highway-101-california.aspx"
            ],
            "longitude": "-120.507146"
        },
        "burbank": {
            "latitude": "34.1816482",
            "closest_to": "sacramento",
            "address": "Burbank, Los Angeles County, California, United States of America",
            "locType": "city",
            "blogLinks": [
                "http://www.roadsideamerica.com/location/ca"
            ],
            "longitude": "-118.3258553"
        },
        "mission san luis rey": {
            "latitude": "33.22648",
            "closest_to": "sacramento",
            "address": "San Luis Rey Mission Expressway, Oceanside, San Diego County, California, 92057, United States of America",
            "locType": "trunk",
            "blogLinks": [
                "http://www.sandiego.org/articles/tours-sightseeing/highway-101-california.aspx"
            ],
            "longitude": "-117.3235506"
        },
        "london": {
            "latitude": "36.4760619",
            "closest_to": "sacramento",
            "address": "London, Tulare County, California, United States of America",
            "locType": "village",
            "blogLinks": [
                "http://www.roadsideamerica.com/location/ca"
            ],
            "longitude": "-119.4431784"
        },
        "newport beach": {
            "latitude": "33.6170092",
            "closest_to": "sacramento",
            "address": "Newport Beach, Orange County, California, United States of America",
            "locType": "city",
            "blogLinks": [
                "http://www.roadsideamerica.com/location/ca"
            ],
            "longitude": "-117.92944"
        },
        "south lake tahoe": {
            "latitude": "38.929125",
            "closest_to": "sacramento",
            "address": "South Lake Tahoe, El Dorado County, California, United States of America",
            "locType": "city",
            "blogLinks": [
                "http://www.roadsideamerica.com/location/ca",
                "https://www.virtualtourist.com/travel/North_America/United_States_of_America/California/Things_To_Do-California-TG-C-1.html"
            ],
            "longitude": "-119.987846390157"
        },
        "sylmar": {
            "latitude": "34.3076252",
            "closest_to": "sacramento",
            "address": "Sylmar, LA, Los Angeles County, California, United States of America",
            "locType": "suburb",
            "blogLinks": [
                "http://www.roadsideamerica.com/location/ca"
            ],
            "longitude": "-118.4492147"
        },
        "san diego county": {
            "latitude": "32.9637838",
            "closest_to": "carlsbad",
            "address": "San Diego County, California, United States of America",
            "locType": "administrative",
            "blogLinks": [
                "http://visitcarlsbad.com/attractions",
                "http://www.sandiego.org/articles/tours-sightseeing/highway-101-california.aspx"
            ],
            "longitude": "-116.7706276"
        },
        "tulelake": {
            "latitude": "41.9559885",
            "closest_to": "sacramento",
            "address": "Tulelake, Siskiyou County, California, United States of America",
            "locType": "city",
            "blogLinks": [
                "http://www.roadsideamerica.com/location/ca"
            ],
            "longitude": "-121.4774915"
        },
        "hopland": {
            "latitude": "38.9729542",
            "closest_to": "sacramento",
            "address": "Hopland, Mendocino County, California, United States of America",
            "locType": "hamlet",
            "blogLinks": [
                "http://www.roadsideamerica.com/location/ca"
            ],
            "longitude": "-123.1163917"
        },
        "rialto": {
            "latitude": "34.1064001",
            "closest_to": "sacramento",
            "address": "Rialto, San Bernardino County, California, United States of America",
            "locType": "city",
            "blogLinks": [
                "https://www.pinterest.com/aliciadelacruz/places-ive-been/"
            ],
            "longitude": "-117.3703234"
        },
        "santa clara": {
            "latitude": "37.3541132",
            "closest_to": "sacramento",
            "address": "Santa Clara, Santa Clara County, California, United States of America",
            "locType": "city",
            "blogLinks": [
                "http://www.roadsideamerica.com/location/ca"
            ],
            "longitude": "-121.9551743"
        },
        "kern river valley": {
            "latitude": "36.6816956",
            "closest_to": "sacramento",
            "address": "Kern River, Tulare County, California, United States of America",
            "locType": "river",
            "blogLinks": [
                "https://www.virtualtourist.com/travel/North_America/United_States_of_America/California/Things_To_Do-California-TG-C-1.html"
            ],
            "longitude": "-118.4124188"
        },
        "mount baldy ca": {
            "latitude": "34.2361168",
            "closest_to": "sacramento",
            "address": "Mount Baldy, Los Angeles County, California, United States of America",
            "locType": "hamlet",
            "blogLinks": [
                "http://www.california-blog.com/"
            ],
            "longitude": "-117.6600552"
        },
        "manchester boulevard": {
            "latitude": "33.9601364",
            "closest_to": "sacramento",
            "address": "Manchester Boulevard, Florence, LA, Los Angeles County, California, 90003, United States of America",
            "locType": "primary",
            "blogLinks": [
                "https://www.pinterest.com/aliciadelacruz/places-ive-been/"
            ],
            "longitude": "-118.2738786"
        },
        "buena park": {
            "latitude": "33.870413",
            "closest_to": "sacramento",
            "address": "Buena Park, Orange County, California, United States of America",
            "locType": "city",
            "blogLinks": [
                "http://www.roadsideamerica.com/location/ca"
            ],
            "longitude": "-117.9962164"
        },
        "telluride": {
            "latitude": "34.0815071",
            "closest_to": "sacramento",
            "address": "Telluride Street, Rose Hill, Highland Park, LA, Los Angeles County, California, 90031, United States of America",
            "locType": "track",
            "blogLinks": [
                "http://travel.nationalgeographic.com/travel/road-trips/four-corners-southwest-road-trip/"
            ],
            "longitude": "-118.1989424"
        },
        "santa clarita": {
            "latitude": "34.3916641",
            "closest_to": "sacramento",
            "address": "Santa Clarita, Los Angeles County, California, United States of America",
            "locType": "city",
            "blogLinks": [
                "http://www.roadsideamerica.com/location/ca"
            ],
            "longitude": "-118.5425859"
        },
        "morongo valley": {
            "latitude": "34.0537585",
            "closest_to": "sacramento",
            "address": "Morongo Valley, Vista Drive, Morongo Valley, San Bernardino County, California, 92256, United States of America",
            "locType": "administrative",
            "blogLinks": [
                "http://www.california-blog.com/"
            ],
            "longitude": "-116.596723958419"
        },
        "emerald bay": {
            "latitude": "38.9599078",
            "closest_to": "sacramento",
            "address": "Emerald Bay, El Dorado County, California, United States of America",
            "locType": "hamlet",
            "blogLinks": [
                "https://www.virtualtourist.com/travel/North_America/United_States_of_America/California/Things_To_Do-California-TG-C-1.html"
            ],
            "longitude": "-120.0979629"
        },
        "solana beach": {
            "latitude": "32.9905597",
            "closest_to": "carlsbad",
            "address": "Solana Beach, San Diego County, California, United States of America",
            "locType": "city",
            "blogLinks": [
                "http://www.sandiego.org/articles/tours-sightseeing/highway-101-california.aspx"
            ],
            "longitude": "-117.2691315"
        },
        "museum of contemporary art san diego - la jolla": {
            "latitude": "32.8445548",
            "closest_to": "carlsbad",
            "address": "Museum of Contemporary Art San Diego, 700, Prospect Street, La Jolla, San Diego, San Diego County, California, 92037-4291, United States of America",
            "locType": "museum",
            "blogLinks": [
                "http://www.sandiego.org/articles/tours-sightseeing/highway-101-california.aspx"
            ],
            "longitude": "-117.2779949"
        },
        "willow creek": {
            "latitude": "40.9395774",
            "closest_to": "sacramento",
            "address": "Willow Creek, Humboldt County, California, United States of America",
            "locType": "hamlet",
            "blogLinks": [
                "http://www.roadsideamerica.com/location/ca"
            ],
            "longitude": "-123.6314411"
        },
        "palo alto": {
            "latitude": "37.442156",
            "closest_to": "sacramento",
            "address": "Palo Alto, Santa Clara County, California, United States of America",
            "locType": "city",
            "blogLinks": [
                "http://www.roadsideamerica.com/location/ca"
            ],
            "longitude": "-122.1634471"
        },
        "san diego botanic garden": {
            "latitude": "33.053482",
            "closest_to": "carlsbad",
            "address": "San Diego Botanic Garden, Pacific View Lane, Encinitas, San Diego County, California, 92024, United States of America",
            "locType": "garden",
            "blogLinks": [
                "http://www.sandiego.org/articles/tours-sightseeing/highway-101-california.aspx"
            ],
            "longitude": "-117.281085005264"
        },
        "coast highway": {
            "latitude": "33.1818019",
            "closest_to": "sacramento",
            "address": "Coast Highway, 1304 1/2, South Tremont Street, Oceanside, San Diego County, California, 92054, United States of America",
            "locType": "station",
            "blogLinks": [
                "http://www.sandiego.org/articles/tours-sightseeing/highway-101-california.aspx"
            ],
            "longitude": "-117.368699"
        },
        "glendora": {
            "latitude": "34.1361187",
            "closest_to": "sacramento",
            "address": "Glendora, Los Angeles County, California, United States of America",
            "locType": "city",
            "blogLinks": [
                "http://www.roadsideamerica.com/location/ca"
            ],
            "longitude": "-117.8653389"
        },
        "whittier": {
            "latitude": "33.9748932",
            "closest_to": "sacramento",
            "address": "Whittier, Los Angeles County, California, United States of America",
            "locType": "city",
            "blogLinks": [
                "http://www.roadsideamerica.com/location/ca"
            ],
            "longitude": "-118.0336974"
        },
        "monrovia": {
            "latitude": "34.1483499",
            "closest_to": "sacramento",
            "address": "Monrovia, Los Angeles County, California, United States of America",
            "locType": "city",
            "blogLinks": [
                "http://www.california-blog.com/"
            ],
            "longitude": "-118.0014516"
        },
        "carlsbad california": {
            "latitude": "33.1580933",
            "closest_to": "sacramento",
            "address": "Carlsbad, San Diego County, California, United States of America",
            "locType": "city",
            "blogLinks": [
                "http://visitcarlsbad.com/attractions",
                "http://www.sandiego.org/articles/tours-sightseeing/highway-101-california.aspx"
            ],
            "longitude": "-117.3505938"
        },
        "newport beach ca": {
            "latitude": "33.6170092",
            "closest_to": "sacramento",
            "address": "Newport Beach, Orange County, California, United States of America",
            "locType": "city",
            "blogLinks": [
                "http://www.california-blog.com/"
            ],
            "longitude": "-117.92944"
        },
        "la": {
            "latitude": "36.7014631",
            "closest_to": "sacramento",
            "address": "California, United States of America",
            "locType": "administrative",
            "blogLinks": [
                "http://www.sandiego.org/articles/tours-sightseeing/highway-101-california.aspx"
            ],
            "longitude": "-118.7559973"
        },
        "palm springs air museum ca": {
            "latitude": "33.83250375",
            "closest_to": "sacramento",
            "address": "Palm Springs Air Museum, 745, North Gene Autry Trail, Palm Springs, Riverside County, California, 92262, United States of America",
            "locType": "museum",
            "blogLinks": [
                "http://www.california-blog.com/"
            ],
            "longitude": "-116.504677958796"
        },
        "grand canyon": {
            "latitude": "33.9332326",
            "closest_to": "sacramento",
            "address": "Grand Canyon, Downtown Brea, Brea, Orange County, California, 92821, United States of America",
            "locType": "residential",
            "blogLinks": [
                "http://travel.nationalgeographic.com/travel/road-trips/four-corners-southwest-road-trip/"
            ],
            "longitude": "-117.8915409"
        },
        "mexico": {
            "latitude": "28.973",
            "closest_to": "carlsbad",
            "address": "California, Hermosillo, Sonora, M\u00e9xico",
            "locType": "village",
            "blogLinks": [
                "http://www.roadsideamerica.com/location/ca",
                "https://www.virtualtourist.com/travel/North_America/United_States_of_America/California/Things_To_Do-California-TG-C-1.html"
            ],
            "longitude": "-111.8196666"
        },
        "north lake ca": {
            "latitude": "37.76958295",
            "closest_to": "sacramento",
            "address": "North Lake, Chain of Lakes Drive East, Sunset District, SF, California, 94122, United States of America",
            "locType": "water",
            "blogLinks": [
                "http://www.california-blog.com/"
            ],
            "longitude": "-122.501983281136"
        },
        "aguanga": {
            "latitude": "33.4428094",
            "closest_to": "sacramento",
            "address": "Aguanga, Riverside County, California, United States of America",
            "locType": "hamlet",
            "blogLinks": [
                "http://www.roadsideamerica.com/location/ca"
            ],
            "longitude": "-116.8650234"
        },
        "oakland": {
            "latitude": "37.8044557",
            "closest_to": "sacramento",
            "address": "Oakland, Alameda County, California, United States of America",
            "locType": "city",
            "blogLinks": [
                "https://www.virtualtourist.com/travel/North_America/United_States_of_America/California/Things_To_Do-California-TG-C-1.html"
            ],
            "longitude": "-122.2713562"
        },
        "san diego": {
            "latitude": "32.7174209",
            "closest_to": "carlsbad",
            "address": "San Diego, San Diego County, California, United States of America",
            "locType": "city",
            "blogLinks": [
                "http://www.roadsideamerica.com/location/ca",
                "http://visitcarlsbad.com/attractions",
                "http://www.sandiego.org/articles/tours-sightseeing/highway-101-california.aspx",
                "https://www.virtualtourist.com/travel/North_America/United_States_of_America/California/Things_To_Do-California-TG-C-1.html"
            ],
            "longitude": "-117.1627713"
        },
        "morro rock ca": {
            "latitude": "35.369669",
            "closest_to": "sacramento",
            "address": "Morro Rock, Morro Bay, San Luis Obispo County, California, United States of America",
            "locType": "peak",
            "blogLinks": [
                "http://www.california-blog.com/"
            ],
            "longitude": "-120.8676993"
        },
        "woodland hills": {
            "latitude": "34.1683386",
            "closest_to": "sacramento",
            "address": "Woodland Hills, LA, Los Angeles County, California, United States of America",
            "locType": "suburb",
            "blogLinks": [
                "http://www.roadsideamerica.com/location/ca"
            ],
            "longitude": "-118.6059196"
        },
        "water park": {
            "latitude": "33.9044755",
            "closest_to": "sacramento",
            "address": "water park, Gibson Street, Riverside, Riverside County, California, 92503, United States of America",
            "locType": "water",
            "blogLinks": [
                "http://www.sandiego.org/articles/tours-sightseeing/highway-101-california.aspx"
            ],
            "longitude": "-117.429414124427"
        },
        "apple valley": {
            "latitude": "34.5008311",
            "closest_to": "sacramento",
            "address": "Apple Valley, San Bernardino County, California, United States of America",
            "locType": "administrative",
            "blogLinks": [
                "http://www.roadsideamerica.com/location/ca"
            ],
            "longitude": "-117.1858758"
        },
        "monterey bay aquarium ca": {
            "latitude": "36.61809095",
            "closest_to": "sacramento",
            "address": "MBA, 886, Cannery Row, Monterey, Monterey County, California, 93940, United States of America",
            "locType": "aquarium",
            "blogLinks": [
                "http://www.california-blog.com/"
            ],
            "longitude": "-121.901680002002"
        },
        "fulton mall": {
            "latitude": "36.73552975",
            "closest_to": "sacramento",
            "address": "Fulton Mall, Fresno County, California, 93701, United States of America",
            "locType": "commercial",
            "blogLinks": [
                "https://www.virtualtourist.com/travel/North_America/United_States_of_America/California/Things_To_Do-California-TG-C-1.html"
            ],
            "longitude": "-119.791520463653"
        },
        "ontario": {
            "latitude": "34.065846",
            "closest_to": "sacramento",
            "address": "Ontario, San Bernardino County, California, United States of America",
            "locType": "city",
            "blogLinks": [
                "http://www.california-blog.com/"
            ],
            "longitude": "-117.6484303"
        },
        "palm springs": {
            "latitude": "33.8246269",
            "closest_to": "sacramento",
            "address": "Palm Springs, Riverside County, California, United States of America",
            "locType": "city",
            "blogLinks": [
                "http://www.roadsideamerica.com/location/ca",
                "https://www.virtualtourist.com/travel/North_America/United_States_of_America/California/Things_To_Do-California-TG-C-1.html"
            ],
            "longitude": "-116.5403029"
        },
        "navajo": {
            "latitude": "33.7322772",
            "closest_to": "sacramento",
            "address": "Navajo, Browning, Tustin, Orange County, California, 92782, United States of America",
            "locType": "residential",
            "blogLinks": [
                "http://travel.nationalgeographic.com/travel/road-trips/four-corners-southwest-road-trip/"
            ],
            "longitude": "-117.8022844"
        },
        "pacific ocean": {
            "latitude": "36.16305775",
            "closest_to": "sacramento",
            "address": "Pacific Ocean, Cabrillo Highway, Monterey County, California, 93920, United States of America",
            "locType": "cliff",
            "blogLinks": [
                "http://www.sandiego.org/articles/tours-sightseeing/highway-101-california.aspx",
                "https://www.yelp.com/biz/the-flower-fields-carlsbad"
            ],
            "longitude": "-121.678715787326"
        },
        "san francisco": {
            "latitude": "37.7792808",
            "closest_to": "sacramento",
            "address": "SF, California, United States of America",
            "locType": "city",
            "blogLinks": [
                "http://www.roadsideamerica.com/location/ca",
                "https://www.pinterest.com/aliciadelacruz/places-ive-been/"
            ],
            "longitude": "-122.4192362"
        },
        "owens river": {
            "latitude": "37.4100005",
            "closest_to": "sacramento",
            "address": "Owens River, Inyo County, California, United States of America",
            "locType": "river",
            "blogLinks": [
                "https://www.virtualtourist.com/travel/North_America/United_States_of_America/California/Things_To_Do-California-TG-C-1.html"
            ],
            "longitude": "-118.3819013"
        },
        "san francisco de solano": {
            "latitude": "38.21389995",
            "closest_to": "sacramento",
            "address": "California Missions Museum, Arnold Drive, McGill, Sonoma County, California, United States of America",
            "locType": "museum",
            "blogLinks": [
                "https://www.virtualtourist.com/travel/North_America/United_States_of_America/California/Things_To_Do-California-TG-C-1.html"
            ],
            "longitude": "-122.458560315194"
        },
        "carlsbad": {
            "latitude": "33.1580933",
            "closest_to": "sacramento",
            "address": "Carlsbad, San Diego County, California, United States of America",
            "locType": "city",
            "blogLinks": [
                "https://www.wildlife.ca.gov/Lands/Places-to-Visit/Carlsbad-Highlands-ER",
                "http://www.california-blog.com/",
                "http://carlsbad-village.com/",
                "http://visitcarlsbad.com/attractions",
                "http://www.distancesfrom.com/us/travel-from-Sacramento-to-Carlsbad/TravelFromHistory/8727189.aspx",
                "https://www.yelp.com/biz/the-flower-fields-carlsbad",
                "http://www.distancesfrom.com/us/travel-from-Carlsbad-to-Sacramento-CA/TravelFromHistory/6731057.aspx",
                "http://www.roadsideamerica.com/location/ca",
                "http://karolinapatryk.com/karlovy-vary-travel-guide/",
                "http://www.sandiego.org/articles/tours-sightseeing/highway-101-california.aspx",
                "http://visitcarlsbad.com/",
                "http://www.distancesfrom.com/us/travel-from-Sacramento-to-Carlsbad/TravelFromHistory/16958456.aspx"
            ],
            "longitude": "-117.3505938"
        },
        "san bernardino": {
            "latitude": "34.1083449",
            "closest_to": "sacramento",
            "address": "San Bernardino, San Bernardino County, California, United States of America",
            "locType": "city",
            "blogLinks": [
                "https://www.pinterest.com/aliciadelacruz/places-ive-been/"
            ],
            "longitude": "-117.2897651"
        },
        "sequoia national park": {
            "latitude": "36.49584065",
            "closest_to": "sacramento",
            "address": "Sequoia National Park, Black Rock Pass Trail, Mineral King, Tulare County, California, United States of America",
            "locType": "national_park",
            "blogLinks": [
                "http://www.roadsideamerica.com/location/ca"
            ],
            "longitude": "-118.559919284386"
        },
        "sierra": {
            "latitude": "39.5849065",
            "closest_to": "sacramento",
            "address": "Sierra County, California, United States of America",
            "locType": "administrative",
            "blogLinks": [
                "https://www.virtualtourist.com/travel/North_America/United_States_of_America/California/Things_To_Do-California-TG-C-1.html"
            ],
            "longitude": "-120.530573"
        },
        "pacifica": {
            "latitude": "37.6138253",
            "closest_to": "sacramento",
            "address": "Pacifica, San Mateo County, California, United States of America",
            "locType": "city",
            "blogLinks": [
                "http://www.roadsideamerica.com/location/ca"
            ],
            "longitude": "-122.4869193"
        },
        "101": {
            "latitude": "37.772385",
            "closest_to": "sacramento",
            "address": "Gough & Market (City College), Gough Street, Western Addition, SF, California, 94114, United States of America",
            "locType": "car_sharing",
            "blogLinks": [
                "http://www.sandiego.org/articles/tours-sightseeing/highway-101-california.aspx"
            ],
            "longitude": "-122.4213849"
        },
        "san diego freeway": {
            "latitude": "32.7285162",
            "closest_to": "carlsbad",
            "address": "San Diego Freeway, Hillcrest, San Diego, San Diego County, California, 92101, United States of America",
            "locType": "motorway",
            "blogLinks": [
                "https://www.pinterest.com/aliciadelacruz/places-ive-been/"
            ],
            "longitude": "-117.1690377"
        },
        "baldwin park": {
            "latitude": "34.0854739",
            "closest_to": "sacramento",
            "address": "Baldwin Park, Los Angeles County, California, United States of America",
            "locType": "city",
            "blogLinks": [
                "http://www.roadsideamerica.com/location/ca"
            ],
            "longitude": "-117.961176"
        },
        "richmond": {
            "latitude": "37.9357576",
            "closest_to": "sacramento",
            "address": "Richmond, Contra Costa County, California, United States of America",
            "locType": "city",
            "blogLinks": [
                "http://www.roadsideamerica.com/location/ca"
            ],
            "longitude": "-122.3477485"
        },
        "bakersfield": {
            "latitude": "35.3738712",
            "closest_to": "sacramento",
            "address": "Bakersfield, Kern County, California, United States of America",
            "locType": "city",
            "blogLinks": [
                "http://www.roadsideamerica.com/location/ca"
            ],
            "longitude": "-119.0194638"
        },
        "bristol": {
            "latitude": "38.0181316",
            "closest_to": "sacramento",
            "address": "Bristol, Hercules, Contra Costa County, California, 94547, United States of America",
            "locType": "residential",
            "blogLinks": [
                "http://www.sandiego.org/articles/tours-sightseeing/highway-101-california.aspx"
            ],
            "longitude": "-122.2587078"
        },
        "atascadero": {
            "latitude": "35.4894169",
            "closest_to": "sacramento",
            "address": "Atascadero, San Luis Obispo County, California, United States of America",
            "locType": "city",
            "blogLinks": [
                "http://www.roadsideamerica.com/location/ca"
            ],
            "longitude": "-120.6707254"
        },
        "temecula": {
            "latitude": "33.4946353",
            "closest_to": "sacramento",
            "address": "Temecula, Riverside County, California, United States of America",
            "locType": "city",
            "blogLinks": [
                "http://www.roadsideamerica.com/location/ca"
            ],
            "longitude": "-117.147366"
        },
        "dolores river": {
            "latitude": "36.2435616",
            "closest_to": "sacramento",
            "address": "Dolores Creek, Monterey County, California, United States of America",
            "locType": "stream",
            "blogLinks": [
                "http://travel.nationalgeographic.com/travel/road-trips/four-corners-southwest-road-trip/"
            ],
            "longitude": "-121.6921082"
        },
        "colma": {
            "latitude": "37.6768779",
            "closest_to": "sacramento",
            "address": "Colma, San Mateo County, California, United States of America",
            "locType": "administrative",
            "blogLinks": [
                "http://www.roadsideamerica.com/location/ca"
            ],
            "longitude": "-122.4596949"
        },
        "san quentin": {
            "latitude": "37.9413133",
            "closest_to": "sacramento",
            "address": "San Quentin, Marin County, California, United States of America",
            "locType": "hamlet",
            "blogLinks": [
                "http://www.roadsideamerica.com/location/ca"
            ],
            "longitude": "-122.4849738"
        },
        "riverside national cemetery": {
            "latitude": "33.87692125",
            "closest_to": "sacramento",
            "address": "Riverside National Cemetery, 22495, Alessandro, Riverside County, California, 92518, United States of America",
            "locType": "cemetery",
            "blogLinks": [
                "http://www.california-blog.com/"
            ],
            "longitude": "-117.270726607134"
        },
        "san carlos": {
            "latitude": "37.4982065",
            "closest_to": "sacramento",
            "address": "San Carlos, San Mateo County, California, United States of America",
            "locType": "city",
            "blogLinks": [
                "http://www.roadsideamerica.com/location/ca"
            ],
            "longitude": "-122.266149723864"
        }
    },
    "sacramento": {
        "type": "city",
        "osm_id": "6232940",
        "class": "place",
        "importance": 0.80674211027009,
        "lat": "38.5815719",
        "lon": "-121.4943995",
        "boundingbox": [
            "38.437574",
            "38.685507",
            "-121.5601199",
            "-121.3627399"
        ],
        "display_name": "Sacramento, Sacramento County, California, United States of America",
        "licence": "Data \u00a9 OpenStreetMap contributors, ODbL 1.0. http://www.openstreetmap.org/copyright",
        "icon": "https://nominatim.openstreetmap.org/images/mapicons/poi_place_city.p.20.png",
        "place_id": "159758891",
        "osm_type": "relation"
    }
}