{
    "carlsbad": {
        "type": "city",
        "osm_id": "2305279",
        "class": "place",
        "importance": 0.66828891079931,
        "lat": "33.1580933",
        "lon": "-117.3505938",
        "boundingbox": [
            "33.0601812",
            "33.1824213",
            "-117.3588312",
            "-117.2162645"
        ],
        "display_name": "Carlsbad, San Diego County, California, United States of America",
        "licence": "Data \u00a9 OpenStreetMap contributors, ODbL 1.0. http://www.openstreetmap.org/copyright",
        "icon": "https://nominatim.openstreetmap.org/images/mapicons/poi_place_city.p.20.png",
        "place_id": "159570669",
        "osm_type": "relation"
    },
    "mentions": {
        "hollywood boulevard": {
            "latitude": "34.1016312",
            "closest_to": "long beach",
            "address": "Hollywood Boulevard, Hollywood, LA, Los Angeles County, California, 90028, United States of America",
            "locType": "secondary",
            "blogLinks": [
                "https://answers.yahoo.com/question/index?qid=20080530211242AArXWMD"
            ],
            "longitude": "-118.32684"
        },
        "highway 101": {
            "latitude": "32.9967358",
            "closest_to": "carlsbad",
            "address": "Highway 101, Solana Beach, San Diego County, California, 92075, United States of America",
            "locType": "primary",
            "blogLinks": [
                "https://blog.trekaroo.com/california-dreaming-road-trip-from-san-francisco-to-los-angeles/"
            ],
            "longitude": "-117.2731974"
        },
        "irvine": {
            "latitude": "33.6856969",
            "closest_to": "long beach",
            "address": "Irvine, Orange County, California, United States of America",
            "locType": "city",
            "blogLinks": [
                "https://www.yelp.com/biz/oceanside-metrolink-train-station-oceanside"
            ],
            "longitude": "-117.8259818"
        },
        "pacific coast highway": {
            "latitude": "33.6595127",
            "closest_to": "long beach",
            "address": "Pacific Coast Highway, Huntington Beach, Orange County, California, 92648, United States of America",
            "locType": "primary",
            "blogLinks": [
                "http://wikitravel.org/en/San_Diego",
                "http://www.sandiego.org/what-to-do/beaches/carlsbad.aspx",
                "https://www.tripadvisor.com/Travel-g28926-c174834/California:United-States:Coast.Highway.Route.From.La.To.San.Diego.html"
            ],
            "longitude": "-118.0051687"
        },
        "india": {
            "latitude": "32.72025735",
            "closest_to": "carlsbad",
            "address": "Star of India, North Harbor Drive, Hillcrest, San Diego, San Diego County, California, 92106, United States of America",
            "locType": "attraction",
            "blogLinks": [
                "http://wikitravel.org/en/San_Diego"
            ],
            "longitude": "-117.173543004762"
        },
        "phoenix": {
            "latitude": "33.6988015",
            "closest_to": "long beach",
            "address": "Phoenix, Heritage Park Apartments, El Camino Real, Irvine, Orange County, California, 92604, United States of America",
            "locType": "residential",
            "blogLinks": [
                "http://wikitravel.org/en/San_Diego"
            ],
            "longitude": "-117.7764481"
        },
        "california legoland": {
            "latitude": "33.1278683",
            "closest_to": "carlsbad",
            "address": "Legoland California, 1, LEGOLAND drive, Carlsbad, San Diego County, California, 92008, United States of America",
            "locType": "theme_park",
            "blogLinks": [
                "https://www.pinterest.com/pin/195132596327844645/"
            ],
            "longitude": "-117.311664211922"
        },
        "linda vista road": {
            "latitude": "32.805611",
            "closest_to": "carlsbad",
            "address": "Linda Vista Road, Mission Valley, San Diego, San Diego County, California, 92111, United States of America",
            "locType": "secondary",
            "blogLinks": [
                "http://wikitravel.org/en/San_Diego"
            ],
            "longitude": "-117.1553189"
        },
        "old town-mission valley": {
            "latitude": "32.7566177",
            "closest_to": "carlsbad",
            "address": "Old Town, San Diego, San Diego County, California, United States of America",
            "locType": "suburb",
            "blogLinks": [
                "http://wikitravel.org/en/San_Diego"
            ],
            "longitude": "-117.2028231"
        },
        "tijuana": {
            "latitude": "32.5008626",
            "closest_to": "carlsbad",
            "address": "Tijuana, Baja California, M\u00e9xico",
            "locType": "city",
            "blogLinks": [
                "http://wikitravel.org/en/San_Diego"
            ],
            "longitude": "-116.9641656"
        },
        "redondo beach pier": {
            "latitude": "33.8397546",
            "closest_to": "long beach",
            "address": "Redondo Pier Inn, South Pacific Coast Highway, Redondo Beach, Los Angeles County, California, 90277, United States of America",
            "locType": "motel",
            "blogLinks": [
                "https://www.tripadvisor.com/Travel-g28926-c174834/California:United-States:Coast.Highway.Route.From.La.To.San.Diego.html"
            ],
            "longitude": "-118.3853455"
        },
        "catalina avenue": {
            "latitude": "34.1340069",
            "closest_to": "long beach",
            "address": "Catalina Avenue, Pasadena, Los Angeles County, California, 91106, United States of America",
            "locType": "residential",
            "blogLinks": [
                "https://www.tripadvisor.com/Travel-g28926-c174834/California:United-States:Coast.Highway.Route.From.La.To.San.Diego.html"
            ],
            "longitude": "-118.1292997"
        },
        "imperial beach": {
            "latitude": "32.5839444",
            "closest_to": "carlsbad",
            "address": "Imperial Beach, San Diego County, California, United States of America",
            "locType": "city",
            "blogLinks": [
                "http://wikitravel.org/en/San_Diego"
            ],
            "longitude": "-117.1130848"
        },
        "moonlight beach": {
            "latitude": "32.814285",
            "closest_to": "carlsbad",
            "address": "Moonlight Lane, Pacific Beach, San Diego, San Diego County, California, 92037, United States of America",
            "locType": "residential",
            "blogLinks": [
                "http://activerain.com/blogsview/711985/carlsbad-things-to-do---visit-and-enjoy-southern-california-s-marvelous-topography"
            ],
            "longitude": "-117.2576219"
        },
        "la jolla": {
            "latitude": "32.8472711",
            "closest_to": "carlsbad",
            "address": "La Jolla, San Diego, San Diego County, California, United States of America",
            "locType": "suburb",
            "blogLinks": [
                "http://wikitravel.org/en/San_Diego",
                "http://activerain.com/blogsview/711985/carlsbad-things-to-do---visit-and-enjoy-southern-california-s-marvelous-topography"
            ],
            "longitude": "-117.2742085"
        },
        "naples island": {
            "latitude": "33.7559024",
            "closest_to": "long beach",
            "address": "Naples Islands, Long Beach, Los Angeles County, California, United States of America",
            "locType": "island",
            "blogLinks": [
                "https://www.tripadvisor.com/Travel-g28926-c174834/California:United-States:Coast.Highway.Route.From.La.To.San.Diego.html"
            ],
            "longitude": "-118.1232477"
        },
        "encinitas": {
            "latitude": "33.0369867",
            "closest_to": "carlsbad",
            "address": "Encinitas, San Diego County, California, United States of America",
            "locType": "city",
            "blogLinks": [
                "http://wikitravel.org/en/San_Diego",
                "https://www.tripadvisor.com/Travel-g28926-c174834/California:United-States:Coast.Highway.Route.From.La.To.San.Diego.html",
                "http://activerain.com/blogsview/711985/carlsbad-things-to-do---visit-and-enjoy-southern-california-s-marvelous-topography"
            ],
            "longitude": "-117.2919817"
        },
        "genesee avenue": {
            "latitude": "34.0376458",
            "closest_to": "long beach",
            "address": "Genesee Avenue, South Carthay, The Village Green, LA, Los Angeles County, California, 90016, United States of America",
            "locType": "residential",
            "blogLinks": [
                "http://wikitravel.org/en/San_Diego"
            ],
            "longitude": "-118.3685811"
        },
        "southern california": {
            "latitude": "34.0224149",
            "closest_to": "long beach",
            "address": "University of Southern California, Watt Way, Saint James Park, LA, Los Angeles County, California, 90089, United States of America",
            "locType": "university",
            "blogLinks": [
                "http://www.visitlongbeach.com/attractions/",
                "http://www.sandiego.org/what-to-do/beaches/oceanside.aspx",
                "http://wikitravel.org/en/San_Diego",
                "http://activerain.com/blogsview/711985/carlsbad-things-to-do---visit-and-enjoy-southern-california-s-marvelous-topography",
                "http://www.beachsidevacationrentals.net/",
                "https://www.mapquest.com/us/california/amusement-parks-carlsbad/legoland-california-267697828",
                "https://blog.trekaroo.com/california-dreaming-road-trip-from-san-francisco-to-los-angeles/"
            ],
            "longitude": "-118.286343973446"
        },
        "san clemente": {
            "latitude": "33.4270275",
            "closest_to": "long beach",
            "address": "San Clemente, Orange County, California, United States of America",
            "locType": "city",
            "blogLinks": [
                "http://wikitravel.org/en/San_Diego",
                "https://www.yelp.com/biz/oceanside-metrolink-train-station-oceanside"
            ],
            "longitude": "-117.6124178"
        },
        "cuyamaca rancho state park": {
            "latitude": "32.86396725",
            "closest_to": "carlsbad",
            "address": "Cuyamaca Rancho State Park, Highway 79, Guatay, San Diego County, California, 92036, United States of America",
            "locType": "park",
            "blogLinks": [
                "http://wikitravel.org/en/San_Diego"
            ],
            "longitude": "-116.591579345466"
        },
        "tamarack beach": {
            "latitude": "33.15106155",
            "closest_to": "carlsbad",
            "address": "Tamarack Beach, Carlsbad Boulevard, Carlsbad, San Diego County, California, 92008, United States of America",
            "locType": "beach",
            "blogLinks": [
                "http://visitcarlsbad.com/beaches"
            ],
            "longitude": "-117.348550722652"
        },
        "gaslamp quarter": {
            "latitude": "32.7109444",
            "closest_to": "carlsbad",
            "address": "Gaslamp Quarter, San Diego County, California, United States of America",
            "locType": "hamlet",
            "blogLinks": [
                "http://wikitravel.org/en/San_Diego"
            ],
            "longitude": "-117.1597028"
        },
        "college avenue": {
            "latitude": "34.0158908",
            "closest_to": "long beach",
            "address": "College Avenue, Palms, LA, Los Angeles County, California, 90232, United States of America",
            "locType": "residential",
            "blogLinks": [
                "http://wikitravel.org/en/San_Diego"
            ],
            "longitude": "-118.411823"
        },
        "ballast point": {
            "latitude": "33.4306128",
            "closest_to": "long beach",
            "address": "Ballast Point, Two Harbors, Los Angeles County, California, United States of America",
            "locType": "locality",
            "blogLinks": [
                "http://wikitravel.org/en/San_Diego"
            ],
            "longitude": "-118.5054834"
        },
        "ocean beach": {
            "latitude": "32.7477784",
            "closest_to": "carlsbad",
            "address": "Ocean Beach, San Diego, San Diego County, California, United States of America",
            "locType": "region",
            "blogLinks": [
                "http://wikitravel.org/en/San_Diego"
            ],
            "longitude": "-117.249321"
        },
        "hillcrest": {
            "latitude": "32.7483621",
            "closest_to": "carlsbad",
            "address": "Hillcrest, San Diego, San Diego County, California, United States of America",
            "locType": "suburb",
            "blogLinks": [
                "http://wikitravel.org/en/San_Diego"
            ],
            "longitude": "-117.1609795"
        },
        "hollywood": {
            "latitude": "34.1028268",
            "closest_to": "long beach",
            "address": "Hollywood, LA, Los Angeles County, California, United States of America",
            "locType": "suburb",
            "blogLinks": [
                "https://answers.yahoo.com/question/index?qid=20080530211242AArXWMD",
                "http://www.beachsidevacationrentals.net/"
            ],
            "longitude": "-118.3299898"
        },
        "legoland park": {
            "latitude": "33.1334161",
            "closest_to": "carlsbad",
            "address": "Legoland Drive, Carlsbad, San Diego County, California, 92009, United States of America",
            "locType": "tertiary",
            "blogLinks": [
                "https://www.mapquest.com/us/california/amusement-parks-carlsbad/legoland-california-267697828"
            ],
            "longitude": "-117.3171628"
        },
        "latin america": {
            "latitude": "32.88513545",
            "closest_to": "carlsbad",
            "address": "Latin America Hall, North Torrey Pines Road, La Jolla, San Diego, San Diego County, California, 92037, United States of America",
            "locType": "yes",
            "blogLinks": [
                "http://wikitravel.org/en/San_Diego"
            ],
            "longitude": "-117.243474813578"
        },
        "esmeralda": {
            "latitude": "34.0829329",
            "closest_to": "long beach",
            "address": "Esmeralda Street, Rose Hill, Highland Park, LA, Los Angeles County, California, 90032, United States of America",
            "locType": "residential",
            "blogLinks": [
                "http://wikitravel.org/en/San_Diego"
            ],
            "longitude": "-118.1939061"
        },
        "viejas arena": {
            "latitude": "32.77380925",
            "closest_to": "carlsbad",
            "address": "Viejas Arena, Aztec Walk, San Diego, San Diego County, California, 92182, United States of America",
            "locType": "sports_centre",
            "blogLinks": [
                "http://wikitravel.org/en/San_Diego"
            ],
            "longitude": "-117.074548235413"
        },
        "newport beach california": {
            "latitude": "33.6170092",
            "closest_to": "long beach",
            "address": "Newport Beach, Orange County, California, United States of America",
            "locType": "city",
            "blogLinks": [
                "https://answers.yahoo.com/question/index?qid=20080530211242AArXWMD"
            ],
            "longitude": "-117.92944"
        },
        "west coast": {
            "latitude": "34.0222263",
            "closest_to": "long beach",
            "address": "West Coast, Motor Avenue, Palms, LA, Los Angeles County, California, 90034-5702, United States of America",
            "locType": "plumber",
            "blogLinks": [
                "http://www.beachsidevacationrentals.net/"
            ],
            "longitude": "-118.4051087"
        },
        "san bernardino": {
            "latitude": "34.1083449",
            "closest_to": "long beach",
            "address": "San Bernardino, San Bernardino County, California, United States of America",
            "locType": "city",
            "blogLinks": [
                "http://wikitravel.org/en/San_Diego",
                "https://www.yelp.com/biz/oceanside-metrolink-train-station-oceanside"
            ],
            "longitude": "-117.2897651"
        },
        "hermosa beach": {
            "latitude": "33.86428",
            "closest_to": "long beach",
            "address": "Hermosa Beach, Los Angeles County, California, United States of America",
            "locType": "city",
            "blogLinks": [
                "https://www.tripadvisor.com/Travel-g28926-c174834/California:United-States:Coast.Highway.Route.From.La.To.San.Diego.html"
            ],
            "longitude": "-118.3959099"
        },
        "calavera hills": {
            "latitude": "33.1709614",
            "closest_to": "carlsbad",
            "address": "Calavera Lake, Sky Haven Lane, Oceanside, San Diego County, California, 92056, United States of America",
            "locType": "reservoir",
            "blogLinks": [
                "http://activerain.com/blogsview/4742976/places-to-hike-and-walk-in-carlsbad-ca"
            ],
            "longitude": "-117.2842144"
        },
        "morena blvd": {
            "latitude": "32.816795",
            "closest_to": "carlsbad",
            "address": "Morena Boulevard, Pacific Beach, San Diego, San Diego County, California, 92110, United States of America",
            "locType": "secondary",
            "blogLinks": [
                "http://wikitravel.org/en/San_Diego"
            ],
            "longitude": "-117.2209089"
        },
        "north park": {
            "latitude": "32.7408842",
            "closest_to": "carlsbad",
            "address": "North Park, San Diego, San Diego County, California, 92104, United States of America",
            "locType": "neighbourhood",
            "blogLinks": [
                "http://wikitravel.org/en/San_Diego"
            ],
            "longitude": "-117.1305876"
        },
        "houston": {
            "latitude": "34.4422871",
            "closest_to": "long beach",
            "address": "Houston, Plum Canyon, Canyon Country, Los Angeles County, California, 91351, United States of America",
            "locType": "residential",
            "blogLinks": [
                "https://www.yelp.com/biz/carlsbad-caverns-national-park-carlsbad"
            ],
            "longitude": "-118.4777157"
        },
        "huntington beach": {
            "latitude": "33.6783336",
            "closest_to": "long beach",
            "address": "Huntington Beach, Orange County, California, United States of America",
            "locType": "city",
            "blogLinks": [
                "https://www.tripadvisor.com/Travel-g28926-c174834/California:United-States:Coast.Highway.Route.From.La.To.San.Diego.html"
            ],
            "longitude": "-118.0000165"
        },
        "botanical park": {
            "latitude": "34.12822345",
            "closest_to": "long beach",
            "address": "The Huntington Library, Art Collections, and Botanical Gardens, Euston Road, San Pasqual, San Marino, Los Angeles County, California, 91108, United States of America",
            "locType": "garden",
            "blogLinks": [
                "https://www.tripadvisor.com/Travel-g28926-c174834/California:United-States:Coast.Highway.Route.From.La.To.San.Diego.html"
            ],
            "longitude": "-118.114629254261"
        },
        "cannon road": {
            "latitude": "33.9225345",
            "closest_to": "long beach",
            "address": "Cannon Road, Riverside, Riverside County, California, 92506, United States of America",
            "locType": "residential",
            "blogLinks": [
                "http://www.sandiego.org/what-to-do/beaches/carlsbad.aspx"
            ],
            "longitude": "-117.3369461"
        },
        "torrey pines state beach": {
            "latitude": "32.91754945",
            "closest_to": "carlsbad",
            "address": "Torrey Pines State Beach, Yucca Point Trail, Del Mar, San Diego, San Diego County, California, 92121, United States of America",
            "locType": "beach",
            "blogLinks": [
                "http://wikitravel.org/en/San_Diego"
            ],
            "longitude": "-117.259044437013"
        },
        "san luis rey river": {
            "latitude": "33.2586949",
            "closest_to": "long beach",
            "address": "San Luis Rey River, Oceanside, San Diego County, California, United States of America",
            "locType": "river",
            "blogLinks": [
                "http://www.sandiego.org/what-to-do/beaches/oceanside.aspx"
            ],
            "longitude": "-117.2623628"
        },
        "olvera street": {
            "latitude": "34.0581578",
            "closest_to": "long beach",
            "address": "Olvera Street, Naud Junction, Little Tokyo Historic District, LA, Los Angeles County, California, 90012, United States of America",
            "locType": "pedestrian",
            "blogLinks": [
                "https://answers.yahoo.com/question/index?qid=20080530211242AArXWMD"
            ],
            "longitude": "-118.2373201"
        },
        "france": {
            "latitude": "34.2013715",
            "closest_to": "long beach",
            "address": "France, Sherman Way, Canoga Park, LA, Los Angeles County, California, 91307, United States of America",
            "locType": "cafe",
            "blogLinks": [
                "http://wikitravel.org/en/San_Diego"
            ],
            "longitude": "-118.5935353"
        },
        "oceanside": {
            "latitude": "33.1958696",
            "closest_to": "long beach",
            "address": "Oceanside, San Diego County, California, United States of America",
            "locType": "city",
            "blogLinks": [
                "http://wikitravel.org/en/San_Diego",
                "https://www.tripadvisor.com/Travel-g28926-c174834/California:United-States:Coast.Highway.Route.From.La.To.San.Diego.html",
                "http://www.sandiego.org/what-to-do/beaches/oceanside.aspx",
                "https://www.yelp.com/biz/oceanside-metrolink-train-station-oceanside"
            ],
            "longitude": "-117.3794833"
        },
        "san diego county": {
            "latitude": "32.9637838",
            "closest_to": "carlsbad",
            "address": "San Diego County, California, United States of America",
            "locType": "administrative",
            "blogLinks": [
                "http://wikitravel.org/en/San_Diego",
                "https://www.tripadvisor.com/Travel-g28926-c174834/California:United-States:Coast.Highway.Route.From.La.To.San.Diego.html",
                "http://activerain.com/blogsview/711985/carlsbad-things-to-do---visit-and-enjoy-southern-california-s-marvelous-topography"
            ],
            "longitude": "-116.7706276"
        },
        "canada": {
            "latitude": "33.7298842",
            "closest_to": "long beach",
            "address": "La Canada, Lower Peters Canyon, Irvine, Orange County, California, 92602, United States of America",
            "locType": "residential",
            "blogLinks": [
                "http://wikitravel.org/en/San_Diego"
            ],
            "longitude": "-117.7641381"
        },
        "san ysidro blvd": {
            "latitude": "32.5520013",
            "closest_to": "carlsbad",
            "address": "San Ysidro, San Diego, San Diego County, California, United States of America",
            "locType": "suburb",
            "blogLinks": [
                "http://wikitravel.org/en/San_Diego"
            ],
            "longitude": "-117.0430812"
        },
        "scottsdale": {
            "latitude": "33.81271835",
            "closest_to": "long beach",
            "address": "Scottsdale Townhouse Association Maintenance Storage Area, Keystone, Carson, Los Angeles County, California, 90745, United States of America",
            "locType": "residential",
            "blogLinks": [
                "http://wikitravel.org/en/San_Diego"
            ],
            "longitude": "-118.262579480198"
        },
        "el cajon": {
            "latitude": "32.7947731",
            "closest_to": "carlsbad",
            "address": "El Cajon, San Diego County, California, United States of America",
            "locType": "city",
            "blogLinks": [
                "http://wikitravel.org/en/San_Diego"
            ],
            "longitude": "-116.9625268"
        },
        "san pedro": {
            "latitude": "33.7358518",
            "closest_to": "long beach",
            "address": "San Pedro, LA, Los Angeles County, California, United States of America",
            "locType": "suburb",
            "blogLinks": [
                "https://www.tripadvisor.com/Travel-g28926-c174834/California:United-States:Coast.Highway.Route.From.La.To.San.Diego.html"
            ],
            "longitude": "-118.2922933"
        },
        "anaheim": {
            "latitude": "33.8347516",
            "closest_to": "long beach",
            "address": "Anaheim, Orange County, California, United States of America",
            "locType": "city",
            "blogLinks": [
                "http://wikitravel.org/en/San_Diego",
                "https://www.yelp.com/biz/oceanside-metrolink-train-station-oceanside"
            ],
            "longitude": "-117.9117319"
        },
        "carlsbad village drive": {
            "latitude": "33.167503",
            "closest_to": "carlsbad",
            "address": "Carlsbad Village Drive, Carlsbad, San Diego County, California, 92008, United States of America",
            "locType": "secondary",
            "blogLinks": [
                "http://www.sandiego.org/what-to-do/beaches/carlsbad.aspx"
            ],
            "longitude": "-117.3353809"
        },
        "palomar mountain": {
            "latitude": "33.3228128",
            "closest_to": "carlsbad",
            "address": "Palomar Mountain, San Diego County, California, United States of America",
            "locType": "hamlet",
            "blogLinks": [
                "http://wikitravel.org/en/San_Diego"
            ],
            "longitude": "-116.8786358"
        },
        "carlsbad village": {
            "latitude": "33.1717184",
            "closest_to": "carlsbad",
            "address": "Carlsbad Village Drive, Carlsbad, San Diego County, California, 92008, United States of America",
            "locType": "secondary",
            "blogLinks": [
                "http://activerain.com/blogsview/4742976/places-to-hike-and-walk-in-carlsbad-ca"
            ],
            "longitude": "-117.322507"
        },
        "los angeles zoo": {
            "latitude": "34.1490441",
            "closest_to": "long beach",
            "address": "Los Angeles Zoo, Skyline Trail, West Glendale, LA, Los Angeles County, California, 91201, United States of America",
            "locType": "zoo",
            "blogLinks": [
                "https://answers.yahoo.com/question/index?qid=20080530211242AArXWMD"
            ],
            "longitude": "-118.290384452722"
        },
        "st. didacus": {
            "latitude": "34.3061118",
            "closest_to": "long beach",
            "address": "Saint Didacus School, Fellows Avenue, Sylmar, LA, Los Angeles County, California, 91342, United States of America",
            "locType": "school",
            "blogLinks": [
                "http://wikitravel.org/en/San_Diego"
            ],
            "longitude": "-118.4445275"
        },
        "new york": {
            "latitude": "34.0143928",
            "closest_to": "long beach",
            "address": "New York, West Covina, Los Angeles County, California, 91792, United States of America",
            "locType": "service",
            "blogLinks": [
                "https://www.mapquest.com/us/california/amusement-parks-carlsbad/legoland-california-267697828"
            ],
            "longitude": "-117.8984509"
        },
        "la jolla shores": {
            "latitude": "32.8556028",
            "closest_to": "carlsbad",
            "address": "La Jolla Shores, San Diego County, California, United States of America",
            "locType": "hamlet",
            "blogLinks": [
                "http://wikitravel.org/en/San_Diego"
            ],
            "longitude": "-117.2536478"
        },
        "leucadia": {
            "latitude": "33.0692223",
            "closest_to": "carlsbad",
            "address": "Leucadia, San Diego County, California, United States of America",
            "locType": "hamlet",
            "blogLinks": [
                "https://www.tripadvisor.com/Travel-g28926-c174834/California:United-States:Coast.Highway.Route.From.La.To.San.Diego.html"
            ],
            "longitude": "-117.3026809"
        },
        "balboa park | balboa park-hillcrest": {
            "latitude": "32.7310521",
            "closest_to": "carlsbad",
            "address": "Balboa Park, Plaza de Balboa, North Park, Hillcrest, San Diego, San Diego County, California, 92101, United States of America",
            "locType": "park",
            "blogLinks": [
                "http://wikitravel.org/en/San_Diego"
            ],
            "longitude": "-117.146580648446"
        },
        "montgomery field": {
            "latitude": "32.8149052",
            "closest_to": "carlsbad",
            "address": "Montgomery Field, John J Montgomery Drive, Mission Valley, San Diego, San Diego County, California, 92123, United States of America",
            "locType": "aerodrome",
            "blogLinks": [
                "http://wikitravel.org/en/San_Diego"
            ],
            "longitude": "-117.140320448768"
        },
        "laurel street": {
            "latitude": "32.7313904",
            "closest_to": "carlsbad",
            "address": "Laurel Street, Hillcrest, San Diego, San Diego County, California, 92101, United States of America",
            "locType": "secondary",
            "blogLinks": [
                "http://wikitravel.org/en/San_Diego"
            ],
            "longitude": "-117.1594735"
        },
        "santee": {
            "latitude": "32.8383828",
            "closest_to": "carlsbad",
            "address": "Santee, San Diego County, California, United States of America",
            "locType": "city",
            "blogLinks": [
                "http://wikitravel.org/en/San_Diego"
            ],
            "longitude": "-116.9739166"
        },
        "southern orange county beach": {
            "latitude": "33.6301901",
            "closest_to": "long beach",
            "address": "Southern Hills Drive, Newport Center, Newport Beach, Orange County, California, 92660, United States of America",
            "locType": "residential",
            "blogLinks": [
                "https://www.tripadvisor.com/Travel-g28926-c174834/California:United-States:Coast.Highway.Route.From.La.To.San.Diego.html"
            ],
            "longitude": "-117.8689039"
        },
        "san elijo hills": {
            "latitude": "33.0985028",
            "closest_to": "carlsbad",
            "address": "San Elijo Hills, San Marcos, San Diego County, California, United States of America",
            "locType": "suburb",
            "blogLinks": [
                "http://activerain.com/blogsview/4742976/places-to-hike-and-walk-in-carlsbad-ca"
            ],
            "longitude": "-117.199967"
        },
        "little mermaid": {
            "latitude": "33.8063623",
            "closest_to": "long beach",
            "address": "Little Mermaid: Ariel's Undersea Adventure, 1620, South Disneyland Drive, Anaheim Resort District, Anaheim, Orange County, California, 92802, United States of America",
            "locType": "attraction",
            "blogLinks": [
                "https://answers.yahoo.com/question/index?qid=20080530211242AArXWMD"
            ],
            "longitude": "-117.9213663"
        },
        "la mesa": {
            "latitude": "32.7678288",
            "closest_to": "carlsbad",
            "address": "La Mesa, San Diego County, California, United States of America",
            "locType": "city",
            "blogLinks": [
                "http://wikitravel.org/en/San_Diego"
            ],
            "longitude": "-117.0230838"
        },
        "carlsbad blvd": {
            "latitude": "33.1220759",
            "closest_to": "carlsbad",
            "address": "Carlsbad Boulevard, Carlsbad, San Diego County, California, 92008, United States of America",
            "locType": "secondary",
            "blogLinks": [
                "http://visitcarlsbad.com/beaches"
            ],
            "longitude": "-117.327437"
        },
        "north pacific st.": {
            "latitude": "33.14888",
            "closest_to": "carlsbad",
            "address": "North Pacific Street, Villa Vista Estates Mobil Home Park, San Marcos, San Diego County, California, 92069, United States of America",
            "locType": "residential",
            "blogLinks": [
                "http://www.sandiego.org/what-to-do/beaches/oceanside.aspx"
            ],
            "longitude": "-117.1937709"
        },
        "balboa park-hillcrest": {
            "latitude": "32.7310521",
            "closest_to": "carlsbad",
            "address": "Balboa Park, Plaza de Balboa, North Park, Hillcrest, San Diego, San Diego County, California, 92101, United States of America",
            "locType": "park",
            "blogLinks": [
                "http://wikitravel.org/en/San_Diego"
            ],
            "longitude": "-117.146580648446"
        },
        "buccaneer beach": {
            "latitude": "33.18153205",
            "closest_to": "long beach",
            "address": "Buccaneer Beach, Paseo del Mar, Oceanside, San Diego County, California, 92054, United States of America",
            "locType": "beach",
            "blogLinks": [
                "http://www.sandiego.org/what-to-do/beaches/oceanside.aspx"
            ],
            "longitude": "-117.373581367704"
        },
        "la jolla cove": {
            "latitude": "32.85051835",
            "closest_to": "carlsbad",
            "address": "La Jolla Cove, Coast Boulevard, La Jolla, San Diego, San Diego County, California, 92037, United States of America",
            "locType": "beach",
            "blogLinks": [
                "http://wikitravel.org/en/San_Diego"
            ],
            "longitude": "-117.273024234204"
        },
        "illinois": {
            "latitude": "34.4646044",
            "closest_to": "long beach",
            "address": "Illinois, Paris, Los Angeles County, California, 93510, United States of America",
            "locType": "residential",
            "blogLinks": [
                "http://wikitravel.org/en/San_Diego"
            ],
            "longitude": "-118.1758901"
        },
        "shelter island": {
            "latitude": "32.7113133",
            "closest_to": "carlsbad",
            "address": "Shelter Island, San Diego, San Diego County, California, United States of America",
            "locType": "island",
            "blogLinks": [
                "http://wikitravel.org/en/San_Diego"
            ],
            "longitude": "-117.2300318"
        },
        "rodeo drive": {
            "latitude": "32.824444",
            "closest_to": "carlsbad",
            "address": "Rodeo Drive, La Jolla, San Diego, San Diego County, California, 92037, United States of America",
            "locType": "residential",
            "blogLinks": [
                "http://www.beachsidevacationrentals.net/"
            ],
            "longitude": "-117.2609329"
        },
        "little italy": {
            "latitude": "32.7234579",
            "closest_to": "carlsbad",
            "address": "Little Italy, San Diego County, California, United States of America",
            "locType": "hamlet",
            "blogLinks": [
                "http://wikitravel.org/en/San_Diego"
            ],
            "longitude": "-117.1682719"
        },
        "escondido": {
            "latitude": "33.1216751",
            "closest_to": "carlsbad",
            "address": "Escondido, San Diego County, California, United States of America",
            "locType": "city",
            "blogLinks": [
                "http://wikitravel.org/en/San_Diego",
                "http://activerain.com/blogsview/4742976/places-to-hike-and-walk-in-carlsbad-ca"
            ],
            "longitude": "-117.0814848"
        },
        "chula vista": {
            "latitude": "32.6400541",
            "closest_to": "carlsbad",
            "address": "Chula Vista, San Diego County, California, United States of America",
            "locType": "city",
            "blogLinks": [
                "http://wikitravel.org/en/San_Diego"
            ],
            "longitude": "-117.0841954"
        },
        "lindbergh field": {
            "latitude": "32.73336075",
            "closest_to": "carlsbad",
            "address": "San Diego International Airport, Air Lane, Old Town, San Diego, San Diego County, California, 92101, United States of America",
            "locType": "aerodrome",
            "blogLinks": [
                "http://wikitravel.org/en/San_Diego"
            ],
            "longitude": "-117.193463366077"
        },
        "catalina": {
            "latitude": "33.810513",
            "closest_to": "long beach",
            "address": "Catalina, Anaheim Resort District, Anaheim, Orange County, California, 217, United States of America",
            "locType": "forest",
            "blogLinks": [
                "https://www.tripadvisor.com/Travel-g28926-c174834/California:United-States:Coast.Highway.Route.From.La.To.San.Diego.html"
            ],
            "longitude": "-117.920102663284"
        },
        "long beach": {
            "latitude": "33.78538945",
            "closest_to": "long beach",
            "address": "Long Beach, Los Angeles County, California, United States of America",
            "locType": "city",
            "blogLinks": [
                "https://answers.yahoo.com/question/index?qid=20080530211242AArXWMD",
                "https://www.tripadvisor.com/Travel-g28926-c174834/California:United-States:Coast.Highway.Route.From.La.To.San.Diego.html",
                "http://www.visitlongbeach.com/attractions/",
                "https://www.mapquest.com/us/california/amusement-parks-carlsbad/legoland-california-267697828"
            ],
            "longitude": "-118.158049215311"
        },
        "santa barbara & newport beach": {
            "latitude": "33.6192691",
            "closest_to": "long beach",
            "address": "Santa Barbara Drive, Newport Center, Newport Beach, Orange County, California, 92660, United States of America",
            "locType": "tertiary",
            "blogLinks": [
                "https://answers.yahoo.com/question/index?qid=20080530211242AArXWMD"
            ],
            "longitude": "-117.8805485"
        },
        "mission beach": {
            "latitude": "32.7827144",
            "closest_to": "carlsbad",
            "address": "Mission Beach, San Diego County, California, United States of America",
            "locType": "hamlet",
            "blogLinks": [
                "http://wikitravel.org/en/San_Diego"
            ],
            "longitude": "-117.2525056"
        },
        "arizona": {
            "latitude": "34.4631398",
            "closest_to": "long beach",
            "address": "Arizona, San Bernardino County, California, 92371, United States of America",
            "locType": "track",
            "blogLinks": [
                "http://wikitravel.org/en/San_Diego"
            ],
            "longitude": "-117.5060679"
        },
        "' ocean beach": {
            "latitude": "32.7477784",
            "closest_to": "carlsbad",
            "address": "Ocean Beach, San Diego, San Diego County, California, United States of America",
            "locType": "region",
            "blogLinks": [
                "http://wikitravel.org/en/San_Diego"
            ],
            "longitude": "-117.249321"
        },
        "san diego freeway": {
            "latitude": "32.7285162",
            "closest_to": "carlsbad",
            "address": "San Diego Freeway, Hillcrest, San Diego, San Diego County, California, 92101, United States of America",
            "locType": "motorway",
            "blogLinks": [
                "https://www.tripadvisor.com/Travel-g28926-c174834/California:United-States:Coast.Highway.Route.From.La.To.San.Diego.html"
            ],
            "longitude": "-117.1690377"
        },
        "qualcomm stadium": {
            "latitude": "32.7810139",
            "closest_to": "carlsbad",
            "address": "Qualcomm Stadium, Qualcomm Way, Mission Valley, San Diego, San Diego County, California, 92123, United States of America",
            "locType": "station",
            "blogLinks": [
                "http://wikitravel.org/en/San_Diego"
            ],
            "longitude": "-117.1196206"
        },
        "venice": {
            "latitude": "33.995044",
            "closest_to": "long beach",
            "address": "Venice, LA, Los Angeles County, California, United States of America",
            "locType": "suburb",
            "blogLinks": [
                "https://www.tripadvisor.com/Travel-g28926-c174834/California:United-States:Coast.Highway.Route.From.La.To.San.Diego.html"
            ],
            "longitude": "-118.4668874"
        },
        "belmont shore": {
            "latitude": "33.7572435",
            "closest_to": "long beach",
            "address": "Belmont Shore, Long Beach, Los Angeles County, California, United States of America",
            "locType": "suburb",
            "blogLinks": [
                "https://www.tripadvisor.com/Travel-g28926-c174834/California:United-States:Coast.Highway.Route.From.La.To.San.Diego.html"
            ],
            "longitude": "-118.1370106"
        },
        "alamogordo": {
            "latitude": "34.4364641",
            "closest_to": "long beach",
            "address": "Alamogordo Road, Saugus, Santa Clarita, Los Angeles County, California, 91350, United States of America",
            "locType": "residential",
            "blogLinks": [
                "https://www.yelp.com/biz/carlsbad-caverns-national-park-carlsbad"
            ],
            "longitude": "-118.5215448"
        },
        "del mar": {
            "latitude": "32.9594891",
            "closest_to": "carlsbad",
            "address": "Del Mar, San Diego County, California, United States of America",
            "locType": "city",
            "blogLinks": [
                "https://www.yelp.com/biz/oceanside-metrolink-train-station-oceanside"
            ],
            "longitude": "-117.2653145"
        },
        "south carlsbad state beach": {
            "latitude": "33.08375185",
            "closest_to": "carlsbad",
            "address": "South Carlsbad State Beach, Carlsbad Boulevard, Carlsbad, San Diego County, California, 92008, United States of America",
            "locType": "national_park",
            "blogLinks": [
                "http://www.sandiego.org/what-to-do/beaches/carlsbad.aspx"
            ],
            "longitude": "-117.311268255243"
        },
        "santa monica": {
            "latitude": "34.0195598",
            "closest_to": "long beach",
            "address": "Santa Monica, Los Angeles County, California, United States of America",
            "locType": "city",
            "blogLinks": [
                "https://www.tripadvisor.com/Travel-g28926-c174834/California:United-States:Coast.Highway.Route.From.La.To.San.Diego.html"
            ],
            "longitude": "-118.4869738"
        },
        "oceanside harbor": {
            "latitude": "33.2078136",
            "closest_to": "long beach",
            "address": "Oceanside Harbor, Oceanside, San Diego County, California, United States of America",
            "locType": "dock",
            "blogLinks": [
                "http://www.sandiego.org/what-to-do/beaches/oceanside.aspx"
            ],
            "longitude": "-117.3950393"
        },
        "san marcos": {
            "latitude": "33.1433723",
            "closest_to": "carlsbad",
            "address": "San Marcos, San Diego County, California, United States of America",
            "locType": "city",
            "blogLinks": [
                "http://activerain.com/blogsview/4742976/places-to-hike-and-walk-in-carlsbad-ca",
                "https://www.yelp.com/biz/oceanside-metrolink-train-station-oceanside"
            ],
            "longitude": "-117.1661448"
        },
        "town-mission valley": {
            "latitude": "32.7537731",
            "closest_to": "carlsbad",
            "address": "Old Town San Diego State Historic Park, Twiggs Street, Old Town, San Diego, San Diego County, California, 92110, United States of America",
            "locType": "park",
            "blogLinks": [
                "http://wikitravel.org/en/San_Diego"
            ],
            "longitude": "-117.194891467408"
        },
        "newport beach": {
            "latitude": "33.6170092",
            "closest_to": "long beach",
            "address": "Newport Beach, Orange County, California, United States of America",
            "locType": "city",
            "blogLinks": [
                "https://answers.yahoo.com/question/index?qid=20080530211242AArXWMD",
                "https://www.tripadvisor.com/Travel-g28926-c174834/California:United-States:Coast.Highway.Route.From.La.To.San.Diego.html"
            ],
            "longitude": "-117.92944"
        },
        "santa fe": {
            "latitude": "32.4395109",
            "closest_to": "carlsbad",
            "address": "Santa Fe, Tijuana, Baja California, M\u00e9xico",
            "locType": "village",
            "blogLinks": [
                "https://www.yelp.com/biz/carlsbad-caverns-national-park-carlsbad"
            ],
            "longitude": "-117.0336822"
        },
        "coast highway 101": {
            "latitude": "33.6810673",
            "closest_to": "long beach",
            "address": "Pacific Coast Highway, Huntington Beach, Orange County, California, 92648, United States of America",
            "locType": "primary",
            "blogLinks": [
                "http://www.sandiego.org/what-to-do/beaches/carlsbad.aspx"
            ],
            "longitude": "-118.0333633"
        },
        "temecula wine country": {
            "latitude": "33.5334975",
            "closest_to": "carlsbad",
            "address": "Temecula Valley Wine Country, Valle de los Caballos, Riverside County, California, United States of America",
            "locType": "suburb",
            "blogLinks": [
                "http://wikitravel.org/en/San_Diego"
            ],
            "longitude": "-117.0334856"
        },
        "san diego zoo safari park": {
            "latitude": "33.096694",
            "closest_to": "carlsbad",
            "address": "San Diego Zoo Safari Park, 15500, San Pasqual Valley Road, San Diego, San Diego County, California, 92025, United States of America",
            "locType": "zoo",
            "blogLinks": [
                "http://wikitravel.org/en/San_Diego",
                "https://www.pinterest.com/pin/195132596327844645/"
            ],
            "longitude": "-116.995039439834"
        },
        "tokyo": {
            "latitude": "34.0431787",
            "closest_to": "long beach",
            "address": "Southern California Institute of Architecture, 960, East 3rd Street, Arts District, Little Tokyo Historic District, LA, Los Angeles County, California, 90013, United States of America",
            "locType": "school",
            "blogLinks": [
                "http://wikitravel.org/en/San_Diego"
            ],
            "longitude": "-118.2328066"
        },
        "santa fe depot": {
            "latitude": "32.7167353",
            "closest_to": "carlsbad",
            "address": "Santa Fe Depot, Martin Luther King Promenade, Hillcrest, San Diego, San Diego County, California, 92101, United States of America",
            "locType": "station",
            "blogLinks": [
                "http://wikitravel.org/en/San_Diego"
            ],
            "longitude": "-117.1698167"
        },
        "new orleans": {
            "latitude": "33.8116219",
            "closest_to": "long beach",
            "address": "New Orleans Square, Anaheim, Orange County, California, United States of America",
            "locType": "locality",
            "blogLinks": [
                "https://www.mapquest.com/us/california/amusement-parks-carlsbad/legoland-california-267697828"
            ],
            "longitude": "-117.9206364"
        },
        "fullerton": {
            "latitude": "33.8708215",
            "closest_to": "long beach",
            "address": "Fullerton, Orange County, California, United States of America",
            "locType": "city",
            "blogLinks": [
                "https://www.yelp.com/biz/oceanside-metrolink-train-station-oceanside"
            ],
            "longitude": "-117.9294164"
        },
        "sassafras street": {
            "latitude": "32.7353092",
            "closest_to": "carlsbad",
            "address": "Sassafras Street, Hillcrest, San Diego, San Diego County, California, 92103, United States of America",
            "locType": "secondary",
            "blogLinks": [
                "http://wikitravel.org/en/San_Diego"
            ],
            "longitude": "-117.1792479"
        },
        "balboa island": {
            "latitude": "33.6064778",
            "closest_to": "long beach",
            "address": "Balboa Island, Newport Beach, Orange County, California, United States of America",
            "locType": "suburb",
            "blogLinks": [
                "https://www.tripadvisor.com/Travel-g28926-c174834/California:United-States:Coast.Highway.Route.From.La.To.San.Diego.html"
            ],
            "longitude": "-117.8920818"
        },
        "carlsbad village station": {
            "latitude": "33.167503",
            "closest_to": "carlsbad",
            "address": "Carlsbad Village Drive, Carlsbad, San Diego County, California, 92008, United States of America",
            "locType": "secondary",
            "blogLinks": [
                "https://www.mapquest.com/us/california/amusement-parks-carlsbad/legoland-california-267697828"
            ],
            "longitude": "-117.3353809"
        },
        "oceanside city beach": {
            "latitude": "33.1953141",
            "closest_to": "long beach",
            "address": "Oceanside City Beach, The Strand North, Oceanside, San Diego County, California, 92054, United States of America",
            "locType": "beach",
            "blogLinks": [
                "http://www.sandiego.org/what-to-do/beaches/oceanside.aspx"
            ],
            "longitude": "-117.3853168"
        },
        "mission valley": {
            "latitude": "32.7768074",
            "closest_to": "carlsbad",
            "address": "Mission Valley, San Diego, San Diego County, California, United States of America",
            "locType": "suburb",
            "blogLinks": [
                "http://wikitravel.org/en/San_Diego"
            ],
            "longitude": "-117.1520977"
        },
        "kettner blvd.": {
            "latitude": "32.725143",
            "closest_to": "carlsbad",
            "address": "Kettner Boulevard, Hillcrest, San Diego, San Diego County, California, 92101, United States of America",
            "locType": "secondary",
            "blogLinks": [
                "http://wikitravel.org/en/San_Diego"
            ],
            "longitude": "-117.1698529"
        },
        "pacific street": {
            "latitude": "34.0048322",
            "closest_to": "long beach",
            "address": "Pacific Street, Santa Monica, Los Angeles County, California, 90405, United States of America",
            "locType": "residential",
            "blogLinks": [
                "http://www.sandiego.org/what-to-do/beaches/oceanside.aspx"
            ],
            "longitude": "-118.4884483"
        },
        "solana beach": {
            "latitude": "32.9905597",
            "closest_to": "carlsbad",
            "address": "Solana Beach, San Diego County, California, United States of America",
            "locType": "city",
            "blogLinks": [
                "http://wikitravel.org/en/San_Diego",
                "https://www.tripadvisor.com/Travel-g28926-c174834/California:United-States:Coast.Highway.Route.From.La.To.San.Diego.html",
                "https://www.yelp.com/biz/oceanside-metrolink-train-station-oceanside"
            ],
            "longitude": "-117.2691315"
        },
        "inland san diego county": {
            "latitude": "33.119939",
            "closest_to": "carlsbad",
            "address": "Inland Rail Trail, Escondido, San Diego County, California, 92025, United States of America",
            "locType": "cycleway",
            "blogLinks": [
                "http://wikitravel.org/en/San_Diego"
            ],
            "longitude": "-117.0913462"
        },
        "lemon grove": {
            "latitude": "32.7425516",
            "closest_to": "carlsbad",
            "address": "Lemon Grove, San Diego County, California, United States of America",
            "locType": "city",
            "blogLinks": [
                "http://wikitravel.org/en/San_Diego"
            ],
            "longitude": "-117.0314171"
        },
        "san diego airport": {
            "latitude": "33.1278146",
            "closest_to": "carlsbad",
            "address": "California Bank & Trust, 2501, Palomar Airport Road, Carlsbad, San Diego County, California, 92011, United States of America",
            "locType": "bank",
            "blogLinks": [
                "http://wikitravel.org/en/San_Diego"
            ],
            "longitude": "-117.270809764613"
        },
        "n. torrey pines rd": {
            "latitude": "32.9358252",
            "closest_to": "carlsbad",
            "address": "North Torrey Pines Road, Del Mar, San Diego, San Diego County, California, 92014, United States of America",
            "locType": "primary",
            "blogLinks": [
                "http://wikitravel.org/en/San_Diego"
            ],
            "longitude": "-117.2608353"
        },
        "redondo beach": {
            "latitude": "33.8455911",
            "closest_to": "long beach",
            "address": "Redondo Beach, Los Angeles County, California, United States of America",
            "locType": "city",
            "blogLinks": [
                "https://www.tripadvisor.com/Travel-g28926-c174834/California:United-States:Coast.Highway.Route.From.La.To.San.Diego.html"
            ],
            "longitude": "-118.3886765"
        },
        "poway": {
            "latitude": "32.9628234",
            "closest_to": "carlsbad",
            "address": "Poway, San Diego County, California, United States of America",
            "locType": "city",
            "blogLinks": [
                "http://wikitravel.org/en/San_Diego"
            ],
            "longitude": "-117.0358645"
        },
        "naval air station": {
            "latitude": "32.701613",
            "closest_to": "carlsbad",
            "address": "Naval Air Station North Island, F West Road, Coronado, San Diego County, California, 92135, United States of America",
            "locType": "military",
            "blogLinks": [
                "http://wikitravel.org/en/San_Diego"
            ],
            "longitude": "-117.2043364"
        },
        "batiquitos lagoon trail": {
            "latitude": "33.0897626",
            "closest_to": "carlsbad",
            "address": "Batiquitos Lagoon, Batiquitos Lagoon Nature Trail, Carlsbad, San Diego County, California, 92011, United States of America",
            "locType": "bay",
            "blogLinks": [
                "http://activerain.com/blogsview/4742976/places-to-hike-and-walk-in-carlsbad-ca"
            ],
            "longitude": "-117.2880925"
        },
        "carlsbad california": {
            "latitude": "33.1580933",
            "closest_to": "long beach",
            "address": "Carlsbad, San Diego County, California, United States of America",
            "locType": "city",
            "blogLinks": [
                "https://www.pinterest.com/pin/195132596327844645/"
            ],
            "longitude": "-117.3505938"
        },
        "camp pendleton": {
            "latitude": "33.2167022",
            "closest_to": "long beach",
            "address": "Camp Pendleton Boat Basin, San Diego County, California, United States of America",
            "locType": "dock",
            "blogLinks": [
                "http://wikitravel.org/en/San_Diego"
            ],
            "longitude": "-117.4000394"
        },
        "palomar airport road": {
            "latitude": "33.1291437",
            "closest_to": "carlsbad",
            "address": "Palomar Airport Road, Carlsbad, San Diego County, California, 92009, United States of America",
            "locType": "primary",
            "blogLinks": [
                "http://wikitravel.org/en/San_Diego",
                "https://www.mapquest.com/us/california/amusement-parks-carlsbad/legoland-california-267697828"
            ],
            "longitude": "-117.2418974"
        },
        "san diego international airport": {
            "latitude": "32.73336075",
            "closest_to": "carlsbad",
            "address": "San Diego International Airport, Air Lane, Old Town, San Diego, San Diego County, California, 92101, United States of America",
            "locType": "aerodrome",
            "blogLinks": [
                "http://wikitravel.org/en/San_Diego"
            ],
            "longitude": "-117.193463366077"
        },
        "mission trails regional park": {
            "latitude": "32.7958834",
            "closest_to": "carlsbad",
            "address": "Mission Trails Regional Park, Lake Shore Drive, San Diego, San Diego County, California, 91942:92119, United States of America",
            "locType": "park",
            "blogLinks": [
                "http://wikitravel.org/en/San_Diego"
            ],
            "longitude": "-117.0366957"
        },
        "clairemont mesa": {
            "latitude": "32.8302448",
            "closest_to": "carlsbad",
            "address": "Clairemont Mesa Boulevard, Pacific Beach, San Diego, San Diego County, California, 92117, United States of America",
            "locType": "secondary",
            "blogLinks": [
                "http://wikitravel.org/en/San_Diego"
            ],
            "longitude": "-117.215436"
        },
        "oregon": {
            "latitude": "33.7123207",
            "closest_to": "long beach",
            "address": "Oregon, Walnut, Irvine, Orange County, California, 92606, United States of America",
            "locType": "residential",
            "blogLinks": [
                "http://wikitravel.org/en/San_Diego"
            ],
            "longitude": "-117.7911567"
        },
        "santa monica freeway": {
            "latitude": "34.0323355",
            "closest_to": "long beach",
            "address": "Santa Monica Freeway, Palms, LA, Los Angeles County, California, CA 90034, United States of America",
            "locType": "motorway",
            "blogLinks": [
                "https://www.tripadvisor.com/Travel-g28926-c174834/California:United-States:Coast.Highway.Route.From.La.To.San.Diego.html"
            ],
            "longitude": "-118.3886136"
        },
        "northern california": {
            "latitude": "32.7349196",
            "closest_to": "carlsbad",
            "address": "Northern Frontier, San Diego, San Diego County, California, United States of America",
            "locType": "locality",
            "blogLinks": [
                "https://blog.trekaroo.com/california-dreaming-road-trip-from-san-francisco-to-los-angeles/"
            ],
            "longitude": "-117.1545973"
        },
        "baja mexico": {
            "latitude": "32.499412",
            "closest_to": "carlsbad",
            "address": "Instituto Mexico de Baja California, Avenida Las Palmas, Tijuana, Baja California, 22106, M\u00e9xico",
            "locType": "school",
            "blogLinks": [
                "http://wikitravel.org/en/San_Diego"
            ],
            "longitude": "-116.9866449"
        },
        "balboa peninsula": {
            "latitude": "33.5975",
            "closest_to": "long beach",
            "address": "Balboa Peninsula, Newport Beach, Orange County, California, United States of America",
            "locType": "suburb",
            "blogLinks": [
                "https://www.tripadvisor.com/Travel-g28926-c174834/California:United-States:Coast.Highway.Route.From.La.To.San.Diego.html"
            ],
            "longitude": "-117.8860521"
        },
        "national city": {
            "latitude": "32.6781085",
            "closest_to": "carlsbad",
            "address": "National City, San Diego County, California, United States of America",
            "locType": "city",
            "blogLinks": [
                "http://wikitravel.org/en/San_Diego"
            ],
            "longitude": "-117.0991966"
        },
        "legoland california": {
            "latitude": "33.1278683",
            "closest_to": "carlsbad",
            "address": "Legoland California, 1, LEGOLAND drive, Carlsbad, San Diego County, California, 92008, United States of America",
            "locType": "theme_park",
            "blogLinks": [
                "http://wikitravel.org/en/San_Diego"
            ],
            "longitude": "-117.311664211922"
        },
        "mission beach-pacific beach": {
            "latitude": "32.7846357",
            "closest_to": "carlsbad",
            "address": "The Mission, 3795, Mission Boulevard, Pacific Beach, San Diego, San Diego County, California, 92109, United States of America",
            "locType": "cafe",
            "blogLinks": [
                "http://wikitravel.org/en/San_Diego"
            ],
            "longitude": "-117.2527558"
        },
        "manhattan beach": {
            "latitude": "33.8950839",
            "closest_to": "long beach",
            "address": "Manhattan Beach, Los Angeles County, California, United States of America",
            "locType": "city",
            "blogLinks": [
                "https://www.tripadvisor.com/Travel-g28926-c174834/California:United-States:Coast.Highway.Route.From.La.To.San.Diego.html"
            ],
            "longitude": "-118.4000146"
        },
        "carlsbad poinsettia station": {
            "latitude": "33.1091407",
            "closest_to": "carlsbad",
            "address": "Carlsbad Poinsettia, Avenida Encinas, Carlsbad, San Diego County, California, 92011, United States of America",
            "locType": "station",
            "blogLinks": [
                "https://www.mapquest.com/us/california/amusement-parks-carlsbad/legoland-california-267697828"
            ],
            "longitude": "-117.3192753"
        },
        "orange county": {
            "latitude": "33.7500378",
            "closest_to": "long beach",
            "address": "Orange County, California, United States of America",
            "locType": "administrative",
            "blogLinks": [
                "http://wikitravel.org/en/San_Diego",
                "https://blog.trekaroo.com/california-dreaming-road-trip-from-san-francisco-to-los-angeles/",
                "http://www.beachsidevacationrentals.net/",
                "https://www.yelp.com/biz/oceanside-metrolink-train-station-oceanside"
            ],
            "longitude": "-117.870493"
        },
        "los angeles union station": {
            "latitude": "34.0558624",
            "closest_to": "long beach",
            "address": "Los Angeles Union Station, LA Union Station Underground Walkway, Naud Junction, Little Tokyo Historic District, LA, Los Angeles County, California, 90012, United States of America",
            "locType": "station",
            "blogLinks": [
                "http://wikitravel.org/en/San_Diego"
            ],
            "longitude": "-118.2342858"
        },
        "petco park": {
            "latitude": "32.70717575",
            "closest_to": "carlsbad",
            "address": "Petco Park, 100, Park Boulevard, Hillcrest, San Diego, San Diego County, California, 92101, United States of America",
            "locType": "stadium",
            "blogLinks": [
                "https://www.yelp.com/biz/oceanside-metrolink-train-station-oceanside"
            ],
            "longitude": "-117.156886653262"
        },
        "laguna beach": {
            "latitude": "33.5420888",
            "closest_to": "long beach",
            "address": "Laguna Beach, Orange County, California, United States of America",
            "locType": "city",
            "blogLinks": [
                "https://www.tripadvisor.com/Travel-g28926-c174834/California:United-States:Coast.Highway.Route.From.La.To.San.Diego.html"
            ],
            "longitude": "-117.7834146"
        },
        "los angeles": {
            "latitude": "34.0543942",
            "closest_to": "long beach",
            "address": "LA, Los Angeles County, California, United States of America",
            "locType": "city",
            "blogLinks": [
                "http://wikitravel.org/en/San_Diego",
                "https://blog.trekaroo.com/california-dreaming-road-trip-from-san-francisco-to-los-angeles/",
                "https://www.tripadvisor.com/Travel-g28926-c174834/California:United-States:Coast.Highway.Route.From.La.To.San.Diego.html",
                "http://activerain.com/blogsview/711985/carlsbad-things-to-do---visit-and-enjoy-southern-california-s-marvelous-topography",
                "http://www.beachsidevacationrentals.net/"
            ],
            "longitude": "-118.2439408"
        },
        "san diego": {
            "latitude": "32.7174209",
            "closest_to": "carlsbad",
            "address": "San Diego, San Diego County, California, United States of America",
            "locType": "city",
            "blogLinks": [
                "https://www.pinterest.com/pin/195132596327844645/",
                "http://www.sandiego.org/what-to-do/beaches/oceanside.aspx",
                "https://www.yelp.com/biz/carlsbad-caverns-national-park-carlsbad",
                "https://www.yelp.com/biz/oceanside-metrolink-train-station-oceanside",
                "http://wikitravel.org/en/San_Diego",
                "http://activerain.com/blogsview/711985/carlsbad-things-to-do---visit-and-enjoy-southern-california-s-marvelous-topography",
                "http://www.beachsidevacationrentals.net/",
                "http://www.sandiego.org/what-to-do/beaches/carlsbad.aspx",
                "https://www.nps.gov/cave/index.htm"
            ],
            "longitude": "-117.1627713"
        },
        "california coast": {
            "latitude": "32.7586361",
            "closest_to": "carlsbad",
            "address": "California Coast Credit Union, Park Boulevard, Hillcrest, San Diego, San Diego County, California, 92116, United States of America",
            "locType": "bank",
            "blogLinks": [
                "https://blog.trekaroo.com/california-dreaming-road-trip-from-san-francisco-to-los-angeles/",
                "https://www.tripadvisor.com/Travel-g28926-c174834/California:United-States:Coast.Highway.Route.From.La.To.San.Diego.html"
            ],
            "longitude": "-117.1464145"
        },
        "kettner blvd": {
            "latitude": "32.725143",
            "closest_to": "carlsbad",
            "address": "Kettner Boulevard, Hillcrest, San Diego, San Diego County, California, 92101, United States of America",
            "locType": "secondary",
            "blogLinks": [
                "http://wikitravel.org/en/San_Diego"
            ],
            "longitude": "-117.1698529"
        },
        "bressi ranch": {
            "latitude": "33.1250068",
            "closest_to": "carlsbad",
            "address": "Bressi Ranch Way, Carlsbad, San Diego County, California, 92069, United States of America",
            "locType": "residential",
            "blogLinks": [
                "http://activerain.com/blogsview/4742976/places-to-hike-and-walk-in-carlsbad-ca"
            ],
            "longitude": "-117.252977"
        },
        "tucson": {
            "latitude": "33.5678303",
            "closest_to": "long beach",
            "address": "Tucson, Coto de Caza, Orange County, California, 92690, United States of America",
            "locType": "residential",
            "blogLinks": [
                "http://wikitravel.org/en/San_Diego"
            ],
            "longitude": "-117.5934281"
        },
        "santa ana": {
            "latitude": "33.7494951",
            "closest_to": "long beach",
            "address": "Santa Ana, Orange County, California, United States of America",
            "locType": "city",
            "blogLinks": [
                "http://wikitravel.org/en/San_Diego",
                "https://www.yelp.com/biz/oceanside-metrolink-train-station-oceanside"
            ],
            "longitude": "-117.8732212"
        },
        "san ysidro": {
            "latitude": "32.5520013",
            "closest_to": "carlsbad",
            "address": "San Ysidro, San Diego, San Diego County, California, United States of America",
            "locType": "suburb",
            "blogLinks": [
                "http://wikitravel.org/en/San_Diego"
            ],
            "longitude": "-117.0430812"
        },
        "fashion island": {
            "latitude": "33.61476865",
            "closest_to": "long beach",
            "address": "Fashion Island, Newport Center, Newport Beach, Orange County, California, 62660, United States of America",
            "locType": "retail;commercial;residential",
            "blogLinks": [
                "http://www.beachsidevacationrentals.net/"
            ],
            "longitude": "-117.872907649816"
        },
        "idyllwild": {
            "latitude": "33.7400209",
            "closest_to": "carlsbad",
            "address": "Idyllwild, Riverside County, California, United States of America",
            "locType": "village",
            "blogLinks": [
                "https://answers.yahoo.com/question/index?qid=20080530211242AArXWMD",
                "http://activerain.com/blogsview/711985/carlsbad-things-to-do---visit-and-enjoy-southern-california-s-marvelous-topography"
            ],
            "longitude": "-116.7189074"
        },
        "carlsbad": {
            "latitude": "33.1580933",
            "closest_to": "long beach",
            "address": "Carlsbad, San Diego County, California, United States of America",
            "locType": "city",
            "blogLinks": [
                "https://www.pinterest.com/pin/195132596327844645/",
                "http://www.sandiego.org/what-to-do/beaches/oceanside.aspx",
                "http://visitcarlsbad.com/",
                "https://www.yelp.com/biz/carlsbad-caverns-national-park-carlsbad",
                "https://www.yelp.com/biz/oceanside-metrolink-train-station-oceanside",
                "http://wikitravel.org/en/San_Diego",
                "http://activerain.com/blogsview/711985/carlsbad-things-to-do---visit-and-enjoy-southern-california-s-marvelous-topography",
                "http://visitcarlsbad.com/beaches",
                "http://activerain.com/blogsview/4742976/places-to-hike-and-walk-in-carlsbad-ca",
                "https://www.mapquest.com/us/california/amusement-parks-carlsbad/legoland-california-267697828",
                "http://www.sandiego.org/what-to-do/beaches/carlsbad.aspx",
                "https://www.tripadvisor.com/Travel-g28926-c174834/California:United-States:Coast.Highway.Route.From.La.To.San.Diego.html",
                "https://blog.trekaroo.com/california-dreaming-road-trip-from-san-francisco-to-los-angeles/"
            ],
            "longitude": "-117.3505938"
        },
        "canyon crest drive": {
            "latitude": "33.9575498",
            "closest_to": "long beach",
            "address": "Canyon Crest Drive, Riverside, Riverside County, California, 92521, United States of America",
            "locType": "primary",
            "blogLinks": [
                "http://wikitravel.org/en/San_Diego"
            ],
            "longitude": "-117.3300787"
        },
        "torrey pines": {
            "latitude": "33.6004207",
            "closest_to": "long beach",
            "address": "Torrey Pines, Coto de Caza, Orange County, California, 92679, United States of America",
            "locType": "residential",
            "blogLinks": [
                "http://wikitravel.org/en/San_Diego",
                "http://activerain.com/blogsview/711985/carlsbad-things-to-do---visit-and-enjoy-southern-california-s-marvelous-topography"
            ],
            "longitude": "-117.5806448"
        },
        "lake calavera": {
            "latitude": "33.6915271",
            "closest_to": "long beach",
            "address": "Calavera, Westpark, Irvine, Orange County, California, 92606, United States of America",
            "locType": "residential",
            "blogLinks": [
                "http://activerain.com/blogsview/4742976/places-to-hike-and-walk-in-carlsbad-ca"
            ],
            "longitude": "-117.810672481198"
        },
        "tamarack avenue": {
            "latitude": "33.148373",
            "closest_to": "carlsbad",
            "address": "Tamarack Avenue, Carlsbad, San Diego County, California, 92008, United States of America",
            "locType": "secondary",
            "blogLinks": [
                "http://www.sandiego.org/what-to-do/beaches/carlsbad.aspx"
            ],
            "longitude": "-117.3439479"
        },
        "lethbridge": {
            "latitude": "32.971272",
            "closest_to": "carlsbad",
            "address": "Lethbridge Way, San Diego, San Diego County, California, 92129, United States of America",
            "locType": "residential",
            "blogLinks": [
                "http://wikitravel.org/en/San_Diego"
            ],
            "longitude": "-117.1296619"
        },
        "old town transit center": {
            "latitude": "32.7548849",
            "closest_to": "carlsbad",
            "address": "Old Town Transit Center, Congress Street, Old Town, San Diego, San Diego County, California, 92110, United States of America",
            "locType": "station",
            "blogLinks": [
                "http://wikitravel.org/en/San_Diego"
            ],
            "longitude": "-117.1994928"
        },
        "alberta": {
            "latitude": "33.5736346",
            "closest_to": "long beach",
            "address": "Alberta, Aliso Viejo, Orange County, California, 92656, United States of America",
            "locType": "residential",
            "blogLinks": [
                "http://wikitravel.org/en/San_Diego"
            ],
            "longitude": "-117.7344716"
        },
        "elfin forest": {
            "latitude": "33.0736526",
            "closest_to": "carlsbad",
            "address": "Elfin Forest, San Diego County, California, United States of America",
            "locType": "hamlet",
            "blogLinks": [
                "http://activerain.com/blogsview/4742976/places-to-hike-and-walk-in-carlsbad-ca"
            ],
            "longitude": "-117.1642006"
        },
        "pier view way": {
            "latitude": "33.196751",
            "closest_to": "long beach",
            "address": "Pier View Way, Oceanside, San Diego County, California, 92054, United States of America",
            "locType": "residential",
            "blogLinks": [
                "http://www.sandiego.org/what-to-do/beaches/oceanside.aspx"
            ],
            "longitude": "-117.3802409"
        },
        "gaslamp": {
            "latitude": "33.76711105",
            "closest_to": "long beach",
            "address": "Gaslamp, Loynes Drive, Marina Pacifica, Naples, Long Beach, Los Angeles County, California, 90803, United States of America",
            "locType": "hotel",
            "blogLinks": [
                "http://wikitravel.org/en/San_Diego"
            ],
            "longitude": "-118.116345466191"
        },
        "south orange county": {
            "latitude": "33.6589297",
            "closest_to": "long beach",
            "address": "S, Bellecour Way, Bellecour Way Apartments, Foothill Ranch, Lake Forest, Orange County, California, 92630, United States of America",
            "locType": "yes",
            "blogLinks": [
                "https://www.tripadvisor.com/Travel-g28926-c174834/California:United-States:Coast.Highway.Route.From.La.To.San.Diego.html"
            ],
            "longitude": "-117.667997530973"
        },
        "pacific beach": {
            "latitude": "32.7978268",
            "closest_to": "carlsbad",
            "address": "Pacific Beach, San Diego, San Diego County, California, United States of America",
            "locType": "suburb",
            "blogLinks": [
                "http://wikitravel.org/en/San_Diego"
            ],
            "longitude": "-117.2403182"
        },
        "mcclellan-palomar airport": {
            "latitude": "33.12754605",
            "closest_to": "carlsbad",
            "address": "McClellan-Palomar Airport, Aircraft Road, Carlsbad, San Diego County, California, 92011, United States of America",
            "locType": "aerodrome",
            "blogLinks": [
                "http://wikitravel.org/en/San_Diego"
            ],
            "longitude": "-117.281400045984"
        },
        "west broadway": {
            "latitude": "32.7157697",
            "closest_to": "carlsbad",
            "address": "West Broadway, Hillcrest, San Diego, San Diego County, California, 92101, United States of America",
            "locType": "secondary",
            "blogLinks": [
                "http://wikitravel.org/en/San_Diego"
            ],
            "longitude": "-117.167374"
        },
        "mission boulevard": {
            "latitude": "32.799358",
            "closest_to": "carlsbad",
            "address": "Mission Boulevard, Pacific Beach, San Diego, San Diego County, California, 92109, United States of America",
            "locType": "secondary",
            "blogLinks": [
                "http://www.sandiego.org/what-to-do/beaches/oceanside.aspx"
            ],
            "longitude": "-117.2563629"
        },
        "northern san diego county": {
            "latitude": "32.7349196",
            "closest_to": "carlsbad",
            "address": "Northern Frontier, San Diego, San Diego County, California, United States of America",
            "locType": "locality",
            "blogLinks": [
                "http://wikitravel.org/en/San_Diego"
            ],
            "longitude": "-117.1545973"
        },
        "la/orange county": {
            "latitude": "33.7500378",
            "closest_to": "long beach",
            "address": "Orange County, California, United States of America",
            "locType": "administrative",
            "blogLinks": [
                "https://www.yelp.com/biz/oceanside-metrolink-train-station-oceanside"
            ],
            "longitude": "-117.870493"
        },
        "san diego bay": {
            "latitude": "32.6500534",
            "closest_to": "carlsbad",
            "address": "San Diego Bay, Leyte Road, Crown Island, Coronado, San Diego County, California, 92118, United States of America",
            "locType": "bay",
            "blogLinks": [
                "http://wikitravel.org/en/San_Diego"
            ],
            "longitude": "-117.1341977"
        },
        "point loma": {
            "latitude": "33.5466403",
            "closest_to": "long beach",
            "address": "Point Loma, Laguna Niguel, Orange County, California, 92677, United States of America",
            "locType": "residential",
            "blogLinks": [
                "http://wikitravel.org/en/San_Diego"
            ],
            "longitude": "-117.717867"
        },
        "vincent thomas bridge": {
            "latitude": "33.7494878",
            "closest_to": "long beach",
            "address": "Vincent Thomas Bridge, San Pedro, LA, Los Angeles County, California, 90731, United States of America",
            "locType": "motorway",
            "blogLinks": [
                "https://www.tripadvisor.com/Travel-g28926-c174834/California:United-States:Coast.Highway.Route.From.La.To.San.Diego.html"
            ],
            "longitude": "-118.2716112"
        },
        "mount calavera": {
            "latitude": "33.6915271",
            "closest_to": "long beach",
            "address": "Calavera, Westpark, Irvine, Orange County, California, 92606, United States of America",
            "locType": "residential",
            "blogLinks": [
                "http://activerain.com/blogsview/4742976/places-to-hike-and-walk-in-carlsbad-ca"
            ],
            "longitude": "-117.810672481198"
        },
        "dana point": {
            "latitude": "33.4669721",
            "closest_to": "long beach",
            "address": "Dana Point, Orange County, California, United States of America",
            "locType": "city",
            "blogLinks": [
                "http://wikitravel.org/en/San_Diego"
            ],
            "longitude": "-117.6981074"
        }
    },
    "long beach": {
        "type": "city",
        "osm_id": "112100",
        "class": "place",
        "importance": 0.87291598958998,
        "lat": "33.78538945",
        "lon": "-118.158049215311",
        "boundingbox": [
            "33.6905847",
            "33.8855951",
            "-118.2489659",
            "-118.0632824"
        ],
        "display_name": "Long Beach, Los Angeles County, California, United States of America",
        "licence": "Data \u00a9 OpenStreetMap contributors, ODbL 1.0. http://www.openstreetmap.org/copyright",
        "icon": "https://nominatim.openstreetmap.org/images/mapicons/poi_place_city.p.20.png",
        "place_id": "158641779",
        "osm_type": "relation"
    }
}