{
    "mentions": {
        "horanadu": {
            "closest_to": "chikmagalur",
            "address": "Horanadu, Mudigere taluk, Chikkamagaluru district, Karnataka, 577181, India",
            "longitude": "75.3445161",
            "latitude": "13.2761199",
            "blogLinks": [
                "http://www.team-bhp.com/forum/travelogues/94368-horanadu-sringeri-kollur-gokarna-udupi-karkala-moo-dbidri-mangalore-dharmasthala-kukke.html"
            ],
            "locType": "town"
        },
        "manipal": {
            "closest_to": "murudeshwara",
            "address": "Manipal, Udupi taluku, Udupi district, Karnataka, India",
            "longitude": "74.7870308",
            "latitude": "13.3519723",
            "blogLinks": [
                "https://www.tripoto.com/travel-guide/manipal"
            ],
            "locType": "town"
        },
        "kannur": {
            "closest_to": "chikmagalur",
            "address": "Netravati bridge - Kannur Bypass Road (Proposed), Padil, Bajal, Mangaluru taluk, Dakshina Kannada, Karnataka, 575007, India",
            "longitude": "74.8858161",
            "latitude": "12.8487602",
            "blogLinks": [
                "http://www.nivalink.com/destination/chikmagalur",
                "http://www.nivalink.com/destination/murudeshwar"
            ],
            "locType": "construction"
        },
        "coastal karnataka": {
            "closest_to": "chikmagalur",
            "address": "Bharat Petroleum Mangalore Coastal Installation, Baikampady, Mangaluru taluk, Dakshina Kannada, Karnataka, 575014, India",
            "longitude": "74.8137275833157",
            "latitude": "12.96014675",
            "blogLinks": [
                "http://www.nivalink.com/destination/murudeshwar"
            ],
            "locType": "industrial"
        },
        "' island": {
            "closest_to": "murudeshwara",
            "address": "Isa, Shirasi taluk, Uttara Kannada, Karnataka, India",
            "longitude": "74.8834637",
            "latitude": "14.6799543",
            "blogLinks": [
                "http://www.nivalink.com/destination/murudeshwar"
            ],
            "locType": "village"
        },
        "chikkamagalur": {
            "closest_to": "chikmagalur",
            "address": "Chikkamagalur, SH57, Hosamane Badavane, Hiremagaluru, Chikkamagaluru taluku, Chikkamagaluru district, Karnataka, 577101, India",
            "longitude": "75.789501",
            "latitude": "13.3030706",
            "blogLinks": [
                "http://www.nivalink.com/destination/chikmagalur"
            ],
            "locType": "station"
        },
        "jayapura": {
            "closest_to": "murudeshwara",
            "address": "Jayapura, Koppa taluk, Chikkamagaluru district, Karnataka, India",
            "longitude": "75.3727343",
            "latitude": "13.4029589",
            "blogLinks": [
                "http://www.team-bhp.com/forum/travelogues/94368-horanadu-sringeri-kollur-gokarna-udupi-karkala-moo-dbidri-mangalore-dharmasthala-kukke.html"
            ],
            "locType": "town"
        },
        "coorg": {
            "closest_to": "chikmagalur",
            "address": "Madikeri, Madikeri taluku, Kodagu, Karnataka, India",
            "longitude": "75.740031",
            "latitude": "12.4204003",
            "blogLinks": [
                "https://www.thrillophilia.com/places-to-visit-in-chikmagalur"
            ],
            "locType": "town"
        },
        "chikmagalur": {
            "closest_to": "murudeshwara",
            "address": "Chikmagalur, Chikkamagaluru district, Karnataka, India",
            "longitude": "75.5",
            "latitude": "13.5",
            "blogLinks": [
                "https://www.thrillophilia.com/places-to-visit-in-chikmagalur",
                "https://www.ixigo.com/places-to-visit-see-in-chikmagalur-lp-1137712",
                "http://www.nivalink.com/destination/chikmagalur",
                "https://www.distancecalculator.net/from-murudeshwara-to-chikmagalur"
            ],
            "locType": "county"
        },
        "brahmagiri": {
            "closest_to": "chikmagalur",
            "address": "Brahmagiri, Madikeri taluku, Kodagu, Karnataka, India",
            "longitude": "75.490746",
            "latitude": "12.3868578",
            "blogLinks": [
                "https://www.thrillophilia.com/places-to-visit-in-chikmagalur"
            ],
            "locType": "peak"
        },
        "kalhatti falls": {
            "closest_to": "chikmagalur",
            "address": "Kallathgiri falls, Tarikere taluku, Chikkamagaluru district, Karnataka, India",
            "longitude": "75.7889882",
            "latitude": "13.5499877",
            "blogLinks": [
                "https://www.thrillophilia.com/places-to-visit-in-chikmagalur"
            ],
            "locType": "waterfall"
        },
        "kukke": {
            "closest_to": "murudeshwara",
            "address": "Kukke, Tirthahalli taluk, Shimoga district, Karnataka, India",
            "longitude": "75.3076538",
            "latitude": "13.7523964",
            "blogLinks": [
                "http://www.team-bhp.com/forum/travelogues/94368-horanadu-sringeri-kollur-gokarna-udupi-karkala-moo-dbidri-mangalore-dharmasthala-kukke.html"
            ],
            "locType": "village"
        },
        "bababudangiri": {
            "closest_to": "chikmagalur",
            "address": "Bababudangiri Road, Inam Dattatreya Pitha, Chikkamagaluru taluku, Chikkamagaluru district, Karnataka, India",
            "longitude": "75.7486618",
            "latitude": "13.4297401",
            "blogLinks": [
                "https://www.thrillophilia.com/places-to-visit-in-chikmagalur"
            ],
            "locType": "tertiary"
        },
        "bhatkal": {
            "closest_to": "murudeshwara",
            "address": "Bhatkal, Bhatkala taluk, Uttara Kannada, Karnataka, 581320, India",
            "longitude": "74.5485295",
            "latitude": "13.9952114",
            "blogLinks": [
                "http://www.holidayiq.com/Murudeshwara-Mosques-A-746-37.html"
            ],
            "locType": "town"
        },
        "udupi": {
            "closest_to": "murudeshwara",
            "address": "Udupi, Udupi taluku, Udupi district, Karnataka, 576101, India",
            "longitude": "74.7473232",
            "latitude": "13.3419169",
            "blogLinks": [
                "http://www.team-bhp.com/forum/travelogues/94368-horanadu-sringeri-kollur-gokarna-udupi-karkala-moo-dbidri-mangalore-dharmasthala-kukke.html"
            ],
            "locType": "city"
        },
        "u.s.": {
            "closest_to": "chikmagalur",
            "address": "Karnataka, India",
            "longitude": "75.7223521",
            "latitude": "14.5203896",
            "blogLinks": [
                "https://www.quora.com/Which-are-the-best-places-to-visit-in-Karnataka-in-winter",
                "http://www.holidayiq.com/Murudeshwara-Mosques-A-746-37.html"
            ],
            "locType": "administrative"
        },
        "kalaseshwara temple": {
            "closest_to": "chikmagalur",
            "address": "Kalaseshwara Temple, SH66, Kalasa, Mudigere taluk, Chikkamagaluru district, Karnataka, 577124, India",
            "longitude": "75.363446975",
            "latitude": "13.23228505",
            "blogLinks": [
                "http://www.nivalink.com/destination/chikmagalur",
                "http://www.nivalink.com/destination/murudeshwar"
            ],
            "locType": "place_of_worship"
        },
        "bhadra river": {
            "closest_to": "chikmagalur",
            "address": "Bhadra, Chikkamagaluru taluku, Chikkamagaluru district, Karnataka, India",
            "longitude": "75.527118",
            "latitude": "13.4888356",
            "blogLinks": [
                "https://www.thrillophilia.com/places-to-visit-in-chikmagalur",
                "http://www.nivalink.com/destination/chikmagalur"
            ],
            "locType": "river"
        },
        "panambur": {
            "closest_to": "chikmagalur",
            "address": "Panambur, Mangaluru taluk, Dakshina Kannada, Karnataka, India",
            "longitude": "74.8031577",
            "latitude": "12.9535736",
            "blogLinks": [
                "http://www.team-bhp.com/forum/travelogues/94368-horanadu-sringeri-kollur-gokarna-udupi-karkala-moo-dbidri-mangalore-dharmasthala-kukke.html"
            ],
            "locType": "village"
        },
        "attigundi": {
            "closest_to": "chikmagalur",
            "address": "Attigundi, Chikkamagaluru taluku, Chikkamagaluru district, Karnataka, India",
            "longitude": "75.7415646",
            "latitude": "13.428683",
            "blogLinks": [
                "https://www.thrillophilia.com/places-to-visit-in-chikmagalur"
            ],
            "locType": "village"
        },
        "us": {
            "closest_to": "chikmagalur",
            "address": "Karnataka, India",
            "longitude": "75.7223521",
            "latitude": "14.5203896",
            "blogLinks": [
                "https://www.quora.com/Which-are-the-best-places-to-visit-in-Karnataka-in-winter"
            ],
            "locType": "administrative"
        },
        "murudeshwara road": {
            "closest_to": "murudeshwara",
            "address": "Murudeshwara, Bhatkala taluk, Uttara Kannada, Karnataka, 581350, India",
            "longitude": "74.4883354",
            "latitude": "14.0959549",
            "blogLinks": [
                "https://www.tripoto.com/travel-guide/murudeshwara/trips"
            ],
            "locType": "town"
        },
        "murudeshwara": {
            "closest_to": "murudeshwara",
            "address": "Murudeshwara, Bhatkala taluk, Uttara Kannada, Karnataka, 581350, India",
            "longitude": "74.4883354",
            "latitude": "14.0959549",
            "blogLinks": [
                "http://www.holidayiq.com/Murudeshwara-Mosques-A-746-37.html",
                "http://www.team-bhp.com/forum/travelogues/94368-horanadu-sringeri-kollur-gokarna-udupi-karkala-moo-dbidri-mangalore-dharmasthala-kukke.html",
                "https://www.distancecalculator.net/from-murudeshwara-to-chikmagalur",
                "http://www.holidayiq.com/Murudeshwara-Parks-A-746-1.html",
                "http://travel.india.com/murudeshwar/places-to-visit/"
            ],
            "locType": "town"
        },
        "sringeri": {
            "closest_to": "murudeshwara",
            "address": "Sringeri, Sringeri taluku, Chikkamagaluru district, Karnataka, 577592, India",
            "longitude": "75.2553718",
            "latitude": "13.4261724",
            "blogLinks": [
                "http://www.team-bhp.com/forum/travelogues/94368-horanadu-sringeri-kollur-gokarna-udupi-karkala-moo-dbidri-mangalore-dharmasthala-kukke.html"
            ],
            "locType": "town"
        },
        "dharmasthala": {
            "closest_to": "chikmagalur",
            "address": "Dharmasthala, Beltangadi taluk, Dakshina Kannada, Karnataka, 574216, India",
            "longitude": "75.3813122",
            "latitude": "12.9519571",
            "blogLinks": [
                "http://www.team-bhp.com/forum/travelogues/94368-horanadu-sringeri-kollur-gokarna-udupi-karkala-moo-dbidri-mangalore-dharmasthala-kukke.html"
            ],
            "locType": "village"
        },
        "kudremukh national park": {
            "closest_to": "murudeshwara",
            "address": "Kudremukh National Park, SH66, Sringeri taluku, Chikkamagaluru district, Karnataka, India",
            "longitude": "75.1828713712862",
            "latitude": "13.25397485",
            "blogLinks": [
                "https://www.thrillophilia.com/places-to-visit-in-chikmagalur"
            ],
            "locType": "national_park"
        },
        "kudremukh": {
            "closest_to": "chikmagalur",
            "address": "Kudremukha, Mudigere taluk, Chikkamagaluru district, Karnataka, India",
            "longitude": "75.2523304",
            "latitude": "13.2144007",
            "blogLinks": [
                "https://www.thrillophilia.com/places-to-visit-in-chikmagalur"
            ],
            "locType": "village"
        },
        "netrani island": {
            "closest_to": "murudeshwara",
            "address": "Netrani, Uttara Kannada, Karnataka, India",
            "longitude": "74.3272086675849",
            "latitude": "14.0174924",
            "blogLinks": [
                "http://www.nivalink.com/destination/murudeshwar"
            ],
            "locType": "island"
        },
        "shringeri": {
            "closest_to": "murudeshwara",
            "address": "Shringeri, Hanagal taluk, Haveri district, Karnataka, India",
            "longitude": "75.0621168",
            "latitude": "14.7221214",
            "blogLinks": [
                "https://www.thrillophilia.com/places-to-visit-in-chikmagalur"
            ],
            "locType": "village"
        },
        "tunga river": {
            "closest_to": "murudeshwara",
            "address": "Tunga, Tirthahalli taluk, Shimoga district, Karnataka, India",
            "longitude": "75.3221835",
            "latitude": "13.6632221",
            "blogLinks": [
                "https://www.thrillophilia.com/places-to-visit-in-chikmagalur"
            ],
            "locType": "river"
        },
        "malpe": {
            "closest_to": "murudeshwara",
            "address": "Malpe, Udupi taluku, Udupi district, Karnataka, India",
            "longitude": "74.7036914",
            "latitude": "13.3507423",
            "blogLinks": [
                "http://www.team-bhp.com/forum/travelogues/94368-horanadu-sringeri-kollur-gokarna-udupi-karkala-moo-dbidri-mangalore-dharmasthala-kukke.html"
            ],
            "locType": "village"
        },
        "kundapura": {
            "closest_to": "murudeshwara",
            "address": "Kundapura, \u0c95\u0cc1\u0c82\u0ca6\u0cbe\u0caa\u0cc1\u0cb0 \u0ca4\u0cbe\u0cb2\u0cc2\u0c95\u0cc1, Udupi district, Karnataka, 576200, India",
            "longitude": "74.6915722",
            "latitude": "13.6250993",
            "blogLinks": [
                "http://www.nivalink.com/destination/chikmagalur",
                "http://www.nivalink.com/destination/murudeshwar"
            ],
            "locType": "town"
        },
        "kollur": {
            "closest_to": "murudeshwara",
            "address": "Kollur, \u0c95\u0cc1\u0c82\u0ca6\u0cbe\u0caa\u0cc1\u0cb0 \u0ca4\u0cbe\u0cb2\u0cc2\u0c95\u0cc1, Udupi district, Karnataka, 576220, India",
            "longitude": "74.8137959",
            "latitude": "13.8634049",
            "blogLinks": [
                "http://www.team-bhp.com/forum/travelogues/94368-horanadu-sringeri-kollur-gokarna-udupi-karkala-moo-dbidri-mangalore-dharmasthala-kukke.html"
            ],
            "locType": "village"
        },
        "kemmangundi": {
            "closest_to": "chikmagalur",
            "address": "Kemmannagundi, Tarikere taluku, Chikkamagaluru district, Karnataka, India",
            "longitude": "75.7520082",
            "latitude": "13.5463048",
            "blogLinks": [
                "https://www.thrillophilia.com/places-to-visit-in-chikmagalur"
            ],
            "locType": "village"
        },
        "udupi - karkala": {
            "closest_to": "murudeshwara",
            "address": "Thirthahalli - Udupi Highway, Someshwara, Karkala taluk, Udupi district, Karnataka, 576129, India",
            "longitude": "75.0794827",
            "latitude": "13.4952651",
            "blogLinks": [
                "http://www.team-bhp.com/forum/travelogues/94368-horanadu-sringeri-kollur-gokarna-udupi-karkala-moo-dbidri-mangalore-dharmasthala-kukke.html"
            ],
            "locType": "trunk"
        },
        "mangalore": {
            "closest_to": "chikmagalur",
            "address": "Mangaluru, Mangaluru taluk, Dakshina Kannada, Karnataka, 575001, India",
            "longitude": "74.8430082",
            "latitude": "12.8698101",
            "blogLinks": [
                "https://www.thrillophilia.com/places-to-visit-in-chikmagalur",
                "https://www.quora.com/Which-are-the-best-places-to-visit-in-Karnataka-in-winter",
                "http://www.nivalink.com/destination/chikmagalur",
                "http://www.nivalink.com/destination/murudeshwar",
                "http://www.team-bhp.com/forum/travelogues/94368-horanadu-sringeri-kollur-gokarna-udupi-karkala-moo-dbidri-mangalore-dharmasthala-kukke.html"
            ],
            "locType": "city"
        },
        "charmadi": {
            "closest_to": "chikmagalur",
            "address": "Charmadi, Beltangadi taluk, Dakshina Kannada, Karnataka, 574290, India",
            "longitude": "75.3967377",
            "latitude": "13.0365436",
            "blogLinks": [
                "http://www.team-bhp.com/forum/travelogues/94368-horanadu-sringeri-kollur-gokarna-udupi-karkala-moo-dbidri-mangalore-dharmasthala-kukke.html"
            ],
            "locType": "village"
        },
        "belur": {
            "closest_to": "chikmagalur",
            "address": "Belur, Beluru taluk, Hassan district, Karnataka, 573115, India",
            "longitude": "75.8634851",
            "latitude": "13.1645671",
            "blogLinks": [
                "http://www.nivalink.com/destination/chikmagalur",
                "http://www.team-bhp.com/forum/travelogues/94368-horanadu-sringeri-kollur-gokarna-udupi-karkala-moo-dbidri-mangalore-dharmasthala-kukke.html"
            ],
            "locType": "town"
        },
        "mudigere": {
            "closest_to": "chikmagalur",
            "address": "Mudigere, Aluru taluk, Hassan district, Karnataka, India",
            "longitude": "76.0185988",
            "latitude": "13.0093567",
            "blogLinks": [
                "https://www.thrillophilia.com/places-to-visit-in-chikmagalur"
            ],
            "locType": "village"
        },
        "end point road": {
            "closest_to": "murudeshwara",
            "address": "End Point, Udupi, Udupi taluku, Udupi district, Karnataka, 576101, India",
            "longitude": "74.7848287",
            "latitude": "13.3700386",
            "blogLinks": [
                "http://www.nivalink.com/destination/chikmagalur"
            ],
            "locType": "suburb"
        },
        "murudeshwar": {
            "closest_to": "murudeshwara",
            "address": "Murudeshwara, Bhatkala taluk, Uttara Kannada, Karnataka, 581350, India",
            "longitude": "74.4883354",
            "latitude": "14.0959549",
            "blogLinks": [
                "http://travel.india.com/murudeshwar/places-to-visit/"
            ],
            "locType": "town"
        },
        "kalasa": {
            "closest_to": "chikmagalur",
            "address": "Kalasa, Mudigere taluk, Chikkamagaluru district, Karnataka, 577124, India",
            "longitude": "75.3582366",
            "latitude": "13.2322235",
            "blogLinks": [
                "http://www.team-bhp.com/forum/travelogues/94368-horanadu-sringeri-kollur-gokarna-udupi-karkala-moo-dbidri-mangalore-dharmasthala-kukke.html"
            ],
            "locType": "town"
        },
        "pigeon island": {
            "closest_to": "murudeshwara",
            "address": "Netrani, Uttara Kannada, Karnataka, India",
            "longitude": "74.3272086675849",
            "latitude": "14.0174924",
            "blogLinks": [
                "http://www.nivalink.com/destination/murudeshwar"
            ],
            "locType": "island"
        },
        "gokarna": {
            "closest_to": "murudeshwara",
            "address": "Gokarna, Kumata taluk, Uttara Kannada, Karnataka, 581326, India",
            "longitude": "74.3184418",
            "latitude": "14.5439629",
            "blogLinks": [
                "http://www.team-bhp.com/forum/travelogues/94368-horanadu-sringeri-kollur-gokarna-udupi-karkala-moo-dbidri-mangalore-dharmasthala-kukke.html"
            ],
            "locType": "town"
        },
        "india": {
            "closest_to": "chikmagalur",
            "address": "Karnataka, India",
            "longitude": "75.7223521",
            "latitude": "14.5203896",
            "blogLinks": [
                "https://www.tripoto.com/travel-guide/murudeshwara/trips",
                "http://www.nivalink.com/destination/murudeshwar",
                "https://www.distancecalculator.net/from-murudeshwara-to-chikmagalur",
                "https://www.quora.com/Which-are-the-best-places-to-visit-in-Karnataka-in-winter",
                "https://www.tripoto.com/travel-guide/manipal",
                "http://www.nivalink.com/destination/chikmagalur"
            ],
            "locType": "administrative"
        }
    },
    "chikmagalur": {
        "place_id": "1426840",
        "osm_id": "316417001",
        "icon": "https://nominatim.openstreetmap.org/images/mapicons/poi_boundary_administrative.p.20.png",
        "osm_type": "node",
        "licence": "Data \u00a9 OpenStreetMap contributors, ODbL 1.0. http://www.openstreetmap.org/copyright",
        "display_name": "Chikmagalur, Chikkamagaluru district, Karnataka, India",
        "type": "county",
        "lon": "75.5",
        "boundingbox": [
            "12.86",
            "14.14",
            "74.86",
            "76.14"
        ],
        "importance": 0.65,
        "lat": "13.5",
        "class": "place"
    },
    "murudeshwara": {
        "place_id": "622093",
        "osm_id": "245626123",
        "icon": "https://nominatim.openstreetmap.org/images/mapicons/poi_place_town.p.20.png",
        "osm_type": "node",
        "licence": "Data \u00a9 OpenStreetMap contributors, ODbL 1.0. http://www.openstreetmap.org/copyright",
        "display_name": "Murudeshwara, Bhatkala taluk, Uttara Kannada, Karnataka, 581350, India",
        "type": "town",
        "lon": "74.4883354",
        "boundingbox": [
            "14.0559549",
            "14.1359549",
            "74.4483354",
            "74.5283354"
        ],
        "importance": 0.5,
        "lat": "14.0959549",
        "class": "place"
    }
}