{
    "virajpet": {
        "lat": "12.1972711",
        "class": "place",
        "importance": 0.5,
        "osm_type": "node",
        "lon": "75.8033421",
        "place_id": "3770481",
        "display_name": "Virajpet, Virajpet taluk, Kodagu, Karnataka, 571218, India",
        "osm_id": "412854951",
        "boundingbox": [
            "12.1572711",
            "12.2372711",
            "75.7633421",
            "75.8433421"
        ],
        "type": "town",
        "licence": "Data \u00a9 OpenStreetMap contributors, ODbL 1.0. http://www.openstreetmap.org/copyright",
        "icon": "https://nominatim.openstreetmap.org/images/mapicons/poi_place_town.p.20.png"
    },
    "chikmagalur": {
        "lat": "13.5",
        "class": "place",
        "importance": 0.65,
        "osm_type": "node",
        "lon": "75.5",
        "place_id": "1426840",
        "display_name": "Chikmagalur, Chikkamagaluru district, Karnataka, India",
        "osm_id": "316417001",
        "boundingbox": [
            "12.86",
            "14.14",
            "74.86",
            "76.14"
        ],
        "type": "county",
        "licence": "Data \u00a9 OpenStreetMap contributors, ODbL 1.0. http://www.openstreetmap.org/copyright",
        "icon": "https://nominatim.openstreetmap.org/images/mapicons/poi_boundary_administrative.p.20.png"
    },
    "mentions": {
        "virajpet": {
            "blogLinks": [
                "http://www.distancesfrom.com/distance-from-Virajpet-to-Dharwad-via-Chikmagalur/DistanceHistory/27063299.aspx",
                "http://goindia.about.com/od/karnataka/tp/6-Coorg-Places-To-Visit.htm",
                "https://www.tripoto.com/travel-guide/virajpet/places-to-visit"
            ],
            "longitude": "75.8033421",
            "address": "Virajpet, Virajpet taluk, Kodagu, Karnataka, 571218, India",
            "latitude": "12.1972711",
            "locType": "town",
            "closest_to": "virajpet"
        },
        "brahma": {
            "blogLinks": [
                "https://en.wikipedia.org/wiki/Kodagu_district"
            ],
            "longitude": "75.9026723908286",
            "address": "Sadguru Brahma Chaitanya Mandira, Ring Road, Vinobanagara, Davanagere, Davanagere taluku, Davanagere district, Karnataka, 577004, India",
            "latitude": "14.4564816",
            "locType": "place_of_worship",
            "closest_to": "chikmagalur"
        },
        "river kaveri": {
            "blogLinks": [
                "https://en.wikipedia.org/wiki/Kodagu_district"
            ],
            "longitude": "77.0635531",
            "address": "Kaveri, Kollegala taluk, Chamarajanagar district, Karnataka, India",
            "latitude": "12.1687878",
            "locType": "river",
            "closest_to": "virajpet"
        },
        "maradi": {
            "blogLinks": [
                "https://www.thrillophilia.com/resorts-in-chikmagalur",
                "http://wikitravel.org/en/Chikmagalur"
            ],
            "longitude": "76.0757799",
            "address": "Maradi, Arakalagudu taluk, Hassan district, Karnataka, India",
            "latitude": "12.8130205",
            "locType": "village",
            "closest_to": "virajpet"
        },
        "india": {
            "blogLinks": [
                "http://www.nivalink.com/destination/chikmagalur",
                "http://wikitravel.org/en/Chikmagalur",
                "https://www.thrillophilia.com/places-to-visit-in-coorg",
                "https://en.wikipedia.org/wiki/Kodagu_district",
                "http://www.distancesfrom.com/distance-from-Virajpet-to-Dharwad-via-Chikmagalur/DistanceHistory/27063299.aspx",
                "http://www.nivalink.com/destination/coorg-(virajpet)",
                "http://goindia.about.com/od/karnataka/tp/6-Coorg-Places-To-Visit.htm",
                "http://traveltriangle.com/blog/romantic-resorts-around-bangalore/"
            ],
            "longitude": "75.7223521",
            "address": "Karnataka, India",
            "latitude": "14.5203896",
            "locType": "administrative",
            "closest_to": "chikmagalur"
        },
        "bhagamandala": {
            "blogLinks": [
                "https://www.thrillophilia.com/places-to-visit-in-coorg",
                "https://en.wikipedia.org/wiki/Kodagu_district"
            ],
            "longitude": "75.5290234",
            "address": "Bhagamandala, Madikeri taluku, Kodagu, Karnataka, India",
            "latitude": "12.3857285",
            "locType": "village",
            "closest_to": "virajpet"
        },
        "yagachi": {
            "blogLinks": [
                "http://wikitravel.org/en/Chikmagalur"
            ],
            "longitude": "75.950911",
            "address": "Yagachi, Beluru taluk, Hassan district, Karnataka, India",
            "latitude": "13.0658494",
            "locType": "river",
            "closest_to": "virajpet"
        },
        "silent valley": {
            "blogLinks": [
                "https://www.thrillophilia.com/resorts-in-chikmagalur",
                "http://www.holidayiq.com/destinations/virajpet/gods-gift-photos-p86501.html"
            ],
            "longitude": "76.5819054",
            "address": "Silent Shores Resort, Krishnaraja Sagara Road, Kurgalli, Bastipura, Srirangapattana taluk, Mandya district, Karnataka, 570027, India",
            "latitude": "12.3459371",
            "locType": "hotel",
            "closest_to": "virajpet"
        },
        "urdu": {
            "blogLinks": [
                "https://en.wikipedia.org/wiki/Kodagu_district"
            ],
            "longitude": "75.636575371858",
            "address": "Urdu Ground, Ranebennur, Ranebennuru taluk, Haveri district, Karnataka, 581115, India",
            "latitude": "14.6180369",
            "locType": "recreation_ground",
            "closest_to": "chikmagalur"
        },
        "bababudangiri": {
            "blogLinks": [
                "https://www.thrillophilia.com/resorts-in-chikmagalur",
                "http://wikitravel.org/en/Chikmagalur"
            ],
            "longitude": "75.7486618",
            "address": "Bababudangiri Road, Inam Dattatreya Pitha, Chikkamagaluru taluku, Chikkamagaluru district, Karnataka, India",
            "latitude": "13.4297401",
            "locType": "tertiary",
            "closest_to": "virajpet"
        },
        "mysore": {
            "blogLinks": [
                "https://en.wikipedia.org/wiki/Kodagu_district"
            ],
            "longitude": "76.6553609",
            "address": "Mysuru, Mysuru taluk, Mysuru district, Karnataka, 570001, India",
            "latitude": "12.3051828",
            "locType": "city",
            "closest_to": "virajpet"
        },
        "mandalpatti": {
            "blogLinks": [
                "https://www.thrillophilia.com/places-to-visit-in-coorg",
                "http://goindia.about.com/od/karnataka/tp/6-Coorg-Places-To-Visit.htm"
            ],
            "longitude": "75.7307012",
            "address": "Mandalpatti road junction, Galibidu Road, Kalakeri Nidugane, Madikeri taluku, Kodagu, Karnataka, India",
            "latitude": "12.4486242",
            "locType": "attraction",
            "closest_to": "virajpet"
        },
        "shantigrama": {
            "blogLinks": [
                "http://www.mygola.com/road-trip-from-bangalore-to-chikmagalur/q9090"
            ],
            "longitude": "76.2166763",
            "address": "Shantigrama, Hasana taluk, Hassan district, Karnataka, India",
            "latitude": "12.983428",
            "locType": "village",
            "closest_to": "virajpet"
        },
        "kudremukh": {
            "blogLinks": [
                "http://wikitravel.org/en/Chikmagalur"
            ],
            "longitude": "75.2523304",
            "address": "Kudremukha, Mudigere taluk, Chikkamagaluru district, Karnataka, India",
            "latitude": "13.2144007",
            "locType": "village",
            "closest_to": "virajpet"
        },
        "dubare": {
            "blogLinks": [
                "https://en.wikipedia.org/wiki/Kodagu_district"
            ],
            "longitude": "75.9066719",
            "address": "Dubare Elephant Camp, SH91, Dodda Bettageri, Somawarpet taluk, Kodagu, Karnataka, India",
            "latitude": "12.3716865",
            "locType": "attraction",
            "closest_to": "virajpet"
        },
        "kaimara": {
            "blogLinks": [
                "http://wikitravel.org/en/Chikmagalur"
            ],
            "longitude": "75.7448654",
            "address": "Kaimara, Chikkamagaluru taluku, Chikkamagaluru district, Karnataka, India",
            "latitude": "13.3713857",
            "locType": "village",
            "closest_to": "virajpet"
        },
        "lakkavalli": {
            "blogLinks": [
                "http://wikitravel.org/en/Chikmagalur"
            ],
            "longitude": "75.1078097",
            "address": "Lakkavalli, Soraba taluk, Shimoga district, Karnataka, India",
            "latitude": "14.5841018",
            "locType": "village",
            "closest_to": "chikmagalur"
        },
        "chikkamagaluru": {
            "blogLinks": [
                "https://en.wikipedia.org/wiki/Kodagu_district",
                "http://wikitravel.org/en/Chikmagalur"
            ],
            "longitude": "75.7738743",
            "address": "Chikkamagaluru, Chikkamagaluru taluku, Chikkamagaluru district, Karnataka, 577101, India",
            "latitude": "13.318014",
            "locType": "city",
            "closest_to": "virajpet"
        },
        "somwarpet": {
            "blogLinks": [
                "https://en.wikipedia.org/wiki/Kodagu_district"
            ],
            "longitude": "75.8457638",
            "address": "Somwarpet, Somawarpet taluk, Kodagu, Karnataka, 571236, India",
            "latitude": "12.6004446",
            "locType": "town",
            "closest_to": "virajpet"
        },
        "madikeri fort": {
            "blogLinks": [
                "https://www.thrillophilia.com/places-to-visit-in-coorg"
            ],
            "longitude": "75.7392494",
            "address": "Madikeri Museum, Fort Internal Road, Madikeri, Madikeri taluku, Kodagu, Karnataka, India",
            "latitude": "12.4203606",
            "locType": "museum",
            "closest_to": "virajpet"
        },
        "coorg": {
            "blogLinks": [
                "http://www.nivalink.com/destination/chikmagalur",
                "https://www.thrillophilia.com/places-to-visit-in-coorg",
                "https://en.wikipedia.org/wiki/Kodagu_district",
                "http://traveltriangle.com/blog/romantic-resorts-around-bangalore/",
                "http://www.nivalink.com/destination/coorg-(virajpet)"
            ],
            "longitude": "75.740031",
            "address": "Madikeri, Madikeri taluku, Kodagu, Karnataka, India",
            "latitude": "12.4204003",
            "locType": "town",
            "closest_to": "virajpet"
        },
        "irupu falls": {
            "blogLinks": [
                "http://goindia.about.com/od/karnataka/tp/6-Coorg-Places-To-Visit.htm",
                "http://www.nivalink.com/destination/coorg-(virajpet)"
            ],
            "longitude": "75.9839484",
            "address": "Iruppu Falls, SH89, Taila, Virajpet taluk, Kodagu, Karnataka, 571217, India",
            "latitude": "11.9667954",
            "locType": "attraction",
            "closest_to": "virajpet"
        },
        "dakshina kannada": {
            "blogLinks": [
                "https://en.wikipedia.org/wiki/Kodagu_district"
            ],
            "longitude": "75.1008028650794",
            "address": "Dakshina Kannada, Karnataka, India",
            "latitude": "12.8114089",
            "locType": "administrative",
            "closest_to": "virajpet"
        },
        "kodagu district of karnataka": {
            "blogLinks": [
                "http://www.holidayiq.com/destinations/virajpet/gods-gift-photos-p86501.html"
            ],
            "longitude": "76.2818865",
            "address": "Kodagu Kaloni, Hunasuru taluk, Mysuru district, Karnataka, India",
            "latitude": "12.2335192",
            "locType": "village",
            "closest_to": "virajpet"
        },
        "orange county": {
            "blogLinks": [
                "http://traveltriangle.com/blog/romantic-resorts-around-bangalore/",
                "http://www.karnatakatourism.org/"
            ],
            "longitude": "75.8900616",
            "address": "Orange County, Karadigodu Road, Siddapura, Virajpet taluk, Kodagu, Karnataka, India",
            "latitude": "12.3225856",
            "locType": "hotel",
            "closest_to": "virajpet"
        },
        "kodagu": {
            "blogLinks": [
                "https://www.thrillophilia.com/places-to-visit-in-coorg",
                "https://en.wikipedia.org/wiki/Kodagu_district",
                "http://goindia.about.com/od/karnataka/tp/6-Coorg-Places-To-Visit.htm",
                "http://www.nivalink.com/destination/coorg-(virajpet)",
                "https://www.tripoto.com/travel-guide/virajpet/places-to-visit"
            ],
            "longitude": "75.6677235950852",
            "address": "Kodagu, Karnataka, India",
            "latitude": "12.38117345",
            "locType": "administrative",
            "closest_to": "virajpet"
        },
        "halebidu": {
            "blogLinks": [
                "http://www.nivalink.com/destination/chikmagalur"
            ],
            "longitude": "76.4607075",
            "address": "Halebidu, Hunasuru taluk, Mysuru district, Karnataka, India",
            "latitude": "12.359893",
            "locType": "village",
            "closest_to": "virajpet"
        },
        "karnataka": {
            "blogLinks": [
                "http://www.nivalink.com/destination/chikmagalur",
                "http://wikitravel.org/en/Chikmagalur",
                "https://www.thrillophilia.com/resorts-in-chikmagalur",
                "http://www.mygola.com/road-trip-from-bangalore-to-chikmagalur/q9090",
                "https://www.tripoto.com/travel-guide/virajpet/places-to-visit",
                "https://www.thrillophilia.com/places-to-visit-in-coorg",
                "https://en.wikipedia.org/wiki/Kodagu_district",
                "http://www.distancesfrom.com/distance-from-Virajpet-to-Dharwad-via-Chikmagalur/DistanceHistory/27063299.aspx",
                "http://www.nivalink.com/destination/coorg-(virajpet)",
                "http://goindia.about.com/od/karnataka/tp/6-Coorg-Places-To-Visit.htm",
                "http://traveltriangle.com/blog/romantic-resorts-around-bangalore/",
                "http://www.karnatakatourism.org/"
            ],
            "longitude": "76.6639936",
            "address": "Karnataka, Shalivahana Road, Nazarbad, Mysuru, Mysuru taluk, Mysuru district, Karnataka, 570001, India",
            "latitude": "12.3084901",
            "locType": "atm",
            "closest_to": "virajpet"
        },
        "mangalore": {
            "blogLinks": [
                "http://www.nivalink.com/destination/chikmagalur",
                "https://en.wikipedia.org/wiki/Kodagu_district",
                "http://www.mygola.com/road-trip-from-bangalore-to-chikmagalur/q9090",
                "http://www.nivalink.com/destination/coorg-(virajpet)",
                "http://wikitravel.org/en/Chikmagalur"
            ],
            "longitude": "74.8430082",
            "address": "Mangaluru, Mangaluru taluk, Dakshina Kannada, Karnataka, 575001, India",
            "latitude": "12.8698101",
            "locType": "city",
            "closest_to": "virajpet"
        },
        "ooty": {
            "blogLinks": [
                "http://www.nivalink.com/destination/coorg-(virajpet)"
            ],
            "longitude": "76.6586807",
            "address": "Ooty Road, Vidyaranyapuram, Mysuru, Mysuru taluk, Mysuru district, Karnataka, 570001, India",
            "latitude": "12.2774807",
            "locType": "primary",
            "closest_to": "virajpet"
        },
        "kannada": {
            "blogLinks": [
                "https://en.wikipedia.org/wiki/Kodagu_district"
            ],
            "longitude": "75.1008028650794",
            "address": "Dakshina Kannada, Karnataka, India",
            "latitude": "12.8114089",
            "locType": "administrative",
            "closest_to": "virajpet"
        },
        "attigundi": {
            "blogLinks": [
                "https://www.thrillophilia.com/resorts-in-chikmagalur"
            ],
            "longitude": "75.7415646",
            "address": "Attigundi, Chikkamagaluru taluku, Chikkamagaluru district, Karnataka, India",
            "latitude": "13.428683",
            "locType": "village",
            "closest_to": "virajpet"
        },
        "hemavati": {
            "blogLinks": [
                "http://wikitravel.org/en/Chikmagalur"
            ],
            "longitude": "76.0723187",
            "address": "Hemavati, Hasana taluk, Hassan district, Karnataka, India",
            "latitude": "12.8179996",
            "locType": "river",
            "closest_to": "virajpet"
        },
        "gaddige": {
            "blogLinks": [
                "https://www.thrillophilia.com/places-to-visit-in-coorg"
            ],
            "longitude": "76.3734451",
            "address": "Gaddige, Hunasuru taluk, Mysuru district, Karnataka, India",
            "latitude": "12.1891771",
            "locType": "village",
            "closest_to": "virajpet"
        },
        "kadur": {
            "blogLinks": [
                "http://wikitravel.org/en/Chikmagalur"
            ],
            "longitude": "75.7820095",
            "address": "Mudigere-Kadur Road, Basavannahalli, Chikkamagaluru, Chikkamagaluru taluku, Chikkamagaluru district, Karnataka, 577101, India",
            "latitude": "13.3283654",
            "locType": "trunk",
            "closest_to": "virajpet"
        },
        "halebid": {
            "blogLinks": [
                "http://www.mygola.com/road-trip-from-bangalore-to-chikmagalur/q9090"
            ],
            "longitude": "75.9918793",
            "address": "Halebidu, Beluru taluk, Hassan district, Karnataka, 573121, India",
            "latitude": "13.2167959",
            "locType": "village",
            "closest_to": "virajpet"
        },
        "belur": {
            "blogLinks": [
                "http://www.nivalink.com/destination/chikmagalur",
                "http://www.mygola.com/road-trip-from-bangalore-to-chikmagalur/q9090",
                "http://wikitravel.org/en/Chikmagalur"
            ],
            "longitude": "75.8634851",
            "address": "Belur, Beluru taluk, Hassan district, Karnataka, 573115, India",
            "latitude": "13.1645671",
            "locType": "town",
            "closest_to": "virajpet"
        },
        "nagarhole national park": {
            "blogLinks": [
                "http://goindia.about.com/od/karnataka/tp/6-Coorg-Places-To-Visit.htm"
            ],
            "longitude": "76.1537073415874",
            "address": "Nagarahole National Park, Virajpet taluk, Kodagu, Karnataka, India",
            "latitude": "12.0600362",
            "locType": "national_park",
            "closest_to": "virajpet"
        },
        "manjarabad fort": {
            "blogLinks": [
                "http://www.mygola.com/road-trip-from-bangalore-to-chikmagalur/q9090"
            ],
            "longitude": "75.7580572896098",
            "address": "Manjarabad Fort, SH27, Hullahalli, Sakaleshapura taluk, Hassan district, Karnataka, 573134, India",
            "latitude": "12.9173302",
            "locType": "attraction",
            "closest_to": "virajpet"
        },
        "brahmagiri": {
            "blogLinks": [
                "https://www.thrillophilia.com/places-to-visit-in-coorg",
                "https://en.wikipedia.org/wiki/Kodagu_district"
            ],
            "longitude": "75.490746",
            "address": "Brahmagiri, Madikeri taluku, Kodagu, Karnataka, India",
            "latitude": "12.3868578",
            "locType": "peak",
            "closest_to": "virajpet"
        },
        "panambur": {
            "blogLinks": [
                "https://en.wikipedia.org/wiki/Kodagu_district"
            ],
            "longitude": "74.8031577",
            "address": "Panambur, Mangaluru taluk, Dakshina Kannada, Karnataka, India",
            "latitude": "12.9535736",
            "locType": "village",
            "closest_to": "virajpet"
        },
        "vedavati": {
            "blogLinks": [
                "http://wikitravel.org/en/Chikmagalur"
            ],
            "longitude": "76.1347937",
            "address": "Vedavati, Kaduru taluk, Chikkamagaluru district, Karnataka, India",
            "latitude": "13.6048777",
            "locType": "river",
            "closest_to": "chikmagalur"
        },
        "silent valley resort": {
            "blogLinks": [
                "https://www.thrillophilia.com/resorts-in-chikmagalur"
            ],
            "longitude": "76.5819054",
            "address": "Silent Shores Resort, Krishnaraja Sagara Road, Kurgalli, Bastipura, Srirangapattana taluk, Mandya district, Karnataka, 570027, India",
            "latitude": "12.3459371",
            "locType": "hotel",
            "closest_to": "virajpet"
        },
        "kannur": {
            "blogLinks": [
                "http://www.nivalink.com/destination/chikmagalur",
                "https://en.wikipedia.org/wiki/Kodagu_district",
                "http://www.nivalink.com/destination/coorg-(virajpet)",
                "https://www.tripoto.com/travel-guide/virajpet/places-to-visit"
            ],
            "longitude": "74.8858161",
            "address": "Netravati bridge - Kannur Bypass Road (Proposed), Padil, Bajal, Mangaluru taluk, Dakshina Kannada, Karnataka, 575007, India",
            "latitude": "12.8487602",
            "locType": "construction",
            "closest_to": "virajpet"
        },
        "coimbatore": {
            "blogLinks": [
                "http://www.nivalink.com/destination/coorg-(virajpet)"
            ],
            "longitude": "76.6318246",
            "address": "Gundlupet - Coimbatore Highway, Bandipur, Gundlupet taluk, Chamarajanagar district, Karnataka, India",
            "latitude": "11.6793976",
            "locType": "trunk",
            "closest_to": "virajpet"
        },
        "raja 's seat": {
            "blogLinks": [
                "http://goindia.about.com/od/karnataka/tp/6-Coorg-Places-To-Visit.htm"
            ],
            "longitude": "75.7369653316478",
            "address": "Raja Seat, Mahatma Gandhi Road, Madikeri, Madikeri taluku, Kodagu, Karnataka, India",
            "latitude": "12.41421975",
            "locType": "park",
            "closest_to": "virajpet"
        },
        "manikyadhara": {
            "blogLinks": [
                "http://wikitravel.org/en/Chikmagalur"
            ],
            "longitude": "75.7701434",
            "address": "Manikyadhara, Bababudangiri Road, Inam Dattatreya Pitha, Chikkamagaluru taluku, Chikkamagaluru district, Karnataka, India",
            "latitude": "13.4220248",
            "locType": "attraction",
            "closest_to": "virajpet"
        },
        "siddapura": {
            "blogLinks": [
                "https://en.wikipedia.org/wiki/Kodagu_district"
            ],
            "longitude": "74.8924253",
            "address": "Siddapura, Siddapura taluk, Uttara Kannada, Karnataka, India",
            "latitude": "14.3409562",
            "locType": "town",
            "closest_to": "chikmagalur"
        },
        "mallalli falls": {
            "blogLinks": [
                "https://www.thrillophilia.com/places-to-visit-in-coorg"
            ],
            "longitude": "75.723663",
            "address": "Mallalli Falls, Somawarpet taluk, Kodagu, Karnataka, India",
            "latitude": "12.6813778",
            "locType": "waterfall",
            "closest_to": "virajpet"
        },
        "omkareshwara temple": {
            "blogLinks": [
                "https://en.wikipedia.org/wiki/Kodagu_district"
            ],
            "longitude": "75.741304",
            "address": "Omkareshwara Temple, Main Road, Madikeri, Madikeri taluku, Kodagu, Karnataka, India",
            "latitude": "12.420546",
            "locType": "place_of_worship",
            "closest_to": "virajpet"
        },
        "us": {
            "blogLinks": [
                "https://en.wikipedia.org/wiki/Kodagu_district"
            ],
            "longitude": "75.7223521",
            "address": "Karnataka, India",
            "latitude": "14.5203896",
            "locType": "administrative",
            "closest_to": "chikmagalur"
        },
        "bhadra river": {
            "blogLinks": [
                "http://www.nivalink.com/destination/chikmagalur"
            ],
            "longitude": "75.527118",
            "address": "Bhadra, Chikkamagaluru taluku, Chikkamagaluru district, Karnataka, India",
            "latitude": "13.4888356",
            "locType": "river",
            "closest_to": "virajpet"
        },
        "kemmannagundi": {
            "blogLinks": [
                "http://wikitravel.org/en/Chikmagalur"
            ],
            "longitude": "75.7520082",
            "address": "Kemmannagundi, Tarikere taluku, Chikkamagaluru district, Karnataka, India",
            "latitude": "13.5463048",
            "locType": "village",
            "closest_to": "chikmagalur"
        },
        "chikkamagalur": {
            "blogLinks": [
                "http://www.nivalink.com/destination/chikmagalur"
            ],
            "longitude": "75.789501",
            "address": "Chikkamagalur, SH57, Hosamane Badavane, Hiremagaluru, Chikkamagaluru taluku, Chikkamagaluru district, Karnataka, 577101, India",
            "latitude": "13.3030706",
            "locType": "station",
            "closest_to": "virajpet"
        },
        "talakaveri": {
            "blogLinks": [
                "https://en.wikipedia.org/wiki/Kodagu_district"
            ],
            "longitude": "75.4930074",
            "address": "Talakaveri, Madikeri taluku, Kodagu, Karnataka, India",
            "latitude": "12.3858456",
            "locType": "hamlet",
            "closest_to": "virajpet"
        },
        "mangalore international airport": {
            "blogLinks": [
                "https://en.wikipedia.org/wiki/Kodagu_district"
            ],
            "longitude": "74.887492668144",
            "address": "Mangalore International Airport, Airport Entry Road, Gandhinagar, Kenjar, Mangaluru taluk, Dakshina Kannada, Karnataka, 575015, India",
            "latitude": "12.95518575",
            "locType": "aerodrome",
            "closest_to": "virajpet"
        },
        "madikeri fort museum": {
            "blogLinks": [
                "https://en.wikipedia.org/wiki/Kodagu_district"
            ],
            "longitude": "75.7392494",
            "address": "Madikeri Museum, Fort Internal Road, Madikeri, Madikeri taluku, Kodagu, Karnataka, India",
            "latitude": "12.4203606",
            "locType": "museum",
            "closest_to": "virajpet"
        },
        "kakkabe": {
            "blogLinks": [
                "https://www.thrillophilia.com/places-to-visit-in-coorg",
                "http://goindia.about.com/od/karnataka/tp/6-Coorg-Places-To-Visit.htm",
                "http://www.nivalink.com/destination/coorg-(virajpet)"
            ],
            "longitude": "75.6444603",
            "address": "Kakkabe, Madikeri taluku, Kodagu, Karnataka, India",
            "latitude": "12.2571817",
            "locType": "village",
            "closest_to": "virajpet"
        },
        "south coorg": {
            "blogLinks": [
                "http://www.nivalink.com/destination/coorg-(virajpet)"
            ],
            "longitude": "75.740031",
            "address": "Madikeri, Madikeri taluku, Kodagu, Karnataka, India",
            "latitude": "12.4204003",
            "locType": "town",
            "closest_to": "virajpet"
        },
        "kemmangundi": {
            "blogLinks": [
                "https://www.thrillophilia.com/resorts-in-chikmagalur"
            ],
            "longitude": "75.7520082",
            "address": "Kemmannagundi, Tarikere taluku, Chikkamagaluru district, Karnataka, India",
            "latitude": "13.5463048",
            "locType": "village",
            "closest_to": "chikmagalur"
        },
        "gorur dam - gorur": {
            "blogLinks": [
                "http://www.mygola.com/road-trip-from-bangalore-to-chikmagalur/q9090"
            ],
            "longitude": "76.0644435",
            "address": "Gorur, Hasana taluk, Hassan district, Karnataka, 573120, India",
            "latitude": "12.8238999",
            "locType": "village",
            "closest_to": "virajpet"
        },
        "madikeri": {
            "blogLinks": [
                "https://www.thrillophilia.com/places-to-visit-in-coorg",
                "https://en.wikipedia.org/wiki/Kodagu_district",
                "http://goindia.about.com/od/karnataka/tp/6-Coorg-Places-To-Visit.htm",
                "http://www.nivalink.com/destination/coorg-(virajpet)"
            ],
            "longitude": "75.740031",
            "address": "Madikeri, Madikeri taluku, Kodagu, Karnataka, India",
            "latitude": "12.4204003",
            "locType": "town",
            "closest_to": "virajpet"
        },
        "kavadi": {
            "blogLinks": [
                "https://en.wikipedia.org/wiki/Kodagu_district"
            ],
            "longitude": "75.229639",
            "address": "Kavadi, Soraba taluk, Shimoga district, Karnataka, India",
            "latitude": "14.3281576",
            "locType": "village",
            "closest_to": "chikmagalur"
        },
        "kodagu district": {
            "blogLinks": [
                "https://en.wikipedia.org/wiki/Kodagu_district"
            ],
            "longitude": "75.7412148",
            "address": "Kodagu, Karnataka, India",
            "latitude": "12.2519249",
            "locType": "county",
            "closest_to": "virajpet"
        },
        "lakshmana tirtha river": {
            "blogLinks": [
                "https://en.wikipedia.org/wiki/Kodagu_district",
                "http://www.nivalink.com/destination/coorg-(virajpet)"
            ],
            "longitude": "75.9839484",
            "address": "Iruppu Falls, SH89, Taila, Virajpet taluk, Kodagu, Karnataka, 571217, India",
            "latitude": "11.9667954",
            "locType": "attraction",
            "closest_to": "virajpet"
        },
        "hills": {
            "blogLinks": [
                "http://traveltriangle.com/blog/romantic-resorts-around-bangalore/"
            ],
            "longitude": "74.860152",
            "address": "Kadri Hills, Mangaluru, Mangaluru taluk, Dakshina Kannada, Karnataka, 575001, India",
            "latitude": "12.8935998",
            "locType": "suburb",
            "closest_to": "virajpet"
        },
        "kashi": {
            "blogLinks": [
                "https://www.thrillophilia.com/places-to-visit-in-coorg",
                "https://en.wikipedia.org/wiki/Kodagu_district"
            ],
            "longitude": "74.9977469",
            "address": "Moodabidri, Mangaluru taluk, Dakshina Kannada, Karnataka, 574227, India",
            "latitude": "13.0699218",
            "locType": "town",
            "closest_to": "virajpet"
        },
        "kalaseshwara temple": {
            "blogLinks": [
                "http://www.nivalink.com/destination/chikmagalur",
                "http://www.nivalink.com/destination/coorg-(virajpet)"
            ],
            "longitude": "75.363446975",
            "address": "Kalaseshwara Temple, SH66, Kalasa, Mudigere taluk, Chikkamagaluru district, Karnataka, 577124, India",
            "latitude": "13.23228505",
            "locType": "place_of_worship",
            "closest_to": "virajpet"
        },
        "west coorg": {
            "blogLinks": [
                "http://www.nivalink.com/destination/coorg-(virajpet)"
            ],
            "longitude": "75.740031",
            "address": "Madikeri, Madikeri taluku, Kodagu, Karnataka, India",
            "latitude": "12.4204003",
            "locType": "town",
            "closest_to": "virajpet"
        },
        "mercara": {
            "blogLinks": [
                "https://en.wikipedia.org/wiki/Kodagu_district"
            ],
            "longitude": "75.740031",
            "address": "Madikeri, Madikeri taluku, Kodagu, Karnataka, India",
            "latitude": "12.4204003",
            "locType": "town",
            "closest_to": "virajpet"
        },
        "golden temple": {
            "blogLinks": [
                "https://www.thrillophilia.com/places-to-visit-in-coorg"
            ],
            "longitude": "75.9674656",
            "address": "Padmasambhava Buddhist Vihara (Golden Temple), MDR21, Koppa, Piriyapattana taluk, Mysuru district, Karnataka, India",
            "latitude": "12.430821",
            "locType": "place_of_worship",
            "closest_to": "virajpet"
        },
        "kanhangad": {
            "blogLinks": [
                "https://en.wikipedia.org/wiki/Kodagu_district"
            ],
            "longitude": "75.0896592",
            "address": "Kalladka Kanhangad Highway, Mangalapadavu, Bantwal taluk, Dakshina Kannada, Karnataka, 574243, India",
            "latitude": "12.8011738",
            "locType": "primary",
            "closest_to": "virajpet"
        },
        "chelavara falls": {
            "blogLinks": [
                "https://www.thrillophilia.com/places-to-visit-in-coorg"
            ],
            "longitude": "75.6734811730693",
            "address": "Chelavara Falls, Madikeri taluku, Kodagu, Karnataka, India",
            "latitude": "12.20601005",
            "locType": "waterfall",
            "closest_to": "virajpet"
        },
        "nagarahole": {
            "blogLinks": [
                "https://en.wikipedia.org/wiki/Kodagu_district"
            ],
            "longitude": "76.2286805",
            "address": "Nagarahole, Heggadadevanakote taluk, Mysuru district, Karnataka, India",
            "latitude": "12.0229466",
            "locType": "river",
            "closest_to": "virajpet"
        },
        "ganiga": {
            "blogLinks": [
                "https://en.wikipedia.org/wiki/Kodagu_district"
            ],
            "longitude": "76.8817824",
            "address": "Ganiga, Mandya taluk, Mandya district, Karnataka, India",
            "latitude": "12.7518557",
            "locType": "village",
            "closest_to": "virajpet"
        },
        "kushalanagara": {
            "blogLinks": [
                "https://en.wikipedia.org/wiki/Kodagu_district"
            ],
            "longitude": "75.961437",
            "address": "Kushalanagara, Somawarpet taluk, Kodagu, Karnataka, 571234, India",
            "latitude": "12.4585525",
            "locType": "town",
            "closest_to": "virajpet"
        },
        "sahyadri": {
            "blogLinks": [
                "http://traveltriangle.com/blog/romantic-resorts-around-bangalore/"
            ],
            "longitude": "75.2317987800043",
            "address": "Sahyadri Polytechnic, SH1, Seebinakere, Sankadahole, Tirthahalli taluk, Shimoga district, Karnataka, 577432, India",
            "latitude": "13.6983273",
            "locType": "school",
            "closest_to": "chikmagalur"
        },
        "irupu": {
            "blogLinks": [
                "http://www.nivalink.com/destination/coorg-(virajpet)"
            ],
            "longitude": "75.9839484",
            "address": "Iruppu Falls, SH89, Taila, Virajpet taluk, Kodagu, Karnataka, 571217, India",
            "latitude": "11.9667954",
            "locType": "attraction",
            "closest_to": "virajpet"
        },
        "harangi dam": {
            "blogLinks": [
                "https://www.thrillophilia.com/places-to-visit-in-coorg"
            ],
            "longitude": "75.9056999171375",
            "address": "Harangi dam, Somawarpet taluk, Kodagu, Karnataka, India",
            "latitude": "12.4928663",
            "locType": "dam",
            "closest_to": "virajpet"
        },
        "iruppu falls": {
            "blogLinks": [
                "https://www.thrillophilia.com/places-to-visit-in-coorg",
                "https://en.wikipedia.org/wiki/Kodagu_district"
            ],
            "longitude": "75.9839484",
            "address": "Iruppu Falls, SH89, Taila, Virajpet taluk, Kodagu, Karnataka, 571217, India",
            "latitude": "11.9667954",
            "locType": "attraction",
            "closest_to": "virajpet"
        },
        "kaveri": {
            "blogLinks": [
                "https://en.wikipedia.org/wiki/Kodagu_district"
            ],
            "longitude": "77.0635531",
            "address": "Kaveri, Kollegala taluk, Chamarajanagar district, Karnataka, India",
            "latitude": "12.1687878",
            "locType": "river",
            "closest_to": "virajpet"
        },
        "tadiandamol": {
            "blogLinks": [
                "https://www.thrillophilia.com/places-to-visit-in-coorg",
                "https://en.wikipedia.org/wiki/Kodagu_district",
                "https://www.tripoto.com/travel-guide/virajpet/places-to-visit"
            ],
            "longitude": "75.608815",
            "address": "Tadiandamol, Madikeri taluku, Kodagu, Karnataka, India",
            "latitude": "12.2175641",
            "locType": "peak",
            "closest_to": "virajpet"
        },
        "amrutapura": {
            "blogLinks": [
                "http://wikitravel.org/en/Chikmagalur"
            ],
            "longitude": "75.8535015",
            "address": "Amrutapura, Tarikere taluku, Chikkamagaluru district, Karnataka, India",
            "latitude": "13.7425193",
            "locType": "village",
            "closest_to": "chikmagalur"
        },
        "mudigere": {
            "blogLinks": [
                "https://www.thrillophilia.com/resorts-in-chikmagalur"
            ],
            "longitude": "76.0185988",
            "address": "Mudigere, Aluru taluk, Hassan district, Karnataka, India",
            "latitude": "13.0093567",
            "locType": "village",
            "closest_to": "virajpet"
        },
        "kumaradhara river": {
            "blogLinks": [
                "https://www.thrillophilia.com/places-to-visit-in-coorg"
            ],
            "longitude": "75.4390597",
            "address": "Kumaradhara, Putturu taluk, Dakshina Kannada, Karnataka, India",
            "latitude": "12.7370168",
            "locType": "river",
            "closest_to": "virajpet"
        },
        "karnataka state": {
            "blogLinks": [
                "https://en.wikipedia.org/wiki/Kodagu_district"
            ],
            "longitude": "76.6236231",
            "address": "Karnataka State Open University, \u0cb9\u0cc1\u0ca3\u0cb8\u0cc2\u0cb0\u0cc1 \u0cb0\u0cb8\u0ccd\u0ca4\u0cc6, Gokulam, Mysuru, Mysuru taluk, Mysuru district, Karnataka, 570001, India",
            "latitude": "12.315382",
            "locType": "university",
            "closest_to": "virajpet"
        },
        "bandipur": {
            "blogLinks": [
                "http://traveltriangle.com/blog/romantic-resorts-around-bangalore/"
            ],
            "longitude": "76.6285739",
            "address": "Bandipur, Gundlupet taluk, Chamarajanagar district, Karnataka, India",
            "latitude": "11.6662708",
            "locType": "village",
            "closest_to": "virajpet"
        },
        "south kodagu": {
            "blogLinks": [
                "https://en.wikipedia.org/wiki/Kodagu_district"
            ],
            "longitude": "75.6677235950852",
            "address": "Kodagu, Karnataka, India",
            "latitude": "12.38117345",
            "locType": "administrative",
            "closest_to": "virajpet"
        },
        "sakleshpur": {
            "blogLinks": [
                "http://www.mygola.com/road-trip-from-bangalore-to-chikmagalur/q9090"
            ],
            "longitude": "75.7862318",
            "address": "Sakaleshpura, Sakaleshapura taluk, Hassan district, Karnataka, 573134, India",
            "latitude": "12.9434349",
            "locType": "town",
            "closest_to": "virajpet"
        },
        "kumara parvatha": {
            "blogLinks": [
                "https://www.thrillophilia.com/places-to-visit-in-coorg"
            ],
            "longitude": "75.6865652",
            "address": "Kumara Parvatha, Somawarpet taluk, Kodagu, Karnataka, India",
            "latitude": "12.6623315",
            "locType": "peak",
            "closest_to": "virajpet"
        },
        "chikmagalur": {
            "blogLinks": [
                "https://www.thrillophilia.com/resorts-in-chikmagalur",
                "http://www.nivalink.com/destination/chikmagalur",
                "http://www.distancesfrom.com/distance-from-Virajpet-to-Dharwad-via-Chikmagalur/DistanceHistory/27063299.aspx",
                "http://wikitravel.org/en/Chikmagalur"
            ],
            "longitude": "75.5",
            "address": "Chikmagalur, Chikkamagaluru district, Karnataka, India",
            "latitude": "13.5",
            "locType": "county",
            "closest_to": "chikmagalur"
        },
        "barapole river": {
            "blogLinks": [
                "https://www.thrillophilia.com/places-to-visit-in-coorg"
            ],
            "longitude": "75.8218551",
            "address": "Barapole, Virajpet taluk, Kodagu, Karnataka, India",
            "latitude": "12.0738308",
            "locType": "river",
            "closest_to": "virajpet"
        },
        "nagarahole national park": {
            "blogLinks": [
                "https://en.wikipedia.org/wiki/Kodagu_district"
            ],
            "longitude": "76.1537073415874",
            "address": "Nagarahole National Park, Virajpet taluk, Kodagu, Karnataka, India",
            "latitude": "12.0600362",
            "locType": "national_park",
            "closest_to": "virajpet"
        },
        "hebbe": {
            "blogLinks": [
                "http://wikitravel.org/en/Chikmagalur"
            ],
            "longitude": "75.7253701",
            "address": "Hebbe falls, Kemmannagundi Road, Attigundi, Chikkamagaluru taluku, Chikkamagaluru district, Karnataka, India",
            "latitude": "13.5414025",
            "locType": "attraction",
            "closest_to": "chikmagalur"
        },
        "kundapura": {
            "blogLinks": [
                "http://www.nivalink.com/destination/chikmagalur",
                "http://www.nivalink.com/destination/coorg-(virajpet)"
            ],
            "longitude": "74.6915722",
            "address": "Kundapura, \u0c95\u0cc1\u0c82\u0ca6\u0cbe\u0caa\u0cc1\u0cb0 \u0ca4\u0cbe\u0cb2\u0cc2\u0c95\u0cc1, Udupi district, Karnataka, 576200, India",
            "latitude": "13.6250993",
            "locType": "town",
            "closest_to": "chikmagalur"
        },
        "north coorg": {
            "blogLinks": [
                "https://www.thrillophilia.com/places-to-visit-in-coorg"
            ],
            "longitude": "75.740031",
            "address": "Madikeri, Madikeri taluku, Kodagu, Karnataka, India",
            "latitude": "12.4204003",
            "locType": "town",
            "closest_to": "virajpet"
        },
        "gowdahalli": {
            "blogLinks": [
                "http://wikitravel.org/en/Chikmagalur"
            ],
            "longitude": "75.5981999",
            "address": "Gowdahalli, Mudigere taluk, Chikkamagaluru district, Karnataka, India",
            "latitude": "13.0422415",
            "locType": "village",
            "closest_to": "virajpet"
        },
        "london": {
            "blogLinks": [
                "https://en.wikipedia.org/wiki/Kodagu_district"
            ],
            "longitude": "75.7223521",
            "address": "Karnataka, India",
            "latitude": "14.5203896",
            "locType": "administrative",
            "closest_to": "chikmagalur"
        },
        "hassan district": {
            "blogLinks": [
                "https://en.wikipedia.org/wiki/Kodagu_district"
            ],
            "longitude": "76.1745460751981",
            "address": "Hassan district, Karnataka, India",
            "latitude": "13.0315068",
            "locType": "administrative",
            "closest_to": "virajpet"
        },
        "hassan": {
            "blogLinks": [
                "http://www.mygola.com/road-trip-from-bangalore-to-chikmagalur/q9090",
                "http://wikitravel.org/en/Chikmagalur"
            ],
            "longitude": "76.0992703",
            "address": "Hassan, Hasana taluk, Hassan district, Karnataka, 573201, India",
            "latitude": "13.0070817",
            "locType": "town",
            "closest_to": "virajpet"
        },
        "kasargod": {
            "blogLinks": [
                "https://en.wikipedia.org/wiki/Kodagu_district"
            ],
            "longitude": "74.8585848",
            "address": "Mangaluru-Kasargod Highway, Bolar, Thokkottu, Mangaluru taluk, Dakshina Kannada, Karnataka, 574159, India",
            "latitude": "12.8107348",
            "locType": "trunk",
            "closest_to": "virajpet"
        }
    }
}