{
    "chikmagalur": {
        "lat": "13.5",
        "class": "place",
        "importance": 0.65,
        "osm_type": "node",
        "lon": "75.5",
        "place_id": "1426840",
        "display_name": "Chikmagalur, Chikkamagaluru district, Karnataka, India",
        "osm_id": "316417001",
        "boundingbox": [
            "12.86",
            "14.14",
            "74.86",
            "76.14"
        ],
        "type": "county",
        "licence": "Data \u00a9 OpenStreetMap contributors, ODbL 1.0. http://www.openstreetmap.org/copyright",
        "icon": "https://nominatim.openstreetmap.org/images/mapicons/poi_boundary_administrative.p.20.png"
    },
    "dandeli": {
        "lat": "15.2490284",
        "class": "place",
        "importance": 0.5,
        "osm_type": "node",
        "lon": "74.6236037",
        "place_id": "5820025",
        "display_name": "Dandeli, Haliyala taluku, Uttara Kannada, Karnataka, 581325, India",
        "osm_id": "612546262",
        "boundingbox": [
            "15.2090284",
            "15.2890284",
            "74.5836037",
            "74.6636037"
        ],
        "type": "town",
        "licence": "Data \u00a9 OpenStreetMap contributors, ODbL 1.0. http://www.openstreetmap.org/copyright",
        "icon": "https://nominatim.openstreetmap.org/images/mapicons/poi_place_town.p.20.png"
    },
    "mentions": {
        "varaha": {
            "blogLinks": [
                "https://en.wikipedia.org/wiki/Tourism_in_Karnataka"
            ],
            "longitude": "75.3718812",
            "address": "Varaha, Hirekeruru taluk, Haveri district, Karnataka, India",
            "latitude": "14.390777",
            "locType": "village",
            "closest_to": "dandeli"
        },
        "ranganathittu bird sanctuary": {
            "blogLinks": [
                "https://en.wikipedia.org/wiki/Tourism_in_Karnataka"
            ],
            "longitude": "76.6553081",
            "address": "Ranganathittu Bird Sanctuary, SH154, Palahalli, Srirangapattana taluk, Mandya district, Karnataka, 571438, India",
            "latitude": "12.4238524",
            "locType": "attraction",
            "closest_to": "chikmagalur"
        },
        "kagal": {
            "blogLinks": [
                "https://en.wikipedia.org/wiki/Tourism_in_Karnataka"
            ],
            "longitude": "74.3575302591262",
            "address": "Kagal Fort, Birkodi Village, Kumata taluk, Uttara Kannada, Karnataka, India",
            "latitude": "14.5055819",
            "locType": "grass",
            "closest_to": "dandeli"
        },
        "haveri": {
            "blogLinks": [
                "https://en.wikipedia.org/wiki/Tourism_in_Karnataka"
            ],
            "longitude": "75.3996731",
            "address": "Haveri, Haveri taluku, Haveri district, Karnataka, 581110, India",
            "latitude": "14.7874825",
            "locType": "town",
            "closest_to": "dandeli"
        },
        "lokapura": {
            "blogLinks": [
                "https://en.wikipedia.org/wiki/Tourism_in_Karnataka"
            ],
            "longitude": "75.3685939",
            "address": "Lokapura, Mudhola taluku, Bagalkote district, Karnataka, 587122, India",
            "latitude": "16.1627427",
            "locType": "town",
            "closest_to": "dandeli"
        },
        "dharmastala": {
            "blogLinks": [
                "https://en.wikipedia.org/wiki/Tourism_in_Karnataka"
            ],
            "longitude": "75.3813122",
            "address": "Dharmasthala, Beltangadi taluk, Dakshina Kannada, Karnataka, 574216, India",
            "latitude": "12.9519571",
            "locType": "village",
            "closest_to": "chikmagalur"
        },
        "shimoga": {
            "blogLinks": [
                "https://en.wikipedia.org/wiki/Tourism_in_Karnataka",
                "https://www.tripoto.com/trip/popular-places-to-see-in-karnataka-57b7e9c84299c"
            ],
            "longitude": "75.569737",
            "address": "Shivamogga, Shivamogga taluku, Shimoga district, Karnataka, 577200, India",
            "latitude": "13.9311723",
            "locType": "city",
            "closest_to": "dandeli"
        },
        "kumta": {
            "blogLinks": [
                "https://en.wikipedia.org/wiki/Tourism_in_Karnataka"
            ],
            "longitude": "74.4107617",
            "address": "Kumta, Kumata taluk, Uttara Kannada, Karnataka, India",
            "latitude": "14.4261647",
            "locType": "town",
            "closest_to": "dandeli"
        },
        "mysore district": {
            "blogLinks": [
                "https://en.wikipedia.org/wiki/Tourism_in_Karnataka"
            ],
            "longitude": "76.6553609",
            "address": "Mysuru, Mysuru taluk, Mysuru district, Karnataka, 570001, India",
            "latitude": "12.3051828",
            "locType": "city",
            "closest_to": "chikmagalur"
        },
        "kodachadri": {
            "blogLinks": [
                "https://en.wikipedia.org/wiki/Tourism_in_Karnataka"
            ],
            "longitude": "74.8705395",
            "address": "Kodachadri, \u0c95\u0cc1\u0c82\u0ca6\u0cbe\u0caa\u0cc1\u0cb0 \u0ca4\u0cbe\u0cb2\u0cc2\u0c95\u0cc1, Udupi district, Karnataka, India",
            "latitude": "13.8565758",
            "locType": "peak",
            "closest_to": "dandeli"
        },
        "kudremukh national park": {
            "blogLinks": [
                "https://www.thrillophilia.com/places-to-visit-in-chikmagalur",
                "https://en.wikipedia.org/wiki/Tourism_in_Karnataka",
                "https://www.triphobo.com/blog/places-to-visit-chikmagalur"
            ],
            "longitude": "75.1828713712862",
            "address": "Kudremukh National Park, SH66, Sringeri taluku, Chikkamagaluru district, Karnataka, India",
            "latitude": "13.25397485",
            "locType": "national_park",
            "closest_to": "chikmagalur"
        },
        "belgaum railway station": {
            "blogLinks": [
                "http://www.nivalink.com/destination/dandeli"
            ],
            "longitude": "74.509065",
            "address": "Belgaum, Belgaum - Panaji Highway, Cantonment, Belagavi, Belagavi taluku, Belgaum district, Karnataka, 590001, India",
            "latitude": "15.8489677",
            "locType": "station",
            "closest_to": "dandeli"
        },
        "bhatkal": {
            "blogLinks": [
                "https://en.wikipedia.org/wiki/Tourism_in_Karnataka"
            ],
            "longitude": "74.5485295",
            "address": "Bhatkal, Bhatkala taluk, Uttara Kannada, Karnataka, 581320, India",
            "latitude": "13.9952114",
            "locType": "town",
            "closest_to": "dandeli"
        },
        "irupu falls": {
            "blogLinks": [
                "https://en.wikipedia.org/wiki/Tourism_in_Karnataka"
            ],
            "longitude": "75.9839484",
            "address": "Iruppu Falls, SH89, Taila, Virajpet taluk, Kodagu, Karnataka, 571217, India",
            "latitude": "11.9667954",
            "locType": "attraction",
            "closest_to": "chikmagalur"
        },
        "dakshina kannada": {
            "blogLinks": [
                "https://en.wikipedia.org/wiki/Tourism_in_Karnataka"
            ],
            "longitude": "75.1008028650794",
            "address": "Dakshina Kannada, Karnataka, India",
            "latitude": "12.8114089",
            "locType": "administrative",
            "closest_to": "chikmagalur"
        },
        "halebid": {
            "blogLinks": [
                "http://blog.indianluxurytrains.com/2014/09/best-places-to-visit-in-karnataka.html"
            ],
            "longitude": "75.9918793",
            "address": "Halebidu, Beluru taluk, Hassan district, Karnataka, 573121, India",
            "latitude": "13.2167959",
            "locType": "village",
            "closest_to": "chikmagalur"
        },
        "virupaksha temple": {
            "blogLinks": [
                "https://en.wikipedia.org/wiki/Tourism_in_Karnataka"
            ],
            "longitude": "76.4587777156223",
            "address": "Virupaksha Temple, Hampi Bazaar, Hampe, Hosapete taluk, Bellary district, Karnataka, 583239, India",
            "latitude": "15.3351754",
            "locType": "place_of_worship",
            "closest_to": "dandeli"
        },
        "dandeli": {
            "blogLinks": [
                "http://journeymart.com/de/india/karnataka/dandeli-best-time-to-visit.aspx",
                "https://www.quora.com/Which-are-the-best-places-to-visit-in-Karnataka-in-winter",
                "http://travel.paintedstork.com/blog/2005/12/amazing-dandeli-world-of-wilderness.html",
                "http://www.nivalink.com/destination/dandeli"
            ],
            "longitude": "74.6236037",
            "address": "Dandeli, Haliyala taluku, Uttara Kannada, Karnataka, 581325, India",
            "latitude": "15.2490284",
            "locType": "town",
            "closest_to": "dandeli"
        },
        "lakshmeshwar": {
            "blogLinks": [
                "https://en.wikipedia.org/wiki/Tourism_in_Karnataka"
            ],
            "longitude": "75.4741167",
            "address": "Lakshmeshwar KSRTC Bus stand, SH6, Bastibana, Lakshmeshvara, Shirahatti taluku, Gadag district, Karnataka, 582116, India",
            "latitude": "15.12373",
            "locType": "bus_station",
            "closest_to": "dandeli"
        },
        "bagamandala": {
            "blogLinks": [
                "https://en.wikipedia.org/wiki/Tourism_in_Karnataka"
            ],
            "longitude": "75.748408",
            "address": "Madikeri - Bagamandala ,Tala Kaveri Road, Mekeri, Madikeri taluku, Kodagu, Karnataka, India",
            "latitude": "12.388062",
            "locType": "primary",
            "closest_to": "chikmagalur"
        },
        "malaprabha": {
            "blogLinks": [
                "https://en.wikipedia.org/wiki/Tourism_in_Karnataka"
            ],
            "longitude": "75.1982668",
            "address": "Malaprabha, Ramadurga taluku, Belgaum district, Karnataka, India",
            "latitude": "15.8914192",
            "locType": "river",
            "closest_to": "dandeli"
        },
        "vittala": {
            "blogLinks": [
                "http://blog.indianluxurytrains.com/2014/09/best-places-to-visit-in-karnataka.html"
            ],
            "longitude": "76.6237847175927",
            "address": "Vijaya Vittala PU College, Sahukar Chennaiah Road, Sarasvatipuram, Mysuru, Mysuru taluk, Mysuru district, Karnataka, 570001, India",
            "latitude": "12.30129655",
            "locType": "yes",
            "closest_to": "chikmagalur"
        },
        "ooty": {
            "blogLinks": [
                "http://www.nivalink.com/destination/chikmagalur"
            ],
            "longitude": "76.6586807",
            "address": "Ooty Road, Vidyaranyapuram, Mysuru, Mysuru taluk, Mysuru district, Karnataka, 570001, India",
            "latitude": "12.2774807",
            "locType": "primary",
            "closest_to": "chikmagalur"
        },
        "gudavi": {
            "blogLinks": [
                "https://en.wikipedia.org/wiki/Tourism_in_Karnataka"
            ],
            "longitude": "75.009649",
            "address": "Gudavi, Soraba taluk, Shimoga district, Karnataka, India",
            "latitude": "14.4400296",
            "locType": "village",
            "closest_to": "dandeli"
        },
        "manipal": {
            "blogLinks": [
                "https://en.wikipedia.org/wiki/Tourism_in_Karnataka"
            ],
            "longitude": "74.7870308",
            "address": "Manipal, Udupi taluku, Udupi district, Karnataka, India",
            "latitude": "13.3519723",
            "locType": "town",
            "closest_to": "dandeli"
        },
        "kundapura": {
            "blogLinks": [
                "http://www.nivalink.com/destination/chikmagalur",
                "http://www.nivalink.com/destination/dandeli"
            ],
            "longitude": "74.6915722",
            "address": "Kundapura, \u0c95\u0cc1\u0c82\u0ca6\u0cbe\u0caa\u0cc1\u0cb0 \u0ca4\u0cbe\u0cb2\u0cc2\u0c95\u0cc1, Udupi district, Karnataka, 576200, India",
            "latitude": "13.6250993",
            "locType": "town",
            "closest_to": "dandeli"
        },
        "malpe": {
            "blogLinks": [
                "https://en.wikipedia.org/wiki/Tourism_in_Karnataka"
            ],
            "longitude": "74.7036914",
            "address": "Malpe, Udupi taluku, Udupi district, Karnataka, India",
            "latitude": "13.3507423",
            "locType": "village",
            "closest_to": "dandeli"
        },
        "itagi": {
            "blogLinks": [
                "https://en.wikipedia.org/wiki/Tourism_in_Karnataka"
            ],
            "longitude": "75.6701043",
            "address": "Itagi, Ranebennuru taluk, Haveri district, Karnataka, India",
            "latitude": "14.550374",
            "locType": "village",
            "closest_to": "dandeli"
        },
        "gokak": {
            "blogLinks": [
                "https://en.wikipedia.org/wiki/Tourism_in_Karnataka"
            ],
            "longitude": "74.8224338",
            "address": "Gokak, Gokak taluku, Belgaum district, Karnataka, 591307, India",
            "latitude": "16.1693033",
            "locType": "town",
            "closest_to": "dandeli"
        },
        "gadag": {
            "blogLinks": [
                "https://en.wikipedia.org/wiki/Tourism_in_Karnataka"
            ],
            "longitude": "75.6300786",
            "address": "Gadag, Gadag taluk, Gadag district, Karnataka, 582101, India",
            "latitude": "15.4263647",
            "locType": "town",
            "closest_to": "dandeli"
        },
        "belur": {
            "blogLinks": [
                "http://www.nivalink.com/destination/chikmagalur"
            ],
            "longitude": "75.8634851",
            "address": "Belur, Beluru taluk, Hassan district, Karnataka, 573115, India",
            "latitude": "13.1645671",
            "locType": "town",
            "closest_to": "chikmagalur"
        },
        "nagarhole national park": {
            "blogLinks": [
                "https://en.wikipedia.org/wiki/Tourism_in_Karnataka",
                "http://blog.indianluxurytrains.com/2014/09/best-places-to-visit-in-karnataka.html"
            ],
            "longitude": "76.1537073415874",
            "address": "Nagarahole National Park, Virajpet taluk, Kodagu, Karnataka, India",
            "latitude": "12.0600362",
            "locType": "national_park",
            "closest_to": "chikmagalur"
        },
        "unchalli falls": {
            "blogLinks": [
                "https://en.wikipedia.org/wiki/Tourism_in_Karnataka"
            ],
            "longitude": "74.7477592",
            "address": "\u0c89\u0c82\u0c9a\u0cb3\u0ccd\u0cb3\u0cbf \u0c9c\u0cb2\u0caa\u0cbe\u0ca4, Siddapura taluk, Uttara Kannada, Karnataka, India",
            "latitude": "14.4097755",
            "locType": "waterfall",
            "closest_to": "dandeli"
        },
        "mookambika": {
            "blogLinks": [
                "https://en.wikipedia.org/wiki/Tourism_in_Karnataka"
            ],
            "longitude": "74.8145296",
            "address": "Mukambika Devasthana, NH766C;SH26, Halkal, \u0c95\u0cc1\u0c82\u0ca6\u0cbe\u0caa\u0cc1\u0cb0 \u0ca4\u0cbe\u0cb2\u0cc2\u0c95\u0cc1, Udupi district, Karnataka, 576220, India",
            "latitude": "13.8638043",
            "locType": "place_of_worship",
            "closest_to": "dandeli"
        },
        "gokarna": {
            "blogLinks": [
                "https://en.wikipedia.org/wiki/Tourism_in_Karnataka"
            ],
            "longitude": "74.3184418",
            "address": "Gokarna, Kumata taluk, Uttara Kannada, Karnataka, 581326, India",
            "latitude": "14.5439629",
            "locType": "town",
            "closest_to": "dandeli"
        },
        "basaralu": {
            "blogLinks": [
                "https://www.triphobo.com/blog/places-to-visit-chikmagalur"
            ],
            "longitude": "76.81836",
            "address": "Basaralu, Mandya taluk, Mandya district, Karnataka, India",
            "latitude": "12.7090838",
            "locType": "village",
            "closest_to": "chikmagalur"
        },
        "banavasi": {
            "blogLinks": [
                "https://en.wikipedia.org/wiki/Tourism_in_Karnataka"
            ],
            "longitude": "75.0129845",
            "address": "Banavasi, Shirasi taluk, Uttara Kannada, Karnataka, India",
            "latitude": "14.5389738",
            "locType": "town",
            "closest_to": "dandeli"
        },
        "karkala": {
            "blogLinks": [
                "https://en.wikipedia.org/wiki/Tourism_in_Karnataka"
            ],
            "longitude": "74.9959586",
            "address": "Karkala, Karkala taluk, Udupi district, Karnataka, 574104, India",
            "latitude": "13.2112826",
            "locType": "town",
            "closest_to": "chikmagalur"
        },
        "lakshminarayana temple": {
            "blogLinks": [
                "https://www.triphobo.com/blog/places-to-visit-chikmagalur"
            ],
            "longitude": "76.4786794480367",
            "address": "Sri Lakshminarayana Swami Temple, SH85, Kattaraghatta, Krishnarajapete taluk, Mandya district, Karnataka, India",
            "latitude": "12.64241745",
            "locType": "place_of_worship",
            "closest_to": "chikmagalur"
        },
        "sagara taluk": {
            "blogLinks": [
                "https://en.wikipedia.org/wiki/Tourism_in_Karnataka"
            ],
            "longitude": "74.9610874491152",
            "address": "Sagara taluk, Shimoga district, Karnataka, India",
            "latitude": "14.09993045",
            "locType": "administrative",
            "closest_to": "dandeli"
        },
        "bababudangiri": {
            "blogLinks": [
                "https://www.thrillophilia.com/places-to-visit-in-chikmagalur"
            ],
            "longitude": "75.7486618",
            "address": "Bababudangiri Road, Inam Dattatreya Pitha, Chikkamagaluru taluku, Chikkamagaluru district, Karnataka, India",
            "latitude": "13.4297401",
            "locType": "tertiary",
            "closest_to": "chikmagalur"
        },
        "sharavati": {
            "blogLinks": [
                "https://en.wikipedia.org/wiki/Tourism_in_Karnataka"
            ],
            "longitude": "74.7647294",
            "address": "Sharavati, Sagara taluk, Shimoga district, Karnataka, India",
            "latitude": "14.2360979",
            "locType": "river",
            "closest_to": "dandeli"
        },
        "chikmagalur district": {
            "blogLinks": [
                "https://en.wikipedia.org/wiki/Tourism_in_Karnataka"
            ],
            "longitude": "75.5",
            "address": "Chikmagalur, Chikkamagaluru district, Karnataka, India",
            "latitude": "13.5",
            "locType": "county",
            "closest_to": "dandeli"
        },
        "bhadra river": {
            "blogLinks": [
                "https://en.wikipedia.org/wiki/Tourism_in_Karnataka"
            ],
            "longitude": "75.527118",
            "address": "Bhadra, Chikkamagaluru taluku, Chikkamagaluru district, Karnataka, India",
            "latitude": "13.4888356",
            "locType": "river",
            "closest_to": "chikmagalur"
        },
        "anshi national park": {
            "blogLinks": [
                "https://en.wikipedia.org/wiki/Tourism_in_Karnataka",
                "http://travel.paintedstork.com/blog/2005/12/amazing-dandeli-world-of-wilderness.html"
            ],
            "longitude": "74.3934408094182",
            "address": "Anshi National Park, SH46, Bidoli, Joida taluk, Uttara Kannada, Karnataka, India",
            "latitude": "14.9994424",
            "locType": "national_park",
            "closest_to": "dandeli"
        },
        "nethrani island": {
            "blogLinks": [
                "https://en.wikipedia.org/wiki/Tourism_in_Karnataka"
            ],
            "longitude": "74.3272086675849",
            "address": "Netrani, Uttara Kannada, Karnataka, India",
            "latitude": "14.0174924",
            "locType": "island",
            "closest_to": "dandeli"
        },
        "rock garden": {
            "blogLinks": [
                "https://www.thrillophilia.com/places-to-visit-in-chikmagalur",
                "https://en.wikipedia.org/wiki/Tourism_in_Karnataka"
            ],
            "longitude": "75.6142269",
            "address": "Waterfalls by the Rock site, Madikeri taluku, Kodagu, Karnataka, India",
            "latitude": "12.2248591",
            "locType": "waterfall",
            "closest_to": "chikmagalur"
        },
        "karwar": {
            "blogLinks": [
                "https://en.wikipedia.org/wiki/Tourism_in_Karnataka"
            ],
            "longitude": "74.1319229",
            "address": "Karwar, Karavara taluk, Uttara Kannada, Karnataka, 581300, India",
            "latitude": "14.8120931",
            "locType": "town",
            "closest_to": "dandeli"
        },
        "channarayapatna of hassan": {
            "blogLinks": [
                "http://blog.indianluxurytrains.com/2014/09/best-places-to-visit-in-karnataka.html"
            ],
            "longitude": "76.4628912",
            "address": "Tiptur - Channarayapatna Road, Rampura, Channarayapattana taluk, Hassan district, Karnataka, India",
            "latitude": "13.0775815",
            "locType": "primary",
            "closest_to": "chikmagalur"
        },
        "kikkeri": {
            "blogLinks": [
                "https://www.triphobo.com/blog/places-to-visit-chikmagalur"
            ],
            "longitude": "76.4257051",
            "address": "Kikkeri, Krishnarajapete taluk, Mandya district, Karnataka, India",
            "latitude": "12.7632226",
            "locType": "village",
            "closest_to": "chikmagalur"
        },
        "kudremukha": {
            "blogLinks": [
                "https://www.triphobo.com/blog/places-to-visit-chikmagalur"
            ],
            "longitude": "75.2748196",
            "address": "Kudremukha, Mudigere taluk, Chikkamagaluru district, Karnataka, India",
            "latitude": "13.1255691",
            "locType": "peak",
            "closest_to": "chikmagalur"
        },
        "koppal": {
            "blogLinks": [
                "https://en.wikipedia.org/wiki/Tourism_in_Karnataka"
            ],
            "longitude": "76.1547421",
            "address": "Koppala, Koppala taluku, Koppal district, Karnataka, 583231, India",
            "latitude": "15.3484144",
            "locType": "town",
            "closest_to": "dandeli"
        },
        "mastikatte": {
            "blogLinks": [
                "https://en.wikipedia.org/wiki/Tourism_in_Karnataka"
            ],
            "longitude": "74.4604101",
            "address": "Mastikatte, Ankola taluk, Uttara Kannada, Karnataka, India",
            "latitude": "14.6857168",
            "locType": "village",
            "closest_to": "dandeli"
        },
        "river kali": {
            "blogLinks": [
                "https://www.tripoto.com/trip/popular-places-to-see-in-karnataka-57b7e9c84299c",
                "http://www.nivalink.com/destination/dandeli"
            ],
            "longitude": "74.5802901",
            "address": "Kali, Joida taluk, Uttara Kannada, Karnataka, India",
            "latitude": "15.0145378",
            "locType": "river",
            "closest_to": "dandeli"
        },
        "kabini river": {
            "blogLinks": [
                "https://en.wikipedia.org/wiki/Tourism_in_Karnataka"
            ],
            "longitude": "76.6477184",
            "address": "Kabini right bank canal, Nanjanagudu taluk, Mysuru district, Karnataka, India",
            "latitude": "12.0780998",
            "locType": "canal",
            "closest_to": "chikmagalur"
        },
        "shiggaon taluk": {
            "blogLinks": [
                "https://en.wikipedia.org/wiki/Tourism_in_Karnataka"
            ],
            "longitude": "75.1756764988777",
            "address": "Shiggaon taluk, Haveri district, Karnataka, India",
            "latitude": "15.0138079",
            "locType": "administrative",
            "closest_to": "dandeli"
        },
        "mundgod": {
            "blogLinks": [
                "http://www.nivalink.com/destination/dandeli"
            ],
            "longitude": "75.0371451",
            "address": "Mundgod, Mundagoda taluk, Uttara Kannada, Karnataka, 581349, India",
            "latitude": "14.9705105",
            "locType": "village",
            "closest_to": "dandeli"
        },
        "siddapur": {
            "blogLinks": [
                "http://travel.paintedstork.com/blog/2005/12/amazing-dandeli-world-of-wilderness.html"
            ],
            "longitude": "74.911019",
            "address": "Siddapur, \u0c95\u0cc1\u0c82\u0ca6\u0cbe\u0caa\u0cc1\u0cb0 \u0ca4\u0cbe\u0cb2\u0cc2\u0c95\u0cc1, Udupi district, Karnataka, 576229, India",
            "latitude": "13.6626885",
            "locType": "village",
            "closest_to": "dandeli"
        },
        "dattagiri hill range": {
            "blogLinks": [
                "https://www.triphobo.com/blog/places-to-visit-chikmagalur"
            ],
            "longitude": "75.7606996",
            "address": "Baba Budangiri, Chikkamagaluru, Chikkamagaluru taluku, Chikkamagaluru district, Karnataka, 577101, India",
            "latitude": "13.4210884",
            "locType": "peak",
            "closest_to": "chikmagalur"
        },
        "kaneri": {
            "blogLinks": [
                "http://www.nivalink.com/destination/dandeli"
            ],
            "longitude": "74.4834864",
            "address": "Kaneri, Joida taluk, Uttara Kannada, Karnataka, India",
            "latitude": "15.0680686",
            "locType": "river",
            "closest_to": "dandeli"
        },
        "mercara": {
            "blogLinks": [
                "https://en.wikipedia.org/wiki/Tourism_in_Karnataka"
            ],
            "longitude": "75.740031",
            "address": "Madikeri, Madikeri taluku, Kodagu, Karnataka, India",
            "latitude": "12.4204003",
            "locType": "town",
            "closest_to": "chikmagalur"
        },
        "chelavara falls": {
            "blogLinks": [
                "http://blog.indianluxurytrains.com/2014/09/best-places-to-visit-in-karnataka.html"
            ],
            "longitude": "75.6734811730693",
            "address": "Chelavara Falls, Madikeri taluku, Kodagu, Karnataka, India",
            "latitude": "12.20601005",
            "locType": "waterfall",
            "closest_to": "chikmagalur"
        },
        "chandramoulishwara": {
            "blogLinks": [
                "https://en.wikipedia.org/wiki/Tourism_in_Karnataka"
            ],
            "longitude": "76.6290267",
            "address": "Chandramoulishwara Temple, Adipampa Road, Gokulam, Mysuru, Mysuru taluk, Mysuru district, Karnataka, 570001, India",
            "latitude": "12.3225663",
            "locType": "place_of_worship",
            "closest_to": "chikmagalur"
        },
        "arabhavi": {
            "blogLinks": [
                "https://en.wikipedia.org/wiki/Tourism_in_Karnataka"
            ],
            "longitude": "74.8213227",
            "address": "Arabhavi, Gokak taluku, Belgaum district, Karnataka, India",
            "latitude": "16.2193552",
            "locType": "village",
            "closest_to": "dandeli"
        },
        "tungabhadra river": {
            "blogLinks": [
                "https://www.thrillophilia.com/places-to-visit-in-chikmagalur"
            ],
            "longitude": "76.4931607",
            "address": "Tungabhadra, Gangavati taluku, Koppal district, Karnataka, India",
            "latitude": "15.3446123",
            "locType": "river",
            "closest_to": "dandeli"
        },
        "tunga river": {
            "blogLinks": [
                "https://www.thrillophilia.com/places-to-visit-in-chikmagalur"
            ],
            "longitude": "75.3221835",
            "address": "Tunga, Tirthahalli taluk, Shimoga district, Karnataka, India",
            "latitude": "13.6632221",
            "locType": "river",
            "closest_to": "dandeli"
        },
        "nagamangala": {
            "blogLinks": [
                "https://www.triphobo.com/blog/places-to-visit-chikmagalur"
            ],
            "longitude": "76.7542189",
            "address": "Nagamangala, Nagamangala taluk, Mandya district, Karnataka, 571432, India",
            "latitude": "12.8196077",
            "locType": "town",
            "closest_to": "chikmagalur"
        },
        "kalaseshwara temple": {
            "blogLinks": [
                "http://www.nivalink.com/destination/chikmagalur"
            ],
            "longitude": "75.363446975",
            "address": "Kalaseshwara Temple, SH66, Kalasa, Mudigere taluk, Chikkamagaluru district, Karnataka, 577124, India",
            "latitude": "13.23228505",
            "locType": "place_of_worship",
            "closest_to": "chikmagalur"
        },
        "mudigere": {
            "blogLinks": [
                "https://www.thrillophilia.com/places-to-visit-in-chikmagalur"
            ],
            "longitude": "76.0185988",
            "address": "Mudigere, Aluru taluk, Hassan district, Karnataka, India",
            "latitude": "13.0093567",
            "locType": "village",
            "closest_to": "chikmagalur"
        },
        "arasikere": {
            "blogLinks": [
                "https://en.wikipedia.org/wiki/Tourism_in_Karnataka"
            ],
            "longitude": "76.2568436",
            "address": "Arasikere, Arasikere taluku, Hassan district, Karnataka, 573103, India",
            "latitude": "13.3159809",
            "locType": "town",
            "closest_to": "chikmagalur"
        },
        "kali river": {
            "blogLinks": [
                "https://en.wikipedia.org/wiki/Tourism_in_Karnataka",
                "http://travel.paintedstork.com/blog/2005/12/amazing-dandeli-world-of-wilderness.html",
                "http://www.nivalink.com/destination/dandeli"
            ],
            "longitude": "74.5802901",
            "address": "Kali, Joida taluk, Uttara Kannada, Karnataka, India",
            "latitude": "15.0145378",
            "locType": "river",
            "closest_to": "dandeli"
        },
        "mandya district": {
            "blogLinks": [
                "https://en.wikipedia.org/wiki/Tourism_in_Karnataka"
            ],
            "longitude": "76.7302318329607",
            "address": "Mandya district, Karnataka, India",
            "latitude": "12.6336348",
            "locType": "administrative",
            "closest_to": "chikmagalur"
        },
        "srirangapatna": {
            "blogLinks": [
                "https://en.wikipedia.org/wiki/Tourism_in_Karnataka"
            ],
            "longitude": "76.6850743",
            "address": "Srirangapatna, Srirangapattana taluk, Mandya district, Karnataka, 571438, India",
            "latitude": "12.4225604",
            "locType": "town",
            "closest_to": "chikmagalur"
        },
        "pattadakal": {
            "blogLinks": [
                "https://en.wikipedia.org/wiki/Tourism_in_Karnataka",
                "http://blog.indianluxurytrains.com/2014/09/best-places-to-visit-in-karnataka.html"
            ],
            "longitude": "75.815884048161",
            "address": "Pattadakal Temples, SH14, \u0cac\u0cbe\u0c9a\u0cbf\u0ca8\u0c97\u0cc1\u0ca1\u0ccd\u0ca1, Badami taluku, Bagalkote district, Karnataka, 587211, India",
            "latitude": "15.9506349",
            "locType": "attraction",
            "closest_to": "dandeli"
        },
        "dharwad": {
            "blogLinks": [
                "https://en.wikipedia.org/wiki/Tourism_in_Karnataka",
                "http://travel.paintedstork.com/blog/2005/12/amazing-dandeli-world-of-wilderness.html"
            ],
            "longitude": "75.0066516",
            "address": "Dharwad, Dharawada taluku, Dharwad district, Karnataka, 580001, India",
            "latitude": "15.4540505",
            "locType": "city",
            "closest_to": "dandeli"
        },
        "chitradurga": {
            "blogLinks": [
                "https://en.wikipedia.org/wiki/Tourism_in_Karnataka"
            ],
            "longitude": "76.4005122",
            "address": "Chitradurga, Chitradurga taluku, Chitradurga district, Karnataka, 577500, India",
            "latitude": "14.2266443",
            "locType": "town",
            "closest_to": "chikmagalur"
        },
        "gadag district": {
            "blogLinks": [
                "https://en.wikipedia.org/wiki/Tourism_in_Karnataka"
            ],
            "longitude": "75.6807542794645",
            "address": "Gadag district, Karnataka, India",
            "latitude": "15.416337",
            "locType": "administrative",
            "closest_to": "dandeli"
        },
        "vijayanagara": {
            "blogLinks": [
                "https://en.wikipedia.org/wiki/Tourism_in_Karnataka"
            ],
            "longitude": "74.7380455",
            "address": "Vijayanagara, Chikodi taluk, Belgaum district, Karnataka, India",
            "latitude": "16.3270486",
            "locType": "village",
            "closest_to": "dandeli"
        },
        "hebbe": {
            "blogLinks": [
                "https://www.triphobo.com/blog/places-to-visit-chikmagalur"
            ],
            "longitude": "75.7253701",
            "address": "Hebbe falls, Kemmannagundi Road, Attigundi, Chikkamagaluru taluku, Chikkamagaluru district, Karnataka, India",
            "latitude": "13.5414025",
            "locType": "attraction",
            "closest_to": "chikmagalur"
        },
        "maddur": {
            "blogLinks": [
                "https://www.triphobo.com/blog/places-to-visit-chikmagalur"
            ],
            "longitude": "77.0456404",
            "address": "Maddur, Madduru taluk, Mandya district, Karnataka, 571428, India",
            "latitude": "12.5851916",
            "locType": "town",
            "closest_to": "chikmagalur"
        },
        "hebbe falls": {
            "blogLinks": [
                "https://en.wikipedia.org/wiki/Tourism_in_Karnataka"
            ],
            "longitude": "75.7253701",
            "address": "Hebbe falls, Kemmannagundi Road, Attigundi, Chikkamagaluru taluku, Chikkamagaluru district, Karnataka, India",
            "latitude": "13.5414025",
            "locType": "attraction",
            "closest_to": "chikmagalur"
        },
        "belavadi": {
            "blogLinks": [
                "https://en.wikipedia.org/wiki/Tourism_in_Karnataka"
            ],
            "longitude": "75.3760773",
            "address": "Belavadi, Koppa taluk, Chikkamagaluru district, Karnataka, India",
            "latitude": "13.5284899",
            "locType": "village",
            "closest_to": "dandeli"
        },
        "varada": {
            "blogLinks": [
                "https://en.wikipedia.org/wiki/Tourism_in_Karnataka"
            ],
            "longitude": "75.47206",
            "address": "Varada, Savanura taluk, Haveri district, Karnataka, India",
            "latitude": "14.8717792",
            "locType": "river",
            "closest_to": "dandeli"
        },
        "shravanabelagola": {
            "blogLinks": [
                "https://en.wikipedia.org/wiki/Tourism_in_Karnataka"
            ],
            "longitude": "76.4869997",
            "address": "Shravanabelagola, Channarayapattana taluk, Hassan district, Karnataka, 573135, India",
            "latitude": "12.8581305",
            "locType": "town",
            "closest_to": "chikmagalur"
        },
        "kalasa": {
            "blogLinks": [
                "https://en.wikipedia.org/wiki/Tourism_in_Karnataka"
            ],
            "longitude": "75.3582366",
            "address": "Kalasa, Mudigere taluk, Chikkamagaluru district, Karnataka, 577124, India",
            "latitude": "13.2322235",
            "locType": "town",
            "closest_to": "chikmagalur"
        },
        "kambadahalli": {
            "blogLinks": [
                "https://en.wikipedia.org/wiki/Tourism_in_Karnataka"
            ],
            "longitude": "77.1671918",
            "address": "Kambadahalli, Madhugiri taluk, Tumkur district, Karnataka, India",
            "latitude": "13.6843692",
            "locType": "village",
            "closest_to": "chikmagalur"
        },
        "india": {
            "blogLinks": [
                "http://blog.indianluxurytrains.com/2014/09/best-places-to-visit-in-karnataka.html",
                "http://travel.paintedstork.com/blog/2005/12/amazing-dandeli-world-of-wilderness.html",
                "https://www.triphobo.com/blog/places-to-visit-chikmagalur",
                "https://www.distancecalculator.net/from-chikmagalur-to-dandeli",
                "http://www.nivalink.com/destination/dandeli",
                "http://distancecalculator.globefeed.com/India_Distance_Calculator.asp?state=19",
                "https://www.tripoto.com/trip/popular-places-to-see-in-karnataka-57b7e9c84299c",
                "http://journeymart.com/de/india/karnataka/dandeli-best-time-to-visit.aspx",
                "https://www.ixigo.com/places-to-visit-see-in-chikmagalur-lp-1137712",
                "https://en.wikipedia.org/wiki/Tourism_in_Karnataka",
                "http://www.nivalink.com/destination/chikmagalur",
                "https://www.quora.com/Which-are-the-best-places-to-visit-in-Karnataka-in-winter"
            ],
            "longitude": "75.7223521",
            "address": "Karnataka, India",
            "latitude": "14.5203896",
            "locType": "administrative",
            "closest_to": "dandeli"
        },
        "bijapur": {
            "blogLinks": [
                "https://en.wikipedia.org/wiki/Tourism_in_Karnataka",
                "http://blog.indianluxurytrains.com/2014/09/best-places-to-visit-in-karnataka.html",
                "http://www.nivalink.com/destination/dandeli"
            ],
            "longitude": "75.7175387",
            "address": "Vijayapura, Vijayapura taluk, Bijapur district, Karnataka, 586101, India",
            "latitude": "16.8269911",
            "locType": "city",
            "closest_to": "dandeli"
        },
        "kuknur": {
            "blogLinks": [
                "https://en.wikipedia.org/wiki/Tourism_in_Karnataka"
            ],
            "longitude": "75.9934934",
            "address": "Kukanura, Yelaburga taluku, Koppal district, Karnataka, 583232, India",
            "latitude": "15.4902753",
            "locType": "village",
            "closest_to": "dandeli"
        },
        "mysore": {
            "blogLinks": [
                "http://blog.indianluxurytrains.com/2014/09/best-places-to-visit-in-karnataka.html"
            ],
            "longitude": "76.6553609",
            "address": "Mysuru, Mysuru taluk, Mysuru district, Karnataka, 570001, India",
            "latitude": "12.3051828",
            "locType": "city",
            "closest_to": "chikmagalur"
        },
        "gotagodi village": {
            "blogLinks": [
                "https://en.wikipedia.org/wiki/Tourism_in_Karnataka"
            ],
            "longitude": "75.0452834",
            "address": "Gotagodi, Hanagal taluk, Haveri district, Karnataka, India",
            "latitude": "14.7634556",
            "locType": "village",
            "closest_to": "dandeli"
        },
        "narayana": {
            "blogLinks": [
                "https://en.wikipedia.org/wiki/Tourism_in_Karnataka"
            ],
            "longitude": "76.201037",
            "address": "Narayana Gondanahalli, Holalkere taluk, Chitradurga district, Karnataka, India",
            "latitude": "13.9181889",
            "locType": "village",
            "closest_to": "chikmagalur"
        },
        "anegundi": {
            "blogLinks": [
                "https://en.wikipedia.org/wiki/Tourism_in_Karnataka"
            ],
            "longitude": "76.4924232",
            "address": "Anegundi, Gangavati taluku, Koppal district, Karnataka, India",
            "latitude": "15.3509583",
            "locType": "village",
            "closest_to": "dandeli"
        },
        "tumkur": {
            "blogLinks": [
                "https://en.wikipedia.org/wiki/Tourism_in_Karnataka",
                "http://travel.paintedstork.com/blog/2005/12/amazing-dandeli-world-of-wilderness.html"
            ],
            "longitude": "77.0002445",
            "address": "Tumakuru, Tumkur district, Karnataka, India",
            "latitude": "13.4999406",
            "locType": "county",
            "closest_to": "chikmagalur"
        },
        "veerabhadreshwara temple": {
            "blogLinks": [
                "https://www.triphobo.com/blog/places-to-visit-chikmagalur"
            ],
            "longitude": "75.4155774",
            "address": "Veerabhadreshwara Temple, Trek to Ballalaryandurga and Bandaje falls, Sunkasale, Mudigere taluk, Chikkamagaluru district, Karnataka, India",
            "latitude": "13.149129",
            "locType": "place_of_worship",
            "closest_to": "chikmagalur"
        },
        "shirali": {
            "blogLinks": [
                "https://en.wikipedia.org/wiki/Tourism_in_Karnataka"
            ],
            "longitude": "74.5286591",
            "address": "Shirali, Bhatkala taluk, Uttara Kannada, Karnataka, 581354, India",
            "latitude": "14.0280925",
            "locType": "village",
            "closest_to": "dandeli"
        },
        "beluru": {
            "blogLinks": [
                "https://en.wikipedia.org/wiki/Tourism_in_Karnataka"
            ],
            "longitude": "75.8634851",
            "address": "Belur, Beluru taluk, Hassan district, Karnataka, 573115, India",
            "latitude": "13.1645671",
            "locType": "town",
            "closest_to": "chikmagalur"
        },
        "bankapura": {
            "blogLinks": [
                "https://en.wikipedia.org/wiki/Tourism_in_Karnataka"
            ],
            "longitude": "75.2639298",
            "address": "Bankapura, Shiggaon taluk, Haveri district, Karnataka, 581202, India",
            "latitude": "14.9217443",
            "locType": "town",
            "closest_to": "dandeli"
        },
        "tungabhadra": {
            "blogLinks": [
                "https://en.wikipedia.org/wiki/Tourism_in_Karnataka"
            ],
            "longitude": "76.4931607",
            "address": "Tungabhadra, Gangavati taluku, Koppal district, Karnataka, India",
            "latitude": "15.3446123",
            "locType": "river",
            "closest_to": "dandeli"
        },
        "aihole": {
            "blogLinks": [
                "https://en.wikipedia.org/wiki/Tourism_in_Karnataka"
            ],
            "longitude": "75.8819129",
            "address": "Aihole, Hunagunda taluku, Bagalkote district, Karnataka, India",
            "latitude": "16.0192298",
            "locType": "village",
            "closest_to": "dandeli"
        },
        "kanaganahalli": {
            "blogLinks": [
                "https://en.wikipedia.org/wiki/Tourism_in_Karnataka"
            ],
            "longitude": "76.5876958",
            "address": "Kanaganahalli, Pandavapura taluk, Mandya district, Karnataka, India",
            "latitude": "12.5588444",
            "locType": "village",
            "closest_to": "chikmagalur"
        },
        "mangalore": {
            "blogLinks": [
                "https://en.wikipedia.org/wiki/Tourism_in_Karnataka",
                "https://www.quora.com/Which-are-the-best-places-to-visit-in-Karnataka-in-winter",
                "http://www.nivalink.com/destination/chikmagalur"
            ],
            "longitude": "74.8430082",
            "address": "Mangaluru, Mangaluru taluk, Dakshina Kannada, Karnataka, 575001, India",
            "latitude": "12.8698101",
            "locType": "city",
            "closest_to": "chikmagalur"
        },
        "kodagu": {
            "blogLinks": [
                "https://en.wikipedia.org/wiki/Tourism_in_Karnataka",
                "http://blog.indianluxurytrains.com/2014/09/best-places-to-visit-in-karnataka.html"
            ],
            "longitude": "75.6677235950852",
            "address": "Kodagu, Karnataka, India",
            "latitude": "12.38117345",
            "locType": "administrative",
            "closest_to": "chikmagalur"
        },
        "halebidu": {
            "blogLinks": [
                "https://en.wikipedia.org/wiki/Tourism_in_Karnataka",
                "http://www.nivalink.com/destination/chikmagalur"
            ],
            "longitude": "76.4607075",
            "address": "Halebidu, Hunasuru taluk, Mysuru district, Karnataka, India",
            "latitude": "12.359893",
            "locType": "village",
            "closest_to": "chikmagalur"
        },
        "karnataka": {
            "blogLinks": [
                "http://blog.indianluxurytrains.com/2014/09/best-places-to-visit-in-karnataka.html",
                "https://www.triphobo.com/blog/places-to-visit-chikmagalur",
                "http://www.nivalink.com/destination/dandeli",
                "https://www.thrillophilia.com/places-to-visit-in-chikmagalur",
                "http://distancecalculator.globefeed.com/India_Distance_Calculator.asp?state=19",
                "https://www.tripoto.com/trip/popular-places-to-see-in-karnataka-57b7e9c84299c",
                "https://en.wikipedia.org/wiki/Tourism_in_Karnataka",
                "https://www.quora.com/Which-are-the-best-places-to-visit-in-Karnataka-in-winter",
                "http://www.nivalink.com/destination/chikmagalur"
            ],
            "longitude": "76.6639936",
            "address": "Karnataka, Shalivahana Road, Nazarbad, Mysuru, Mysuru taluk, Mysuru district, Karnataka, 570001, India",
            "latitude": "12.3084901",
            "locType": "atm",
            "closest_to": "chikmagalur"
        },
        "uma maheshwara temple": {
            "blogLinks": [
                "http://blog.indianluxurytrains.com/2014/09/best-places-to-visit-in-karnataka.html"
            ],
            "longitude": "74.3120254424635",
            "address": "Uma-maheshwara temple, Om beach road, Gokarna, Kumata taluk, Uttara Kannada, Karnataka, 581326, India",
            "latitude": "14.5234594",
            "locType": "place_of_worship",
            "closest_to": "dandeli"
        },
        "bagalkot": {
            "blogLinks": [
                "http://blog.indianluxurytrains.com/2014/09/best-places-to-visit-in-karnataka.html"
            ],
            "longitude": "75.6967919",
            "address": "Bagalakote, Bagalakote taluk, Bagalkote district, Karnataka, India",
            "latitude": "16.1853166",
            "locType": "city",
            "closest_to": "dandeli"
        },
        "coorg": {
            "blogLinks": [
                "https://www.thrillophilia.com/places-to-visit-in-chikmagalur"
            ],
            "longitude": "75.740031",
            "address": "Madikeri, Madikeri taluku, Kodagu, Karnataka, India",
            "latitude": "12.4204003",
            "locType": "town",
            "closest_to": "chikmagalur"
        },
        "sangameshwara": {
            "blogLinks": [
                "https://en.wikipedia.org/wiki/Tourism_in_Karnataka"
            ],
            "longitude": "74.87651",
            "address": "Sangameshwara, Kalaghatagi taluku, Dharwad district, Karnataka, India",
            "latitude": "15.184341",
            "locType": "village",
            "closest_to": "dandeli"
        },
        "malaprabha river": {
            "blogLinks": [
                "https://www.tripoto.com/trip/popular-places-to-see-in-karnataka-57b7e9c84299c"
            ],
            "longitude": "75.1982668",
            "address": "Malaprabha, Ramadurga taluku, Belgaum district, Karnataka, India",
            "latitude": "15.8914192",
            "locType": "river",
            "closest_to": "dandeli"
        },
        "sagara": {
            "blogLinks": [
                "https://en.wikipedia.org/wiki/Tourism_in_Karnataka"
            ],
            "longitude": "75.0262551",
            "address": "Sagara, Sagara taluk, Shimoga district, Karnataka, 577400, India",
            "latitude": "14.1666594",
            "locType": "town",
            "closest_to": "dandeli"
        },
        "parvati": {
            "blogLinks": [
                "http://www.nivalink.com/destination/chikmagalur"
            ],
            "longitude": "75.7898501",
            "address": "Parvati, Badami taluku, Bagalkote district, Karnataka, India",
            "latitude": "16.0395701",
            "locType": "village",
            "closest_to": "dandeli"
        },
        "hubli": {
            "blogLinks": [
                "https://en.wikipedia.org/wiki/Tourism_in_Karnataka",
                "http://www.nivalink.com/destination/dandeli"
            ],
            "longitude": "75.1379848",
            "address": "Hubballi - \u0cb9\u0cc1\u0cac\u0ccd\u0cac\u0cb3\u0ccd\u0cb3\u0cbf, Hubballi taluku, Dharwad district, Karnataka, 580020, India",
            "latitude": "15.3518378",
            "locType": "city",
            "closest_to": "dandeli"
        },
        "attigundi": {
            "blogLinks": [
                "https://www.thrillophilia.com/places-to-visit-in-chikmagalur"
            ],
            "longitude": "75.7415646",
            "address": "Attigundi, Chikkamagaluru taluku, Chikkamagaluru district, Karnataka, India",
            "latitude": "13.428683",
            "locType": "village",
            "closest_to": "chikmagalur"
        },
        "chennakesava": {
            "blogLinks": [
                "http://blog.indianluxurytrains.com/2014/09/best-places-to-visit-in-karnataka.html"
            ],
            "longitude": "75.8603311",
            "address": "Chennakesava Temple, NH73, Navilahalli, Beluru taluk, Hassan district, Karnataka, India",
            "latitude": "13.1629239",
            "locType": "place_of_worship",
            "closest_to": "chikmagalur"
        },
        "hassan": {
            "blogLinks": [
                "https://en.wikipedia.org/wiki/Tourism_in_Karnataka",
                "http://blog.indianluxurytrains.com/2014/09/best-places-to-visit-in-karnataka.html"
            ],
            "longitude": "76.0992703",
            "address": "Hassan, Hasana taluk, Hassan district, Karnataka, 573201, India",
            "latitude": "13.0070817",
            "locType": "town",
            "closest_to": "chikmagalur"
        },
        "hampi": {
            "blogLinks": [
                "https://en.wikipedia.org/wiki/Tourism_in_Karnataka",
                "https://www.quora.com/Which-are-the-best-places-to-visit-in-Karnataka-in-winter",
                "http://blog.indianluxurytrains.com/2014/09/best-places-to-visit-in-karnataka.html",
                "http://www.nivalink.com/destination/dandeli"
            ],
            "longitude": "76.4606199",
            "address": "Hampe, Hosapete taluk, Bellary district, Karnataka, 583239, India",
            "latitude": "15.3359769",
            "locType": "village",
            "closest_to": "dandeli"
        },
        "varur": {
            "blogLinks": [
                "https://en.wikipedia.org/wiki/Tourism_in_Karnataka"
            ],
            "longitude": "75.1387568",
            "address": "Varur, Hubballi taluku, Dharwad district, Karnataka, India",
            "latitude": "15.2077105",
            "locType": "village",
            "closest_to": "dandeli"
        },
        "kalhatti falls": {
            "blogLinks": [
                "https://www.thrillophilia.com/places-to-visit-in-chikmagalur"
            ],
            "longitude": "75.7889882",
            "address": "Kallathgiri falls, Tarikere taluku, Chikkamagaluru district, Karnataka, India",
            "latitude": "13.5499877",
            "locType": "waterfall",
            "closest_to": "chikmagalur"
        },
        "shimoga district": {
            "blogLinks": [
                "https://en.wikipedia.org/wiki/Tourism_in_Karnataka"
            ],
            "longitude": "75.1312533993886",
            "address": "Shimoga district, Karnataka, India",
            "latitude": "14.0558284",
            "locType": "administrative",
            "closest_to": "dandeli"
        },
        "bahubali": {
            "blogLinks": [
                "https://en.wikipedia.org/wiki/Tourism_in_Karnataka"
            ],
            "longitude": "76.4846128",
            "address": "Bahubali Statue, SH8, Shravanabelagola, Channarayapattana taluk, Hassan district, Karnataka, 573135, India",
            "latitude": "12.8540505",
            "locType": "place_of_worship",
            "closest_to": "chikmagalur"
        },
        "brahmagiri": {
            "blogLinks": [
                "https://www.thrillophilia.com/places-to-visit-in-chikmagalur"
            ],
            "longitude": "75.490746",
            "address": "Brahmagiri, Madikeri taluku, Kodagu, Karnataka, India",
            "latitude": "12.3868578",
            "locType": "peak",
            "closest_to": "chikmagalur"
        },
        "nagarahole national park": {
            "blogLinks": [
                "https://en.wikipedia.org/wiki/Tourism_in_Karnataka"
            ],
            "longitude": "76.1537073415874",
            "address": "Nagarahole National Park, Virajpet taluk, Kodagu, Karnataka, India",
            "latitude": "12.0600362",
            "locType": "national_park",
            "closest_to": "chikmagalur"
        },
        "koppal district": {
            "blogLinks": [
                "https://en.wikipedia.org/wiki/Tourism_in_Karnataka"
            ],
            "longitude": "76.310639117029",
            "address": "Koppal district, Karnataka, India",
            "latitude": "15.57825725",
            "locType": "administrative",
            "closest_to": "dandeli"
        },
        "kannur": {
            "blogLinks": [
                "http://www.nivalink.com/destination/chikmagalur"
            ],
            "longitude": "74.8858161",
            "address": "Netravati bridge - Kannur Bypass Road (Proposed), Padil, Bajal, Mangaluru taluk, Dakshina Kannada, Karnataka, 575007, India",
            "latitude": "12.8487602",
            "locType": "construction",
            "closest_to": "chikmagalur"
        },
        "dandeli wildlife sanctuary": {
            "blogLinks": [
                "http://travel.paintedstork.com/blog/2005/12/amazing-dandeli-world-of-wilderness.html"
            ],
            "longitude": "74.3665654142884",
            "address": "Dandeli Wildlife Sanctuary, SH146, Terali, Joida taluk, Uttara Kannada, Karnataka, India",
            "latitude": "15.1654776",
            "locType": "national_park",
            "closest_to": "dandeli"
        },
        "papanatha": {
            "blogLinks": [
                "http://blog.indianluxurytrains.com/2014/09/best-places-to-visit-in-karnataka.html"
            ],
            "longitude": "75.8164391839286",
            "address": "Papanatha Temple, SH14, \u0cac\u0cbe\u0c9a\u0cbf\u0ca8\u0c97\u0cc1\u0ca1\u0ccd\u0ca1, Badami taluku, Bagalkote district, Karnataka, 587211, India",
            "latitude": "15.94762935",
            "locType": "yes",
            "closest_to": "dandeli"
        },
        "chola": {
            "blogLinks": [
                "https://en.wikipedia.org/wiki/Tourism_in_Karnataka"
            ],
            "longitude": "76.098782",
            "address": "Chola Gold Loan, Bengaluru - Mangaluru Road, Ravindra Nagar, Santhe Pete, Hassan, Hasana taluk, Hassan district, Karnataka, 573201, India",
            "latitude": "13.0023906",
            "locType": "yes",
            "closest_to": "chikmagalur"
        },
        "kalhatti": {
            "blogLinks": [
                "https://www.triphobo.com/blog/places-to-visit-chikmagalur"
            ],
            "longitude": "75.7889882",
            "address": "Kallathgiri falls, Tarikere taluku, Chikkamagaluru district, Karnataka, India",
            "latitude": "13.5499877",
            "locType": "waterfall",
            "closest_to": "chikmagalur"
        },
        "bagalkote": {
            "blogLinks": [
                "https://en.wikipedia.org/wiki/Tourism_in_Karnataka"
            ],
            "longitude": "75.5825586777167",
            "address": "Bagalkote district, Karnataka, India",
            "latitude": "16.28998085",
            "locType": "administrative",
            "closest_to": "dandeli"
        },
        "kudalasangama": {
            "blogLinks": [
                "https://en.wikipedia.org/wiki/Tourism_in_Karnataka"
            ],
            "longitude": "76.0604244",
            "address": "Kudala Sangama, Hunagunda taluku, Bagalkote district, Karnataka, India",
            "latitude": "16.2033992",
            "locType": "village",
            "closest_to": "dandeli"
        },
        "chikkamagalur": {
            "blogLinks": [
                "http://www.nivalink.com/destination/chikmagalur"
            ],
            "longitude": "75.789501",
            "address": "Chikkamagalur, SH57, Hosamane Badavane, Hiremagaluru, Chikkamagaluru taluku, Chikkamagaluru district, Karnataka, 577101, India",
            "latitude": "13.3030706",
            "locType": "station",
            "closest_to": "chikmagalur"
        },
        "kabini": {
            "blogLinks": [
                "https://en.wikipedia.org/wiki/Tourism_in_Karnataka"
            ],
            "longitude": "76.4152088",
            "address": "Kabini, Heggadadevanakote taluk, Mysuru district, Karnataka, India",
            "latitude": "12.0140065",
            "locType": "river",
            "closest_to": "chikmagalur"
        },
        "kali": {
            "blogLinks": [
                "http://travel.paintedstork.com/blog/2005/12/amazing-dandeli-world-of-wilderness.html",
                "http://www.nivalink.com/destination/dandeli"
            ],
            "longitude": "74.5802901",
            "address": "Kali, Joida taluk, Uttara Kannada, Karnataka, India",
            "latitude": "15.0145378",
            "locType": "river",
            "closest_to": "dandeli"
        },
        "bagalkot district": {
            "blogLinks": [
                "https://en.wikipedia.org/wiki/Tourism_in_Karnataka"
            ],
            "longitude": "75.6967919",
            "address": "Bagalakote, Bagalakote taluk, Bagalkote district, Karnataka, India",
            "latitude": "16.1853166",
            "locType": "city",
            "closest_to": "dandeli"
        },
        "kemmangundi": {
            "blogLinks": [
                "https://www.thrillophilia.com/places-to-visit-in-chikmagalur",
                "https://en.wikipedia.org/wiki/Tourism_in_Karnataka"
            ],
            "longitude": "75.7520082",
            "address": "Kemmannagundi, Tarikere taluku, Chikkamagaluru district, Karnataka, India",
            "latitude": "13.5463048",
            "locType": "village",
            "closest_to": "chikmagalur"
        },
        "yellapur": {
            "blogLinks": [
                "http://travel.paintedstork.com/blog/2005/12/amazing-dandeli-world-of-wilderness.html"
            ],
            "longitude": "74.7061458",
            "address": "Yellapura, Yallapura taluk, Uttara Kannada, Karnataka, 581359, India",
            "latitude": "14.9622518",
            "locType": "town",
            "closest_to": "dandeli"
        },
        "bankpur fort": {
            "blogLinks": [
                "https://en.wikipedia.org/wiki/Tourism_in_Karnataka"
            ],
            "longitude": "75.2512090188504",
            "address": "Bankapura Fort, SH137, Guddada Channapura, Shiggaon taluk, Haveri district, Karnataka, 581202, India",
            "latitude": "14.9231815",
            "locType": "archaeological_site",
            "closest_to": "dandeli"
        },
        "hoysaleswara": {
            "blogLinks": [
                "http://blog.indianluxurytrains.com/2014/09/best-places-to-visit-in-karnataka.html"
            ],
            "longitude": "75.9941649",
            "address": "Hoysaleswara Temple, SH21, Halebidu, Beluru taluk, Hassan district, Karnataka, 573121, India",
            "latitude": "13.2127193",
            "locType": "place_of_worship",
            "closest_to": "chikmagalur"
        },
        "kodasalli": {
            "blogLinks": [
                "http://travel.paintedstork.com/blog/2005/12/amazing-dandeli-world-of-wilderness.html"
            ],
            "longitude": "74.5353892832085",
            "address": "Kodasalli Dam, Yallapura taluk, Uttara Kannada, Karnataka, India",
            "latitude": "14.91893295",
            "locType": "dam",
            "closest_to": "dandeli"
        },
        "nagarahole": {
            "blogLinks": [
                "https://en.wikipedia.org/wiki/Tourism_in_Karnataka"
            ],
            "longitude": "76.2286805",
            "address": "Nagarahole, Heggadadevanakote taluk, Mysuru district, Karnataka, India",
            "latitude": "12.0229466",
            "locType": "river",
            "closest_to": "chikmagalur"
        },
        "manjusha museum": {
            "blogLinks": [
                "https://en.wikipedia.org/wiki/Tourism_in_Karnataka"
            ],
            "longitude": "75.3821342838196",
            "address": "Manjusha Museum, SH37, Dharmasthala, Beltangadi taluk, Dakshina Kannada, Karnataka, 574216, India",
            "latitude": "12.95116975",
            "locType": "museum",
            "closest_to": "chikmagalur"
        },
        "hosaholalu": {
            "blogLinks": [
                "https://www.triphobo.com/blog/places-to-visit-chikmagalur"
            ],
            "longitude": "76.4802552",
            "address": "Hosaholalu, Krishnarajapete taluk, Mandya district, Karnataka, India",
            "latitude": "12.6417678",
            "locType": "village",
            "closest_to": "chikmagalur"
        },
        "sykes point": {
            "blogLinks": [
                "http://blog.indianluxurytrains.com/2014/09/best-places-to-visit-in-karnataka.html"
            ],
            "longitude": "74.6488754",
            "address": "Sykes point, Ambikanagar road, Haliyala taluku, Uttara Kannada, Karnataka, India",
            "latitude": "15.0905368",
            "locType": "viewpoint",
            "closest_to": "dandeli"
        },
        "dattatreya": {
            "blogLinks": [
                "https://en.wikipedia.org/wiki/Tourism_in_Karnataka"
            ],
            "longitude": "75.7539724",
            "address": "Inam Dattatreya Pitha, Chikkamagaluru taluku, Chikkamagaluru district, Karnataka, India",
            "latitude": "13.4315216",
            "locType": "hamlet",
            "closest_to": "chikmagalur"
        },
        "narasimha swamy temple": {
            "blogLinks": [
                "https://en.wikipedia.org/wiki/Tourism_in_Karnataka"
            ],
            "longitude": "76.2427318",
            "address": "Narasimha Swamy Temple, Attavara Mudigere Road, Attavara, Hasana taluk, Hassan district, Karnataka, India",
            "latitude": "13.0943931",
            "locType": "place_of_worship",
            "closest_to": "chikmagalur"
        },
        "venur": {
            "blogLinks": [
                "https://en.wikipedia.org/wiki/Tourism_in_Karnataka"
            ],
            "longitude": "75.1443252",
            "address": "Venoor, Beltangadi taluk, Dakshina Kannada, Karnataka, 574242, India",
            "latitude": "13.0122097",
            "locType": "village",
            "closest_to": "chikmagalur"
        },
        "naganur": {
            "blogLinks": [
                "https://en.wikipedia.org/wiki/Tourism_in_Karnataka"
            ],
            "longitude": "74.4824431",
            "address": "Naganur, Hukkeri taluku, Belgaum district, Karnataka, India",
            "latitude": "16.073351",
            "locType": "village",
            "closest_to": "dandeli"
        },
        "mandya": {
            "blogLinks": [
                "https://en.wikipedia.org/wiki/Tourism_in_Karnataka"
            ],
            "longitude": "76.8937392",
            "address": "Mandya, Mandya taluk, Mandya district, Karnataka, 571401, India",
            "latitude": "12.5217836",
            "locType": "town",
            "closest_to": "chikmagalur"
        },
        "lushington falls": {
            "blogLinks": [
                "https://en.wikipedia.org/wiki/Tourism_in_Karnataka"
            ],
            "longitude": "74.7477592",
            "address": "\u0c89\u0c82\u0c9a\u0cb3\u0ccd\u0cb3\u0cbf \u0c9c\u0cb2\u0caa\u0cbe\u0ca4, Siddapura taluk, Uttara Kannada, Karnataka, India",
            "latitude": "14.4097755",
            "locType": "waterfall",
            "closest_to": "dandeli"
        },
        "' river varahi": {
            "blogLinks": [
                "https://en.wikipedia.org/wiki/Tourism_in_Karnataka"
            ],
            "longitude": "74.9489117",
            "address": "Varahi, \u0c95\u0cc1\u0c82\u0ca6\u0cbe\u0caa\u0cc1\u0cb0 \u0ca4\u0cbe\u0cb2\u0cc2\u0c95\u0cc1, Udupi district, Karnataka, India",
            "latitude": "13.6582668",
            "locType": "river",
            "closest_to": "dandeli"
        },
        "uttara kannada": {
            "blogLinks": [
                "https://en.wikipedia.org/wiki/Tourism_in_Karnataka",
                "https://www.tripoto.com/trip/popular-places-to-see-in-karnataka-57b7e9c84299c",
                "http://travel.paintedstork.com/blog/2005/12/amazing-dandeli-world-of-wilderness.html"
            ],
            "longitude": "74.4729163045979",
            "address": "Uttara Kannada, Karnataka, India",
            "latitude": "14.6726379",
            "locType": "administrative",
            "closest_to": "dandeli"
        },
        "harangi dam": {
            "blogLinks": [
                "http://blog.indianluxurytrains.com/2014/09/best-places-to-visit-in-karnataka.html"
            ],
            "longitude": "75.9056999171375",
            "address": "Harangi dam, Somawarpet taluk, Kodagu, Karnataka, India",
            "latitude": "12.4928663",
            "locType": "dam",
            "closest_to": "chikmagalur"
        },
        "chikmagalur": {
            "blogLinks": [
                "https://www.thrillophilia.com/places-to-visit-in-chikmagalur",
                "https://www.ixigo.com/places-to-visit-see-in-chikmagalur-lp-1137712",
                "http://www.nivalink.com/destination/chikmagalur",
                "https://www.triphobo.com/blog/places-to-visit-chikmagalur",
                "https://www.distancecalculator.net/from-chikmagalur-to-dandeli"
            ],
            "longitude": "75.5",
            "address": "Chikmagalur, Chikkamagaluru district, Karnataka, India",
            "latitude": "13.5",
            "locType": "county",
            "closest_to": "dandeli"
        },
        "hassan district": {
            "blogLinks": [
                "https://en.wikipedia.org/wiki/Tourism_in_Karnataka"
            ],
            "longitude": "76.1745460751981",
            "address": "Hassan district, Karnataka, India",
            "latitude": "13.0315068",
            "locType": "administrative",
            "closest_to": "chikmagalur"
        },
        "coastal karnataka": {
            "blogLinks": [
                "https://en.wikipedia.org/wiki/Tourism_in_Karnataka"
            ],
            "longitude": "74.8137275833157",
            "address": "Bharat Petroleum Mangalore Coastal Installation, Baikampady, Mangaluru taluk, Dakshina Kannada, Karnataka, 575014, India",
            "latitude": "12.96014675",
            "locType": "industrial",
            "closest_to": "chikmagalur"
        },
        "haveri district": {
            "blogLinks": [
                "https://en.wikipedia.org/wiki/Tourism_in_Karnataka"
            ],
            "longitude": "75.3845674304742",
            "address": "Haveri district, Karnataka, India",
            "latitude": "14.714635",
            "locType": "administrative",
            "closest_to": "dandeli"
        },
        "netrani island of uttara kannada": {
            "blogLinks": [
                "https://en.wikipedia.org/wiki/Tourism_in_Karnataka"
            ],
            "longitude": "74.3272086675849",
            "address": "Netrani, Uttara Kannada, Karnataka, India",
            "latitude": "14.0174924",
            "locType": "island",
            "closest_to": "dandeli"
        },
        "district bagalkot": {
            "blogLinks": [
                "https://en.wikipedia.org/wiki/Tourism_in_Karnataka"
            ],
            "longitude": "75.6736388363024",
            "address": "District Commissioner's Office, Bagalkot, Navanagara, Bagalakote, Bagalakote taluk, Bagalkote district, Karnataka, India",
            "latitude": "16.16028195",
            "locType": "commercial",
            "closest_to": "dandeli"
        },
        "bhadra": {
            "blogLinks": [
                "https://www.tripadvisor.in/Hotel_Review-g297629-d1423178-Reviews-Riverwoods-Chikamagalur_Karnataka.html"
            ],
            "longitude": "75.527118",
            "address": "Bhadra, Chikkamagaluru taluku, Chikkamagaluru district, Karnataka, India",
            "latitude": "13.4888356",
            "locType": "river",
            "closest_to": "chikmagalur"
        },
        "badami": {
            "blogLinks": [
                "https://en.wikipedia.org/wiki/Tourism_in_Karnataka"
            ],
            "longitude": "75.6807865",
            "address": "Badami, Badami taluku, Bagalkote district, Karnataka, 587200, India",
            "latitude": "15.9203874",
            "locType": "town",
            "closest_to": "dandeli"
        },
        "sirigere": {
            "blogLinks": [
                "https://en.wikipedia.org/wiki/Tourism_in_Karnataka"
            ],
            "longitude": "76.2051907",
            "address": "Sirigere, Chitradurga taluku, Chitradurga district, Karnataka, India",
            "latitude": "14.2840739",
            "locType": "village",
            "closest_to": "dandeli"
        },
        "anshi": {
            "blogLinks": [
                "http://travel.paintedstork.com/blog/2005/12/amazing-dandeli-world-of-wilderness.html",
                "http://www.nivalink.com/destination/dandeli"
            ],
            "longitude": "74.3708809",
            "address": "Anshi, Joida taluk, Uttara Kannada, Karnataka, India",
            "latitude": "14.9925559",
            "locType": "village",
            "closest_to": "dandeli"
        },
        "ratnagiri highway": {
            "blogLinks": [
                "http://www.nivalink.com/destination/dandeli"
            ],
            "longitude": "75.7727724",
            "address": "Ratnagiri Road, Basavannahalli, Chikkamagaluru, Chikkamagaluru taluku, Chikkamagaluru district, Karnataka, 577101, India",
            "latitude": "13.3292344",
            "locType": "secondary",
            "closest_to": "chikmagalur"
        },
        "kudremukh": {
            "blogLinks": [
                "https://www.thrillophilia.com/places-to-visit-in-chikmagalur",
                "https://www.triphobo.com/blog/places-to-visit-chikmagalur"
            ],
            "longitude": "75.2523304",
            "address": "Kudremukha, Mudigere taluk, Chikkamagaluru district, Karnataka, India",
            "latitude": "13.2144007",
            "locType": "village",
            "closest_to": "chikmagalur"
        },
        "ganeshgudi": {
            "blogLinks": [
                "http://www.nivalink.com/destination/dandeli"
            ],
            "longitude": "74.5335693",
            "address": "Ganeshagudi, Joida taluk, Uttara Kannada, Karnataka, India",
            "latitude": "15.2815822",
            "locType": "village",
            "closest_to": "dandeli"
        },
        "belgaum fort": {
            "blogLinks": [
                "https://en.wikipedia.org/wiki/Tourism_in_Karnataka"
            ],
            "longitude": "74.5255651",
            "address": "Belgaum Fort, Belagavi, Belagavi taluku, Belgaum district, Karnataka, 590001, India",
            "latitude": "15.8581696",
            "locType": "locality",
            "closest_to": "dandeli"
        },
        "sagar": {
            "blogLinks": [
                "http://travel.paintedstork.com/blog/2005/12/amazing-dandeli-world-of-wilderness.html"
            ],
            "longitude": "75.0262551",
            "address": "Sagara, Sagara taluk, Shimoga district, Karnataka, 577400, India",
            "latitude": "14.1666594",
            "locType": "town",
            "closest_to": "dandeli"
        },
        "nippani": {
            "blogLinks": [
                "https://en.wikipedia.org/wiki/Tourism_in_Karnataka"
            ],
            "longitude": "74.3842372",
            "address": "Nippani, Chikodi taluk, Belgaum district, Karnataka, 591237, India",
            "latitude": "16.4020402",
            "locType": "town",
            "closest_to": "dandeli"
        },
        "udupi": {
            "blogLinks": [
                "https://en.wikipedia.org/wiki/Tourism_in_Karnataka"
            ],
            "longitude": "74.7473232",
            "address": "Udupi, Udupi taluku, Udupi district, Karnataka, 576101, India",
            "latitude": "13.3419169",
            "locType": "city",
            "closest_to": "dandeli"
        },
        "shringeri": {
            "blogLinks": [
                "https://www.thrillophilia.com/places-to-visit-in-chikmagalur"
            ],
            "longitude": "75.0621168",
            "address": "Shringeri, Hanagal taluk, Haveri district, Karnataka, India",
            "latitude": "14.7221214",
            "locType": "village",
            "closest_to": "dandeli"
        },
        "ghataprabha river": {
            "blogLinks": [
                "https://en.wikipedia.org/wiki/Tourism_in_Karnataka"
            ],
            "longitude": "74.9165235",
            "address": "Ghataprabha, Gokak taluku, Belgaum district, Karnataka, India",
            "latitude": "16.2124344",
            "locType": "river",
            "closest_to": "dandeli"
        },
        "belgaum": {
            "blogLinks": [
                "https://en.wikipedia.org/wiki/Tourism_in_Karnataka"
            ],
            "longitude": "74.75",
            "address": "Belgaum, Belgaum district, Karnataka, India",
            "latitude": "16.333333",
            "locType": "county",
            "closest_to": "dandeli"
        }
    }
}