{
    "madikeri": {
        "lat": "12.4204003",
        "class": "place",
        "importance": 0.55113932557876,
        "osm_type": "node",
        "lon": "75.740031",
        "place_id": "3592336",
        "display_name": "Madikeri, Madikeri taluku, Kodagu, Karnataka, India",
        "osm_id": "390887113",
        "boundingbox": [
            "12.3804003",
            "12.4604003",
            "75.700031",
            "75.780031"
        ],
        "type": "town",
        "licence": "Data \u00a9 OpenStreetMap contributors, ODbL 1.0. http://www.openstreetmap.org/copyright",
        "icon": "https://nominatim.openstreetmap.org/images/mapicons/poi_place_town.p.20.png"
    },
    "chitradurga": {
        "lat": "14.2266443",
        "class": "place",
        "importance": 0.5,
        "osm_type": "node",
        "lon": "76.4005122",
        "place_id": "4897275",
        "display_name": "Chitradurga, Chitradurga taluku, Chitradurga district, Karnataka, 577500, India",
        "osm_id": "571409087",
        "boundingbox": [
            "14.1866443",
            "14.2666443",
            "76.3605122",
            "76.4405122"
        ],
        "type": "town",
        "licence": "Data \u00a9 OpenStreetMap contributors, ODbL 1.0. http://www.openstreetmap.org/copyright",
        "icon": "https://nominatim.openstreetmap.org/images/mapicons/poi_place_town.p.20.png"
    },
    "mentions": {
        "river netravati": {
            "blogLinks": [
                "http://traveltriangle.com/blog/best-places-to-visit-in-karnataka/"
            ],
            "longitude": "75.1562182",
            "address": "Netravati, Bantwal taluk, Dakshina Kannada, Karnataka, India",
            "latitude": "12.8537655",
            "locType": "river",
            "closest_to": "madikeri"
        },
        "brahma": {
            "blogLinks": [
                "https://en.wikipedia.org/wiki/Kodagu_district"
            ],
            "longitude": "75.9026723908286",
            "address": "Sadguru Brahma Chaitanya Mandira, Ring Road, Vinobanagara, Davanagere, Davanagere taluku, Davanagere district, Karnataka, 577004, India",
            "latitude": "14.4564816",
            "locType": "place_of_worship",
            "closest_to": "chitradurga"
        },
        "river kaveri": {
            "blogLinks": [
                "https://en.wikipedia.org/wiki/Kodagu_district"
            ],
            "longitude": "77.0635531",
            "address": "Kaveri, Kollegala taluk, Chamarajanagar district, Karnataka, India",
            "latitude": "12.1687878",
            "locType": "river",
            "closest_to": "madikeri"
        },
        "mangalore airport": {
            "blogLinks": [
                "http://traveltriangle.com/blog/best-places-to-visit-in-karnataka/"
            ],
            "longitude": "74.887492668144",
            "address": "Mangalore International Airport, Airport Entry Road, Gandhinagar, Kenjar, Mangaluru taluk, Dakshina Kannada, Karnataka, 575015, India",
            "latitude": "12.95518575",
            "locType": "aerodrome",
            "closest_to": "madikeri"
        },
        "doddamakali": {
            "blogLinks": [
                "http://www.nivalink.com/destination/coorg-(madikeri)"
            ],
            "longitude": "77.2173416",
            "address": "Doddamakali, Dalanakatte, Malavalli taluk, Mandya district, Karnataka, India",
            "latitude": "12.3096676",
            "locType": "locality",
            "closest_to": "madikeri"
        },
        "someshwara temple": {
            "blogLinks": [
                "http://traveltriangle.com/blog/best-places-to-visit-in-karnataka/"
            ],
            "longitude": "77.6239032241244",
            "address": "Someshwara Temple, Bazaar Street, Gupta Layout, Halasuru, Bengaluru, Bangalore Urban, Karnataka, 560001, India",
            "latitude": "12.9755979",
            "locType": "place_of_worship",
            "closest_to": "chitradurga"
        },
        "india": {
            "blogLinks": [
                "https://www.thrillophilia.com/places-to-visit-in-coorg",
                "http://traveltriangle.com/blog/places-to-visit-in-coorg/",
                "http://www.fameofcity.com/KARNATAKA/KODAGU/MADIKERI",
                "http://traveltriangle.com/blog/best-places-to-visit-in-karnataka/",
                "http://travel.paintedstork.com/blog/2006/01/whirlwind-tour-to-kodagucoorg.html",
                "http://www.tripwip.com/mysore-byalukuppe-madikeri-bhagamandala-talakaveri-dubare/",
                "http://distancecalculator.globefeed.com/India_Distance_Calculator.asp?state=19",
                "http://www.distancesfrom.com/distance-from-Gangavathi-to-Madikeri-via-Chitradurga/DistanceHistory/907020.aspx",
                "https://en.wikipedia.org/wiki/Kodagu_district",
                "http://www.nivalink.com/destination/coorg-(madikeri)",
                "http://www.nivalink.com/destination/chitradurga"
            ],
            "longitude": "75.7223521",
            "address": "Karnataka, India",
            "latitude": "14.5203896",
            "locType": "administrative",
            "closest_to": "chitradurga"
        },
        "madurai": {
            "blogLinks": [
                "http://www.indiamike.com/india/karnataka-f38/places-to-go-in-south-karnataka-t102701/"
            ],
            "longitude": "77.6320535",
            "address": "Madurai Idly Shop, 5th Main Road, Teachers Colony, HSR Layout, Bengaluru, Bangalore Urban, Karnataka, 560001, India",
            "latitude": "12.9185419",
            "locType": "restaurant",
            "closest_to": "chitradurga"
        },
        "bhagamandala": {
            "blogLinks": [
                "https://en.wikipedia.org/wiki/Kodagu_district",
                "https://www.thrillophilia.com/places-to-visit-in-coorg",
                "http://www.tripwip.com/mysore-byalukuppe-madikeri-bhagamandala-talakaveri-dubare/",
                "http://travel.paintedstork.com/blog/2006/01/whirlwind-tour-to-kodagucoorg.html"
            ],
            "longitude": "75.5290234",
            "address": "Bhagamandala, Madikeri taluku, Kodagu, Karnataka, India",
            "latitude": "12.3857285",
            "locType": "village",
            "closest_to": "madikeri"
        },
        "delhi": {
            "blogLinks": [
                "https://www.goibibo.com/hotels/hotels-in-coorg/madikeri/",
                "http://www.tripwip.com/mysore-byalukuppe-madikeri-bhagamandala-talakaveri-dubare/",
                "http://traveltriangle.com/blog/best-places-to-visit-in-karnataka/"
            ],
            "longitude": "77.6666062",
            "address": "Outer Ring Road, Green Glen Layout, Iblur, Bengaluru, Bangalore Urban, Karnataka, 560001, India",
            "latitude": "12.9212473",
            "locType": "trunk",
            "closest_to": "chitradurga"
        },
        "urdu": {
            "blogLinks": [
                "https://en.wikipedia.org/wiki/Kodagu_district"
            ],
            "longitude": "75.636575371858",
            "address": "Urdu Ground, Ranebennur, Ranebennuru taluk, Haveri district, Karnataka, 581115, India",
            "latitude": "14.6180369",
            "locType": "recreation_ground",
            "closest_to": "chitradurga"
        },
        "omkareshwara temple": {
            "blogLinks": [
                "https://en.wikipedia.org/wiki/Kodagu_district",
                "https://www.tripoto.com/places-to-visit/india/madikeri",
                "http://www.holidayiq.com/Chitradurga-Sightseeing-650.html",
                "https://www.tripoto.com/travel-guide/madikeri/places-to-visit"
            ],
            "longitude": "75.741304",
            "address": "Omkareshwara Temple, Main Road, Madikeri, Madikeri taluku, Kodagu, Karnataka, India",
            "latitude": "12.420546",
            "locType": "place_of_worship",
            "closest_to": "madikeri"
        },
        "madikere": {
            "blogLinks": [
                "https://www.thrillophilia.com/places-to-visit-in-coorg"
            ],
            "longitude": "78.0895724",
            "address": "Madikere, Chintamani taluk, Chikkaballapura district, Karnataka, India",
            "latitude": "13.3755097",
            "locType": "village",
            "closest_to": "chitradurga"
        },
        "mangalore international airport": {
            "blogLinks": [
                "https://en.wikipedia.org/wiki/Kodagu_district",
                "http://traveltriangle.com/blog/places-to-visit-in-coorg/",
                "http://traveltriangle.com/blog/best-places-to-visit-in-karnataka/"
            ],
            "longitude": "74.887492668144",
            "address": "Mangalore International Airport, Airport Entry Road, Gandhinagar, Kenjar, Mangaluru taluk, Dakshina Kannada, Karnataka, 575015, India",
            "latitude": "12.95518575",
            "locType": "aerodrome",
            "closest_to": "madikeri"
        },
        "amritsar": {
            "blogLinks": [
                "https://www.goibibo.com/hotels/hotels-in-coorg/madikeri/"
            ],
            "longitude": "77.5957831",
            "address": "Oye Amritsar, Bannerghatta Road, Mico Arekere Layout 1st Stage, Hulimavu, Bengaluru, Bangalore Urban, Karnataka, 560001, India",
            "latitude": "12.8762432",
            "locType": "restaurant",
            "closest_to": "madikeri"
        },
        "mysore": {
            "blogLinks": [
                "https://en.wikipedia.org/wiki/Kodagu_district",
                "http://www.fameofcity.com/KARNATAKA/KODAGU/MADIKERI",
                "http://travel.paintedstork.com/blog/2006/01/whirlwind-tour-to-kodagucoorg.html"
            ],
            "longitude": "76.6553609",
            "address": "Mysuru, Mysuru taluk, Mysuru district, Karnataka, 570001, India",
            "latitude": "12.3051828",
            "locType": "city",
            "closest_to": "madikeri"
        },
        "rameshwara": {
            "blogLinks": [
                "https://en.wikipedia.org/wiki/Kodagu_district"
            ],
            "longitude": "77.5678621969321",
            "address": "Rameshwara Temple, Kranthikavi Sarvagnya Road, Rajajinagar 4th Block, Sriramapura, Bengaluru, Bangalore Urban, Karnataka, 560001, India",
            "latitude": "12.99365815",
            "locType": "place_of_worship",
            "closest_to": "madikeri"
        },
        "river cauvery": {
            "blogLinks": [
                "http://www.nivalink.com/destination/coorg-(madikeri)",
                "http://traveltriangle.com/blog/places-to-visit-in-coorg/"
            ],
            "longitude": "77.5832796015599",
            "address": "Cauvery, 1st Main Road, Lower Palace Orchard, Guttahalli, Bengaluru, Bangalore Urban, Karnataka, 560001, India",
            "latitude": "13.00262215",
            "locType": "cinema",
            "closest_to": "madikeri"
        },
        "kabini": {
            "blogLinks": [
                "http://traveltriangle.com/blog/best-places-to-visit-in-karnataka/"
            ],
            "longitude": "76.4152088",
            "address": "Kabini, Heggadadevanakote taluk, Mysuru district, Karnataka, India",
            "latitude": "12.0140065",
            "locType": "river",
            "closest_to": "madikeri"
        },
        "chitradurga district": {
            "blogLinks": [
                "http://www.holidayiq.com/Chitradurga-Sightseeing-650.html",
                "https://www.tripoto.com/travel-guide/madikeri/places-to-visit"
            ],
            "longitude": "76.5299366059272",
            "address": "Chitradurga district, Karnataka, India",
            "latitude": "14.3051049",
            "locType": "administrative",
            "closest_to": "chitradurga"
        },
        "brahmagiri hill": {
            "blogLinks": [
                "https://www.thrillophilia.com/places-to-visit-in-coorg"
            ],
            "longitude": "76.8122474",
            "address": "Brahmagiri Betta, Molakalmuru taluku, Chitradurga district, Karnataka, India",
            "latitude": "14.8001586",
            "locType": "peak",
            "closest_to": "chitradurga"
        },
        "siddapur road": {
            "blogLinks": [
                "http://traveltriangle.com/blog/places-to-visit-in-coorg/"
            ],
            "longitude": "74.8045675",
            "address": "Siddapur Road, Boppanalli, Shirasi taluk, Uttara Kannada, Karnataka, India",
            "latitude": "14.5657186",
            "locType": "tertiary_link",
            "closest_to": "chitradurga"
        },
        "harangi": {
            "blogLinks": [
                "http://travel.paintedstork.com/blog/2006/01/whirlwind-tour-to-kodagucoorg.html"
            ],
            "longitude": "75.8392181",
            "address": "Harangi, Somawarpet taluk, Kodagu, Karnataka, India",
            "latitude": "12.4948912",
            "locType": "river",
            "closest_to": "madikeri"
        },
        "dubare": {
            "blogLinks": [
                "https://en.wikipedia.org/wiki/Kodagu_district"
            ],
            "longitude": "75.9066719",
            "address": "Dubare Elephant Camp, SH91, Dodda Bettageri, Somawarpet taluk, Kodagu, Karnataka, India",
            "latitude": "12.3716865",
            "locType": "attraction",
            "closest_to": "madikeri"
        },
        "hosadurga taluk": {
            "blogLinks": [
                "http://www.holidayiq.com/Chitradurga-Sightseeing-650.html"
            ],
            "longitude": "77.2095258",
            "address": "Hosadurga, Pavagada taluk, Tumkur district, Karnataka, India",
            "latitude": "14.2608929",
            "locType": "village",
            "closest_to": "chitradurga"
        },
        "chelavara falls": {
            "blogLinks": [
                "https://www.thrillophilia.com/places-to-visit-in-coorg",
                "http://www.holidayiq.com/Madikeri-Sightseeing-1276.html"
            ],
            "longitude": "75.6734811730693",
            "address": "Chelavara Falls, Madikeri taluku, Kodagu, Karnataka, India",
            "latitude": "12.20601005",
            "locType": "waterfall",
            "closest_to": "madikeri"
        },
        "ranganathaswamy temple": {
            "blogLinks": [
                "http://www.holidayiq.com/Chitradurga-Sightseeing-650.html"
            ],
            "longitude": "76.1812411",
            "address": "Ranganathaswamy Temple, Steps to Ranganathaswami Temple, Halekote, Hole Narasipura taluk, Hassan district, Karnataka, 573211, India",
            "latitude": "12.854149",
            "locType": "place_of_worship",
            "closest_to": "madikeri"
        },
        "chikkamagaluru": {
            "blogLinks": [
                "https://en.wikipedia.org/wiki/Kodagu_district"
            ],
            "longitude": "75.7738743",
            "address": "Chikkamagaluru, Chikkamagaluru taluku, Chikkamagaluru district, Karnataka, 577101, India",
            "latitude": "13.318014",
            "locType": "city",
            "closest_to": "madikeri"
        },
        "kashi": {
            "blogLinks": [
                "https://en.wikipedia.org/wiki/Kodagu_district",
                "https://www.thrillophilia.com/places-to-visit-in-coorg"
            ],
            "longitude": "74.9977469",
            "address": "Moodabidri, Mangaluru taluk, Dakshina Kannada, Karnataka, 574227, India",
            "latitude": "13.0699218",
            "locType": "town",
            "closest_to": "madikeri"
        },
        "' river kabini": {
            "blogLinks": [
                "http://traveltriangle.com/blog/best-places-to-visit-in-karnataka/"
            ],
            "longitude": "76.4152088",
            "address": "Kabini, Heggadadevanakote taluk, Mysuru district, Karnataka, India",
            "latitude": "12.0140065",
            "locType": "river",
            "closest_to": "madikeri"
        },
        "dubai": {
            "blogLinks": [
                "https://www.goibibo.com/hotels/hotels-in-coorg/madikeri/"
            ],
            "longitude": "77.6067717",
            "address": "Dubai Plaza, Rest House Road, Shantala Nagar, Ashok Nagar, Bengaluru, Bangalore Urban, Karnataka, 560001, India",
            "latitude": "12.9737065",
            "locType": "gift",
            "closest_to": "madikeri"
        },
        "mangalore": {
            "blogLinks": [
                "http://traveltriangle.com/blog/places-to-visit-in-coorg/",
                "http://www.fameofcity.com/KARNATAKA/KODAGU/MADIKERI",
                "http://traveltriangle.com/blog/best-places-to-visit-in-karnataka/",
                "http://www.tripwip.com/mysore-byalukuppe-madikeri-bhagamandala-talakaveri-dubare/",
                "https://en.wikipedia.org/wiki/Kodagu_district",
                "http://www.nivalink.com/destination/coorg-(madikeri)"
            ],
            "longitude": "74.8430082",
            "address": "Mangaluru, Mangaluru taluk, Dakshina Kannada, Karnataka, 575001, India",
            "latitude": "12.8698101",
            "locType": "city",
            "closest_to": "madikeri"
        },
        "malabar": {
            "blogLinks": [
                "https://en.wikipedia.org/wiki/Kodagu_district"
            ],
            "longitude": "77.6545081",
            "address": "Malabar, Jeevan Bhima Nagar 10th Main Road, LIC Colony, Jeevan Bhima Nagar, Bengaluru, Bangalore Urban, Karnataka, 560001, India",
            "latitude": "12.9678444",
            "locType": "restaurant",
            "closest_to": "chitradurga"
        },
        "coorg": {
            "blogLinks": [
                "https://www.goibibo.com/hotels/hotels-in-coorg/madikeri/",
                "https://www.thrillophilia.com/places-to-visit-in-coorg",
                "http://traveltriangle.com/blog/places-to-visit-in-coorg/",
                "http://www.fameofcity.com/KARNATAKA/KODAGU/MADIKERI",
                "http://travel.paintedstork.com/blog/2006/01/whirlwind-tour-to-kodagucoorg.html",
                "http://www.indiamike.com/india/karnataka-f38/places-to-go-in-south-karnataka-t102701/",
                "http://distancecalculator.globefeed.com/India_Distance_Calculator.asp?state=19",
                "https://en.wikipedia.org/wiki/Kodagu_district",
                "https://www.tripoto.com/places-to-visit/india/madikeri",
                "http://www.nivalink.com/destination/coorg-(madikeri)",
                "https://www.tripoto.com/travel-guide/madikeri/places-to-visit"
            ],
            "longitude": "75.740031",
            "address": "Madikeri, Madikeri taluku, Kodagu, Karnataka, India",
            "latitude": "12.4204003",
            "locType": "town",
            "closest_to": "madikeri"
        },
        "dakshina kannada": {
            "blogLinks": [
                "https://en.wikipedia.org/wiki/Kodagu_district",
                "http://www.fameofcity.com/KARNATAKA/KODAGU/MADIKERI"
            ],
            "longitude": "75.1008028650794",
            "address": "Dakshina Kannada, Karnataka, India",
            "latitude": "12.8114089",
            "locType": "administrative",
            "closest_to": "madikeri"
        },
        "bandipur national park": {
            "blogLinks": [
                "http://traveltriangle.com/blog/best-places-to-visit-in-karnataka/"
            ],
            "longitude": "76.4314968740264",
            "address": "Bandipur National Park, Kozhikode - Kollegal Highway, Gundlupet taluk, Chamarajanagar district, Karnataka, India",
            "latitude": "11.76682425",
            "locType": "national_park",
            "closest_to": "madikeri"
        },
        "ganiga": {
            "blogLinks": [
                "https://en.wikipedia.org/wiki/Kodagu_district"
            ],
            "longitude": "76.8817824",
            "address": "Ganiga, Mandya taluk, Mandya district, Karnataka, India",
            "latitude": "12.7518557",
            "locType": "village",
            "closest_to": "madikeri"
        },
        "kodagu": {
            "blogLinks": [
                "https://en.wikipedia.org/wiki/Kodagu_district",
                "https://www.thrillophilia.com/places-to-visit-in-coorg",
                "http://www.fameofcity.com/KARNATAKA/KODAGU/MADIKERI",
                "http://www.tripwip.com/mysore-byalukuppe-madikeri-bhagamandala-talakaveri-dubare/",
                "http://travel.paintedstork.com/blog/2006/01/whirlwind-tour-to-kodagucoorg.html"
            ],
            "longitude": "75.6677235950852",
            "address": "Kodagu, Karnataka, India",
            "latitude": "12.38117345",
            "locType": "administrative",
            "closest_to": "madikeri"
        },
        "halebidu": {
            "blogLinks": [
                "http://www.indiamike.com/india/karnataka-f38/places-to-go-in-south-karnataka-t102701/"
            ],
            "longitude": "76.4607075",
            "address": "Halebidu, Hunasuru taluk, Mysuru district, Karnataka, India",
            "latitude": "12.359893",
            "locType": "village",
            "closest_to": "madikeri"
        },
        "karnataka": {
            "blogLinks": [
                "https://www.goibibo.com/hotels/hotels-in-coorg/madikeri/",
                "https://www.thrillophilia.com/places-to-visit-in-coorg",
                "http://traveltriangle.com/blog/places-to-visit-in-coorg/",
                "http://www.fameofcity.com/KARNATAKA/KODAGU/MADIKERI",
                "http://traveltriangle.com/blog/best-places-to-visit-in-karnataka/",
                "http://www.holidayiq.com/Chitradurga-Sightseeing-650.html",
                "http://travel.paintedstork.com/blog/2006/01/whirlwind-tour-to-kodagucoorg.html",
                "http://www.indiamike.com/india/karnataka-f38/places-to-go-in-south-karnataka-t102701/",
                "http://distancecalculator.globefeed.com/India_Distance_Calculator.asp?state=19",
                "http://www.distancesfrom.com/distance-from-Gangavathi-to-Madikeri-via-Chitradurga/DistanceHistory/907020.aspx",
                "https://en.wikipedia.org/wiki/Kodagu_district",
                "https://www.tripoto.com/places-to-visit/india/madikeri",
                "http://www.nivalink.com/destination/coorg-(madikeri)",
                "http://www.nivalink.com/destination/chitradurga"
            ],
            "longitude": "76.6639936",
            "address": "Karnataka, Shalivahana Road, Nazarbad, Mysuru, Mysuru taluk, Mysuru district, Karnataka, 570001, India",
            "latitude": "12.3084901",
            "locType": "atm",
            "closest_to": "madikeri"
        },
        "madras": {
            "blogLinks": [
                "https://en.wikipedia.org/wiki/Kodagu_district"
            ],
            "longitude": "77.6449595",
            "address": "Swami Vivekananda Road, Swamy Vivekananda Road (Old Madras Road), Sudgunte Palya, Baiyyappanahalli, Benniganahalli, Bangalore Urban, Karnataka, 560016, India",
            "latitude": "12.9859442",
            "locType": "station",
            "closest_to": "chitradurga"
        },
        "bangalore": {
            "blogLinks": [
                "https://www.goibibo.com/hotels/hotels-in-coorg/madikeri/",
                "https://www.thrillophilia.com/places-to-visit-in-coorg",
                "http://traveltriangle.com/blog/places-to-visit-in-coorg/",
                "http://traveltriangle.com/blog/best-places-to-visit-in-karnataka/",
                "http://travel.paintedstork.com/blog/2006/01/whirlwind-tour-to-kodagucoorg.html",
                "http://www.indiamike.com/india/karnataka-f38/places-to-go-in-south-karnataka-t102701/",
                "https://en.wikipedia.org/wiki/Kodagu_district",
                "http://www.nivalink.com/destination/coorg-(madikeri)",
                "http://www.nivalink.com/destination/chitradurga"
            ],
            "longitude": "77.5912997",
            "address": "Bengaluru, Bangalore Urban, Karnataka, 560001, India",
            "latitude": "12.9791198",
            "locType": "city",
            "closest_to": "madikeri"
        },
        "raja seat": {
            "blogLinks": [
                "https://www.tripoto.com/places-to-visit/india/madikeri",
                "https://www.tripoto.com/travel-guide/madikeri/places-to-visit"
            ],
            "longitude": "75.7369653316478",
            "address": "Raja Seat, Mahatma Gandhi Road, Madikeri, Madikeri taluku, Kodagu, Karnataka, India",
            "latitude": "12.41421975",
            "locType": "park",
            "closest_to": "madikeri"
        },
        "srinagar": {
            "blogLinks": [
                "https://www.goibibo.com/hotels/hotels-in-coorg/madikeri/"
            ],
            "longitude": "77.5541768",
            "address": "Srinagar, Bengaluru, Bangalore Urban, Karnataka, 560001, India",
            "latitude": "12.9438817",
            "locType": "suburb",
            "closest_to": "madikeri"
        },
        "hassan station": {
            "blogLinks": [
                "http://traveltriangle.com/blog/best-places-to-visit-in-karnataka/"
            ],
            "longitude": "76.1745460751981",
            "address": "Hassan district, Karnataka, India",
            "latitude": "13.0315068",
            "locType": "administrative",
            "closest_to": "madikeri"
        },
        "kumaradhara river": {
            "blogLinks": [
                "https://www.thrillophilia.com/places-to-visit-in-coorg"
            ],
            "longitude": "75.4390597",
            "address": "Kumaradhara, Putturu taluk, Dakshina Kannada, Karnataka, India",
            "latitude": "12.7370168",
            "locType": "river",
            "closest_to": "madikeri"
        },
        "barapole river": {
            "blogLinks": [
                "https://www.thrillophilia.com/places-to-visit-in-coorg"
            ],
            "longitude": "75.8218551",
            "address": "Barapole, Virajpet taluk, Kodagu, Karnataka, India",
            "latitude": "12.0738308",
            "locType": "river",
            "closest_to": "madikeri"
        },
        "panambur": {
            "blogLinks": [
                "https://en.wikipedia.org/wiki/Kodagu_district",
                "http://www.fameofcity.com/KARNATAKA/KODAGU/MADIKERI"
            ],
            "longitude": "74.8031577",
            "address": "Panambur, Mangaluru taluk, Dakshina Kannada, Karnataka, India",
            "latitude": "12.9535736",
            "locType": "village",
            "closest_to": "madikeri"
        },
        "hubli": {
            "blogLinks": [
                "http://www.nivalink.com/destination/chitradurga"
            ],
            "longitude": "75.1379848",
            "address": "Hubballi - \u0cb9\u0cc1\u0cac\u0ccd\u0cac\u0cb3\u0ccd\u0cb3\u0cbf, Hubballi taluku, Dharwad district, Karnataka, 580020, India",
            "latitude": "15.3518378",
            "locType": "city",
            "closest_to": "chitradurga"
        },
        "kannada": {
            "blogLinks": [
                "https://en.wikipedia.org/wiki/Kodagu_district"
            ],
            "longitude": "75.1008028650794",
            "address": "Dakshina Kannada, Karnataka, India",
            "latitude": "12.8114089",
            "locType": "administrative",
            "closest_to": "madikeri"
        },
        "windsor": {
            "blogLinks": [
                "http://www.tripwip.com/mysore-byalukuppe-madikeri-bhagamandala-talakaveri-dubare/"
            ],
            "longitude": "77.6392137",
            "address": "Windsor, 12th Main Road, HAL 2nd Stage, Indiranagar, Bengaluru, Bangalore Urban, Karnataka, 560001, India",
            "latitude": "12.9698614",
            "locType": "pub",
            "closest_to": "chitradurga"
        },
        "ganesha": {
            "blogLinks": [
                "https://www.tripoto.com/travel-guide/madikeri/places-to-visit"
            ],
            "longitude": "77.5663029",
            "address": "Ganesha, 12th Cross Road, Vyalikaval, Malleswaram, Bengaluru, Bangalore Urban, Karnataka, 560001, India",
            "latitude": "13.0029248",
            "locType": "place_of_worship",
            "closest_to": "madikeri"
        },
        "gaddige": {
            "blogLinks": [
                "https://www.thrillophilia.com/places-to-visit-in-coorg"
            ],
            "longitude": "76.3734451",
            "address": "Gaddige, Hunasuru taluk, Mysuru district, Karnataka, India",
            "latitude": "12.1891771",
            "locType": "village",
            "closest_to": "madikeri"
        },
        "bangkok": {
            "blogLinks": [
                "https://www.goibibo.com/hotels/hotels-in-coorg/madikeri/"
            ],
            "longitude": "77.6382633",
            "address": "One night in Bangkok, 12th Main Road, HAL 2nd Stage, Indiranagar, Bengaluru, Bangalore Urban, Karnataka, 560001, India",
            "latitude": "12.9701967",
            "locType": "bar",
            "closest_to": "chitradurga"
        },
        "chitradurga": {
            "blogLinks": [
                "http://www.distancesfrom.com/distance-from-Gangavathi-to-Madikeri-via-Chitradurga/DistanceHistory/907020.aspx",
                "http://traveltriangle.com/blog/best-places-to-visit-in-karnataka/",
                "http://www.holidayiq.com/Chitradurga-Sightseeing-650.html",
                "http://www.nivalink.com/destination/chitradurga"
            ],
            "longitude": "76.4005122",
            "address": "Chitradurga, Chitradurga taluku, Chitradurga district, Karnataka, 577500, India",
            "latitude": "14.2266443",
            "locType": "town",
            "closest_to": "chitradurga"
        },
        "belur": {
            "blogLinks": [
                "http://www.indiamike.com/india/karnataka-f38/places-to-go-in-south-karnataka-t102701/"
            ],
            "longitude": "75.8634851",
            "address": "Belur, Beluru taluk, Hassan district, Karnataka, 573115, India",
            "latitude": "13.1645671",
            "locType": "town",
            "closest_to": "madikeri"
        },
        "madikeri coorg": {
            "blogLinks": [
                "https://www.goibibo.com/hotels/hotels-in-coorg/madikeri/"
            ],
            "longitude": "75.740031",
            "address": "Madikeri, Madikeri taluku, Kodagu, Karnataka, India",
            "latitude": "12.4204003",
            "locType": "town",
            "closest_to": "madikeri"
        },
        "orange county": {
            "blogLinks": [
                "http://travel.paintedstork.com/blog/2006/01/whirlwind-tour-to-kodagucoorg.html"
            ],
            "longitude": "75.8900616",
            "address": "Orange County, Karadigodu Road, Siddapura, Virajpet taluk, Kodagu, Karnataka, India",
            "latitude": "12.3225856",
            "locType": "hotel",
            "closest_to": "madikeri"
        },
        "sringeri": {
            "blogLinks": [
                "http://www.indiamike.com/india/karnataka-f38/places-to-go-in-south-karnataka-t102701/"
            ],
            "longitude": "75.2553718",
            "address": "Sringeri, Sringeri taluku, Chikkamagaluru district, Karnataka, 577592, India",
            "latitude": "13.4261724",
            "locType": "town",
            "closest_to": "madikeri"
        },
        "bellary airport": {
            "blogLinks": [
                "http://traveltriangle.com/blog/best-places-to-visit-in-karnataka/"
            ],
            "longitude": "76.8813908",
            "address": "Bellary Airport, Hosapete Road, Ballari, Bellary taluk, Bellary district, Karnataka, 583104, India",
            "latitude": "15.1615409",
            "locType": "aerodrome",
            "closest_to": "chitradurga"
        },
        "north coorg": {
            "blogLinks": [
                "https://www.thrillophilia.com/places-to-visit-in-coorg"
            ],
            "longitude": "75.740031",
            "address": "Madikeri, Madikeri taluku, Kodagu, Karnataka, India",
            "latitude": "12.4204003",
            "locType": "town",
            "closest_to": "madikeri"
        },
        "mumbai": {
            "blogLinks": [
                "https://www.goibibo.com/hotels/hotels-in-coorg/madikeri/",
                "http://traveltriangle.com/blog/best-places-to-visit-in-karnataka/",
                "http://www.nivalink.com/destination/chitradurga"
            ],
            "longitude": "77.5718472",
            "address": "Mumbai Spice, 18/2, 10th Cross, Malleswaram, Vyalikaval, Malleswaram, Bengaluru, Bangalore Urban, Karnataka, 560003, India",
            "latitude": "13.0002869",
            "locType": "restaurant",
            "closest_to": "madikeri"
        },
        "kaveri river": {
            "blogLinks": [
                "http://traveltriangle.com/blog/places-to-visit-in-coorg/"
            ],
            "longitude": "77.1600751",
            "address": "Kaveri, Malavalli taluk, Mandya district, Karnataka, India",
            "latitude": "12.2873835",
            "locType": "river",
            "closest_to": "madikeri"
        },
        "kushalanagara": {
            "blogLinks": [
                "https://en.wikipedia.org/wiki/Kodagu_district"
            ],
            "longitude": "75.961437",
            "address": "Kushalanagara, Somawarpet taluk, Kodagu, Karnataka, 571234, India",
            "latitude": "12.4585525",
            "locType": "town",
            "closest_to": "madikeri"
        },
        "hong kong": {
            "blogLinks": [
                "https://www.goibibo.com/hotels/hotels-in-coorg/madikeri/"
            ],
            "longitude": "77.6768991",
            "address": "Hong Kong Noodles, Kalkere Main road, Ramamurthy Nagar, Varanasi, Bangalore Urban, Karnataka, 600042, India",
            "latitude": "13.020749",
            "locType": "restaurant",
            "closest_to": "chitradurga"
        },
        "bandipur forest": {
            "blogLinks": [
                "http://traveltriangle.com/blog/best-places-to-visit-in-karnataka/"
            ],
            "longitude": "76.6285739",
            "address": "Bandipur, Gundlupet taluk, Chamarajanagar district, Karnataka, India",
            "latitude": "11.6662708",
            "locType": "village",
            "closest_to": "madikeri"
        },
        "nisargadhama": {
            "blogLinks": [
                "https://en.wikipedia.org/wiki/Kodagu_district",
                "http://travel.paintedstork.com/blog/2006/01/whirlwind-tour-to-kodagucoorg.html"
            ],
            "longitude": "75.93356075",
            "address": "Kaveri Nisargadhama, NH275, 7th Hosakote, Somawarpet taluk, Kodagu, Karnataka, India",
            "latitude": "12.4416008",
            "locType": "park",
            "closest_to": "madikeri"
        },
        "shirdi": {
            "blogLinks": [
                "https://www.goibibo.com/hotels/hotels-in-coorg/madikeri/"
            ],
            "longitude": "75.1271532",
            "address": "Shirdi Saibaba Temple, Nrupathunga Betta Road, Shakti Colony, Vishweshwara Nagar, Hubballi - \u0cb9\u0cc1\u0cac\u0ccd\u0cac\u0cb3\u0ccd\u0cb3\u0cbf, Hubballi taluku, Dharwad district, Karnataka, 580020, India",
            "latitude": "15.3748524",
            "locType": "place_of_worship",
            "closest_to": "chitradurga"
        },
        "suntikoppa": {
            "blogLinks": [
                "http://traveltriangle.com/blog/places-to-visit-in-coorg/"
            ],
            "longitude": "74.9911155",
            "address": "Suntikoppa, Sagara taluk, Shimoga district, Karnataka, India",
            "latitude": "14.3166038",
            "locType": "village",
            "closest_to": "chitradurga"
        },
        "nanjangud": {
            "blogLinks": [
                "http://www.indiamike.com/india/karnataka-f38/places-to-go-in-south-karnataka-t102701/"
            ],
            "longitude": "76.683164",
            "address": "Nanjangud, Nanjanagudu Bypass, Hejjige, Nanjanagudu taluk, Mysuru district, Karnataka, 571300, India",
            "latitude": "12.1229725",
            "locType": "station",
            "closest_to": "madikeri"
        },
        "singapore": {
            "blogLinks": [
                "https://www.goibibo.com/hotels/hotels-in-coorg/madikeri/"
            ],
            "longitude": "77.5483703",
            "address": "Singapore Gardens, Vajrahalli, Bengaluru, Bangalore Urban, Karnataka, 560001, India",
            "latitude": "12.8861812",
            "locType": "neighbourhood",
            "closest_to": "madikeri"
        },
        "siddapura": {
            "blogLinks": [
                "https://en.wikipedia.org/wiki/Kodagu_district"
            ],
            "longitude": "74.8924253",
            "address": "Siddapura, Siddapura taluk, Uttara Kannada, Karnataka, India",
            "latitude": "14.3409562",
            "locType": "town",
            "closest_to": "chitradurga"
        },
        "mallalli falls": {
            "blogLinks": [
                "https://www.tripoto.com/places-to-visit/india/madikeri",
                "https://www.thrillophilia.com/places-to-visit-in-coorg",
                "https://www.tripoto.com/travel-guide/madikeri/places-to-visit"
            ],
            "longitude": "75.723663",
            "address": "Mallalli Falls, Somawarpet taluk, Kodagu, Karnataka, India",
            "latitude": "12.6813778",
            "locType": "waterfall",
            "closest_to": "madikeri"
        },
        "cauvery": {
            "blogLinks": [
                "https://www.thrillophilia.com/places-to-visit-in-coorg",
                "http://www.nivalink.com/destination/coorg-(madikeri)"
            ],
            "longitude": "77.5832796015599",
            "address": "Cauvery, 1st Main Road, Lower Palace Orchard, Guttahalli, Bengaluru, Bangalore Urban, Karnataka, 560001, India",
            "latitude": "13.00262215",
            "locType": "cinema",
            "closest_to": "madikeri"
        },
        "river sharavathi": {
            "blogLinks": [
                "http://traveltriangle.com/blog/best-places-to-visit-in-karnataka/"
            ],
            "longitude": "77.5476521",
            "address": "Vrishabavathi, Bengaluru, Bangalore Urban, Karnataka, 560001, India",
            "latitude": "12.967526",
            "locType": "river",
            "closest_to": "madikeri"
        },
        "kerala": {
            "blogLinks": [
                "http://www.nivalink.com/destination/coorg-(madikeri)"
            ],
            "longitude": "77.6382683",
            "address": "New Life Kerala Mess, Sai Baba Mandira Road, Mottappanapalaya, Indiranagar, Bengaluru, Bangalore Urban, Karnataka, 560001, India",
            "latitude": "12.9726449",
            "locType": "restaurant",
            "closest_to": "chitradurga"
        },
        "kalaseshwara temple": {
            "blogLinks": [
                "http://www.nivalink.com/destination/coorg-(madikeri)",
                "http://www.nivalink.com/destination/chitradurga"
            ],
            "longitude": "75.363446975",
            "address": "Kalaseshwara Temple, SH66, Kalasa, Mudigere taluk, Chikkamagaluru district, Karnataka, 577124, India",
            "latitude": "13.23228505",
            "locType": "place_of_worship",
            "closest_to": "madikeri"
        },
        "talakaveri": {
            "blogLinks": [
                "https://en.wikipedia.org/wiki/Kodagu_district",
                "http://www.fameofcity.com/KARNATAKA/KODAGU/MADIKERI",
                "http://www.tripwip.com/mysore-byalukuppe-madikeri-bhagamandala-talakaveri-dubare/",
                "http://travel.paintedstork.com/blog/2006/01/whirlwind-tour-to-kodagucoorg.html"
            ],
            "longitude": "75.4930074",
            "address": "Talakaveri, Madikeri taluku, Kodagu, Karnataka, India",
            "latitude": "12.3858456",
            "locType": "hamlet",
            "closest_to": "madikeri"
        },
        "dubare elephant camp": {
            "blogLinks": [
                "http://www.nivalink.com/destination/coorg-(madikeri)",
                "http://traveltriangle.com/blog/best-places-to-visit-in-karnataka/"
            ],
            "longitude": "75.9066719",
            "address": "Dubare Elephant Camp, SH91, Dodda Bettageri, Somawarpet taluk, Kodagu, Karnataka, India",
            "latitude": "12.3716865",
            "locType": "attraction",
            "closest_to": "madikeri"
        },
        "siddapur": {
            "blogLinks": [
                "https://www.tripoto.com/places-to-visit/india/madikeri"
            ],
            "longitude": "74.911019",
            "address": "Siddapur, \u0c95\u0cc1\u0c82\u0ca6\u0cbe\u0caa\u0cc1\u0cb0 \u0ca4\u0cbe\u0cb2\u0cc2\u0c95\u0cc1, Udupi district, Karnataka, 576229, India",
            "latitude": "13.6626885",
            "locType": "village",
            "closest_to": "madikeri"
        },
        "madikeri fort museum": {
            "blogLinks": [
                "https://en.wikipedia.org/wiki/Kodagu_district"
            ],
            "longitude": "75.7392494",
            "address": "Madikeri Museum, Fort Internal Road, Madikeri, Madikeri taluku, Kodagu, Karnataka, India",
            "latitude": "12.4203606",
            "locType": "museum",
            "closest_to": "madikeri"
        },
        "kakkabe": {
            "blogLinks": [
                "https://www.thrillophilia.com/places-to-visit-in-coorg"
            ],
            "longitude": "75.6444603",
            "address": "Kakkabe, Madikeri taluku, Kodagu, Karnataka, India",
            "latitude": "12.2571817",
            "locType": "village",
            "closest_to": "madikeri"
        },
        "somwarpet": {
            "blogLinks": [
                "https://en.wikipedia.org/wiki/Kodagu_district"
            ],
            "longitude": "75.8457638",
            "address": "Somwarpet, Somawarpet taluk, Kodagu, Karnataka, 571236, India",
            "latitude": "12.6004446",
            "locType": "town",
            "closest_to": "madikeri"
        },
        "cauvery river": {
            "blogLinks": [
                "https://www.thrillophilia.com/places-to-visit-in-coorg"
            ],
            "longitude": "77.635647",
            "address": "Temple Trees Rd, Cauvery Colony, ST Bed Layout, Koramangala, Bengaluru, Bangalore Urban, Karnataka, 560001, India",
            "latitude": "12.9327668",
            "locType": "unclassified",
            "closest_to": "chitradurga"
        },
        "kolkata": {
            "blogLinks": [
                "http://www.distancesfrom.com/distance-from-Gangavathi-to-Madikeri-via-Chitradurga/DistanceHistory/907020.aspx"
            ],
            "longitude": "77.5478044",
            "address": "Kolkata Biryani And Rolls, 1st Main Basaveshwaranagar, Rajajinagar 3rd Block, Dasarahalli, Bengaluru, Bangalore Urban, Karnataka, 560010, India",
            "latitude": "12.9845159",
            "locType": "restaurant",
            "closest_to": "madikeri"
        },
        "raja seat garden": {
            "blogLinks": [
                "https://www.tripoto.com/places-to-visit/india/madikeri"
            ],
            "longitude": "75.7369653316478",
            "address": "Raja Seat, Mahatma Gandhi Road, Madikeri, Madikeri taluku, Kodagu, Karnataka, India",
            "latitude": "12.41421975",
            "locType": "park",
            "closest_to": "madikeri"
        },
        "hampi": {
            "blogLinks": [
                "http://traveltriangle.com/blog/best-places-to-visit-in-karnataka/",
                "http://www.nivalink.com/destination/chitradurga"
            ],
            "longitude": "76.4606199",
            "address": "Hampe, Hosapete taluk, Bellary district, Karnataka, 583239, India",
            "latitude": "15.3359769",
            "locType": "village",
            "closest_to": "chitradurga"
        },
        "river gurupura": {
            "blogLinks": [
                "http://traveltriangle.com/blog/best-places-to-visit-in-karnataka/"
            ],
            "longitude": "75.7161587",
            "address": "Gurupura, Tarikere taluku, Chikkamagaluru district, Karnataka, India",
            "latitude": "13.6686411",
            "locType": "village",
            "closest_to": "madikeri"
        },
        "madikeri": {
            "blogLinks": [
                "https://www.goibibo.com/hotels/hotels-in-coorg/madikeri/",
                "https://www.thrillophilia.com/places-to-visit-in-coorg",
                "http://traveltriangle.com/blog/places-to-visit-in-coorg/",
                "http://www.fameofcity.com/KARNATAKA/KODAGU/MADIKERI",
                "http://travel.paintedstork.com/blog/2006/01/whirlwind-tour-to-kodagucoorg.html",
                "https://en.wikipedia.org/wiki/Kodagu_district",
                "https://www.tripoto.com/places-to-visit/india/madikeri",
                "http://www.nivalink.com/destination/coorg-(madikeri)",
                "http://www.holidayiq.com/Madikeri-Sightseeing-1276.html"
            ],
            "longitude": "75.740031",
            "address": "Madikeri, Madikeri taluku, Kodagu, Karnataka, India",
            "latitude": "12.4204003",
            "locType": "town",
            "closest_to": "madikeri"
        },
        "west coorg": {
            "blogLinks": [
                "http://www.nivalink.com/destination/coorg-(madikeri)"
            ],
            "longitude": "75.740031",
            "address": "Madikeri, Madikeri taluku, Kodagu, Karnataka, India",
            "latitude": "12.4204003",
            "locType": "town",
            "closest_to": "madikeri"
        },
        "kavadi": {
            "blogLinks": [
                "https://en.wikipedia.org/wiki/Kodagu_district"
            ],
            "longitude": "75.229639",
            "address": "Kavadi, Soraba taluk, Shimoga district, Karnataka, India",
            "latitude": "14.3281576",
            "locType": "village",
            "closest_to": "chitradurga"
        },
        "us": {
            "blogLinks": [
                "https://en.wikipedia.org/wiki/Kodagu_district",
                "http://traveltriangle.com/blog/best-places-to-visit-in-karnataka/"
            ],
            "longitude": "75.7223521",
            "address": "Karnataka, India",
            "latitude": "14.5203896",
            "locType": "administrative",
            "closest_to": "chitradurga"
        },
        "sikkim": {
            "blogLinks": [
                "https://www.thrillophilia.com/places-to-visit-in-coorg"
            ],
            "longitude": "77.6704479",
            "address": "Sikkim Manipal University, Sarjapur Road, Devarabisanahalli, Bellandur, Doddakannelli, Bangalore Urban, Karnataka, 560035, India",
            "latitude": "12.9185721",
            "locType": "yes",
            "closest_to": "chitradurga"
        },
        "hubli airport": {
            "blogLinks": [
                "http://traveltriangle.com/blog/best-places-to-visit-in-karnataka/"
            ],
            "longitude": "75.0860974",
            "address": "Hubli Airport, \u0c97\u0ccb\u0c95\u0cc1\u0cb2 \u0cb0\u0ccb\u0ca1\u0ccd, Padmaraj Nagar, Gokul, Hubballi taluku, Dharwad district, Karnataka, 580030, India",
            "latitude": "15.3598315",
            "locType": "aerodrome",
            "closest_to": "chitradurga"
        },
        "lakshmana tirtha river": {
            "blogLinks": [
                "https://en.wikipedia.org/wiki/Kodagu_district"
            ],
            "longitude": "75.9839484",
            "address": "Iruppu Falls, SH89, Taila, Virajpet taluk, Kodagu, Karnataka, 571217, India",
            "latitude": "11.9667954",
            "locType": "attraction",
            "closest_to": "madikeri"
        },
        "durga temple": {
            "blogLinks": [
                "http://traveltriangle.com/blog/best-places-to-visit-in-karnataka/"
            ],
            "longitude": "77.6125928",
            "address": "Durga Temple, 29th Main, Mahadeshwara Nagara, BTM Layout, Bengaluru, Bangalore Urban, Karnataka, 560001, India",
            "latitude": "12.9057731",
            "locType": "place_of_worship",
            "closest_to": "madikeri"
        },
        "karnataka state": {
            "blogLinks": [
                "https://en.wikipedia.org/wiki/Kodagu_district"
            ],
            "longitude": "76.6236231",
            "address": "Karnataka State Open University, \u0cb9\u0cc1\u0ca3\u0cb8\u0cc2\u0cb0\u0cc1 \u0cb0\u0cb8\u0ccd\u0ca4\u0cc6, Gokulam, Mysuru, Mysuru taluk, Mysuru district, Karnataka, 570001, India",
            "latitude": "12.315382",
            "locType": "university",
            "closest_to": "madikeri"
        },
        "north kerala": {
            "blogLinks": [
                "http://www.nivalink.com/destination/coorg-(madikeri)"
            ],
            "longitude": "77.6382683",
            "address": "New Life Kerala Mess, Sai Baba Mandira Road, Mottappanapalaya, Indiranagar, Bengaluru, Bangalore Urban, Karnataka, 560001, India",
            "latitude": "12.9726449",
            "locType": "restaurant",
            "closest_to": "chitradurga"
        },
        "iruppu falls": {
            "blogLinks": [
                "https://en.wikipedia.org/wiki/Kodagu_district",
                "https://www.tripoto.com/places-to-visit/india/madikeri",
                "https://www.thrillophilia.com/places-to-visit-in-coorg",
                "http://traveltriangle.com/blog/best-places-to-visit-in-karnataka/",
                "https://www.tripoto.com/travel-guide/madikeri/places-to-visit"
            ],
            "longitude": "75.9839484",
            "address": "Iruppu Falls, SH89, Taila, Virajpet taluk, Kodagu, Karnataka, 571217, India",
            "latitude": "11.9667954",
            "locType": "attraction",
            "closest_to": "madikeri"
        },
        "tadiandamol": {
            "blogLinks": [
                "https://en.wikipedia.org/wiki/Kodagu_district",
                "https://www.thrillophilia.com/places-to-visit-in-coorg"
            ],
            "longitude": "75.608815",
            "address": "Tadiandamol, Madikeri taluku, Kodagu, Karnataka, India",
            "latitude": "12.2175641",
            "locType": "peak",
            "closest_to": "madikeri"
        },
        "river varada": {
            "blogLinks": [
                "http://traveltriangle.com/blog/best-places-to-visit-in-karnataka/"
            ],
            "longitude": "75.47206",
            "address": "Varada, Savanura taluk, Haveri district, Karnataka, India",
            "latitude": "14.8717792",
            "locType": "river",
            "closest_to": "chitradurga"
        },
        "madikeri fort": {
            "blogLinks": [
                "https://www.tripoto.com/places-to-visit/india/madikeri",
                "https://www.thrillophilia.com/places-to-visit-in-coorg",
                "https://www.tripoto.com/travel-guide/madikeri/places-to-visit"
            ],
            "longitude": "75.7392494",
            "address": "Madikeri Museum, Fort Internal Road, Madikeri, Madikeri taluku, Kodagu, Karnataka, India",
            "latitude": "12.4203606",
            "locType": "museum",
            "closest_to": "madikeri"
        },
        "mercara": {
            "blogLinks": [
                "https://en.wikipedia.org/wiki/Kodagu_district",
                "http://travel.paintedstork.com/blog/2006/01/whirlwind-tour-to-kodagucoorg.html"
            ],
            "longitude": "75.740031",
            "address": "Madikeri, Madikeri taluku, Kodagu, Karnataka, India",
            "latitude": "12.4204003",
            "locType": "town",
            "closest_to": "madikeri"
        },
        "golden temple": {
            "blogLinks": [
                "https://www.thrillophilia.com/places-to-visit-in-coorg",
                "http://traveltriangle.com/blog/places-to-visit-in-coorg/"
            ],
            "longitude": "75.9674656",
            "address": "Padmasambhava Buddhist Vihara (Golden Temple), MDR21, Koppa, Piriyapattana taluk, Mysuru district, Karnataka, India",
            "latitude": "12.430821",
            "locType": "place_of_worship",
            "closest_to": "madikeri"
        },
        "eshwari": {
            "blogLinks": [
                "https://www.goibibo.com/hotels/hotels-in-coorg/madikeri/"
            ],
            "longitude": "77.5498362",
            "address": "Eshwari Matching Center, 19th Main Road, Rajajinagar 1st Block, Subrahmanya Nagar, Bengaluru, Bangalore Urban, Karnataka, 560001, India",
            "latitude": "13.0041482",
            "locType": "clothes",
            "closest_to": "madikeri"
        },
        "kanhangad": {
            "blogLinks": [
                "https://en.wikipedia.org/wiki/Kodagu_district",
                "http://www.fameofcity.com/KARNATAKA/KODAGU/MADIKERI"
            ],
            "longitude": "75.0896592",
            "address": "Kalladka Kanhangad Highway, Mangalapadavu, Bantwal taluk, Dakshina Kannada, Karnataka, 574243, India",
            "latitude": "12.8011738",
            "locType": "primary",
            "closest_to": "madikeri"
        },
        "national park": {
            "blogLinks": [
                "https://www.thrillophilia.com/places-to-visit-in-coorg",
                "http://travel.paintedstork.com/blog/2006/01/whirlwind-tour-to-kodagucoorg.html"
            ],
            "longitude": "77.5722783830694",
            "address": "Bannerghatta National Park, Anekal Road, Begihalli, Bangalore Urban, Karnataka, 560076, India",
            "latitude": "12.77900335",
            "locType": "national_park",
            "closest_to": "madikeri"
        },
        "gandhinagar": {
            "blogLinks": [
                "https://www.goibibo.com/hotels/hotels-in-coorg/madikeri/"
            ],
            "longitude": "77.5784005",
            "address": "Gandhinagar, Bengaluru, Bangalore Urban, Karnataka, 560001, India",
            "latitude": "12.9771534",
            "locType": "suburb",
            "closest_to": "madikeri"
        },
        "sahyadri": {
            "blogLinks": [
                "http://travel.paintedstork.com/blog/2006/01/whirlwind-tour-to-kodagucoorg.html"
            ],
            "longitude": "75.2317987800043",
            "address": "Sahyadri Polytechnic, SH1, Seebinakere, Sankadahole, Tirthahalli taluk, Shimoga district, Karnataka, 577432, India",
            "latitude": "13.6983273",
            "locType": "school",
            "closest_to": "madikeri"
        },
        "kannur": {
            "blogLinks": [
                "https://en.wikipedia.org/wiki/Kodagu_district",
                "http://www.nivalink.com/destination/coorg-(madikeri)",
                "http://www.holidayiq.com/Madikeri-Sightseeing-1276.html",
                "http://www.fameofcity.com/KARNATAKA/KODAGU/MADIKERI"
            ],
            "longitude": "74.8858161",
            "address": "Netravati bridge - Kannur Bypass Road (Proposed), Padil, Bajal, Mangaluru taluk, Dakshina Kannada, Karnataka, 575007, India",
            "latitude": "12.8487602",
            "locType": "construction",
            "closest_to": "madikeri"
        },
        "kutta": {
            "blogLinks": [
                "http://travel.paintedstork.com/blog/2006/01/whirlwind-tour-to-kodagucoorg.html"
            ],
            "longitude": "76.0491296",
            "address": "Kutta, Virajpet taluk, Kodagu, Karnataka, India",
            "latitude": "11.9696155",
            "locType": "village",
            "closest_to": "madikeri"
        },
        "parvati": {
            "blogLinks": [
                "https://en.wikipedia.org/wiki/Kodagu_district"
            ],
            "longitude": "75.7898501",
            "address": "Parvati, Badami taluku, Bagalkote district, Karnataka, India",
            "latitude": "16.0395701",
            "locType": "village",
            "closest_to": "chitradurga"
        },
        "baba budangiri": {
            "blogLinks": [
                "https://en.wikipedia.org/wiki/Kodagu_district"
            ],
            "longitude": "75.7606996",
            "address": "Baba Budangiri, Chikkamagaluru, Chikkamagaluru taluku, Chikkamagaluru district, Karnataka, 577101, India",
            "latitude": "13.4210884",
            "locType": "peak",
            "closest_to": "madikeri"
        },
        "mandalpatti": {
            "blogLinks": [
                "https://www.thrillophilia.com/places-to-visit-in-coorg",
                "http://www.holidayiq.com/Madikeri-Sightseeing-1276.html"
            ],
            "longitude": "75.7307012",
            "address": "Mandalpatti road junction, Galibidu Road, Kalakeri Nidugane, Madikeri taluku, Kodagu, Karnataka, India",
            "latitude": "12.4486242",
            "locType": "attraction",
            "closest_to": "madikeri"
        },
        "tungabhadra river": {
            "blogLinks": [
                "http://traveltriangle.com/blog/best-places-to-visit-in-karnataka/"
            ],
            "longitude": "76.4931607",
            "address": "Tungabhadra, Gangavati taluku, Koppal district, Karnataka, India",
            "latitude": "15.3446123",
            "locType": "river",
            "closest_to": "chitradurga"
        },
        "coimbatore": {
            "blogLinks": [
                "http://www.nivalink.com/destination/coorg-(madikeri)"
            ],
            "longitude": "76.6318246",
            "address": "Gundlupet - Coimbatore Highway, Bandipur, Gundlupet taluk, Chamarajanagar district, Karnataka, India",
            "latitude": "11.6793976",
            "locType": "trunk",
            "closest_to": "madikeri"
        },
        "somnathpur": {
            "blogLinks": [
                "http://www.indiamike.com/india/karnataka-f38/places-to-go-in-south-karnataka-t102701/"
            ],
            "longitude": "76.8833039",
            "address": "Somanathapura, Tirumakudalu Narasipura taluk, Mysuru district, Karnataka, India",
            "latitude": "12.2761528",
            "locType": "village",
            "closest_to": "madikeri"
        },
        "nagarahole": {
            "blogLinks": [
                "https://en.wikipedia.org/wiki/Kodagu_district",
                "http://travel.paintedstork.com/blog/2006/01/whirlwind-tour-to-kodagucoorg.html"
            ],
            "longitude": "76.2286805",
            "address": "Nagarahole, Heggadadevanakote taluk, Mysuru district, Karnataka, India",
            "latitude": "12.0229466",
            "locType": "river",
            "closest_to": "madikeri"
        },
        "bylakuppe": {
            "blogLinks": [
                "http://traveltriangle.com/blog/places-to-visit-in-coorg/",
                "http://travel.paintedstork.com/blog/2006/01/whirlwind-tour-to-kodagucoorg.html"
            ],
            "longitude": "75.9953435",
            "address": "Bylakuppe, Piriyapattana taluk, Mysuru district, Karnataka, India",
            "latitude": "12.4292508",
            "locType": "village",
            "closest_to": "madikeri"
        },
        "harangi dam": {
            "blogLinks": [
                "https://www.thrillophilia.com/places-to-visit-in-coorg"
            ],
            "longitude": "75.9056999171375",
            "address": "Harangi dam, Somawarpet taluk, Kodagu, Karnataka, India",
            "latitude": "12.4928663",
            "locType": "dam",
            "closest_to": "madikeri"
        },
        "kodagu district": {
            "blogLinks": [
                "https://en.wikipedia.org/wiki/Kodagu_district"
            ],
            "longitude": "75.7412148",
            "address": "Kodagu, Karnataka, India",
            "latitude": "12.2519249",
            "locType": "county",
            "closest_to": "madikeri"
        },
        "ayodhya": {
            "blogLinks": [
                "https://en.wikipedia.org/wiki/Kodagu_district"
            ],
            "longitude": "76.5832762",
            "address": "Ayodhya, Gangavati taluku, Koppal district, Karnataka, India",
            "latitude": "15.4313866",
            "locType": "village",
            "closest_to": "chitradurga"
        },
        "heggade": {
            "blogLinks": [
                "https://en.wikipedia.org/wiki/Kodagu_district"
            ],
            "longitude": "75.0463974400643",
            "address": "Dr. Veerendra Heggade Kalakshetra, Pune Bangalore Road, Navanagar, Amaragol, Hubballi taluku, Dharwad district, Karnataka, 580025, India",
            "latitude": "15.4185677",
            "locType": "auditorium",
            "closest_to": "chitradurga"
        },
        "ooty": {
            "blogLinks": [
                "http://www.indiamike.com/india/karnataka-f38/places-to-go-in-south-karnataka-t102701/",
                "http://www.nivalink.com/destination/coorg-(madikeri)"
            ],
            "longitude": "76.6586807",
            "address": "Ooty Road, Vidyaranyapuram, Mysuru, Mysuru taluk, Mysuru district, Karnataka, 570001, India",
            "latitude": "12.2774807",
            "locType": "primary",
            "closest_to": "madikeri"
        },
        "bajji": {
            "blogLinks": [
                "http://traveltriangle.com/blog/best-places-to-visit-in-karnataka/"
            ],
            "longitude": "77.5653317",
            "address": "Bajji, 13th Cross Road, Vyalikaval, Malleswaram, Bengaluru, Bangalore Urban, Karnataka, 560001, India",
            "latitude": "13.0037322",
            "locType": "fast_food",
            "closest_to": "madikeri"
        },
        "mandalpatti view point": {
            "blogLinks": [
                "http://traveltriangle.com/blog/places-to-visit-in-coorg/"
            ],
            "longitude": "75.7037103",
            "address": "Mandalpatti last jeep point, Kaluru, Madikeri taluku, Kodagu, Karnataka, India",
            "latitude": "12.5424116",
            "locType": "attraction",
            "closest_to": "madikeri"
        },
        "udipi": {
            "blogLinks": [
                "http://www.nivalink.com/destination/coorg-(madikeri)",
                "http://www.nivalink.com/destination/chitradurga"
            ],
            "longitude": "77.652888",
            "address": "Udipi Park, 2nd Cross Road, Muniyappa Layout, Murugeshpalaya, Belure Ambedkar Nagar, Bangalore Urban, Karnataka, 560067, India",
            "latitude": "12.9530588",
            "locType": "restaurant",
            "closest_to": "chitradurga"
        },
        "tannirbhavi beach": {
            "blogLinks": [
                "http://traveltriangle.com/blog/best-places-to-visit-in-karnataka/"
            ],
            "longitude": "74.8132559697314",
            "address": "Tannirbhavi Beach, Matadakani Road, Bokkapatna, Kudroli, Mangaluru, Mangaluru taluk, Dakshina Kannada, Karnataka, 575001, India",
            "latitude": "12.8953559",
            "locType": "beach",
            "closest_to": "madikeri"
        },
        "grevillea": {
            "blogLinks": [
                "https://en.wikipedia.org/wiki/Kodagu_district"
            ],
            "longitude": "77.5845738",
            "address": "Grevillea Robusta A.Cunn - Australian Silver Oak, Krumbiegal Road, Mavalli, VV Puram, Bengaluru, Bangalore Urban, Karnataka, 560001, India",
            "latitude": "12.9539614",
            "locType": "tree",
            "closest_to": "madikeri"
        },
        "rameshwara temple": {
            "blogLinks": [
                "https://www.thrillophilia.com/places-to-visit-in-coorg"
            ],
            "longitude": "77.5678621969321",
            "address": "Rameshwara Temple, Kranthikavi Sarvagnya Road, Rajajinagar 4th Block, Sriramapura, Bengaluru, Bangalore Urban, Karnataka, 560001, India",
            "latitude": "12.99365815",
            "locType": "place_of_worship",
            "closest_to": "madikeri"
        },
        "south kodagu": {
            "blogLinks": [
                "https://en.wikipedia.org/wiki/Kodagu_district"
            ],
            "longitude": "75.6677235950852",
            "address": "Kodagu, Karnataka, India",
            "latitude": "12.38117345",
            "locType": "administrative",
            "closest_to": "madikeri"
        },
        "london": {
            "blogLinks": [
                "https://en.wikipedia.org/wiki/Kodagu_district",
                "http://www.tripwip.com/mysore-byalukuppe-madikeri-bhagamandala-talakaveri-dubare/"
            ],
            "longitude": "75.7223521",
            "address": "Karnataka, India",
            "latitude": "14.5203896",
            "locType": "administrative",
            "closest_to": "chitradurga"
        },
        "kumara parvatha": {
            "blogLinks": [
                "https://www.thrillophilia.com/places-to-visit-in-coorg"
            ],
            "longitude": "75.6865652",
            "address": "Kumara Parvatha, Somawarpet taluk, Kodagu, Karnataka, India",
            "latitude": "12.6623315",
            "locType": "peak",
            "closest_to": "madikeri"
        },
        "brahmagiri": {
            "blogLinks": [
                "https://en.wikipedia.org/wiki/Kodagu_district",
                "https://www.thrillophilia.com/places-to-visit-in-coorg",
                "http://travel.paintedstork.com/blog/2006/01/whirlwind-tour-to-kodagucoorg.html"
            ],
            "longitude": "75.490746",
            "address": "Brahmagiri, Madikeri taluku, Kodagu, Karnataka, India",
            "latitude": "12.3868578",
            "locType": "peak",
            "closest_to": "madikeri"
        },
        "pattadakal": {
            "blogLinks": [
                "http://traveltriangle.com/blog/best-places-to-visit-in-karnataka/"
            ],
            "longitude": "75.815884048161",
            "address": "Pattadakal Temples, SH14, \u0cac\u0cbe\u0c9a\u0cbf\u0ca8\u0c97\u0cc1\u0ca1\u0ccd\u0ca1, Badami taluku, Bagalkote district, Karnataka, 587211, India",
            "latitude": "15.9506349",
            "locType": "attraction",
            "closest_to": "chitradurga"
        },
        "england": {
            "blogLinks": [
                "https://en.wikipedia.org/wiki/Kodagu_district"
            ],
            "longitude": "77.6219969678622",
            "address": "Peter England Factory, Bommanahalli, Bengaluru, Bangalore Urban, Karnataka, 560001, India",
            "latitude": "12.90120185",
            "locType": "industrial",
            "closest_to": "madikeri"
        },
        "mysore road": {
            "blogLinks": [
                "http://travel.paintedstork.com/blog/2006/01/whirlwind-tour-to-kodagucoorg.html"
            ],
            "longitude": "77.5337558",
            "address": "Mysore Road, Avalahalli, Bengaluru, Bangalore Urban, Karnataka, 560001, India",
            "latitude": "12.9477396",
            "locType": "trunk",
            "closest_to": "madikeri"
        },
        "aihole": {
            "blogLinks": [
                "http://traveltriangle.com/blog/best-places-to-visit-in-karnataka/"
            ],
            "longitude": "75.8819129",
            "address": "Aihole, Hunagunda taluku, Bagalkote district, Karnataka, India",
            "latitude": "16.0192298",
            "locType": "village",
            "closest_to": "chitradurga"
        },
        "chettalli": {
            "blogLinks": [
                "http://traveltriangle.com/blog/places-to-visit-in-coorg/"
            ],
            "longitude": "75.8308074",
            "address": "Chettalli, Somawarpet taluk, Kodagu, Karnataka, India",
            "latitude": "12.370303",
            "locType": "village",
            "closest_to": "madikeri"
        },
        "nandi hills": {
            "blogLinks": [
                "http://traveltriangle.com/blog/best-places-to-visit-in-karnataka/"
            ],
            "longitude": "77.7194741670394",
            "address": "Nandi Upahara, Nandhi Hills Road, Kottige Thimmanahalli, Devanahalli taluk, Bangalore Rural, Karnataka, India",
            "latitude": "13.268142",
            "locType": "hotel",
            "closest_to": "chitradurga"
        },
        "badami": {
            "blogLinks": [
                "http://traveltriangle.com/blog/best-places-to-visit-in-karnataka/"
            ],
            "longitude": "75.6807865",
            "address": "Badami, Badami taluku, Bagalkote district, Karnataka, 587200, India",
            "latitude": "15.9203874",
            "locType": "town",
            "closest_to": "chitradurga"
        },
        "st. aloysius chapel": {
            "blogLinks": [
                "http://traveltriangle.com/blog/best-places-to-visit-in-karnataka/"
            ],
            "longitude": "74.8453615",
            "address": "St. Aloysius Chapel, St Aloysius Internal Road, Dongerkeri, Mallikatte, Mangaluru, Mangaluru taluk, Dakshina Kannada, Karnataka, 575001, India",
            "latitude": "12.8737995",
            "locType": "place_of_worship",
            "closest_to": "madikeri"
        },
        "mangalore station": {
            "blogLinks": [
                "http://traveltriangle.com/blog/best-places-to-visit-in-karnataka/"
            ],
            "longitude": "74.8227040793795",
            "address": "Bharti Shipyard Limited, Mangalore, Mangaluru, Mangaluru taluk, Dakshina Kannada, Karnataka, 575001, India",
            "latitude": "12.87337955",
            "locType": "boatyard",
            "closest_to": "madikeri"
        },
        "panambur beach": {
            "blogLinks": [
                "http://traveltriangle.com/blog/best-places-to-visit-in-karnataka/"
            ],
            "longitude": "74.8034667207214",
            "address": "Panambur Beach, Panambur Beach Road, Gandhinagar, Panambur, Mangaluru taluk, Dakshina Kannada, Karnataka, 575013, India",
            "latitude": "12.93907195",
            "locType": "beach",
            "closest_to": "madikeri"
        },
        "nagarahole national park": {
            "blogLinks": [
                "https://en.wikipedia.org/wiki/Kodagu_district",
                "http://travel.paintedstork.com/blog/2006/01/whirlwind-tour-to-kodagucoorg.html"
            ],
            "longitude": "76.1537073415874",
            "address": "Nagarahole National Park, Virajpet taluk, Kodagu, Karnataka, India",
            "latitude": "12.0600362",
            "locType": "national_park",
            "closest_to": "madikeri"
        },
        "botanical gardens": {
            "blogLinks": [
                "http://www.indiamike.com/india/karnataka-f38/places-to-go-in-south-karnataka-t102701/"
            ],
            "longitude": "77.5744817798899",
            "address": "Botanical Garden, Cart road, Judicial Layout, Jakkur, Bangalore Urban, Karnataka, 560065, India",
            "latitude": "13.08099125",
            "locType": "protected_area",
            "closest_to": "madikeri"
        },
        "kundapura": {
            "blogLinks": [
                "http://www.nivalink.com/destination/coorg-(madikeri)",
                "http://www.nivalink.com/destination/chitradurga"
            ],
            "longitude": "74.6915722",
            "address": "Kundapura, \u0c95\u0cc1\u0c82\u0ca6\u0cbe\u0caa\u0cc1\u0cb0 \u0ca4\u0cbe\u0cb2\u0cc2\u0c95\u0cc1, Udupi district, Karnataka, 576200, India",
            "latitude": "13.6250993",
            "locType": "town",
            "closest_to": "madikeri"
        },
        "kaveri": {
            "blogLinks": [
                "https://en.wikipedia.org/wiki/Kodagu_district",
                "http://www.indiamike.com/india/karnataka-f38/places-to-go-in-south-karnataka-t102701/",
                "http://www.fameofcity.com/KARNATAKA/KODAGU/MADIKERI",
                "http://travel.paintedstork.com/blog/2006/01/whirlwind-tour-to-kodagucoorg.html"
            ],
            "longitude": "77.0635531",
            "address": "Kaveri, Kollegala taluk, Chamarajanagar district, Karnataka, India",
            "latitude": "12.1687878",
            "locType": "river",
            "closest_to": "madikeri"
        },
        "mangaladevi temple": {
            "blogLinks": [
                "http://traveltriangle.com/blog/best-places-to-visit-in-karnataka/"
            ],
            "longitude": "74.8452646984836",
            "address": "Shri Mangaladevi Temple, Mangala Devi Temple Road, Mulihitlu, Bolar, Mangaluru, Mangaluru taluk, Dakshina Kannada, Karnataka, 575001, India",
            "latitude": "12.84923455",
            "locType": "place_of_worship",
            "closest_to": "madikeri"
        },
        "bandipur": {
            "blogLinks": [
                "http://www.indiamike.com/india/karnataka-f38/places-to-go-in-south-karnataka-t102701/"
            ],
            "longitude": "76.6285739",
            "address": "Bandipur, Gundlupet taluk, Chamarajanagar district, Karnataka, India",
            "latitude": "11.6662708",
            "locType": "village",
            "closest_to": "madikeri"
        },
        "garrison": {
            "blogLinks": [
                "http://www.indiamike.com/india/karnataka-f38/places-to-go-in-south-karnataka-t102701/"
            ],
            "longitude": "77.652828",
            "address": "Garrison Engineer (R and D )West, Dr. APJ Abdul Kalam Road, Sudgunte Palya, Thippasandra, Benniganahalli, Bangalore Urban, Karnataka, 560075, India",
            "latitude": "12.9796086",
            "locType": "government",
            "closest_to": "chitradurga"
        },
        "malayalam": {
            "blogLinks": [
                "https://en.wikipedia.org/wiki/Kodagu_district"
            ],
            "longitude": "77.6774283",
            "address": "Lowry Adventist Malayalam Church, A Narayanapura Main Road, Darga Mohalla, Udaya Nagar, A Narayanapura, Bangalore Urban, Karnataka, 560016, India",
            "latitude": "12.9985726",
            "locType": "place_of_worship",
            "closest_to": "chitradurga"
        },
        "pushpagiri": {
            "blogLinks": [
                "https://www.thrillophilia.com/places-to-visit-in-coorg"
            ],
            "longitude": "77.5333268",
            "address": "Pushpagiri Nagar, Bengaluru, Bangalore Urban, Karnataka, 560001, India",
            "latitude": "12.9297622",
            "locType": "locality",
            "closest_to": "madikeri"
        },
        "sharavathi river": {
            "blogLinks": [
                "http://traveltriangle.com/blog/best-places-to-visit-in-karnataka/"
            ],
            "longitude": "77.6216184337102",
            "address": "Sharavathi Block, National Games Village Road, Ambedkar Nagar, Ejipura, Bengaluru, Bangalore Urban, Karnataka, 560001, India",
            "latitude": "12.9464709",
            "locType": "yes",
            "closest_to": "chitradurga"
        },
        "vedavati river": {
            "blogLinks": [
                "http://www.holidayiq.com/Chitradurga-Sightseeing-650.html"
            ],
            "longitude": "76.1347937",
            "address": "Vedavati, Kaduru taluk, Chikkamagaluru district, Karnataka, India",
            "latitude": "13.6048777",
            "locType": "river",
            "closest_to": "madikeri"
        },
        "madikeri getaway2suntikoppaa": {
            "blogLinks": [
                "http://www.nivalink.com/destination/coorg-(madikeri)"
            ],
            "longitude": "75.740031",
            "address": "Madikeri, Madikeri taluku, Kodagu, Karnataka, India",
            "latitude": "12.4204003",
            "locType": "town",
            "closest_to": "madikeri"
        },
        "kasargod": {
            "blogLinks": [
                "https://en.wikipedia.org/wiki/Kodagu_district"
            ],
            "longitude": "74.8585848",
            "address": "Mangaluru-Kasargod Highway, Bolar, Thokkottu, Mangaluru taluk, Dakshina Kannada, Karnataka, 574159, India",
            "latitude": "12.8107348",
            "locType": "trunk",
            "closest_to": "madikeri"
        }
    }
}