{
    "murudeshwara": {
        "lat": "14.0959549",
        "class": "place",
        "importance": 0.5,
        "osm_type": "node",
        "lon": "74.4883354",
        "place_id": "622093",
        "display_name": "Murudeshwara, Bhatkala taluk, Uttara Kannada, Karnataka, 581350, India",
        "osm_id": "245626123",
        "boundingbox": [
            "14.0559549",
            "14.1359549",
            "74.4483354",
            "74.5283354"
        ],
        "type": "town",
        "licence": "Data \u00a9 OpenStreetMap contributors, ODbL 1.0. http://www.openstreetmap.org/copyright",
        "icon": "https://nominatim.openstreetmap.org/images/mapicons/poi_place_town.p.20.png"
    },
    "dandeli": {
        "lat": "15.2490284",
        "class": "place",
        "importance": 0.5,
        "osm_type": "node",
        "lon": "74.6236037",
        "place_id": "5820025",
        "display_name": "Dandeli, Haliyala taluku, Uttara Kannada, Karnataka, 581325, India",
        "osm_id": "612546262",
        "boundingbox": [
            "15.2090284",
            "15.2890284",
            "74.5836037",
            "74.6636037"
        ],
        "type": "town",
        "licence": "Data \u00a9 OpenStreetMap contributors, ODbL 1.0. http://www.openstreetmap.org/copyright",
        "icon": "https://nominatim.openstreetmap.org/images/mapicons/poi_place_town.p.20.png"
    },
    "mentions": {
        "varaha": {
            "blogLinks": [
                "https://en.wikipedia.org/wiki/Tourism_in_Karnataka"
            ],
            "longitude": "75.3718812",
            "address": "Varaha, Hirekeruru taluk, Haveri district, Karnataka, India",
            "latitude": "14.390777",
            "locType": "village",
            "closest_to": "murudeshwara"
        },
        "murudeshwar gate": {
            "blogLinks": [
                "https://www.tripoto.com/travel-guide/murudeshwar/trips"
            ],
            "longitude": "74.4883354",
            "address": "Murudeshwara, Bhatkala taluk, Uttara Kannada, Karnataka, 581350, India",
            "latitude": "14.0959549",
            "locType": "town",
            "closest_to": "murudeshwara"
        },
        "nagajhari river": {
            "blogLinks": [
                "http://www.holidayiq.com/Dandeli-Sightseeing-345.html"
            ],
            "longitude": "74.5013412",
            "address": "Nagajhari School, Belgaum - Panaji Highway, Cantonment, Belagavi, Belagavi taluku, Belgaum district, Karnataka, 590001, India",
            "latitude": "15.8351706",
            "locType": "school",
            "closest_to": "dandeli"
        },
        "murudeshwar": {
            "blogLinks": [
                "http://www.team-bhp.com/forum/route-travel-queries/99598-bangalore-murudeshwar-gokarna-route.html",
                "http://travel.india.com/gokarna/",
                "https://www.tripadvisor.in/ShowUserReviews-g297627-d1793953-r194713610-Murudeshwar-Karnataka.html",
                "https://www.tripadvisor.in/Attraction_Review-g297627-d1793953-Reviews-Murudeshwar-Karnataka.html",
                "https://www.tripoto.com/travel-guide/murudeshwar/trips",
                "https://www.quora.com/What-are-the-adventurous-places-in-South-India-to-visit-with-friends"
            ],
            "longitude": "74.4883354",
            "address": "Murudeshwara, Bhatkala taluk, Uttara Kannada, Karnataka, 581350, India",
            "latitude": "14.0959549",
            "locType": "town",
            "closest_to": "murudeshwara"
        },
        "kagal": {
            "blogLinks": [
                "https://en.wikipedia.org/wiki/Tourism_in_Karnataka"
            ],
            "longitude": "74.3575302591262",
            "address": "Kagal Fort, Birkodi Village, Kumata taluk, Uttara Kannada, Karnataka, India",
            "latitude": "14.5055819",
            "locType": "grass",
            "closest_to": "murudeshwara"
        },
        "haveri": {
            "blogLinks": [
                "https://en.wikipedia.org/wiki/Tourism_in_Karnataka"
            ],
            "longitude": "75.3996731",
            "address": "Haveri, Haveri taluku, Haveri district, Karnataka, 581110, India",
            "latitude": "14.7874825",
            "locType": "town",
            "closest_to": "murudeshwara"
        },
        "bison river": {
            "blogLinks": [
                "https://www.tripadvisor.in/ShowUserReviews-g297627-d1793953-r194713610-Murudeshwar-Karnataka.html"
            ],
            "longitude": "74.5398118",
            "address": "Bison River Resort, SH34, Baapeli, Joida taluk, Uttara Kannada, Karnataka, India",
            "latitude": "15.2638266",
            "locType": "hotel",
            "closest_to": "dandeli"
        },
        "netrani island": {
            "blogLinks": [
                "http://www.nivalink.com/destination/murudeshwar"
            ],
            "longitude": "74.3272086675849",
            "address": "Netrani, Uttara Kannada, Karnataka, India",
            "latitude": "14.0174924",
            "locType": "island",
            "closest_to": "murudeshwara"
        },
        "shimoga": {
            "blogLinks": [
                "https://en.wikipedia.org/wiki/Tourism_in_Karnataka"
            ],
            "longitude": "75.569737",
            "address": "Shivamogga, Shivamogga taluku, Shimoga district, Karnataka, 577200, India",
            "latitude": "13.9311723",
            "locType": "city",
            "closest_to": "murudeshwara"
        },
        "pigeon island": {
            "blogLinks": [
                "http://www.nivalink.com/destination/murudeshwar"
            ],
            "longitude": "74.3272086675849",
            "address": "Netrani, Uttara Kannada, Karnataka, India",
            "latitude": "14.0174924",
            "locType": "island",
            "closest_to": "murudeshwara"
        },
        "gotagodi village": {
            "blogLinks": [
                "https://en.wikipedia.org/wiki/Tourism_in_Karnataka"
            ],
            "longitude": "75.0452834",
            "address": "Gotagodi, Hanagal taluk, Haveri district, Karnataka, India",
            "latitude": "14.7634556",
            "locType": "village",
            "closest_to": "murudeshwara"
        },
        "amboli": {
            "blogLinks": [
                "https://www.quora.com/What-are-the-best-places-to-visit-on-a-3-day-trip-in-and-around-Karnataka"
            ],
            "longitude": "74.4340839",
            "address": "Amboli, Khanapura taluku, Belgaum district, Karnataka, India",
            "latitude": "15.6456171",
            "locType": "village",
            "closest_to": "dandeli"
        },
        "kumta": {
            "blogLinks": [
                "http://travel.india.com/gokarna/",
                "https://en.wikipedia.org/wiki/Tourism_in_Karnataka"
            ],
            "longitude": "74.4107617",
            "address": "Kumta, Kumata taluk, Uttara Kannada, Karnataka, India",
            "latitude": "14.4261647",
            "locType": "town",
            "closest_to": "murudeshwara"
        },
        "shirali": {
            "blogLinks": [
                "https://en.wikipedia.org/wiki/Tourism_in_Karnataka"
            ],
            "longitude": "74.5286591",
            "address": "Shirali, Bhatkala taluk, Uttara Kannada, Karnataka, 581354, India",
            "latitude": "14.0280925",
            "locType": "village",
            "closest_to": "murudeshwara"
        },
        "kali": {
            "blogLinks": [
                "https://www.quora.com/What-are-the-adventurous-places-in-South-India-to-visit-with-friends",
                "https://www.quora.com/What-are-the-best-places-to-visit-on-a-3-day-trip-in-and-around-Karnataka",
                "http://www.nivalink.com/destination/dandeli"
            ],
            "longitude": "74.5802901",
            "address": "Kali, Joida taluk, Uttara Kannada, Karnataka, India",
            "latitude": "15.0145378",
            "locType": "river",
            "closest_to": "murudeshwara"
        },
        "gadag district": {
            "blogLinks": [
                "https://en.wikipedia.org/wiki/Tourism_in_Karnataka"
            ],
            "longitude": "75.6807542794645",
            "address": "Gadag district, Karnataka, India",
            "latitude": "15.416337",
            "locType": "administrative",
            "closest_to": "dandeli"
        },
        "half-moon beach": {
            "blogLinks": [
                "http://travel.india.com/gokarna/"
            ],
            "longitude": "74.3310971256284",
            "address": "Half Moon Beach, Om beach road, Gokarna, Kumata taluk, Uttara Kannada, Karnataka, 581326, India",
            "latitude": "14.5179028",
            "locType": "beach",
            "closest_to": "murudeshwara"
        },
        "kodachadri": {
            "blogLinks": [
                "https://en.wikipedia.org/wiki/Tourism_in_Karnataka",
                "https://www.quora.com/What-are-the-best-places-to-visit-on-a-3-day-trip-in-and-around-Karnataka"
            ],
            "longitude": "74.8705395",
            "address": "Kodachadri, \u0c95\u0cc1\u0c82\u0ca6\u0cbe\u0caa\u0cc1\u0cb0 \u0ca4\u0cbe\u0cb2\u0cc2\u0c95\u0cc1, Udupi district, Karnataka, India",
            "latitude": "13.8565758",
            "locType": "peak",
            "closest_to": "murudeshwara"
        },
        "kudremukh national park": {
            "blogLinks": [
                "https://en.wikipedia.org/wiki/Tourism_in_Karnataka",
                "https://www.quora.com/What-are-the-best-places-to-visit-on-a-3-day-trip-in-and-around-Karnataka"
            ],
            "longitude": "75.1828713712862",
            "address": "Kudremukh National Park, SH66, Sringeri taluku, Chikkamagaluru district, Karnataka, India",
            "latitude": "13.25397485",
            "locType": "national_park",
            "closest_to": "murudeshwara"
        },
        "gokarna road": {
            "blogLinks": [
                "http://travel.india.com/gokarna/"
            ],
            "longitude": "74.358586",
            "address": "Gokarna Road, Torke, Kumata taluk, Uttara Kannada, Karnataka, 581344, India",
            "latitude": "14.5697148",
            "locType": "primary",
            "closest_to": "murudeshwara"
        },
        "belgaum railway station": {
            "blogLinks": [
                "http://www.nivalink.com/destination/dandeli"
            ],
            "longitude": "74.509065",
            "address": "Belgaum, Belgaum - Panaji Highway, Cantonment, Belagavi, Belagavi taluku, Belgaum district, Karnataka, 590001, India",
            "latitude": "15.8489677",
            "locType": "station",
            "closest_to": "dandeli"
        },
        "bhatkal taluk of uttara kannada": {
            "blogLinks": [
                "https://en.wikipedia.org/wiki/Murudeshwara"
            ],
            "longitude": "74.5485295",
            "address": "Bhatkal, Bhatkala taluk, Uttara Kannada, Karnataka, 581320, India",
            "latitude": "13.9952114",
            "locType": "town",
            "closest_to": "murudeshwara"
        },
        "haliyal": {
            "blogLinks": [
                "http://www.holidayiq.com/Dandeli-Sightseeing-345.html"
            ],
            "longitude": "74.7646665",
            "address": "Haliyal, Haliyala taluku, Uttara Kannada, Karnataka, 581329, India",
            "latitude": "15.3299733",
            "locType": "town",
            "closest_to": "dandeli"
        },
        "kuppali": {
            "blogLinks": [
                "https://www.quora.com/What-are-the-best-places-to-visit-on-a-3-day-trip-in-and-around-Karnataka"
            ],
            "longitude": "75.3158067",
            "address": "Kuppali Road, Kuppalli, Tirthahalli taluk, Shimoga district, Karnataka, India",
            "latitude": "13.5998255",
            "locType": "tertiary",
            "closest_to": "murudeshwara"
        },
        "bhatkal": {
            "blogLinks": [
                "https://www.tripadvisor.in/ShowUserReviews-g297627-d1793953-r194713610-Murudeshwar-Karnataka.html",
                "https://en.wikipedia.org/wiki/Tourism_in_Karnataka"
            ],
            "longitude": "74.5485295",
            "address": "Bhatkal, Bhatkala taluk, Uttara Kannada, Karnataka, 581320, India",
            "latitude": "13.9952114",
            "locType": "town",
            "closest_to": "murudeshwara"
        },
        "' river varahi": {
            "blogLinks": [
                "https://en.wikipedia.org/wiki/Tourism_in_Karnataka"
            ],
            "longitude": "74.9489117",
            "address": "Varahi, \u0c95\u0cc1\u0c82\u0ca6\u0cbe\u0caa\u0cc1\u0cb0 \u0ca4\u0cbe\u0cb2\u0cc2\u0c95\u0cc1, Udupi district, Karnataka, India",
            "latitude": "13.6582668",
            "locType": "river",
            "closest_to": "murudeshwara"
        },
        "shimoga district": {
            "blogLinks": [
                "https://en.wikipedia.org/wiki/Tourism_in_Karnataka"
            ],
            "longitude": "75.1312533993886",
            "address": "Shimoga district, Karnataka, India",
            "latitude": "14.0558284",
            "locType": "administrative",
            "closest_to": "murudeshwara"
        },
        "dandeli": {
            "blogLinks": [
                "http://www.nivalink.com/destination/dandeli",
                "https://en.wikipedia.org/wiki/Murudeshwara",
                "https://www.tripadvisor.in/ShowUserReviews-g297627-d1793953-r194713610-Murudeshwar-Karnataka.html",
                "http://www.holidayiq.com/Dandeli-Sightseeing-345.html",
                "https://www.makemytrip.com/routeplanner/how-to-reach-dandeli.html",
                "https://www.tripoto.com/travel-guide/murudeshwar/trips",
                "https://www.quora.com/Which-are-the-best-places-to-visit-in-Karnataka-in-winter",
                "http://dandelitrip.com/dandeli-tourist-places/"
            ],
            "longitude": "74.6236037",
            "address": "Dandeli, Haliyala taluku, Uttara Kannada, Karnataka, 581325, India",
            "latitude": "15.2490284",
            "locType": "town",
            "closest_to": "murudeshwara"
        },
        "om beach": {
            "blogLinks": [
                "http://travel.india.com/gokarna/"
            ],
            "longitude": "74.3254331800289",
            "address": "Om Beach, Om beach road, Gokarna, Kumata taluk, Uttara Kannada, Karnataka, 581326, India",
            "latitude": "14.5190376",
            "locType": "beach",
            "closest_to": "murudeshwara"
        },
        "malaprabha": {
            "blogLinks": [
                "https://en.wikipedia.org/wiki/Tourism_in_Karnataka"
            ],
            "longitude": "75.1982668",
            "address": "Malaprabha, Ramadurga taluku, Belgaum district, Karnataka, India",
            "latitude": "15.8914192",
            "locType": "river",
            "closest_to": "dandeli"
        },
        "sangameshwara": {
            "blogLinks": [
                "https://en.wikipedia.org/wiki/Tourism_in_Karnataka",
                "https://www.quora.com/What-are-the-best-places-to-visit-on-a-3-day-trip-in-and-around-Karnataka"
            ],
            "longitude": "74.87651",
            "address": "Sangameshwara, Kalaghatagi taluku, Dharwad district, Karnataka, India",
            "latitude": "15.184341",
            "locType": "village",
            "closest_to": "murudeshwara"
        },
        "sagara": {
            "blogLinks": [
                "https://en.wikipedia.org/wiki/Tourism_in_Karnataka"
            ],
            "longitude": "75.0262551",
            "address": "Sagara, Sagara taluk, Shimoga district, Karnataka, 577400, India",
            "latitude": "14.1666594",
            "locType": "town",
            "closest_to": "murudeshwara"
        },
        "paradise beach": {
            "blogLinks": [
                "http://travel.india.com/gokarna/"
            ],
            "longitude": "74.3375798576938",
            "address": "Paradise Beach, Om beach road, Gokarna, Kumata taluk, Uttara Kannada, Karnataka, 581326, India",
            "latitude": "14.5181133",
            "locType": "beach",
            "closest_to": "murudeshwara"
        },
        "gudavi": {
            "blogLinks": [
                "https://en.wikipedia.org/wiki/Tourism_in_Karnataka"
            ],
            "longitude": "75.009649",
            "address": "Gudavi, Soraba taluk, Shimoga district, Karnataka, India",
            "latitude": "14.4400296",
            "locType": "village",
            "closest_to": "murudeshwara"
        },
        "manipal": {
            "blogLinks": [
                "https://en.wikipedia.org/wiki/Tourism_in_Karnataka"
            ],
            "longitude": "74.7870308",
            "address": "Manipal, Udupi taluku, Udupi district, Karnataka, India",
            "latitude": "13.3519723",
            "locType": "town",
            "closest_to": "murudeshwara"
        },
        "malpe": {
            "blogLinks": [
                "https://en.wikipedia.org/wiki/Tourism_in_Karnataka",
                "https://www.quora.com/What-are-the-best-places-to-visit-on-a-3-day-trip-in-and-around-Karnataka",
                "https://www.quora.com/What-are-the-adventurous-places-in-South-India-to-visit-with-friends"
            ],
            "longitude": "74.7036914",
            "address": "Malpe, Udupi taluku, Udupi district, Karnataka, India",
            "latitude": "13.3507423",
            "locType": "village",
            "closest_to": "murudeshwara"
        },
        "gokak": {
            "blogLinks": [
                "https://en.wikipedia.org/wiki/Tourism_in_Karnataka",
                "https://www.quora.com/What-are-the-best-places-to-visit-on-a-3-day-trip-in-and-around-Karnataka"
            ],
            "longitude": "74.8224338",
            "address": "Gokak, Gokak taluku, Belgaum district, Karnataka, 591307, India",
            "latitude": "16.1693033",
            "locType": "town",
            "closest_to": "dandeli"
        },
        "varur": {
            "blogLinks": [
                "https://en.wikipedia.org/wiki/Tourism_in_Karnataka"
            ],
            "longitude": "75.1387568",
            "address": "Varur, Hubballi taluku, Dharwad district, Karnataka, India",
            "latitude": "15.2077105",
            "locType": "village",
            "closest_to": "dandeli"
        },
        "gadag": {
            "blogLinks": [
                "https://en.wikipedia.org/wiki/Tourism_in_Karnataka"
            ],
            "longitude": "75.6300786",
            "address": "Gadag, Gadag taluk, Gadag district, Karnataka, 582101, India",
            "latitude": "15.4263647",
            "locType": "town",
            "closest_to": "dandeli"
        },
        "gokul garden": {
            "blogLinks": [
                "https://www.quora.com/What-are-the-best-places-to-visit-on-a-3-day-trip-in-and-around-Karnataka"
            ],
            "longitude": "75.1141861403246",
            "address": "Gokul Garden, Gokul Road / Airport Road, Renuka Nagar, Padmaraj Nagar, Gokul, Hubballi taluku, Dharwad district, Karnataka, 580030, India",
            "latitude": "15.35009745",
            "locType": "recreation_ground",
            "closest_to": "dandeli"
        },
        "unchalli falls": {
            "blogLinks": [
                "https://en.wikipedia.org/wiki/Tourism_in_Karnataka"
            ],
            "longitude": "74.7477592",
            "address": "\u0c89\u0c82\u0c9a\u0cb3\u0ccd\u0cb3\u0cbf \u0c9c\u0cb2\u0caa\u0cbe\u0ca4, Siddapura taluk, Uttara Kannada, Karnataka, India",
            "latitude": "14.4097755",
            "locType": "waterfall",
            "closest_to": "murudeshwara"
        },
        "sagara taluk": {
            "blogLinks": [
                "https://en.wikipedia.org/wiki/Tourism_in_Karnataka"
            ],
            "longitude": "74.9610874491152",
            "address": "Sagara taluk, Shimoga district, Karnataka, India",
            "latitude": "14.09993045",
            "locType": "administrative",
            "closest_to": "murudeshwara"
        },
        "mookambika": {
            "blogLinks": [
                "https://en.wikipedia.org/wiki/Tourism_in_Karnataka",
                "https://www.quora.com/What-are-the-best-places-to-visit-on-a-3-day-trip-in-and-around-Karnataka"
            ],
            "longitude": "74.8145296",
            "address": "Mukambika Devasthana, NH766C;SH26, Halkal, \u0c95\u0cc1\u0c82\u0ca6\u0cbe\u0caa\u0cc1\u0cb0 \u0ca4\u0cbe\u0cb2\u0cc2\u0c95\u0cc1, Udupi district, Karnataka, 576220, India",
            "latitude": "13.8638043",
            "locType": "place_of_worship",
            "closest_to": "murudeshwara"
        },
        "gokarna": {
            "blogLinks": [
                "http://www.team-bhp.com/forum/route-travel-queries/99598-bangalore-murudeshwar-gokarna-route.html",
                "http://travel.india.com/gokarna/",
                "https://en.wikipedia.org/wiki/Tourism_in_Karnataka"
            ],
            "longitude": "74.3184418",
            "address": "Gokarna, Kumata taluk, Uttara Kannada, Karnataka, 581326, India",
            "latitude": "14.5439629",
            "locType": "town",
            "closest_to": "murudeshwara"
        },
        "sirsi": {
            "blogLinks": [
                "https://www.quora.com/What-are-the-best-places-to-visit-on-a-3-day-trip-in-and-around-Karnataka"
            ],
            "longitude": "74.8388611",
            "address": "Sirsi, Shirasi taluk, Uttara Kannada, Karnataka, 581400, India",
            "latitude": "14.6192362",
            "locType": "town",
            "closest_to": "murudeshwara"
        },
        "sri mallikarjuna temple": {
            "blogLinks": [
                "http://www.holidayiq.com/Dandeli-Sightseeing-345.html"
            ],
            "longitude": "75.2508225556439",
            "address": "Sri Mallikarjuna Temple, Parking, Sringeri, Sringeri taluku, Chikkamagaluru district, Karnataka, 577592, India",
            "latitude": "13.4188371",
            "locType": "place_of_worship",
            "closest_to": "murudeshwara"
        },
        "markandeya river": {
            "blogLinks": [
                "https://www.quora.com/What-are-the-best-places-to-visit-on-a-3-day-trip-in-and-around-Karnataka"
            ],
            "longitude": "74.5774895",
            "address": "Markandeya, Belagavi taluku, Belgaum district, Karnataka, India",
            "latitude": "15.9707453",
            "locType": "river",
            "closest_to": "dandeli"
        },
        "gokarna beach": {
            "blogLinks": [
                "http://travel.india.com/gokarna/"
            ],
            "longitude": "74.3109489488919",
            "address": "Gokarna Beach, Gokarna Road, Ganji Gadde, Kumata taluk, Uttara Kannada, Karnataka, 581326, India",
            "latitude": "14.5516537",
            "locType": "beach",
            "closest_to": "murudeshwara"
        },
        "madhukeshwara": {
            "blogLinks": [
                "https://www.quora.com/What-are-the-best-places-to-visit-on-a-3-day-trip-in-and-around-Karnataka"
            ],
            "longitude": "75.1480027",
            "address": "Madhukeshwara Temple, Kattinakere Road, Kattinakere Bus Stand, Soraba taluk, Shimoga district, Karnataka, India",
            "latitude": "14.3058996",
            "locType": "place_of_worship",
            "closest_to": "murudeshwara"
        },
        "dandeli wildlife sanctuary": {
            "blogLinks": [
                "http://www.holidayiq.com/Dandeli-Sightseeing-345.html"
            ],
            "longitude": "74.3665654142884",
            "address": "Dandeli Wildlife Sanctuary, SH146, Terali, Joida taluk, Uttara Kannada, Karnataka, India",
            "latitude": "15.1654776",
            "locType": "national_park",
            "closest_to": "murudeshwara"
        },
        "karkala": {
            "blogLinks": [
                "https://en.wikipedia.org/wiki/Tourism_in_Karnataka",
                "https://www.quora.com/What-are-the-best-places-to-visit-on-a-3-day-trip-in-and-around-Karnataka"
            ],
            "longitude": "74.9959586",
            "address": "Karkala, Karkala taluk, Udupi district, Karnataka, 574104, India",
            "latitude": "13.2112826",
            "locType": "town",
            "closest_to": "murudeshwara"
        },
        "marikamba temple": {
            "blogLinks": [
                "https://www.quora.com/What-are-the-best-places-to-visit-on-a-3-day-trip-in-and-around-Karnataka"
            ],
            "longitude": "74.8103631279317",
            "address": "Marikamba Temple, NH766C;SH26, Halkal, \u0c95\u0cc1\u0c82\u0ca6\u0cbe\u0caa\u0cc1\u0cb0 \u0ca4\u0cbe\u0cb2\u0cc2\u0c95\u0cc1, Udupi district, Karnataka, 576220, India",
            "latitude": "13.8626958",
            "locType": "place_of_worship",
            "closest_to": "murudeshwara"
        },
        "kundapura": {
            "blogLinks": [
                "http://www.team-bhp.com/forum/route-travel-queries/99598-bangalore-murudeshwar-gokarna-route.html",
                "http://www.nivalink.com/destination/murudeshwar",
                "http://www.nivalink.com/destination/dandeli"
            ],
            "longitude": "74.6915722",
            "address": "Kundapura, \u0c95\u0cc1\u0c82\u0ca6\u0cbe\u0caa\u0cc1\u0cb0 \u0ca4\u0cbe\u0cb2\u0cc2\u0c95\u0cc1, Udupi district, Karnataka, 576200, India",
            "latitude": "13.6250993",
            "locType": "town",
            "closest_to": "murudeshwara"
        },
        "sharavati": {
            "blogLinks": [
                "https://en.wikipedia.org/wiki/Tourism_in_Karnataka",
                "https://www.quora.com/What-are-the-best-places-to-visit-on-a-3-day-trip-in-and-around-Karnataka"
            ],
            "longitude": "74.7647294",
            "address": "Sharavati, Sagara taluk, Shimoga district, Karnataka, India",
            "latitude": "14.2360979",
            "locType": "river",
            "closest_to": "murudeshwara"
        },
        "uttara kannada": {
            "blogLinks": [
                "https://en.wikipedia.org/wiki/Tourism_in_Karnataka",
                "https://www.quora.com/What-are-the-best-places-to-visit-on-a-3-day-trip-in-and-around-Karnataka",
                "https://www.quora.com/What-are-the-adventurous-places-in-South-India-to-visit-with-friends"
            ],
            "longitude": "74.4729163045979",
            "address": "Uttara Kannada, Karnataka, India",
            "latitude": "14.6726379",
            "locType": "administrative",
            "closest_to": "murudeshwara"
        },
        "chikmagalur district": {
            "blogLinks": [
                "https://en.wikipedia.org/wiki/Tourism_in_Karnataka"
            ],
            "longitude": "75.5",
            "address": "Chikmagalur, Chikkamagaluru district, Karnataka, India",
            "latitude": "13.5",
            "locType": "county",
            "closest_to": "murudeshwara"
        },
        "netrani": {
            "blogLinks": [
                "https://www.quora.com/What-are-the-adventurous-places-in-South-India-to-visit-with-friends"
            ],
            "longitude": "74.3272086675849",
            "address": "Netrani, Uttara Kannada, Karnataka, India",
            "latitude": "14.0174924",
            "locType": "island",
            "closest_to": "murudeshwara"
        },
        "anshi national park": {
            "blogLinks": [
                "http://travel.india.com/gokarna/",
                "http://www.holidayiq.com/Dandeli-Sightseeing-345.html",
                "https://en.wikipedia.org/wiki/Tourism_in_Karnataka"
            ],
            "longitude": "74.3934408094182",
            "address": "Anshi National Park, SH46, Bidoli, Joida taluk, Uttara Kannada, Karnataka, India",
            "latitude": "14.9994424",
            "locType": "national_park",
            "closest_to": "murudeshwara"
        },
        "nethrani island": {
            "blogLinks": [
                "https://en.wikipedia.org/wiki/Tourism_in_Karnataka"
            ],
            "longitude": "74.3272086675849",
            "address": "Netrani, Uttara Kannada, Karnataka, India",
            "latitude": "14.0174924",
            "locType": "island",
            "closest_to": "murudeshwara"
        },
        "karwar": {
            "blogLinks": [
                "https://en.wikipedia.org/wiki/Tourism_in_Karnataka"
            ],
            "longitude": "74.1319229",
            "address": "Karwar, Karavara taluk, Uttara Kannada, Karnataka, 581300, India",
            "latitude": "14.8120931",
            "locType": "town",
            "closest_to": "murudeshwara"
        },
        "belgaum fort": {
            "blogLinks": [
                "https://en.wikipedia.org/wiki/Tourism_in_Karnataka"
            ],
            "longitude": "74.5255651",
            "address": "Belgaum Fort, Belagavi, Belagavi taluku, Belgaum district, Karnataka, 590001, India",
            "latitude": "15.8581696",
            "locType": "locality",
            "closest_to": "dandeli"
        },
        "bankpur fort": {
            "blogLinks": [
                "https://en.wikipedia.org/wiki/Tourism_in_Karnataka"
            ],
            "longitude": "75.2512090188504",
            "address": "Bankapura Fort, SH137, Guddada Channapura, Shiggaon taluk, Haveri district, Karnataka, 581202, India",
            "latitude": "14.9231815",
            "locType": "archaeological_site",
            "closest_to": "murudeshwara"
        },
        "mastikatte": {
            "blogLinks": [
                "https://en.wikipedia.org/wiki/Tourism_in_Karnataka"
            ],
            "longitude": "74.4604101",
            "address": "Mastikatte, Ankola taluk, Uttara Kannada, Karnataka, India",
            "latitude": "14.6857168",
            "locType": "village",
            "closest_to": "murudeshwara"
        },
        "shiggaon taluk": {
            "blogLinks": [
                "https://en.wikipedia.org/wiki/Tourism_in_Karnataka"
            ],
            "longitude": "75.1756764988777",
            "address": "Shiggaon taluk, Haveri district, Karnataka, India",
            "latitude": "15.0138079",
            "locType": "administrative",
            "closest_to": "murudeshwara"
        },
        "mirjan fort": {
            "blogLinks": [
                "https://www.quora.com/What-are-the-best-places-to-visit-on-a-3-day-trip-in-and-around-Karnataka"
            ],
            "longitude": "74.4174838158512",
            "address": "Mirjana Fort, Edapally- Panvel Highway, Kimani, Kumata taluk, Uttara Kannada, Karnataka, 581344, India",
            "latitude": "14.48905715",
            "locType": "attraction",
            "closest_to": "murudeshwara"
        },
        "mundgod": {
            "blogLinks": [
                "http://www.nivalink.com/destination/dandeli"
            ],
            "longitude": "75.0371451",
            "address": "Mundgod, Mundagoda taluk, Uttara Kannada, Karnataka, 581349, India",
            "latitude": "14.9705105",
            "locType": "village",
            "closest_to": "murudeshwara"
        },
        "' island": {
            "blogLinks": [
                "http://www.nivalink.com/destination/murudeshwar"
            ],
            "longitude": "74.8834637",
            "address": "Isa, Shirasi taluk, Uttara Kannada, Karnataka, India",
            "latitude": "14.6799543",
            "locType": "village",
            "closest_to": "murudeshwara"
        },
        "netrani island of uttara kannada": {
            "blogLinks": [
                "https://en.wikipedia.org/wiki/Tourism_in_Karnataka"
            ],
            "longitude": "74.3272086675849",
            "address": "Netrani, Uttara Kannada, Karnataka, India",
            "latitude": "14.0174924",
            "locType": "island",
            "closest_to": "murudeshwara"
        },
        "kaneri": {
            "blogLinks": [
                "http://dandelitrip.com/dandeli-tourist-places/",
                "http://www.nivalink.com/destination/dandeli"
            ],
            "longitude": "74.4834864",
            "address": "Kaneri, Joida taluk, Uttara Kannada, Karnataka, India",
            "latitude": "15.0680686",
            "locType": "river",
            "closest_to": "murudeshwara"
        },
        "uttara kannada district": {
            "blogLinks": [
                "http://www.holidayiq.com/Dandeli-Sightseeing-345.html"
            ],
            "longitude": "74.583333",
            "address": "Uttara Kannada, Karnataka, India",
            "latitude": "14.883333",
            "locType": "county",
            "closest_to": "murudeshwara"
        },
        "naganur": {
            "blogLinks": [
                "https://en.wikipedia.org/wiki/Tourism_in_Karnataka"
            ],
            "longitude": "74.4824431",
            "address": "Naganur, Hukkeri taluku, Belgaum district, Karnataka, India",
            "latitude": "16.073351",
            "locType": "village",
            "closest_to": "dandeli"
        },
        "devbagh beach": {
            "blogLinks": [
                "http://travel.india.com/gokarna/"
            ],
            "longitude": "74.1079961668745",
            "address": "Devbagh Beach, NH66, Majali, Karavara taluk, Uttara Kannada, Karnataka, 581352, India",
            "latitude": "14.8682714",
            "locType": "beach",
            "closest_to": "murudeshwara"
        },
        "kudle beach": {
            "blogLinks": [
                "http://travel.india.com/gokarna/"
            ],
            "longitude": "74.3156783937192",
            "address": "Kudle Beach, Om beach road, Gokarna, Kumata taluk, Uttara Kannada, Karnataka, 581326, India",
            "latitude": "14.5281015",
            "locType": "beach",
            "closest_to": "murudeshwara"
        },
        "lakshmeshwar": {
            "blogLinks": [
                "https://en.wikipedia.org/wiki/Tourism_in_Karnataka"
            ],
            "longitude": "75.4741167",
            "address": "Lakshmeshwar KSRTC Bus stand, SH6, Bastibana, Lakshmeshvara, Shirahatti taluku, Gadag district, Karnataka, 582116, India",
            "latitude": "15.12373",
            "locType": "bus_station",
            "closest_to": "dandeli"
        },
        "lushington falls": {
            "blogLinks": [
                "https://en.wikipedia.org/wiki/Tourism_in_Karnataka"
            ],
            "longitude": "74.7477592",
            "address": "\u0c89\u0c82\u0c9a\u0cb3\u0ccd\u0cb3\u0cbf \u0c9c\u0cb2\u0caa\u0cbe\u0ca4, Siddapura taluk, Uttara Kannada, Karnataka, India",
            "latitude": "14.4097755",
            "locType": "waterfall",
            "closest_to": "murudeshwara"
        },
        "arabhavi": {
            "blogLinks": [
                "https://en.wikipedia.org/wiki/Tourism_in_Karnataka"
            ],
            "longitude": "74.8213227",
            "address": "Arabhavi, Gokak taluku, Belgaum district, Karnataka, India",
            "latitude": "16.2193552",
            "locType": "village",
            "closest_to": "dandeli"
        },
        "banavasi": {
            "blogLinks": [
                "https://en.wikipedia.org/wiki/Tourism_in_Karnataka",
                "https://www.quora.com/What-are-the-best-places-to-visit-on-a-3-day-trip-in-and-around-Karnataka"
            ],
            "longitude": "75.0129845",
            "address": "Banavasi, Shirasi taluk, Uttara Kannada, Karnataka, India",
            "latitude": "14.5389738",
            "locType": "town",
            "closest_to": "murudeshwara"
        },
        "panaji": {
            "blogLinks": [
                "https://www.tripadvisor.in/ShowUserReviews-g297627-d1793953-r194713610-Murudeshwar-Karnataka.html"
            ],
            "longitude": "74.4876784",
            "address": "Belgaum - Panaji Highway, Londa, Khanapura taluku, Belgaum district, Karnataka, India",
            "latitude": "15.4422981",
            "locType": "trunk",
            "closest_to": "dandeli"
        },
        "river kali": {
            "blogLinks": [
                "http://www.holidayiq.com/Dandeli-Sightseeing-345.html",
                "http://www.nivalink.com/destination/dandeli"
            ],
            "longitude": "74.5802901",
            "address": "Kali, Joida taluk, Uttara Kannada, Karnataka, India",
            "latitude": "15.0145378",
            "locType": "river",
            "closest_to": "murudeshwara"
        },
        "syntheri": {
            "blogLinks": [
                "https://www.tripadvisor.in/ShowUserReviews-g297627-d1793953-r194713610-Murudeshwar-Karnataka.html"
            ],
            "longitude": "74.5242505",
            "address": "Syntheri Rock, SH46, Kaneri, Joida taluk, Uttara Kannada, Karnataka, India",
            "latitude": "15.0846142",
            "locType": "attraction",
            "closest_to": "murudeshwara"
        },
        "tunga": {
            "blogLinks": [
                "https://www.quora.com/What-are-the-best-places-to-visit-on-a-3-day-trip-in-and-around-Karnataka"
            ],
            "longitude": "75.3221835",
            "address": "Tunga, Tirthahalli taluk, Shimoga district, Karnataka, India",
            "latitude": "13.6632221",
            "locType": "river",
            "closest_to": "murudeshwara"
        },
        "haveri district": {
            "blogLinks": [
                "https://en.wikipedia.org/wiki/Tourism_in_Karnataka"
            ],
            "longitude": "75.3845674304742",
            "address": "Haveri district, Karnataka, India",
            "latitude": "14.714635",
            "locType": "administrative",
            "closest_to": "murudeshwara"
        },
        "kali river": {
            "blogLinks": [
                "https://www.quora.com/What-are-the-best-places-to-visit-on-a-3-day-trip-in-and-around-Karnataka"
            ],
            "longitude": "74.5802901",
            "address": "Kali, Joida taluk, Uttara Kannada, Karnataka, India",
            "latitude": "15.0145378",
            "locType": "river",
            "closest_to": "murudeshwara"
        },
        "river kaneri": {
            "blogLinks": [
                "http://www.holidayiq.com/Dandeli-Sightseeing-345.html"
            ],
            "longitude": "74.4834864",
            "address": "Kaneri, Joida taluk, Uttara Kannada, Karnataka, India",
            "latitude": "15.0680686",
            "locType": "river",
            "closest_to": "murudeshwara"
        },
        "syntheri rock": {
            "blogLinks": [
                "http://www.holidayiq.com/Dandeli-Sightseeing-345.html",
                "http://dandelitrip.com/dandeli-tourist-places/"
            ],
            "longitude": "74.5242505",
            "address": "Syntheri Rock, SH46, Kaneri, Joida taluk, Uttara Kannada, Karnataka, India",
            "latitude": "15.0846142",
            "locType": "attraction",
            "closest_to": "murudeshwara"
        },
        "tagore beach": {
            "blogLinks": [
                "https://www.quora.com/What-are-the-best-places-to-visit-on-a-3-day-trip-in-and-around-Karnataka"
            ],
            "longitude": "74.126114099183",
            "address": "Rabindranath Tagore Beach, NH66, Kodibag, Karwar, Karavara taluk, Uttara Kannada, Karnataka, 581300, India",
            "latitude": "14.81741155",
            "locType": "beach",
            "closest_to": "murudeshwara"
        },
        "hubli": {
            "blogLinks": [
                "http://www.nivalink.com/destination/dandeli",
                "http://travel.india.com/gokarna/",
                "http://www.nivalink.com/destination/murudeshwar",
                "https://www.tripadvisor.in/ShowUserReviews-g297627-d1793953-r194713610-Murudeshwar-Karnataka.html",
                "https://www.tripoto.com/travel-guide/murudeshwar/trips",
                "https://www.quora.com/Which-are-the-best-places-to-visit-in-Karnataka-in-winter",
                "https://en.wikipedia.org/wiki/Tourism_in_Karnataka"
            ],
            "longitude": "75.1379848",
            "address": "Hubballi - \u0cb9\u0cc1\u0cac\u0ccd\u0cac\u0cb3\u0ccd\u0cb3\u0cbf, Hubballi taluku, Dharwad district, Karnataka, 580020, India",
            "latitude": "15.3518378",
            "locType": "city",
            "closest_to": "dandeli"
        },
        "ankola": {
            "blogLinks": [
                "https://www.tripadvisor.in/ShowUserReviews-g297627-d1793953-r194713610-Murudeshwar-Karnataka.html"
            ],
            "longitude": "74.3047846",
            "address": "Ankola, Ankola taluk, Uttara Kannada, Karnataka, 581314, India",
            "latitude": "14.6599889",
            "locType": "town",
            "closest_to": "murudeshwara"
        },
        "dharwad": {
            "blogLinks": [
                "https://www.tripadvisor.in/ShowUserReviews-g297627-d1793953-r194713610-Murudeshwar-Karnataka.html",
                "https://en.wikipedia.org/wiki/Tourism_in_Karnataka"
            ],
            "longitude": "75.0066516",
            "address": "Dharwad, Dharawada taluku, Dharwad district, Karnataka, 580001, India",
            "latitude": "15.4540505",
            "locType": "city",
            "closest_to": "dandeli"
        },
        "anshi": {
            "blogLinks": [
                "http://www.nivalink.com/destination/dandeli"
            ],
            "longitude": "74.3708809",
            "address": "Anshi, Joida taluk, Uttara Kannada, Karnataka, India",
            "latitude": "14.9925559",
            "locType": "village",
            "closest_to": "murudeshwara"
        },
        "bankapura": {
            "blogLinks": [
                "https://en.wikipedia.org/wiki/Tourism_in_Karnataka"
            ],
            "longitude": "75.2639298",
            "address": "Bankapura, Shiggaon taluk, Haveri district, Karnataka, 581202, India",
            "latitude": "14.9217443",
            "locType": "town",
            "closest_to": "murudeshwara"
        },
        "vijayanagara": {
            "blogLinks": [
                "https://en.wikipedia.org/wiki/Tourism_in_Karnataka"
            ],
            "longitude": "74.7380455",
            "address": "Vijayanagara, Chikodi taluk, Belgaum district, Karnataka, India",
            "latitude": "16.3270486",
            "locType": "village",
            "closest_to": "dandeli"
        },
        "ganeshgudi": {
            "blogLinks": [
                "https://www.quora.com/What-are-the-best-places-to-visit-on-a-3-day-trip-in-and-around-Karnataka",
                "http://www.nivalink.com/destination/dandeli"
            ],
            "longitude": "74.5335693",
            "address": "Ganeshagudi, Joida taluk, Uttara Kannada, Karnataka, India",
            "latitude": "15.2815822",
            "locType": "village",
            "closest_to": "dandeli"
        },
        "yellapur": {
            "blogLinks": [
                "https://www.quora.com/What-are-the-best-places-to-visit-on-a-3-day-trip-in-and-around-Karnataka"
            ],
            "longitude": "74.7061458",
            "address": "Yellapura, Yallapura taluk, Uttara Kannada, Karnataka, 581359, India",
            "latitude": "14.9622518",
            "locType": "town",
            "closest_to": "murudeshwara"
        },
        "varada": {
            "blogLinks": [
                "https://en.wikipedia.org/wiki/Tourism_in_Karnataka"
            ],
            "longitude": "75.47206",
            "address": "Varada, Savanura taluk, Haveri district, Karnataka, India",
            "latitude": "14.8717792",
            "locType": "river",
            "closest_to": "dandeli"
        },
        "sahyadri range": {
            "blogLinks": [
                "http://www.holidayiq.com/Dandeli-Sightseeing-345.html"
            ],
            "longitude": "75.2317987800043",
            "address": "Sahyadri Polytechnic, SH1, Seebinakere, Sankadahole, Tirthahalli taluk, Shimoga district, Karnataka, 577432, India",
            "latitude": "13.6983273",
            "locType": "school",
            "closest_to": "murudeshwara"
        },
        "belavadi": {
            "blogLinks": [
                "https://en.wikipedia.org/wiki/Tourism_in_Karnataka"
            ],
            "longitude": "75.3760773",
            "address": "Belavadi, Koppa taluk, Chikkamagaluru district, Karnataka, India",
            "latitude": "13.5284899",
            "locType": "village",
            "closest_to": "murudeshwara"
        },
        "ganga beach": {
            "blogLinks": [
                "http://travel.india.com/gokarna/"
            ],
            "longitude": "74.3148093",
            "address": "Ganga Cafe, Om beach road, Gokarna, Kumata taluk, Uttara Kannada, Karnataka, 581326, India",
            "latitude": "14.5316743",
            "locType": "hotel",
            "closest_to": "murudeshwara"
        },
        "udupi": {
            "blogLinks": [
                "https://en.wikipedia.org/wiki/Tourism_in_Karnataka"
            ],
            "longitude": "74.7473232",
            "address": "Udupi, Udupi taluku, Udupi district, Karnataka, 576101, India",
            "latitude": "13.3419169",
            "locType": "city",
            "closest_to": "murudeshwara"
        },
        "shringeri": {
            "blogLinks": [
                "http://www.team-bhp.com/forum/route-travel-queries/99598-bangalore-murudeshwar-gokarna-route.html"
            ],
            "longitude": "75.0621168",
            "address": "Shringeri, Hanagal taluk, Haveri district, Karnataka, India",
            "latitude": "14.7221214",
            "locType": "village",
            "closest_to": "murudeshwara"
        },
        "ghataprabha river": {
            "blogLinks": [
                "https://en.wikipedia.org/wiki/Tourism_in_Karnataka"
            ],
            "longitude": "74.9165235",
            "address": "Ghataprabha, Gokak taluku, Belgaum district, Karnataka, India",
            "latitude": "16.2124344",
            "locType": "river",
            "closest_to": "dandeli"
        },
        "belgaum": {
            "blogLinks": [
                "https://en.wikipedia.org/wiki/Tourism_in_Karnataka",
                "https://www.quora.com/What-are-the-best-places-to-visit-on-a-3-day-trip-in-and-around-Karnataka"
            ],
            "longitude": "74.75",
            "address": "Belgaum, Belgaum district, Karnataka, India",
            "latitude": "16.333333",
            "locType": "county",
            "closest_to": "dandeli"
        }
    }
}