{
    "dandeli": {
        "place_id": "5820025",
        "osm_id": "612546262",
        "icon": "https://nominatim.openstreetmap.org/images/mapicons/poi_place_town.p.20.png",
        "osm_type": "node",
        "licence": "Data \u00a9 OpenStreetMap contributors, ODbL 1.0. http://www.openstreetmap.org/copyright",
        "display_name": "Dandeli, Haliyala taluku, Uttara Kannada, Karnataka, 581325, India",
        "type": "town",
        "lon": "74.6236037",
        "boundingbox": [
            "15.2090284",
            "15.2890284",
            "74.5836037",
            "74.6636037"
        ],
        "importance": 0.5,
        "lat": "15.2490284",
        "class": "place"
    },
    "mangalore": {
        "place_id": "637002",
        "osm_id": "245612641",
        "icon": "https://nominatim.openstreetmap.org/images/mapicons/poi_place_city.p.20.png",
        "osm_type": "node",
        "licence": "Data \u00a9 OpenStreetMap contributors, ODbL 1.0. http://www.openstreetmap.org/copyright",
        "display_name": "Mangaluru, Mangaluru taluk, Dakshina Kannada, Karnataka, 575001, India",
        "type": "city",
        "lon": "74.8430082",
        "boundingbox": [
            "12.7098101",
            "13.0298101",
            "74.6830082",
            "75.0030082"
        ],
        "importance": 0.45,
        "lat": "12.8698101",
        "class": "place"
    },
    "mentions": {
        "kadri manjunatha temple": {
            "closest_to": "mangalore",
            "address": "Kadri Manjunatha Temple, Manjunatha Colony Road, Bikarnakatte, Nanthoor, Mangaluru, Mangaluru taluk, Dakshina Kannada, Karnataka, 575001, India",
            "longitude": "74.85560021854",
            "latitude": "12.88588535",
            "blogLinks": [
                "https://www.thrillophilia.com/places-to-visit-near-mangalore"
            ],
            "locType": "place_of_worship"
        },
        "belvai": {
            "closest_to": "mangalore",
            "address": "Belvai, Mangaluru taluk, Dakshina Kannada, Karnataka, India",
            "longitude": "74.9961914",
            "latitude": "13.1281264",
            "blogLinks": [
                "https://www.thrillophilia.com/places-to-visit-near-mangalore"
            ],
            "locType": "village"
        },
        "mundgod": {
            "closest_to": "mangalore",
            "address": "Mundgod, Mundagoda taluk, Uttara Kannada, Karnataka, 581349, India",
            "longitude": "75.0371451",
            "latitude": "14.9705105",
            "blogLinks": [
                "http://www.nivalink.com/destination/dandeli"
            ],
            "locType": "village"
        },
        "malpe beach": {
            "closest_to": "mangalore",
            "address": "Malpe Beach, Malpe Road, Adi Udupi, Malpe, Udupi taluku, Udupi district, Karnataka, 576101, India",
            "longitude": "74.6977767",
            "latitude": "13.3610748",
            "blogLinks": [
                "https://www.thrillophilia.com/places-to-visit-near-mangalore"
            ],
            "locType": "marina"
        },
        "mangaladevi": {
            "closest_to": "mangalore",
            "address": "Shri Mangaladevi Temple, Mangala Devi Temple Road, Mulihitlu, Bolar, Mangaluru, Mangaluru taluk, Dakshina Kannada, Karnataka, 575001, India",
            "longitude": "74.8452646984836",
            "latitude": "12.84923455",
            "blogLinks": [
                "https://www.thrillophilia.com/places-to-visit-near-mangalore"
            ],
            "locType": "place_of_worship"
        },
        "mangalore city": {
            "closest_to": "mangalore",
            "address": "Mangaluru, Mangaluru taluk, Dakshina Kannada, Karnataka, 575001, India",
            "longitude": "74.8430082",
            "latitude": "12.8698101",
            "blogLinks": [
                "https://www.thrillophilia.com/places-to-visit-near-mangalore"
            ],
            "locType": "city"
        },
        "belgaum": {
            "closest_to": "dandeli",
            "address": "Belgaum, Belgaum district, Karnataka, India",
            "longitude": "74.75",
            "latitude": "16.333333",
            "blogLinks": [
                "https://www.tripadvisor.in/ShowTopic-g293860-i511-k7430452-Weekend_getaways_between_Mumbai_and_Bangalore-India.html"
            ],
            "locType": "county"
        },
        "chikmagalur": {
            "closest_to": "mangalore",
            "address": "Chikmagalur, Chikkamagaluru district, Karnataka, India",
            "longitude": "75.5",
            "latitude": "13.5",
            "blogLinks": [
                "https://www.thrillophilia.com/places-to-visit-near-mangalore"
            ],
            "locType": "county"
        },
        "silent valley": {
            "closest_to": "mangalore",
            "address": "Silent Shores Resort, Krishnaraja Sagara Road, Kurgalli, Bastipura, Srirangapattana taluk, Mandya district, Karnataka, 570027, India",
            "longitude": "76.5819054",
            "latitude": "12.3459371",
            "blogLinks": [
                "http://travel.india.com/explore/wildlife-sanctuaries-in-karnataka/"
            ],
            "locType": "hotel"
        },
        "ananthapadmanabha temple": {
            "closest_to": "mangalore",
            "address": "Kudupu Ananthapadmanabha Temple, Solapur-Mangalore Highway, Shakthinagar, Kulashekara, Kudupu, Mangaluru taluk, Dakshina Kannada, Karnataka, 575007, India",
            "longitude": "74.8937899082456",
            "latitude": "12.9039019",
            "blogLinks": [
                "https://www.thrillophilia.com/places-to-visit-near-mangalore"
            ],
            "locType": "place_of_worship"
        },
        "dandeli karnataka": {
            "closest_to": "dandeli",
            "address": "Dandeli, Haliyala taluku, Uttara Kannada, Karnataka, 581325, India",
            "longitude": "74.6236037",
            "latitude": "15.2490284",
            "blogLinks": [
                "http://www.inditales.com/dandeli-river-kali/"
            ],
            "locType": "town"
        },
        "anshi national park": {
            "closest_to": "mangalore",
            "address": "Anshi National Park, SH46, Bidoli, Joida taluk, Uttara Kannada, Karnataka, India",
            "longitude": "74.3934408094182",
            "latitude": "14.9994424",
            "blogLinks": [
                "http://www.holidayiq.com/Dandeli-Sightseeing-345.html",
                "http://travel.india.com/explore/wildlife-sanctuaries-in-karnataka/",
                "http://www.beontheroad.com/2014/02/top-13-things-to-do-in-dandeli-karnataka.html"
            ],
            "locType": "national_park"
        },
        "river kaneri": {
            "closest_to": "mangalore",
            "address": "Kaneri, Joida taluk, Uttara Kannada, Karnataka, India",
            "longitude": "74.4834864",
            "latitude": "15.0680686",
            "blogLinks": [
                "http://www.holidayiq.com/Dandeli-Sightseeing-345.html"
            ],
            "locType": "river"
        },
        "kali": {
            "closest_to": "mangalore",
            "address": "Kali, Joida taluk, Uttara Kannada, Karnataka, India",
            "longitude": "74.5802901",
            "latitude": "15.0145378",
            "blogLinks": [
                "http://www.nivalink.com/destination/dandeli",
                "http://www.beontheroad.com/2014/02/top-13-things-to-do-in-dandeli-karnataka.html"
            ],
            "locType": "river"
        },
        "daroji": {
            "closest_to": "dandeli",
            "address": "Daroji, Sanduru taluk, Bellary district, Karnataka, India",
            "longitude": "76.6667172",
            "latitude": "15.2671318",
            "blogLinks": [
                "http://travel.india.com/explore/wildlife-sanctuaries-in-karnataka/"
            ],
            "locType": "village"
        },
        "dakshin kannada": {
            "closest_to": "mangalore",
            "address": "Dakshin Court, NH73, Kaikunje, Bantwal Cross Road, Bantwal taluk, Dakshina Kannada, Karnataka, India",
            "longitude": "75.0309089",
            "latitude": "12.8827367",
            "blogLinks": [
                "https://www.thrillophilia.com/places-to-visit-near-mangalore"
            ],
            "locType": "restaurant"
        },
        "moodu": {
            "closest_to": "mangalore",
            "address": "Government Higher Primary School, Beejadi Moodu, NH66, Thekkatte, \u0c95\u0cc1\u0c82\u0ca6\u0cbe\u0caa\u0cc1\u0cb0 \u0ca4\u0cbe\u0cb2\u0cc2\u0c95\u0cc1, Udupi district, Karnataka, 576231, India",
            "longitude": "74.6880462",
            "latitude": "13.5753824",
            "blogLinks": [
                "https://www.thrillophilia.com/places-to-visit-near-mangalore"
            ],
            "locType": "school"
        },
        "hornbill river resort": {
            "closest_to": "dandeli",
            "address": "Hornbill Resort, SH34, Baapeli, Joida taluk, Uttara Kannada, Karnataka, India",
            "longitude": "74.5407023",
            "latitude": "15.2614776",
            "blogLinks": [
                "https://www.thrillophilia.com/resorts-near-dandeli"
            ],
            "locType": "hotel"
        },
        "anshi": {
            "closest_to": "mangalore",
            "address": "Anshi, Joida taluk, Uttara Kannada, Karnataka, India",
            "longitude": "74.3708809",
            "latitude": "14.9925559",
            "blogLinks": [
                "http://www.nivalink.com/destination/dandeli"
            ],
            "locType": "village"
        },
        "moyar": {
            "closest_to": "mangalore",
            "address": "Moyar Gorge, Gundlupet - Coimbatore Highway, Bandipur, Gundlupet taluk, Chamarajanagar district, Karnataka, India",
            "longitude": "76.631118",
            "latitude": "11.6161121",
            "blogLinks": [
                "http://travel.india.com/explore/wildlife-sanctuaries-in-karnataka/"
            ],
            "locType": "viewpoint"
        },
        "karkala": {
            "closest_to": "mangalore",
            "address": "Karkala, Karkala taluk, Udupi district, Karnataka, 574104, India",
            "longitude": "74.9959586",
            "latitude": "13.2112826",
            "blogLinks": [
                "https://www.thrillophilia.com/places-to-visit-near-mangalore"
            ],
            "locType": "town"
        },
        "gobral": {
            "closest_to": "dandeli",
            "address": "Gobral, Haliyala taluku, Uttara Kannada, Karnataka, India",
            "longitude": "74.6022222",
            "latitude": "15.3230425",
            "blogLinks": [
                "https://www.thrillophilia.com/resorts-near-dandeli"
            ],
            "locType": "village"
        },
        "kaneri": {
            "closest_to": "mangalore",
            "address": "Kaneri, Joida taluk, Uttara Kannada, Karnataka, India",
            "longitude": "74.4834864",
            "latitude": "15.0680686",
            "blogLinks": [
                "http://www.nivalink.com/destination/dandeli"
            ],
            "locType": "river"
        },
        "uttara kannada": {
            "closest_to": "mangalore",
            "address": "Uttara Kannada, Karnataka, India",
            "longitude": "74.4729163045979",
            "latitude": "14.6726379",
            "blogLinks": [
                "http://www.inditales.com/dandeli-river-kali/",
                "http://travel.india.com/explore/wildlife-sanctuaries-in-karnataka/",
                "https://www.thrillophilia.com/resorts-near-dandeli"
            ],
            "locType": "administrative"
        },
        "kabini": {
            "closest_to": "mangalore",
            "address": "Kabini, Heggadadevanakote taluk, Mysuru district, Karnataka, India",
            "longitude": "76.4152088",
            "latitude": "12.0140065",
            "blogLinks": [
                "http://travel.india.com/explore/wildlife-sanctuaries-in-karnataka/"
            ],
            "locType": "river"
        },
        "gomateshwara": {
            "closest_to": "mangalore",
            "address": "Bahubali Statue, SH8, Shravanabelagola, Channarayapattana taluk, Hassan district, Karnataka, 573135, India",
            "longitude": "76.4846128",
            "latitude": "12.8540505",
            "blogLinks": [
                "https://www.thrillophilia.com/places-to-visit-near-mangalore"
            ],
            "locType": "place_of_worship"
        },
        "hubli": {
            "closest_to": "dandeli",
            "address": "Hubballi - \u0cb9\u0cc1\u0cac\u0ccd\u0cac\u0cb3\u0ccd\u0cb3\u0cbf, Hubballi taluku, Dharwad district, Karnataka, 580020, India",
            "longitude": "75.1379848",
            "latitude": "15.3518378",
            "blogLinks": [
                "https://www.makemytrip.com/routeplanner/bangalore-dandeli.html",
                "http://www.enidhi.net/2014/01/places-things-to-do-dandeli-karnataka.html",
                "http://www.inditales.com/dandeli-river-kali/",
                "http://www.nivalink.com/destination/dandeli",
                "http://travel.india.com/explore/wildlife-sanctuaries-in-karnataka/",
                "https://www.tripadvisor.in/ShowTopic-g293860-i511-k7430452-Weekend_getaways_between_Mumbai_and_Bangalore-India.html"
            ],
            "locType": "city"
        },
        "tumkur": {
            "closest_to": "mangalore",
            "address": "Tumakuru, Tumkur district, Karnataka, India",
            "longitude": "77.0002445",
            "latitude": "13.4999406",
            "blogLinks": [
                "https://www.tripadvisor.in/ShowTopic-g293860-i511-k7430452-Weekend_getaways_between_Mumbai_and_Bangalore-India.html"
            ],
            "locType": "county"
        },
        "shankaracharya": {
            "closest_to": "dandeli",
            "address": "Jagadguru Shankaracharya Math, NH48, Bhimnagar, Sankeshwara, Hukkeri taluku, Belgaum district, Karnataka, 591313, India",
            "longitude": "74.47864105",
            "latitude": "16.25114055",
            "blogLinks": [
                "https://www.tripadvisor.in/ShowTopic-g293860-i511-k7430452-Weekend_getaways_between_Mumbai_and_Bangalore-India.html"
            ],
            "locType": "place_of_worship"
        },
        "mangalore airport": {
            "closest_to": "mangalore",
            "address": "Mangalore International Airport, Airport Entry Road, Gandhinagar, Kenjar, Mangaluru taluk, Dakshina Kannada, Karnataka, 575015, India",
            "longitude": "74.887492668144",
            "latitude": "12.95518575",
            "blogLinks": [
                "https://www.thrillophilia.com/places-to-visit-near-mangalore"
            ],
            "locType": "aerodrome"
        },
        "ooty-mysore": {
            "closest_to": "mangalore",
            "address": "Ooty Road, Vidyaranyapuram, Mysuru, Mysuru taluk, Mysuru district, Karnataka, 570001, India",
            "longitude": "76.6586807",
            "latitude": "12.2774807",
            "blogLinks": [
                "http://travel.india.com/explore/wildlife-sanctuaries-in-karnataka/"
            ],
            "locType": "primary"
        },
        "mangalore railway station": {
            "closest_to": "mangalore",
            "address": "Hotels in Mangalore Near Railway Station  (Reiseb\u00fcro ), SH67, Gandhinagar, Kenjar, Mangaluru taluk, Dakshina Kannada, Karnataka, 575015, India",
            "longitude": "74.8680725",
            "latitude": "12.9519663",
            "blogLinks": [
                "https://www.thrillophilia.com/places-to-visit-near-mangalore"
            ],
            "locType": "travel_agent"
        },
        "haliyal": {
            "closest_to": "dandeli",
            "address": "Haliyal, Haliyala taluku, Uttara Kannada, Karnataka, 581329, India",
            "longitude": "74.7646665",
            "latitude": "15.3299733",
            "blogLinks": [
                "http://www.holidayiq.com/Dandeli-Sightseeing-345.html"
            ],
            "locType": "town"
        },
        "sri mallikarjuna temple": {
            "closest_to": "mangalore",
            "address": "Sri Mallikarjuna Temple, Parking, Sringeri, Sringeri taluku, Chikkamagaluru district, Karnataka, 577592, India",
            "longitude": "75.2508225556439",
            "latitude": "13.4188371",
            "blogLinks": [
                "http://www.holidayiq.com/Dandeli-Sightseeing-345.html"
            ],
            "locType": "place_of_worship"
        },
        "hampi": {
            "closest_to": "dandeli",
            "address": "Hampe, Hosapete taluk, Bellary district, Karnataka, 583239, India",
            "longitude": "76.4606199",
            "latitude": "15.3359769",
            "blogLinks": [
                "http://www.nivalink.com/destination/dandeli",
                "https://www.quora.com/What-are-the-best-places-to-visit-for-a-2-day-trip-from-Bangalore-by-car"
            ],
            "locType": "village"
        },
        "bandipur": {
            "closest_to": "mangalore",
            "address": "Bandipur, Gundlupet taluk, Chamarajanagar district, Karnataka, India",
            "longitude": "76.6285739",
            "latitude": "11.6662708",
            "blogLinks": [
                "http://travel.india.com/explore/wildlife-sanctuaries-in-karnataka/",
                "https://www.quora.com/What-are-the-best-places-to-visit-for-a-2-day-trip-from-Bangalore-by-car"
            ],
            "locType": "village"
        },
        "kamalapura": {
            "closest_to": "mangalore",
            "address": "Kamalapura, Harihara taluku, Davanagere district, Karnataka, India",
            "longitude": "75.7316366",
            "latitude": "14.4449672",
            "blogLinks": [
                "http://travel.india.com/explore/wildlife-sanctuaries-in-karnataka/"
            ],
            "locType": "village"
        },
        "gurupura river": {
            "closest_to": "mangalore",
            "address": "Gurupura - Phalguni, Bantwal taluk, Dakshina Kannada, Karnataka, India",
            "longitude": "75.0304308",
            "latitude": "13.005679",
            "blogLinks": [
                "https://www.thrillophilia.com/places-to-visit-near-mangalore"
            ],
            "locType": "river"
        },
        "malpe": {
            "closest_to": "mangalore",
            "address": "Malpe, Udupi taluku, Udupi district, Karnataka, India",
            "longitude": "74.7036914",
            "latitude": "13.3507423",
            "blogLinks": [
                "https://www.thrillophilia.com/places-to-visit-near-mangalore"
            ],
            "locType": "village"
        },
        "kundapura": {
            "closest_to": "mangalore",
            "address": "Kundapura, \u0c95\u0cc1\u0c82\u0ca6\u0cbe\u0caa\u0cc1\u0cb0 \u0ca4\u0cbe\u0cb2\u0cc2\u0c95\u0cc1, Udupi district, Karnataka, 576200, India",
            "longitude": "74.6915722",
            "latitude": "13.6250993",
            "blogLinks": [
                "http://www.nivalink.com/destination/dandeli"
            ],
            "locType": "town"
        },
        "ratnagiri highway": {
            "closest_to": "mangalore",
            "address": "Ratnagiri Road, Basavannahalli, Chikkamagaluru, Chikkamagaluru taluku, Chikkamagaluru district, Karnataka, 577101, India",
            "longitude": "75.7727724",
            "latitude": "13.3292344",
            "blogLinks": [
                "http://www.nivalink.com/destination/dandeli"
            ],
            "locType": "secondary"
        },
        "shivalli": {
            "closest_to": "mangalore",
            "address": "Shivalli, Mandya taluk, Mandya district, Karnataka, India",
            "longitude": "76.8226719",
            "latitude": "12.5863355",
            "blogLinks": [
                "https://www.thrillophilia.com/places-to-visit-near-mangalore"
            ],
            "locType": "village"
        },
        "mangalore": {
            "closest_to": "mangalore",
            "address": "Mangaluru, Mangaluru taluk, Dakshina Kannada, Karnataka, 575001, India",
            "longitude": "74.8430082",
            "latitude": "12.8698101",
            "blogLinks": [
                "https://www.thrillophilia.com/places-to-visit-near-mangalore",
                "http://travel.india.com/explore/wildlife-sanctuaries-in-karnataka/",
                "https://www.quora.com/What-are-the-best-places-to-visit-for-a-2-day-trip-from-Bangalore-by-car"
            ],
            "locType": "city"
        },
        "vijayanagara": {
            "closest_to": "dandeli",
            "address": "Vijayanagara, Chikodi taluk, Belgaum district, Karnataka, India",
            "longitude": "74.7380455",
            "latitude": "16.3270486",
            "blogLinks": [
                "https://www.quora.com/What-are-the-best-places-to-visit-for-a-2-day-trip-from-Bangalore-by-car"
            ],
            "locType": "village"
        },
        "bandipur national park": {
            "closest_to": "mangalore",
            "address": "Bandipur National Park, Kozhikode - Kollegal Highway, Gundlupet taluk, Chamarajanagar district, Karnataka, India",
            "longitude": "76.4314968740264",
            "latitude": "11.76682425",
            "blogLinks": [
                "http://travel.india.com/explore/wildlife-sanctuaries-in-karnataka/"
            ],
            "locType": "national_park"
        },
        "tannirbhavi": {
            "closest_to": "mangalore",
            "address": "Tannirbhavi Beach, Matadakani Road, Bokkapatna, Kudroli, Mangaluru, Mangaluru taluk, Dakshina Kannada, Karnataka, 575001, India",
            "longitude": "74.8132559697314",
            "latitude": "12.8953559",
            "blogLinks": [
                "https://www.thrillophilia.com/places-to-visit-near-mangalore"
            ],
            "locType": "beach"
        },
        "lakya dam": {
            "closest_to": "mangalore",
            "address": "Lakya Dam, Mudigere taluk, Chikkamagaluru district, Karnataka, India",
            "longitude": "75.2271128",
            "latitude": "13.2189611",
            "blogLinks": [
                "https://www.thrillophilia.com/places-to-visit-near-mangalore"
            ],
            "locType": "dam"
        },
        "syntheri rock": {
            "closest_to": "mangalore",
            "address": "Syntheri Rock, SH46, Kaneri, Joida taluk, Uttara Kannada, Karnataka, India",
            "longitude": "74.5242505",
            "latitude": "15.0846142",
            "blogLinks": [
                "http://toufeeq.blogspot.com/2006/10/dandeli-trip.html",
                "http://www.holidayiq.com/Dandeli-Sightseeing-345.html",
                "http://www.beontheroad.com/2014/02/top-13-things-to-do-in-dandeli-karnataka.html"
            ],
            "locType": "attraction"
        },
        "jamalabad fort": {
            "closest_to": "mangalore",
            "address": "Jamalabad Fort, NH73, Halepete, Beltangadi taluk, Dakshina Kannada, Karnataka, 574214, India",
            "longitude": "75.2958407",
            "latitude": "13.0273698",
            "blogLinks": [
                "https://www.thrillophilia.com/places-to-visit-near-mangalore"
            ],
            "locType": "attraction"
        },
        "nandi": {
            "closest_to": "mangalore",
            "address": "Nandi, Tarikere taluku, Chikkamagaluru district, Karnataka, India",
            "longitude": "75.8556266",
            "latitude": "13.6434094",
            "blogLinks": [
                "https://www.quora.com/What-are-the-best-places-to-visit-for-a-2-day-trip-from-Bangalore-by-car"
            ],
            "locType": "village"
        },
        "kannada": {
            "closest_to": "mangalore",
            "address": "Dakshina Kannada, Karnataka, India",
            "longitude": "75.1008028650794",
            "latitude": "12.8114089",
            "blogLinks": [
                "https://www.thrillophilia.com/places-to-visit-near-mangalore"
            ],
            "locType": "administrative"
        },
        "uttara kannada district": {
            "closest_to": "mangalore",
            "address": "Uttara Kannada, Karnataka, India",
            "longitude": "74.583333",
            "latitude": "14.883333",
            "blogLinks": [
                "http://www.holidayiq.com/Dandeli-Sightseeing-345.html"
            ],
            "locType": "county"
        },
        "chandramouleshwara": {
            "closest_to": "mangalore",
            "address": "Chandramouleshwara Temple, Edapally - Panvel Highway, Kolnad, Karnad, Padu Panambur, Mangaluru taluk, Dakshina Kannada, Karnataka, 575025, India",
            "longitude": "74.8024264",
            "latitude": "13.0636768",
            "blogLinks": [
                "https://www.thrillophilia.com/places-to-visit-near-mangalore"
            ],
            "locType": "place_of_worship"
        },
        "manjarabad fort": {
            "closest_to": "mangalore",
            "address": "Manjarabad Fort, SH27, Hullahalli, Sakaleshapura taluk, Hassan district, Karnataka, 573134, India",
            "longitude": "75.7580572896098",
            "latitude": "12.9173302",
            "blogLinks": [
                "https://www.quora.com/What-are-the-best-places-to-visit-for-a-2-day-trip-from-Bangalore-by-car"
            ],
            "locType": "attraction"
        },
        "kadri": {
            "closest_to": "mangalore",
            "address": "Kadri, Mangaluru, Mangaluru taluk, Dakshina Kannada, Karnataka, 575001, India",
            "longitude": "74.8501424",
            "latitude": "12.8897288",
            "blogLinks": [
                "https://www.thrillophilia.com/places-to-visit-near-mangalore"
            ],
            "locType": "suburb"
        },
        "mogaveera": {
            "closest_to": "mangalore",
            "address": "Primary school, Mogaveera pete, Kokkarne Santekatte Road, Suralu, Udupi taluku, Udupi district, Karnataka, India",
            "longitude": "74.8262750607477",
            "latitude": "13.45454075",
            "blogLinks": [
                "https://www.thrillophilia.com/places-to-visit-near-mangalore"
            ],
            "locType": "yes"
        },
        "bison river resort": {
            "closest_to": "dandeli",
            "address": "Bison River Resort, SH34, Baapeli, Joida taluk, Uttara Kannada, Karnataka, India",
            "longitude": "74.5398118",
            "latitude": "15.2638266",
            "blogLinks": [
                "http://www.inditales.com/dandeli-river-kali/",
                "https://www.thrillophilia.com/resorts-near-dandeli"
            ],
            "locType": "hotel"
        },
        "st. aloysius chapel": {
            "closest_to": "mangalore",
            "address": "St. Aloysius Chapel, St Aloysius Internal Road, Dongerkeri, Mallikatte, Mangaluru, Mangaluru taluk, Dakshina Kannada, Karnataka, 575001, India",
            "longitude": "74.8453615",
            "latitude": "12.8737995",
            "blogLinks": [
                "https://www.thrillophilia.com/places-to-visit-near-mangalore"
            ],
            "locType": "place_of_worship"
        },
        "ballari": {
            "closest_to": "dandeli",
            "address": "Ballari, Bellary taluk, Bellary district, Karnataka, India",
            "longitude": "76.9125211",
            "latitude": "15.1467299",
            "blogLinks": [
                "http://travel.india.com/explore/wildlife-sanctuaries-in-karnataka/"
            ],
            "locType": "city"
        },
        "moodabidri": {
            "closest_to": "mangalore",
            "address": "Moodabidri, Mangaluru taluk, Dakshina Kannada, Karnataka, 574227, India",
            "longitude": "74.9977469",
            "latitude": "13.0699218",
            "blogLinks": [
                "https://www.thrillophilia.com/places-to-visit-near-mangalore"
            ],
            "locType": "town"
        },
        "hospet": {
            "closest_to": "dandeli",
            "address": "Hosapete, Hosapete taluk, Bellary district, Karnataka, 583200, India",
            "longitude": "76.3870527",
            "latitude": "15.266079",
            "blogLinks": [
                "http://travel.india.com/explore/wildlife-sanctuaries-in-karnataka/"
            ],
            "locType": "town"
        },
        "udupi railway station": {
            "closest_to": "mangalore",
            "address": "Udupi Railway Station, Railway Godown Road, Indrali, Udupi, Udupi taluku, Udupi district, Karnataka, 576101, India",
            "longitude": "74.7710217",
            "latitude": "13.3360878",
            "blogLinks": [
                "https://www.thrillophilia.com/places-to-visit-near-mangalore"
            ],
            "locType": "station"
        },
        "kudremukh": {
            "closest_to": "mangalore",
            "address": "Kudremukha, Mudigere taluk, Chikkamagaluru district, Karnataka, India",
            "longitude": "75.2523304",
            "latitude": "13.2144007",
            "blogLinks": [
                "https://www.thrillophilia.com/places-to-visit-near-mangalore",
                "http://travel.india.com/explore/wildlife-sanctuaries-in-karnataka/"
            ],
            "locType": "village"
        },
        "dakshina kashi": {
            "closest_to": "mangalore",
            "address": "Sahasralingeshwara Temple, Car Street, Uppinangadi, Putturu taluk, Dakshina Kannada, Karnataka, India",
            "longitude": "75.2439609",
            "latitude": "12.838765",
            "blogLinks": [
                "https://www.quora.com/What-are-the-best-places-to-visit-for-a-2-day-trip-from-Bangalore-by-car"
            ],
            "locType": "place_of_worship"
        },
        "siddi": {
            "closest_to": "mangalore",
            "address": "Siddi Samadhi Yoga Center, Ramana Maharshi Road, Kuvempunagara, Mysuru, Mysuru taluk, Mysuru district, Karnataka, 570001, India",
            "longitude": "76.6323756",
            "latitude": "12.2933673",
            "blogLinks": [
                "http://www.beontheroad.com/2014/02/top-13-things-to-do-in-dandeli-karnataka.html"
            ],
            "locType": "fitness_centre"
        },
        "kudremukh national park": {
            "closest_to": "mangalore",
            "address": "Kudremukh National Park, SH66, Sringeri taluku, Chikkamagaluru district, Karnataka, India",
            "longitude": "75.1828713712862",
            "latitude": "13.25397485",
            "blogLinks": [
                "https://www.thrillophilia.com/places-to-visit-near-mangalore",
                "http://travel.india.com/explore/wildlife-sanctuaries-in-karnataka/",
                "https://www.quora.com/What-are-the-best-places-to-visit-for-a-2-day-trip-from-Bangalore-by-car"
            ],
            "locType": "national_park"
        },
        "udupi": {
            "closest_to": "mangalore",
            "address": "Udupi, Udupi taluku, Udupi district, Karnataka, 576101, India",
            "longitude": "74.7473232",
            "latitude": "13.3419169",
            "blogLinks": [
                "https://www.thrillophilia.com/places-to-visit-near-mangalore"
            ],
            "locType": "city"
        },
        "river phalguni": {
            "closest_to": "mangalore",
            "address": "Gurupura - Phalguni, Bantwal taluk, Dakshina Kannada, Karnataka, India",
            "longitude": "75.0304308",
            "latitude": "13.005679",
            "blogLinks": [
                "https://www.thrillophilia.com/places-to-visit-near-mangalore"
            ],
            "locType": "river"
        },
        "vyasanakere": {
            "closest_to": "dandeli",
            "address": "Vyasanakere, Hosapete taluk, Bellary district, Karnataka, India",
            "longitude": "76.3553916",
            "latitude": "15.1954023",
            "blogLinks": [
                "http://travel.india.com/explore/wildlife-sanctuaries-in-karnataka/"
            ],
            "locType": "village"
        },
        "hospete": {
            "closest_to": "mangalore",
            "address": "Hospete - Harihara Road, Nandibevuru, Harapanahalli taluku, Davanagere district, Karnataka, India",
            "longitude": "76.0589884",
            "latitude": "14.9122813",
            "blogLinks": [
                "https://www.quora.com/What-are-the-best-places-to-visit-for-a-2-day-trip-from-Bangalore-by-car"
            ],
            "locType": "primary"
        },
        "dandeli wildlife sanctuary": {
            "closest_to": "mangalore",
            "address": "Dandeli Wildlife Sanctuary, SH146, Terali, Joida taluk, Uttara Kannada, Karnataka, India",
            "longitude": "74.3665654142884",
            "latitude": "15.1654776",
            "blogLinks": [
                "http://www.holidayiq.com/Dandeli-Sightseeing-345.html",
                "https://www.thrillophilia.com/resorts-near-dandeli"
            ],
            "locType": "national_park"
        },
        "ooty": {
            "closest_to": "mangalore",
            "address": "Ooty Road, Vidyaranyapuram, Mysuru, Mysuru taluk, Mysuru district, Karnataka, 570001, India",
            "longitude": "76.6586807",
            "latitude": "12.2774807",
            "blogLinks": [
                "http://toufeeq.blogspot.com/2006/10/dandeli-trip.html"
            ],
            "locType": "primary"
        },
        "nagajhari river": {
            "closest_to": "dandeli",
            "address": "Nagajhari School, Belgaum - Panaji Highway, Cantonment, Belagavi, Belagavi taluku, Belgaum district, Karnataka, 590001, India",
            "longitude": "74.5013412",
            "latitude": "15.8351706",
            "blogLinks": [
                "http://www.holidayiq.com/Dandeli-Sightseeing-345.html"
            ],
            "locType": "school"
        },
        "dharmasthala": {
            "closest_to": "mangalore",
            "address": "Dharmasthala, Beltangadi taluk, Dakshina Kannada, Karnataka, 574216, India",
            "longitude": "75.3813122",
            "latitude": "12.9519571",
            "blogLinks": [
                "https://www.thrillophilia.com/places-to-visit-near-mangalore"
            ],
            "locType": "village"
        },
        "jamalabad": {
            "closest_to": "mangalore",
            "address": "Jamalabad Fort, NH73, Halepete, Beltangadi taluk, Dakshina Kannada, Karnataka, 574214, India",
            "longitude": "75.2958407",
            "latitude": "13.0273698",
            "blogLinks": [
                "https://www.thrillophilia.com/places-to-visit-near-mangalore"
            ],
            "locType": "attraction"
        },
        "vittala": {
            "closest_to": "mangalore",
            "address": "Vijaya Vittala PU College, Sahukar Chennaiah Road, Sarasvatipuram, Mysuru, Mysuru taluk, Mysuru district, Karnataka, 570001, India",
            "longitude": "76.6237847175927",
            "latitude": "12.30129655",
            "blogLinks": [
                "https://www.quora.com/What-are-the-best-places-to-visit-for-a-2-day-trip-from-Bangalore-by-car"
            ],
            "locType": "yes"
        },
        "malnad": {
            "closest_to": "mangalore",
            "address": "Malnad Hospital, Mudigere-Kadur Road, Chikkamagaluru, Chikkamagaluru taluku, Chikkamagaluru district, Karnataka, 577101, India",
            "longitude": "75.7715495",
            "latitude": "13.3160351",
            "blogLinks": [
                "https://www.tripadvisor.in/ShowTopic-g293860-i511-k7430452-Weekend_getaways_between_Mumbai_and_Bangalore-India.html"
            ],
            "locType": "hospital"
        },
        "kumaradhara river": {
            "closest_to": "mangalore",
            "address": "Kumaradhara, Putturu taluk, Dakshina Kannada, Karnataka, India",
            "longitude": "75.4390597",
            "latitude": "12.7370168",
            "blogLinks": [
                "https://www.thrillophilia.com/places-to-visit-near-mangalore"
            ],
            "locType": "river"
        },
        "dakshina kannada": {
            "closest_to": "mangalore",
            "address": "Dakshina Kannada, Karnataka, India",
            "longitude": "75.1008028650794",
            "latitude": "12.8114089",
            "blogLinks": [
                "https://www.thrillophilia.com/places-to-visit-near-mangalore"
            ],
            "locType": "administrative"
        },
        "lakkavalli": {
            "closest_to": "mangalore",
            "address": "Lakkavalli, Soraba taluk, Shimoga district, Karnataka, India",
            "longitude": "75.1078097",
            "latitude": "14.5841018",
            "blogLinks": [
                "http://travel.india.com/explore/wildlife-sanctuaries-in-karnataka/"
            ],
            "locType": "village"
        },
        "bahubali": {
            "closest_to": "mangalore",
            "address": "Bahubali Statue, SH8, Shravanabelagola, Channarayapattana taluk, Hassan district, Karnataka, 573135, India",
            "longitude": "76.4846128",
            "latitude": "12.8540505",
            "blogLinks": [
                "https://www.thrillophilia.com/places-to-visit-near-mangalore"
            ],
            "locType": "place_of_worship"
        },
        "bhagavathi": {
            "closest_to": "mangalore",
            "address": "Bhagavathi Nagar, 2nd Main Rd, Dongerkeri, Kudroli, Mangaluru, Mangaluru taluk, Dakshina Kannada, Karnataka, 575001, India",
            "longitude": "74.8372435",
            "latitude": "12.8788638",
            "blogLinks": [
                "https://www.thrillophilia.com/places-to-visit-near-mangalore"
            ],
            "locType": "tertiary"
        },
        "belgaum railway station": {
            "closest_to": "dandeli",
            "address": "Belgaum, Belgaum - Panaji Highway, Cantonment, Belagavi, Belagavi taluku, Belgaum district, Karnataka, 590001, India",
            "longitude": "74.509065",
            "latitude": "15.8489677",
            "blogLinks": [
                "http://www.nivalink.com/destination/dandeli"
            ],
            "locType": "station"
        },
        "kali river": {
            "closest_to": "mangalore",
            "address": "Kali, Joida taluk, Uttara Kannada, Karnataka, India",
            "longitude": "74.5802901",
            "latitude": "15.0145378",
            "blogLinks": [
                "http://www.inditales.com/dandeli-river-kali/",
                "http://www.nivalink.com/destination/dandeli",
                "http://travel.india.com/explore/wildlife-sanctuaries-in-karnataka/",
                "https://www.thrillophilia.com/resorts-near-dandeli"
            ],
            "locType": "river"
        },
        "sahyadri range": {
            "closest_to": "mangalore",
            "address": "Sahyadri Polytechnic, SH1, Seebinakere, Sankadahole, Tirthahalli taluk, Shimoga district, Karnataka, 577432, India",
            "longitude": "75.2317987800043",
            "latitude": "13.6983273",
            "blogLinks": [
                "http://www.holidayiq.com/Dandeli-Sightseeing-345.html"
            ],
            "locType": "school"
        },
        "ganeshgudi": {
            "closest_to": "dandeli",
            "address": "Ganeshagudi, Joida taluk, Uttara Kannada, Karnataka, India",
            "longitude": "74.5335693",
            "latitude": "15.2815822",
            "blogLinks": [
                "http://toufeeq.blogspot.com/2006/10/dandeli-trip.html",
                "http://www.nivalink.com/destination/dandeli",
                "http://www.beontheroad.com/2014/02/top-13-things-to-do-in-dandeli-karnataka.html"
            ],
            "locType": "village"
        },
        "sykes point": {
            "closest_to": "mangalore",
            "address": "Sykes point, Ambikanagar road, Haliyala taluku, Uttara Kannada, Karnataka, India",
            "longitude": "74.6488754",
            "latitude": "15.0905368",
            "blogLinks": [
                "https://www.thrillophilia.com/resorts-near-dandeli"
            ],
            "locType": "viewpoint"
        },
        "karnataka": {
            "closest_to": "mangalore",
            "address": "Karnataka, Shalivahana Road, Nazarbad, Mysuru, Mysuru taluk, Mysuru district, Karnataka, 570001, India",
            "longitude": "76.6639936",
            "latitude": "12.3084901",
            "blogLinks": [
                "http://toufeeq.blogspot.com/2006/10/dandeli-trip.html",
                "https://www.makemytrip.com/routeplanner/bangalore-dandeli.html",
                "https://www.thrillophilia.com/places-to-visit-near-mangalore",
                "https://www.thrillophilia.com/resorts-near-dandeli",
                "http://www.inditales.com/dandeli-river-kali/",
                "https://www.quora.com/What-are-the-best-places-to-visit-for-a-2-day-trip-from-Bangalore-by-car",
                "http://www.nivalink.com/destination/dandeli",
                "http://www.holidayiq.com/Dandeli-Sightseeing-345.html",
                "http://travel.india.com/explore/wildlife-sanctuaries-in-karnataka/",
                "http://www.karnatakatourism.org/",
                "http://www.beontheroad.com/2014/02/top-13-things-to-do-in-dandeli-karnataka.html"
            ],
            "locType": "atm"
        },
        "kamalapur": {
            "closest_to": "dandeli",
            "address": "Kamalapur Nursing Home, Station Road, Kalyana nagar, Gandhinagar, Dharwad, Dharawada taluku, Dharwad district, Karnataka, 580001, India",
            "longitude": "75.003629911571",
            "latitude": "15.4456282",
            "blogLinks": [
                "http://travel.india.com/explore/wildlife-sanctuaries-in-karnataka/"
            ],
            "locType": "yes"
        },
        "river kali": {
            "closest_to": "mangalore",
            "address": "Kali, Joida taluk, Uttara Kannada, Karnataka, India",
            "longitude": "74.5802901",
            "latitude": "15.0145378",
            "blogLinks": [
                "http://www.nivalink.com/destination/dandeli",
                "http://www.holidayiq.com/Dandeli-Sightseeing-345.html",
                "http://travel.india.com/explore/wildlife-sanctuaries-in-karnataka/",
                "https://www.thrillophilia.com/resorts-near-dandeli"
            ],
            "locType": "river"
        },
        "kalasa": {
            "closest_to": "mangalore",
            "address": "Kalasa, Mudigere taluk, Chikkamagaluru district, Karnataka, 577124, India",
            "longitude": "75.3582366",
            "latitude": "13.2322235",
            "blogLinks": [
                "https://www.thrillophilia.com/places-to-visit-near-mangalore"
            ],
            "locType": "town"
        },
        "india": {
            "closest_to": "mangalore",
            "address": "Karnataka, India",
            "longitude": "75.7223521",
            "latitude": "14.5203896",
            "blogLinks": [
                "https://www.thrillophilia.com/places-to-visit-near-mangalore",
                "https://www.thrillophilia.com/resorts-near-dandeli",
                "https://www.quora.com/What-are-the-best-places-to-visit-for-a-2-day-trip-from-Bangalore-by-car",
                "http://www.nivalink.com/destination/dandeli",
                "http://travel.india.com/explore/wildlife-sanctuaries-in-karnataka/",
                "http://www.beontheroad.com/2014/02/top-13-things-to-do-in-dandeli-karnataka.html"
            ],
            "locType": "administrative"
        },
        "karnataka state": {
            "closest_to": "mangalore",
            "address": "Karnataka State Open University, \u0cb9\u0cc1\u0ca3\u0cb8\u0cc2\u0cb0\u0cc1 \u0cb0\u0cb8\u0ccd\u0ca4\u0cc6, Gokulam, Mysuru, Mysuru taluk, Mysuru district, Karnataka, 570001, India",
            "longitude": "76.6236231",
            "latitude": "12.315382",
            "blogLinks": [
                "http://www.holidayiq.com/Dandeli-Sightseeing-345.html"
            ],
            "locType": "university"
        },
        "dandeli": {
            "closest_to": "dandeli",
            "address": "Dandeli, Haliyala taluku, Uttara Kannada, Karnataka, 581325, India",
            "longitude": "74.6236037",
            "latitude": "15.2490284",
            "blogLinks": [
                "http://toufeeq.blogspot.com/2006/10/dandeli-trip.html",
                "https://www.makemytrip.com/routeplanner/bangalore-dandeli.html",
                "http://www.enidhi.net/2014/01/places-things-to-do-dandeli-karnataka.html",
                "https://www.thrillophilia.com/resorts-near-dandeli",
                "http://www.inditales.com/dandeli-river-kali/",
                "http://journeymart.com/de/india/karnataka/dandeli-best-time-to-visit.aspx",
                "http://www.nivalink.com/destination/dandeli",
                "http://www.holidayiq.com/Dandeli-Sightseeing-345.html",
                "http://travel.india.com/explore/wildlife-sanctuaries-in-karnataka/",
                "http://www.karnatakatourism.org/",
                "http://www.beontheroad.com/2014/02/top-13-things-to-do-in-dandeli-karnataka.html"
            ],
            "locType": "town"
        },
        "venur": {
            "closest_to": "mangalore",
            "address": "Venoor, Beltangadi taluk, Dakshina Kannada, Karnataka, 574242, India",
            "longitude": "75.1443252",
            "latitude": "13.0122097",
            "blogLinks": [
                "https://www.thrillophilia.com/places-to-visit-near-mangalore"
            ],
            "locType": "village"
        },
        "shravanabelagola": {
            "closest_to": "mangalore",
            "address": "Shravanabelagola, Channarayapattana taluk, Hassan district, Karnataka, 573135, India",
            "longitude": "76.4869997",
            "latitude": "12.8581305",
            "blogLinks": [
                "https://www.thrillophilia.com/places-to-visit-near-mangalore"
            ],
            "locType": "town"
        }
    }
}