{
    "mentions": {
        "sunnyvale": {
            "latitude": "37.3688301",
            "closest_to": "san jose",
            "address": "Sunnyvale, Santa Clara County, California, United States of America",
            "locType": "city",
            "blogLinks": [
                "http://www.bayareakidfun.com/best-of-the-bay/",
                "http://www.bestplaces.net/city/california/discovery_bay"
            ],
            "longitude": "-122.0363495"
        },
        "ardenwood": {
            "latitude": "37.55967095",
            "closest_to": "fremont",
            "address": "Ardenwood Historic Farm, Centerville District, Fremont, Alameda County, California, 94555, United States of America",
            "locType": "farm",
            "blogLinks": [
                "https://www.yelp.ca/search?find_desc=Places+To+Visit&find_loc=Fremont%2C+CA",
                "http://wikitravel.org/en/Fremont"
            ],
            "longitude": "-122.04658567295"
        },
        "fremont boulevard": {
            "latitude": "37.535223",
            "closest_to": "san jose",
            "address": "Fremont Boulevard, Irvington District, Fremont, Alameda County, California, 94538, United States of America",
            "locType": "primary",
            "blogLinks": [
                "http://wikitravel.org/en/Fremont"
            ],
            "longitude": "-121.9631622"
        },
        "lakeview boulevard": {
            "latitude": "37.4791482",
            "closest_to": "san jose",
            "address": "Lakeview Boulevard, Curtner, Warm Springs District, Fremont, Alameda County, California, 94538, United States of America",
            "locType": "tertiary",
            "blogLinks": [
                "http://wikitravel.org/en/Fremont"
            ],
            "longitude": "-121.9371952"
        },
        "rinconada": {
            "latitude": "37.4238073",
            "closest_to": "fremont",
            "address": "Rinconada, Bowdoin Lane, Stanford University, Santa Clara County, California, 94305, United States of America",
            "locType": "yes",
            "blogLinks": [
                "http://www.bayareakidfun.com/best-of-the-bay/",
                "http://www.travelmath.com/nearest-airport/Fremont,+CA"
            ],
            "longitude": "-122.164095840299"
        },
        "milpitas": {
            "latitude": "37.4282724",
            "closest_to": "san jose",
            "address": "Milpitas, Santa Clara County, California, United States of America",
            "locType": "city",
            "blogLinks": [
                "http://wikitravel.org/en/Fremont"
            ],
            "longitude": "-121.9066237"
        },
        "ardenwood blvd": {
            "latitude": "37.5595004",
            "closest_to": "fremont",
            "address": "Ardenwood Boulevard, Fremont, Alameda County, California, 94555, United States of America",
            "locType": "primary",
            "blogLinks": [
                "http://wikitravel.org/en/Fremont"
            ],
            "longitude": "-122.0635643"
        },
        "central park": {
            "latitude": "37.391994",
            "closest_to": "san jose",
            "address": "Central Park, Central Park At Whisman Station, Mountain View, Santa Clara County, California, 94043, United States of America",
            "locType": "service",
            "blogLinks": [
                "https://www.virtualtourist.com/travel/North_America/United_States_of_America/California/Fremont-752644/Things_To_Do-Fremont-TG-C-1.html"
            ],
            "longitude": "-122.0638948"
        },
        "osgood road": {
            "latitude": "37.5129283",
            "closest_to": "san jose",
            "address": "Osgood Road, Snoboy, Warm Springs District, Fremont, Alameda County, California, 94539, United States of America",
            "locType": "primary",
            "blogLinks": [
                "http://wikitravel.org/en/Fremont"
            ],
            "longitude": "-121.9420013"
        },
        "pleasanton": {
            "latitude": "37.6624312",
            "closest_to": "fremont",
            "address": "Pleasanton, Alameda County, California, United States of America",
            "locType": "administrative",
            "blogLinks": [
                "http://wikitravel.org/en/Fremont"
            ],
            "longitude": "-121.8746788"
        },
        "bonde way": {
            "latitude": "37.5595013",
            "closest_to": "fremont",
            "address": "Bonde Way, Centerville District, Fremont, Alameda County, California, 94536, United States of America",
            "locType": "residential",
            "blogLinks": [
                "http://wikitravel.org/en/Fremont"
            ],
            "longitude": "-122.0078327"
        },
        "vasona park": {
            "latitude": "37.268274",
            "closest_to": "san jose",
            "address": "Vasona Canal, San Jos\u00e9, Santa Clara County, California, United States of America",
            "locType": "drain",
            "blogLinks": [
                "http://www.bayareakidfun.com/best-of-the-bay/"
            ],
            "longitude": "-121.9869804"
        },
        "grimmer blvd": {
            "latitude": "37.5345757",
            "closest_to": "san jose",
            "address": "Grimmer Boulevard, Irvington District, Fremont, Alameda County, California, 94538, United States of America",
            "locType": "secondary",
            "blogLinks": [
                "http://wikitravel.org/en/Fremont"
            ],
            "longitude": "-121.9669301"
        },
        "trimboli way": {
            "latitude": "37.5317274",
            "closest_to": "san jose",
            "address": "Trimboli Way, Irvington District, Fremont, Alameda County, California, 94538, United States of America",
            "locType": "residential",
            "blogLinks": [
                "http://wikitravel.org/en/Fremont"
            ],
            "longitude": "-121.9609595"
        },
        "niles blvd": {
            "latitude": "37.581646",
            "closest_to": "fremont",
            "address": "Niles Boulevard, Niles District, Fremont, Alameda County, California, 94536, United States of America",
            "locType": "secondary",
            "blogLinks": [
                "https://www.virtualtourist.com/travel/North_America/United_States_of_America/California/Fremont-752644/Things_To_Do-Fremont-TG-C-1.html"
            ],
            "longitude": "-122.0006704"
        },
        "centennial boulevard": {
            "latitude": "37.4047084",
            "closest_to": "san jose",
            "address": "Centennial Boulevard, Santa Clara, Santa Clara County, California, 95054, United States of America",
            "locType": "tertiary",
            "blogLinks": [
                "http://www.santaclara.org/getting-around/public-transportation/"
            ],
            "longitude": "-121.9694691"
        },
        "great america": {
            "latitude": "37.4034903",
            "closest_to": "san jose",
            "address": "Great America, West Tasman Drive, Santa Clara, Santa Clara County, California, 95002, United States of America",
            "locType": "tram_stop",
            "blogLinks": [
                "http://www.santaclara.org/getting-around/public-transportation/",
                "http://www.bayareakidfun.com/best-of-the-bay/"
            ],
            "longitude": "-121.9743159"
        },
        "newark": {
            "latitude": "37.5296593",
            "closest_to": "fremont",
            "address": "Newark, Alameda County, California, United States of America",
            "locType": "city",
            "blogLinks": [
                "http://wikitravel.org/en/Fremont"
            ],
            "longitude": "-122.0402398"
        },
        "mission san jose": {
            "latitude": "37.3495341",
            "closest_to": "san jose",
            "address": "West Mission Street, Civic Center, Japantown, San Jos\u00e9, Santa Clara County, California, 95110, United States of America",
            "locType": "tertiary",
            "blogLinks": [
                "http://wikitravel.org/en/Fremont"
            ],
            "longitude": "-121.9041561"
        },
        "redwood city": {
            "latitude": "37.4852152",
            "closest_to": "fremont",
            "address": "Redwood City, San Mateo County, California, United States of America",
            "locType": "city",
            "blogLinks": [
                "http://www.bestplaces.net/city/california/fremont",
                "http://www.bestplaces.net/city/california/discovery_bay"
            ],
            "longitude": "-122.2363547"
        },
        "boscell rd": {
            "latitude": "37.4992779",
            "closest_to": "san jose",
            "address": "Boscell Road, Irvington District, Fremont, Alameda County, California, 94538, United States of America",
            "locType": "tertiary",
            "blogLinks": [
                "http://wikitravel.org/en/Fremont"
            ],
            "longitude": "-121.9713038"
        },
        "dumbarton bridge": {
            "latitude": "37.510027",
            "closest_to": "fremont",
            "address": "Dumbarton Bridge, Fremont, Alameda County, California, 94025, United States of America",
            "locType": "motorway",
            "blogLinks": [
                "http://wikitravel.org/en/Fremont"
            ],
            "longitude": "-122.1124535"
        },
        "alameda county": {
            "latitude": "37.6090291",
            "closest_to": "fremont",
            "address": "Alameda County, California, United States of America",
            "locType": "administrative",
            "blogLinks": [
                "http://wikitravel.org/en/Fremont"
            ],
            "longitude": "-121.8991419"
        },
        "chapel way": {
            "latitude": "37.5365372",
            "closest_to": "san jose",
            "address": "Chapel Way, Irvington District, Fremont, Alameda County, California, 94538, United States of America",
            "locType": "residential",
            "blogLinks": [
                "http://wikitravel.org/en/Fremont"
            ],
            "longitude": "-121.9606467"
        },
        "peralta blvd": {
            "latitude": "37.5592002",
            "closest_to": "fremont",
            "address": "Peralta Boulevard, Centerville District, Fremont, Alameda County, California, 94536, United States of America",
            "locType": "primary",
            "blogLinks": [
                "http://wikitravel.org/en/Fremont"
            ],
            "longitude": "-122.0048962"
        },
        "silicon valley": {
            "latitude": "37.4105333",
            "closest_to": "san jose",
            "address": "Carnegie Mellon Silicon Valley, South Akron Road, Santa Clara County, California, 94035-0016, United States of America",
            "locType": "school",
            "blogLinks": [
                "http://www.santaclara.org/getting-around/public-transportation/",
                "http://wikitravel.org/en/Fremont"
            ],
            "longitude": "-122.0597491"
        },
        "irvington": {
            "latitude": "37.5322543",
            "closest_to": "san jose",
            "address": "Irvington, Osgood Road, Irvington District, Fremont, Alameda County, California, 94539, United States of America",
            "locType": "proposed",
            "blogLinks": [
                "http://wikitravel.org/en/Fremont"
            ],
            "longitude": "-121.953848"
        },
        "santa clara county": {
            "latitude": "37.2333253",
            "closest_to": "san jose",
            "address": "Santa Clara County, California, United States of America",
            "locType": "administrative",
            "blogLinks": [
                "http://wikitravel.org/en/Fremont"
            ],
            "longitude": "-121.6846348"
        },
        "san jose": {
            "latitude": "37.3361905",
            "closest_to": "san jose",
            "address": "San Jos\u00e9, Santa Clara County, California, United States of America",
            "locType": "city",
            "blogLinks": [
                "http://www.bestplaces.net/city/california/discovery_bay",
                "https://www.quora.com/What-are-the-most-amazing-places-to-visit-in-the-Bay-Area-Why",
                "http://www.bayareakidfun.com/best-of-the-bay/",
                "https://www.virtualtourist.com/travel/North_America/United_States_of_America/California/Fremont-752644/Things_To_Do-Fremont-TG-C-1.html",
                "http://www.10best.com/destinations/california/san-jose/",
                "http://www.santaclara.org/getting-around/public-transportation/",
                "http://wikitravel.org/en/Fremont",
                "http://placestogoinsanjose.com/",
                "https://www.tripadvisor.com/Attractions-g33020-Activities-San_Jose_California.html",
                "http://www.bestplaces.net/city/california/fremont"
            ],
            "longitude": "-121.8905832"
        },
        "fremont central park": {
            "latitude": "37.55024145",
            "closest_to": "san jose",
            "address": "Fremont Central Park, 40000, Paseo Padre Parkway, Irvington District, Fremont, Alameda County, California, 94538, United States of America",
            "locType": "park",
            "blogLinks": [
                "http://wikitravel.org/en/Fremont"
            ],
            "longitude": "-121.963101453004"
        },
        "marshlands rd": {
            "latitude": "37.5120969",
            "closest_to": "fremont",
            "address": "Marshlands Road, Fremont, Alameda County, California, 94025, United States of America",
            "locType": "unclassified",
            "blogLinks": [
                "http://wikitravel.org/en/Fremont"
            ],
            "longitude": "-122.1094477"
        },
        "alameda creek": {
            "latitude": "37.5701222",
            "closest_to": "fremont",
            "address": "Alameda Creek, Fremont, Alameda County, California, United States of America",
            "locType": "river",
            "blogLinks": [
                "http://wikitravel.org/en/Fremont"
            ],
            "longitude": "-122.0103727"
        },
        "san pedro square": {
            "latitude": "37.33583055",
            "closest_to": "san jose",
            "address": "San Pedro Square, Japantown, San Jos\u00e9, Santa Clara County, California, 95113, United States of America",
            "locType": "retail",
            "blogLinks": [
                "http://www.10best.com/destinations/california/san-jose/"
            ],
            "longitude": "-121.893554381311"
        },
        "niles canyon railway": {
            "latitude": "37.5777735",
            "closest_to": "fremont",
            "address": "Niles Canyon Railway, Mission Boulevard, Niles Junction, Niles District, Fremont, Alameda County, California, 94539, United States of America",
            "locType": "disused",
            "blogLinks": [
                "http://wikitravel.org/en/Fremont"
            ],
            "longitude": "-121.9731392"
        },
        "san tomas aquino creek trail": {
            "latitude": "37.4145764",
            "closest_to": "san jose",
            "address": "San Tomas Aquino Creek Trail, Santa Clara, Santa Clara County, California, 95002, United States of America",
            "locType": "cycleway",
            "blogLinks": [
                "http://www.santaclara.org/getting-around/public-transportation/"
            ],
            "longitude": "-121.9802759"
        },
        "santa clara": {
            "latitude": "37.3541132",
            "closest_to": "san jose",
            "address": "Santa Clara, Santa Clara County, California, United States of America",
            "locType": "city",
            "blogLinks": [
                "http://www.santaclara.org/getting-around/public-transportation/",
                "http://wikitravel.org/en/Fremont",
                "http://www.bayareakidfun.com/best-of-the-bay/"
            ],
            "longitude": "-121.9551743"
        },
        "union city": {
            "latitude": "37.5963232",
            "closest_to": "fremont",
            "address": "Union City, Alameda County, California, United States of America",
            "locType": "administrative",
            "blogLinks": [
                "http://wikitravel.org/en/Fremont"
            ],
            "longitude": "-122.0816296"
        },
        "north fremont": {
            "latitude": "37.55584255",
            "closest_to": "fremont",
            "address": "N, Red Hawk Circle, Niles District, Fremont, Alameda County, California, 94536, United States of America",
            "locType": "yes",
            "blogLinks": [
                "http://wikitravel.org/en/Fremont"
            ],
            "longitude": "-121.968504861836"
        },
        "niles district": {
            "latitude": "37.5789187",
            "closest_to": "fremont",
            "address": "Niles District, Fremont, Alameda County, California, United States of America",
            "locType": "suburb",
            "blogLinks": [
                "https://www.virtualtourist.com/travel/North_America/United_States_of_America/California/Fremont-752644/Things_To_Do-Fremont-TG-C-1.html"
            ],
            "longitude": "-121.9779065"
        },
        "sunol": {
            "latitude": "37.5943781",
            "closest_to": "fremont",
            "address": "Sunol, Alameda County, California, United States of America",
            "locType": "hamlet",
            "blogLinks": [
                "http://wikitravel.org/en/Fremont"
            ],
            "longitude": "-121.8885682"
        },
        "los altos": {
            "latitude": "37.3790629",
            "closest_to": "san jose",
            "address": "Los Altos, Santa Clara County, California, United States of America",
            "locType": "city",
            "blogLinks": [
                "http://www.bayareakidfun.com/animal-fun-in-the-bay-area/"
            ],
            "longitude": "-122.1165779"
        },
        "coyote hills regional park": {
            "latitude": "37.54987645",
            "closest_to": "fremont",
            "address": "Coyote Hills Regional Park, Bayview Trail, Fremont, Alameda County, California, 94555, United States of America",
            "locType": "park",
            "blogLinks": [
                "http://wikitravel.org/en/Fremont"
            ],
            "longitude": "-122.085946385887"
        },
        "santa cruz mountains": {
            "latitude": "37.2188403",
            "closest_to": "san jose",
            "address": "Santa Cruz Mountains, Santa Clara County, California, United States of America",
            "locType": "mountain_range",
            "blogLinks": [
                "https://www.quora.com/What-are-the-most-amazing-places-to-visit-in-the-Bay-Area-Why"
            ],
            "longitude": "-122.0712855"
        },
        "europe": {
            "latitude": "37.3491727",
            "closest_to": "san jose",
            "address": "Europe Court, Santa Clara, Santa Clara County, California, 95051, United States of America",
            "locType": "residential",
            "blogLinks": [
                "https://www.quora.com/What-are-the-most-amazing-places-to-visit-in-the-Bay-Area-Why"
            ],
            "longitude": "-121.9980641"
        },
        "paseo padre parkway": {
            "latitude": "37.5396781",
            "closest_to": "san jose",
            "address": "Paseo Padre Parkway, Mission San Jose District, Fremont, Alameda County, California, 94539, United States of America",
            "locType": "secondary",
            "blogLinks": [
                "http://wikitravel.org/en/Fremont"
            ],
            "longitude": "-121.9434228"
        },
        "old canyon road": {
            "latitude": "37.5782129",
            "closest_to": "fremont",
            "address": "Old Canyon Road, Niles Junction, Niles District, Fremont, Alameda County, California, 94536, United States of America",
            "locType": "residential",
            "blogLinks": [
                "http://wikitravel.org/en/Fremont"
            ],
            "longitude": "-121.9689646"
        },
        "drawbridge": {
            "latitude": "37.4663279",
            "closest_to": "san jose",
            "address": "Drawbridge, Mallard Slough Trail Spur, Alviso, San Jos\u00e9, Santa Clara County, California, 95002, United States of America",
            "locType": "ruins",
            "blogLinks": [
                "http://wikitravel.org/en/Fremont"
            ],
            "longitude": "-121.9749599"
        },
        "patterson ranch road": {
            "latitude": "37.5526674",
            "closest_to": "fremont",
            "address": "Patterson Ranch Road, Fremont, Alameda County, California, 94555, United States of America",
            "locType": "residential",
            "blogLinks": [
                "http://wikitravel.org/en/Fremont"
            ],
            "longitude": "-122.0783468"
        },
        "niles boulevard": {
            "latitude": "37.581646",
            "closest_to": "fremont",
            "address": "Niles Boulevard, Niles District, Fremont, Alameda County, California, 94536, United States of America",
            "locType": "secondary",
            "blogLinks": [
                "http://wikitravel.org/en/Fremont"
            ],
            "longitude": "-122.0006704"
        },
        "niles canyon road": {
            "latitude": "37.576703",
            "closest_to": "fremont",
            "address": "Niles Canyon Road, Niles Junction, Niles District, Fremont, Alameda County, California, 94536, United States of America",
            "locType": "primary",
            "blogLinks": [
                "http://wikitravel.org/en/Fremont"
            ],
            "longitude": "-121.9714341"
        },
        "palo alto": {
            "latitude": "37.442156",
            "closest_to": "fremont",
            "address": "Palo Alto, Santa Clara County, California, United States of America",
            "locType": "city",
            "blogLinks": [
                "https://www.quora.com/What-are-the-most-amazing-places-to-visit-in-the-Bay-Area-Why",
                "http://wikitravel.org/en/Fremont"
            ],
            "longitude": "-122.1634471"
        },
        "fujitsu planetarium": {
            "latitude": "37.31892545",
            "closest_to": "san jose",
            "address": "Fujitsu Planetarium, Campus Drive, Cupertino, Santa Clara County, California, 95014-4221, United States of America",
            "locType": "attraction",
            "blogLinks": [
                "http://www.bayareakidfun.com/best-of-the-bay/"
            ],
            "longitude": "-122.046052500132"
        },
        "landing parkway": {
            "latitude": "37.4874417",
            "closest_to": "san jose",
            "address": "Landing Parkway, Warm Springs District, Fremont, Alameda County, California, 94538, United States of America",
            "locType": "tertiary",
            "blogLinks": [
                "http://wikitravel.org/en/Fremont"
            ],
            "longitude": "-121.9423189"
        },
        "santa clara convention center": {
            "latitude": "37.4044039",
            "closest_to": "san jose",
            "address": "Santa Clara Convention Center, Convention Center Way, Santa Clara, Santa Clara County, California, 95002, United States of America",
            "locType": "conference_centre",
            "blogLinks": [
                "http://www.santaclara.org/getting-around/public-transportation/"
            ],
            "longitude": "-121.975031612487"
        },
        "los gatos": {
            "latitude": "37.226611",
            "closest_to": "san jose",
            "address": "Los Gatos, Santa Clara County, California, United States of America",
            "locType": "administrative",
            "blogLinks": [
                "http://www.bayareakidfun.com/best-of-the-bay/"
            ],
            "longitude": "-121.9746796"
        },
        "fremont": {
            "latitude": "37.5482697",
            "closest_to": "fremont",
            "address": "Fremont, Alameda County, California, United States of America",
            "locType": "city",
            "blogLinks": [
                "http://wikitravel.org/en/Fremont",
                "http://www.travelmath.com/nearest-airport/Fremont,+CA"
            ],
            "longitude": "-121.9885718"
        },
        "gianera street": {
            "latitude": "37.3997317",
            "closest_to": "san jose",
            "address": "Gianera Street, Santa Clara, Santa Clara County, California, 95054, United States of America",
            "locType": "residential",
            "blogLinks": [
                "http://www.santaclara.org/getting-around/public-transportation/"
            ],
            "longitude": "-121.9677788"
        },
        "agnew road": {
            "latitude": "37.3943647",
            "closest_to": "san jose",
            "address": "Agnew Road, Santa Clara, Santa Clara County, California, 95054, United States of America",
            "locType": "secondary",
            "blogLinks": [
                "http://www.santaclara.org/getting-around/public-transportation/"
            ],
            "longitude": "-121.9488924"
        },
        "cupertino": {
            "latitude": "37.3230107",
            "closest_to": "san jose",
            "address": "Cupertino, Santa Clara County, California, United States of America",
            "locType": "city",
            "blogLinks": [
                "http://www.bayareakidfun.com/best-of-the-bay/"
            ],
            "longitude": "-122.0322518"
        },
        "menlo park": {
            "latitude": "37.4538274",
            "closest_to": "fremont",
            "address": "Menlo Park, San Mateo County, California, United States of America",
            "locType": "administrative",
            "blogLinks": [
                "http://www.bestplaces.net/city/california/fremont",
                "http://www.bestplaces.net/city/california/discovery_bay"
            ],
            "longitude": "-122.182187"
        }
    },
    "san jose": {
        "type": "city",
        "osm_id": "112143",
        "class": "place",
        "importance": 0.79127376502597,
        "lat": "37.3361905",
        "lon": "-121.8905832",
        "boundingbox": [
            "37.124503",
            "37.4692175",
            "-122.0456719",
            "-121.5891529"
        ],
        "display_name": "San Jos\u00e9, Santa Clara County, California, United States of America",
        "licence": "Data \u00a9 OpenStreetMap contributors, ODbL 1.0. http://www.openstreetmap.org/copyright",
        "icon": "https://nominatim.openstreetmap.org/images/mapicons/poi_place_city.p.20.png",
        "place_id": "159251412",
        "osm_type": "relation"
    },
    "fremont": {
        "type": "city",
        "osm_id": "111943",
        "class": "place",
        "importance": 0.70373394703995,
        "lat": "37.5482697",
        "lon": "-121.9885718",
        "boundingbox": [
            "37.4539501",
            "37.6066739",
            "-122.1509872",
            "-121.8701127"
        ],
        "display_name": "Fremont, Alameda County, California, United States of America",
        "licence": "Data \u00a9 OpenStreetMap contributors, ODbL 1.0. http://www.openstreetmap.org/copyright",
        "icon": "https://nominatim.openstreetmap.org/images/mapicons/poi_place_city.p.20.png",
        "place_id": "159050638",
        "osm_type": "relation"
    }
}