{
    "mentions": {
        "sunnyvale": {
            "latitude": "37.3688301",
            "closest_to": "fremont",
            "address": "Sunnyvale, Santa Clara County, California, United States of America",
            "locType": "city",
            "blogLinks": [
                "http://www.bayareakidfun.com/best-of-the-bay/"
            ],
            "longitude": "-122.0363495"
        },
        "vallejo": {
            "latitude": "38.1040864",
            "closest_to": "sausalito",
            "address": "Vallejo, Solano County, California, United States of America",
            "locType": "city",
            "blogLinks": [
                "http://www.bayareakidfun.com/best-of-the-bay/"
            ],
            "longitude": "-122.2566366"
        },
        "golden gate bridge": {
            "latitude": "37.8302809",
            "closest_to": "sausalito",
            "address": "Golden Gate Bridge, Waldo, Marin County, California, 94965, United States of America",
            "locType": "motorway",
            "blogLinks": [
                "http://www.upout.com/blog/san-francisco-3/7-easy-weekend-getaways-within-100-miles-of-san-francisco",
                "http://www.sonomacounty.com/articles/day-trip-san-francisco-sonoma",
                "http://californiathroughmylens.com/san-francisco-mendocino-guide",
                "http://www.visitsfbayarea.com/marin-county/sausalito"
            ],
            "longitude": "-122.4798473"
        },
        "san mateo": {
            "latitude": "37.496904",
            "closest_to": "sausalito",
            "address": "San Mateo County, California, United States of America",
            "locType": "administrative",
            "blogLinks": [
                "http://www.bestplaces.net/city/california/sausalito",
                "http://www.bayareakidfun.com/best-of-the-bay/"
            ],
            "longitude": "-122.3330572"
        },
        "los gatos": {
            "latitude": "37.226611",
            "closest_to": "fremont",
            "address": "Los Gatos, Santa Clara County, California, United States of America",
            "locType": "administrative",
            "blogLinks": [
                "http://www.bayareakidfun.com/best-of-the-bay/"
            ],
            "longitude": "-121.9746796"
        },
        "tomales bay": {
            "latitude": "38.0812158",
            "closest_to": "sausalito",
            "address": "Tomales Bay, Bivalve, Marin County, California, 94948, United States of America",
            "locType": "path",
            "blogLinks": [
                "http://californiathroughmylens.com/san-francisco-mendocino-guide"
            ],
            "longitude": "-122.8225806"
        },
        "san francisco bay": {
            "latitude": "37.708264",
            "closest_to": "sausalito",
            "address": "San Francisco Bay, Ferry Landing, Alameda, Alameda County, California, 94502, United States of America",
            "locType": "bay",
            "blogLinks": [
                "http://www.sonomacounty.com/articles/day-trip-san-francisco-sonoma",
                "http://www.visitsfbayarea.com/marin-county/sausalito"
            ],
            "longitude": "-122.2802469"
        },
        "bay bridge": {
            "latitude": "37.8193514",
            "closest_to": "sausalito",
            "address": "San Francisco \u2013 Oakland Bay Bridge, Oakland, Alameda County, California, 94625, United States of America",
            "locType": "abandoned",
            "blogLinks": [
                "http://www.bestplaces.net/city/california/sausalito"
            ],
            "longitude": "-122.342234"
        },
        "san francisco bay area": {
            "latitude": "37.7884969",
            "closest_to": "sausalito",
            "address": "San Francisco Bay Area, SF, California, United States of America",
            "locType": "region",
            "blogLinks": [
                "http://www.bayareakidfun.com/best-of-the-bay/",
                "http://www.visitsfbayarea.com/marin-county/sausalito",
                "http://www.visitsfbayarea.com/destinations"
            ],
            "longitude": "-122.3558472"
        },
        "oakland": {
            "latitude": "37.8044557",
            "closest_to": "sausalito",
            "address": "Oakland, Alameda County, California, United States of America",
            "locType": "city",
            "blogLinks": [
                "http://www.bayareakidfun.com/best-of-the-bay/"
            ],
            "longitude": "-122.2713562"
        },
        "south bay": {
            "latitude": "37.794096",
            "closest_to": "sausalito",
            "address": "South Bay, Sea Cliff Avenue, Seacliff, SF, California, 94121, United States of America",
            "locType": "bay",
            "blogLinks": [
                "http://www.bayareakidfun.com/best-of-the-bay/"
            ],
            "longitude": "-122.4927499"
        },
        "tiburon": {
            "latitude": "37.8734371",
            "closest_to": "sausalito",
            "address": "Tiburon, Marin County, California, United States of America",
            "locType": "administrative",
            "blogLinks": [
                "http://www.distancesfrom.com/us/Trip-Cost-from-Fremont-to-Sausalito/TripCostHistory/19721106.aspx",
                "http://www.visitsfbayarea.com/marin-county/sausalito"
            ],
            "longitude": "-122.4566121"
        },
        "sausalito": {
            "latitude": "37.8590272",
            "closest_to": "sausalito",
            "address": "Sausalito, Marin County, California, United States of America",
            "locType": "administrative",
            "blogLinks": [
                "http://www.distancesfrom.com/us/travel-from-Fremont-to-Sausalito/TravelFromHistory/19721106.aspx",
                "http://www.distancesfrom.com/us/how-far-is-Sausalito-from-Fremont/HowFarHistory/19721106.aspx",
                "http://www.bestplaces.net/city/california/sausalito",
                "http://www.visitsfbayarea.com/marin-county/sausalito",
                "http://www.upout.com/blog/san-francisco-3/7-easy-weekend-getaways-within-100-miles-of-san-francisco",
                "http://www.distancesfrom.com/us/Trip-Cost-from-Fremont-to-Sausalito/TripCostHistory/19721106.aspx",
                "http://www.bayareakidfun.com/best-of-the-bay/"
            ],
            "longitude": "-122.4854693"
        },
        "golden gate": {
            "latitude": "37.8190177",
            "closest_to": "sausalito",
            "address": "Golden Gate, Golden Gate Bridge, Waldo, Marin County, California, 94965, United States of America",
            "locType": "strait",
            "blogLinks": [
                "http://www.sonomacounty.com/articles/day-trip-san-francisco-sonoma",
                "http://www.bestplaces.net/city/california/sausalito"
            ],
            "longitude": "-122.4793972"
        },
        "lasalette": {
            "latitude": "38.2926779",
            "closest_to": "sausalito",
            "address": "LaSalette, 452, 1st Street East, Sonoma, Sonoma County, California, 95476, United States of America",
            "locType": "restaurant",
            "blogLinks": [
                "http://www.sonomacounty.com/articles/day-trip-san-francisco-sonoma"
            ],
            "longitude": "-122.4558801"
        },
        "marin county": {
            "latitude": "38.0409144",
            "closest_to": "sausalito",
            "address": "Marin County, California, United States of America",
            "locType": "administrative",
            "blogLinks": [
                "http://www.upout.com/blog/san-francisco-3/7-easy-weekend-getaways-within-100-miles-of-san-francisco",
                "http://www.bestplaces.net/city/california/sausalito",
                "http://www.visitsfbayarea.com/destinations"
            ],
            "longitude": "-122.6199637"
        },
        "west spain": {
            "latitude": "38.2942867",
            "closest_to": "sausalito",
            "address": "West Spain Street, Sonoma, Sonoma County, California, 95476, United States of America",
            "locType": "residential",
            "blogLinks": [
                "http://www.sonomacounty.com/articles/day-trip-san-francisco-sonoma"
            ],
            "longitude": "-122.4722407"
        },
        "mill valley": {
            "latitude": "37.9060368",
            "closest_to": "sausalito",
            "address": "Mill Valley, Marin County, California, United States of America",
            "locType": "administrative",
            "blogLinks": [
                "http://www.bayareakidfun.com/best-of-the-bay/"
            ],
            "longitude": "-122.5449762"
        },
        "redwood city": {
            "latitude": "37.4852152",
            "closest_to": "sausalito",
            "address": "Redwood City, San Mateo County, California, United States of America",
            "locType": "city",
            "blogLinks": [
                "http://www.bestplaces.net/city/california/sausalito"
            ],
            "longitude": "-122.2363547"
        },
        "vasona park": {
            "latitude": "37.268274",
            "closest_to": "fremont",
            "address": "Vasona Canal, San Jos\u00e9, Santa Clara County, California, United States of America",
            "locType": "drain",
            "blogLinks": [
                "http://www.bayareakidfun.com/best-of-the-bay/"
            ],
            "longitude": "-121.9869804"
        },
        "penguin island": {
            "latitude": "37.73246405",
            "closest_to": "sausalito",
            "address": "Penguin Island, To Little Puffer Steam Train, SF, California, 94166, United States of America",
            "locType": "attraction",
            "blogLinks": [
                "http://www.bayareakidfun.com/best-of-the-bay/"
            ],
            "longitude": "-122.50180545"
        },
        "muir beach": {
            "latitude": "37.8621493",
            "closest_to": "sausalito",
            "address": "Muir Beach, Marin County, California, United States of America",
            "locType": "hamlet",
            "blogLinks": [
                "http://californiathroughmylens.com/san-francisco-mendocino-guide",
                "http://www.bayareakidfun.com/best-of-the-bay/"
            ],
            "longitude": "-122.5813666"
        },
        "bay area discovery museum": {
            "latitude": "37.8357085",
            "closest_to": "sausalito",
            "address": "Bay Area Discovery Museum, East Road, Belvedere Island, Marin County, California, 94965, United States of America",
            "locType": "museum",
            "blogLinks": [
                "http://www.bayareakidfun.com/best-of-the-bay/"
            ],
            "longitude": "-122.4770556"
        },
        "yerba buena gardens": {
            "latitude": "37.78463535",
            "closest_to": "sausalito",
            "address": "Yerba Buena Gardens, Howard Street, South of Market, SF, California, 94103, United States of America",
            "locType": "park",
            "blogLinks": [
                "http://www.bayareakidfun.com/best-of-the-bay/"
            ],
            "longitude": "-122.402371810367"
        },
        "santa clara": {
            "latitude": "37.3541132",
            "closest_to": "fremont",
            "address": "Santa Clara, Santa Clara County, California, United States of America",
            "locType": "city",
            "blogLinks": [
                "http://www.bayareakidfun.com/best-of-the-bay/"
            ],
            "longitude": "-121.9551743"
        },
        "chinatown": {
            "latitude": "37.7999301",
            "closest_to": "sausalito",
            "address": "Chinatown, Oakland, Alameda County, California, ca, United States of America",
            "locType": "neighbourhood",
            "blogLinks": [
                "http://www.bestplaces.net/city/california/sausalito"
            ],
            "longitude": "-122.2702385"
        },
        "lawrence hall": {
            "latitude": "37.877629",
            "closest_to": "sausalito",
            "address": "Lawrence Berkeley National Laboratory, Chu Road, Northside, Berkeley, Alameda County, California, 94708, United States of America",
            "locType": "environmental_hazard",
            "blogLinks": [
                "http://www.bayareakidfun.com/best-of-the-bay/"
            ],
            "longitude": "-122.2520809"
        },
        "sonoma valley": {
            "latitude": "38.29331315",
            "closest_to": "sausalito",
            "address": "Sonoma Valley Chevron, 540, West Napa Street, Sonoma, Sonoma County, California, 95476, United States of America",
            "locType": "fuel",
            "blogLinks": [
                "http://www.sonomacounty.com/articles/day-trip-san-francisco-sonoma"
            ],
            "longitude": "-122.469385770353"
        },
        "san jose": {
            "latitude": "37.3361905",
            "closest_to": "fremont",
            "address": "San Jos\u00e9, Santa Clara County, California, United States of America",
            "locType": "city",
            "blogLinks": [
                "http://www.bestplaces.net/city/california/sausalito",
                "http://www.bayareakidfun.com/best-of-the-bay/"
            ],
            "longitude": "-121.8905832"
        },
        "san francisco zoo": {
            "latitude": "37.73292535",
            "closest_to": "sausalito",
            "address": "San Francisco Zoo, To Little Puffer Steam Train, SF, California, 94166, United States of America",
            "locType": "zoo",
            "blogLinks": [
                "http://www.bayareakidfun.com/best-of-the-bay/"
            ],
            "longitude": "-122.502355346322"
        },
        "daly city": {
            "latitude": "37.7057671",
            "closest_to": "sausalito",
            "address": "Daly City, San Mateo County, California, United States of America",
            "locType": "city",
            "blogLinks": [
                "http://www.bestplaces.net/city/california/sausalito"
            ],
            "longitude": "-122.4619204"
        },
        "great america": {
            "latitude": "37.4034903",
            "closest_to": "fremont",
            "address": "Great America, West Tasman Drive, Santa Clara, Santa Clara County, California, 95002, United States of America",
            "locType": "tram_stop",
            "blogLinks": [
                "http://www.bayareakidfun.com/best-of-the-bay/"
            ],
            "longitude": "-121.9743159"
        },
        "bay area": {
            "latitude": "37.7884969",
            "closest_to": "sausalito",
            "address": "San Francisco Bay Area, SF, California, United States of America",
            "locType": "region",
            "blogLinks": [
                "http://www.visitsfbayarea.com/destinations"
            ],
            "longitude": "-122.3558472"
        },
        "bonneau road": {
            "latitude": "38.2304425",
            "closest_to": "sausalito",
            "address": "Bonneau Road, Big Bend, Sonoma County, California, 95476, United States of America",
            "locType": "residential",
            "blogLinks": [
                "http://www.sonomacounty.com/articles/day-trip-san-francisco-sonoma"
            ],
            "longitude": "-122.470115"
        },
        "san francisco": {
            "latitude": "37.7792808",
            "closest_to": "sausalito",
            "address": "SF, California, United States of America",
            "locType": "city",
            "blogLinks": [
                "http://www.visitsfbayarea.com/destinations",
                "http://californiathroughmylens.com/san-francisco-mendocino-guide",
                "http://www.bestplaces.net/city/california/sausalito",
                "http://www.visitsfbayarea.com/marin-county/sausalito",
                "http://www.upout.com/blog/san-francisco-3/7-easy-weekend-getaways-within-100-miles-of-san-francisco",
                "http://www.bayareakidfun.com/best-of-the-bay/"
            ],
            "longitude": "-122.4192362"
        },
        "canada road": {
            "latitude": "37.5572346",
            "closest_to": "sausalito",
            "address": "La Canada Road, Hillsborough, San Mateo County, California, 94010, United States of America",
            "locType": "residential",
            "blogLinks": [
                "http://www.bayareakidfun.com/best-of-the-bay/"
            ],
            "longitude": "-122.3548905"
        },
        "san carlos": {
            "latitude": "37.4982065",
            "closest_to": "sausalito",
            "address": "San Carlos, San Mateo County, California, United States of America",
            "locType": "city",
            "blogLinks": [
                "http://www.bayareakidfun.com/best-of-the-bay/"
            ],
            "longitude": "-122.266149723864"
        },
        "napa": {
            "latitude": "38.2971367",
            "closest_to": "sausalito",
            "address": "Napa, Napa County, California, United States of America",
            "locType": "city",
            "blogLinks": [
                "http://www.sonomacounty.com/articles/day-trip-san-francisco-sonoma"
            ],
            "longitude": "-122.2855292"
        },
        "ca": {
            "latitude": "37.8242285466918",
            "closest_to": "sausalito",
            "address": "Piedmont, Alameda County, California, ca, United States of America",
            "locType": "postcode",
            "blogLinks": [
                "http://www.distancesfrom.com/us/how-far-is-Sausalito-from-Fremont/HowFarHistory/19721106.aspx",
                "http://www.distancesfrom.com/us/travel-from-Fremont-to-Sausalito/TravelFromHistory/19721106.aspx",
                "http://www.distancesfrom.com/us/Trip-Cost-from-Fremont-to-Sausalito/TripCostHistory/19721106.aspx"
            ],
            "longitude": "-122.232613735941"
        },
        "lindsay wildlife museum": {
            "latitude": "37.92339515",
            "closest_to": "sausalito",
            "address": "Lindsay Wildlife Experience, Briones to Mt. Diablo Trail, Walnut Creek, Contra Costa County, California, 94597, United States of America",
            "locType": "museum",
            "blogLinks": [
                "http://www.bayareakidfun.com/best-of-the-bay/"
            ],
            "longitude": "-122.075719984299"
        },
        "berkeley": {
            "latitude": "37.8708393",
            "closest_to": "sausalito",
            "address": "Berkeley, Alameda County, California, United States of America",
            "locType": "city",
            "blogLinks": [
                "http://www.bayareakidfun.com/best-of-the-bay/"
            ],
            "longitude": "-122.2728638"
        },
        "sausalito route": {
            "latitude": "37.8590272",
            "closest_to": "sausalito",
            "address": "Sausalito, Marin County, California, United States of America",
            "locType": "administrative",
            "blogLinks": [
                "http://www.distancesfrom.com/us/travel-from-Fremont-to-Sausalito/TravelFromHistory/19721106.aspx"
            ],
            "longitude": "-122.4854693"
        },
        "concord": {
            "latitude": "37.9768525",
            "closest_to": "sausalito",
            "address": "Concord, Contra Costa County, California, United States of America",
            "locType": "city",
            "blogLinks": [
                "http://www.bayareakidfun.com/best-of-the-bay/"
            ],
            "longitude": "-122.0335623"
        },
        "pescadero": {
            "latitude": "37.2516018",
            "closest_to": "fremont",
            "address": "Pescadero, San Mateo County, California, United States of America",
            "locType": "village",
            "blogLinks": [
                "http://www.upout.com/blog/san-francisco-3/7-easy-weekend-getaways-within-100-miles-of-san-francisco"
            ],
            "longitude": "-122.3821926"
        },
        "sacramento/central valley": {
            "latitude": "37.8705271",
            "closest_to": "sausalito",
            "address": "Sacramento Street, Central Berkeley, Berkeley, Alameda County, California, 94702, United States of America",
            "locType": "secondary",
            "blogLinks": [
                "http://www.visitsfbayarea.com/destinations"
            ],
            "longitude": "-122.2820304"
        },
        "lemur forest": {
            "latitude": "37.7329811",
            "closest_to": "sausalito",
            "address": "Lemur Forest, Entry Village, SF, California, 94166, United States of America",
            "locType": "attraction",
            "blogLinks": [
                "http://www.upout.com/blog/san-francisco-3/7-easy-weekend-getaways-within-100-miles-of-san-francisco"
            ],
            "longitude": "-122.504164031494"
        },
        "south san francisco": {
            "latitude": "37.6549493",
            "closest_to": "sausalito",
            "address": "South San Francisco, San Mateo County, California, United States of America",
            "locType": "administrative",
            "blogLinks": [
                "http://www.bestplaces.net/city/california/sausalito"
            ],
            "longitude": "-122.408125"
        },
        "san francisco botanical garden": {
            "latitude": "37.7673662",
            "closest_to": "sausalito",
            "address": "San Francisco Botanical Garden, Lincoln Way, Inner Sunset, SF, California, 94122, United States of America",
            "locType": "attraction",
            "blogLinks": [
                "http://www.bayareakidfun.com/best-of-the-bay/"
            ],
            "longitude": "-122.469608375011"
        },
        "fujitsu planetarium": {
            "latitude": "37.31892545",
            "closest_to": "fremont",
            "address": "Fujitsu Planetarium, Campus Drive, Cupertino, Santa Clara County, California, 95014-4221, United States of America",
            "locType": "attraction",
            "blogLinks": [
                "http://www.bayareakidfun.com/best-of-the-bay/"
            ],
            "longitude": "-122.046052500132"
        },
        "lafayette": {
            "latitude": "37.8857582",
            "closest_to": "sausalito",
            "address": "Lafayette, Contra Costa County, California, United States of America",
            "locType": "administrative",
            "blogLinks": [
                "http://www.bayareakidfun.com/best-of-the-bay/"
            ],
            "longitude": "-122.11802"
        },
        "fremont": {
            "latitude": "37.5482697",
            "closest_to": "fremont",
            "address": "Fremont, Alameda County, California, United States of America",
            "locType": "city",
            "blogLinks": [
                "http://www.distancesfrom.com/us/how-far-is-Sausalito-from-Fremont/HowFarHistory/19721106.aspx",
                "http://www.distancesfrom.com/us/travel-from-Fremont-to-Sausalito/TravelFromHistory/19721106.aspx",
                "http://www.distancesfrom.com/us/Trip-Cost-from-Fremont-to-Sausalito/TripCostHistory/19721106.aspx",
                "http://www.bayareakidfun.com/best-of-the-bay/"
            ],
            "longitude": "-121.9885718"
        },
        "golden gate park": {
            "latitude": "37.7693681",
            "closest_to": "sausalito",
            "address": "Golden Gate Park, Overlook Drive, Richmond District, SF, California, 94122, United States of America",
            "locType": "park",
            "blogLinks": [
                "http://www.bayareakidfun.com/best-of-the-bay/"
            ],
            "longitude": "-122.482183611177"
        },
        "walnut creek": {
            "latitude": "37.9063131",
            "closest_to": "sausalito",
            "address": "Walnut Creek, Contra Costa County, California, United States of America",
            "locType": "administrative",
            "blogLinks": [
                "http://www.bayareakidfun.com/best-of-the-bay/"
            ],
            "longitude": "-122.0649629"
        },
        "sausalito/marin county": {
            "latitude": "37.8590272",
            "closest_to": "sausalito",
            "address": "Sausalito, Marin County, California, United States of America",
            "locType": "administrative",
            "blogLinks": [
                "http://californiathroughmylens.com/san-francisco-mendocino-guide"
            ],
            "longitude": "-122.4854693"
        },
        "cupertino": {
            "latitude": "37.3230107",
            "closest_to": "fremont",
            "address": "Cupertino, Santa Clara County, California, United States of America",
            "locType": "city",
            "blogLinks": [
                "http://www.bayareakidfun.com/best-of-the-bay/"
            ],
            "longitude": "-122.0322518"
        },
        "pixieland": {
            "latitude": "37.9894542",
            "closest_to": "sausalito",
            "address": "Pixieland Amusement Park, Windy Grove Cars, Concord, Contra Costa County, California, 94519, United States of America",
            "locType": "theme_park",
            "blogLinks": [
                "http://www.bayareakidfun.com/best-of-the-bay/"
            ],
            "longitude": "-122.021839297124"
        },
        "stinson beach": {
            "latitude": "37.9008084",
            "closest_to": "sausalito",
            "address": "Stinson Beach, Marin County, California, United States of America",
            "locType": "hamlet",
            "blogLinks": [
                "http://www.upout.com/blog/san-francisco-3/7-easy-weekend-getaways-within-100-miles-of-san-francisco"
            ],
            "longitude": "-122.64508"
        },
        "menlo park": {
            "latitude": "37.4538274",
            "closest_to": "sausalito",
            "address": "Menlo Park, San Mateo County, California, United States of America",
            "locType": "administrative",
            "blogLinks": [
                "http://www.bestplaces.net/city/california/sausalito"
            ],
            "longitude": "-122.182187"
        }
    },
    "fremont": {
        "type": "city",
        "osm_id": "111943",
        "class": "place",
        "importance": 0.70373394703995,
        "lat": "37.5482697",
        "lon": "-121.9885718",
        "boundingbox": [
            "37.4539501",
            "37.6066739",
            "-122.1509872",
            "-121.8701127"
        ],
        "display_name": "Fremont, Alameda County, California, United States of America",
        "licence": "Data \u00a9 OpenStreetMap contributors, ODbL 1.0. http://www.openstreetmap.org/copyright",
        "icon": "https://nominatim.openstreetmap.org/images/mapicons/poi_place_city.p.20.png",
        "place_id": "159050638",
        "osm_type": "relation"
    },
    "sausalito": {
        "type": "administrative",
        "osm_id": "2829689",
        "class": "boundary",
        "importance": 0.64561533453658,
        "lat": "37.8590272",
        "lon": "-122.4854693",
        "boundingbox": [
            "37.8436795",
            "37.8731429",
            "-122.5102612",
            "-122.4753744"
        ],
        "display_name": "Sausalito, Marin County, California, United States of America",
        "licence": "Data \u00a9 OpenStreetMap contributors, ODbL 1.0. http://www.openstreetmap.org/copyright",
        "icon": "https://nominatim.openstreetmap.org/images/mapicons/poi_boundary_administrative.p.20.png",
        "place_id": "159575624",
        "osm_type": "relation"
    }
}