{
    "temecula": {
        "type": "city",
        "osm_id": "3866463",
        "class": "place",
        "importance": 0.66507963701587,
        "lat": "33.4946353",
        "lon": "-117.147366",
        "boundingbox": [
            "33.4321253",
            "33.554625",
            "-117.2066944",
            "-117.0548702"
        ],
        "display_name": "Temecula, Riverside County, California, United States of America",
        "licence": "Data \u00a9 OpenStreetMap contributors, ODbL 1.0. http://www.openstreetmap.org/copyright",
        "icon": "https://nominatim.openstreetmap.org/images/mapicons/poi_place_city.p.20.png",
        "place_id": "159718106",
        "osm_type": "relation"
    },
    "mentions": {
        "highway 101": {
            "latitude": "32.9967358",
            "closest_to": "temecula",
            "address": "Highway 101, Solana Beach, San Diego County, California, 92075, United States of America",
            "locType": "primary",
            "blogLinks": [
                "http://www.daytrippen.com/"
            ],
            "longitude": "-117.2731974"
        },
        "san jacinto": {
            "latitude": "33.7839084",
            "closest_to": "temecula",
            "address": "San Jacinto, Riverside County, California, United States of America",
            "locType": "city",
            "blogLinks": [
                "http://www.daytrippen.com/"
            ],
            "longitude": "-116.9586349"
        },
        "palos verdes peninsula ca": {
            "latitude": "33.77984925",
            "closest_to": "temecula",
            "address": "Palos Verdes Peninsula High School, Hawthorne Boulevard, Rolling Hills Estates, Los Angeles County, California, 90274, United States of America",
            "locType": "school",
            "blogLinks": [
                "http://www.california-blog.com/"
            ],
            "longitude": "-118.372196730215"
        },
        "temecula california": {
            "latitude": "33.4946353",
            "closest_to": "temecula",
            "address": "Temecula, Riverside County, California, United States of America",
            "locType": "city",
            "blogLinks": [
                "http://www.daytrippen.com/lake-elsinore-day-trip-things-to-do/"
            ],
            "longitude": "-117.147366"
        },
        "appalachian trail": {
            "latitude": "32.962334",
            "closest_to": "temecula",
            "address": "Appalachian Way, San Diego, San Diego County, California, 92129, United States of America",
            "locType": "residential",
            "blogLinks": [
                "https://www.tripadvisor.com/"
            ],
            "longitude": "-117.1246719"
        },
        "mount san jacinto ca": {
            "latitude": "33.7839084",
            "closest_to": "temecula",
            "address": "San Jacinto, Riverside County, California, United States of America",
            "locType": "city",
            "blogLinks": [
                "http://www.california-blog.com/"
            ],
            "longitude": "-116.9586349"
        },
        "temecula valley": {
            "latitude": "33.4481335",
            "closest_to": "temecula",
            "address": "U.S. Mormon Battalion Trail, Temecula Valley, CA 79, Aguanga, Riverside County, California, United States of America",
            "locType": "memorial",
            "blogLinks": [
                "http://www.temeculawines.org/plan-your-trip/",
                "http://www.daytrippen.com/"
            ],
            "longitude": "-116.8917787"
        },
        "orange empire railway museum": {
            "latitude": "33.7605517",
            "closest_to": "temecula",
            "address": "Orange Empire Railway Museum, Georgia Street, Perris, Riverside County, California, United States of America",
            "locType": "museum",
            "blogLinks": [
                "http://www.daytrippen.com/lake-elsinore-day-trip-things-to-do/"
            ],
            "longitude": "-117.2330019"
        },
        "san diego freeway": {
            "latitude": "32.7285162",
            "closest_to": "temecula",
            "address": "San Diego Freeway, Hillcrest, San Diego, San Diego County, California, 92101, United States of America",
            "locType": "motorway",
            "blogLinks": [
                "http://www.daytrippen.com/"
            ],
            "longitude": "-117.1690377"
        },
        "mount san gorgonio ca": {
            "latitude": "33.9121294",
            "closest_to": "temecula",
            "address": "San Gorgonio Avenue, Banning, Riverside County, California, 92220, United States of America",
            "locType": "secondary",
            "blogLinks": [
                "http://www.california-blog.com/"
            ],
            "longitude": "-116.8766731"
        },
        "mission bay ca": {
            "latitude": "37.7707742",
            "closest_to": "fremont",
            "address": "Mission Bay, SF, California, 94158, United States of America",
            "locType": "neighbourhood",
            "blogLinks": [
                "http://www.california-blog.com/"
            ],
            "longitude": "-122.3911711"
        },
        "us": {
            "latitude": "36.7014631",
            "closest_to": "temecula",
            "address": "California, United States of America",
            "locType": "administrative",
            "blogLinks": [
                "http://distancecalculator.globefeed.com/US_Distance_Calculator.asp?state=CA",
                "https://www.tripadvisor.com/Attractions-g33165-Activities-Temecula_California.html"
            ],
            "longitude": "-118.7559973"
        },
        "el portal": {
            "latitude": "37.6746526",
            "closest_to": "temecula",
            "address": "El Portal, Mariposa County, California, United States of America",
            "locType": "hamlet",
            "blogLinks": [
                "http://vegasexperience.com/25-fun-things-to-do-on-fremont-street-if-youve-blown-your-gambling-allowance/"
            ],
            "longitude": "-119.784068"
        },
        "green valley ranch": {
            "latitude": "39.7491385",
            "closest_to": "fremont",
            "address": "Valley Ranch, Portola McLears Road, Mabie, Plumas County, California, United States of America",
            "locType": "administrative",
            "blogLinks": [
                "http://www.travelvegas.com/cat/downtown/"
            ],
            "longitude": "-120.557831640871"
        },
        "moreno valley ca": {
            "latitude": "33.937517",
            "closest_to": "temecula",
            "address": "Moreno Valley, Riverside County, California, United States of America",
            "locType": "city",
            "blogLinks": [
                "http://www.california-blog.com/"
            ],
            "longitude": "-117.2305943"
        },
        "anthonys": {
            "latitude": "32.9531439",
            "closest_to": "temecula",
            "address": "Anthony's, Del Mar Heights Road, Del Mar, San Diego, San Diego County, California, 92130, United States of America",
            "locType": "shoemaker",
            "blogLinks": [
                "https://www.yelp.com/list/places-in-or-near-temecula-and-san-diego-ca-temecula"
            ],
            "longitude": "-117.2325474"
        },
        "bridgeport": {
            "latitude": "38.255757",
            "closest_to": "temecula",
            "address": "Bridgeport, Mono County, California, United States of America",
            "locType": "village",
            "blogLinks": [
                "http://www.daytrippen.com/"
            ],
            "longitude": "-119.2312664"
        },
        "santa monica mountains": {
            "latitude": "34.11008435",
            "closest_to": "temecula",
            "address": "Santa Monica Mountains National Recreation Area, Simes Lane, Seminole Hot Springs, Los Angeles County, California, 91301, United States of America",
            "locType": "protected_area",
            "blogLinks": [
                "http://www.daytrippen.com/"
            ],
            "longitude": "-118.789983284662"
        },
        "corona": {
            "latitude": "37.0066161",
            "closest_to": "temecula",
            "address": "La Corona, Santa Cruz, Santa Cruz County, California, United States of America",
            "locType": "peak",
            "blogLinks": [
                "http://www.daytrippen.com/lake-elsinore-day-trip-things-to-do/"
            ],
            "longitude": "-121.9969062"
        },
        "irvine": {
            "latitude": "33.6856969",
            "closest_to": "temecula",
            "address": "Irvine, Orange County, California, United States of America",
            "locType": "city",
            "blogLinks": [
                "http://www.daytrippen.com/"
            ],
            "longitude": "-117.8259818"
        },
        "seattle": {
            "latitude": "41.9641881",
            "closest_to": "fremont",
            "address": "Seattle, Dorris, Siskiyou County, California, 96023, United States of America",
            "locType": "residential",
            "blogLinks": [
                "http://www.fremontuniverse.com/"
            ],
            "longitude": "-121.9226289"
        },
        "imperial valley": {
            "latitude": "33.0305487",
            "closest_to": "temecula",
            "address": "Imperial County, California, United States of America",
            "locType": "administrative",
            "blogLinks": [
                "http://www.daytrippen.com/"
            ],
            "longitude": "-115.3595665"
        },
        "fourth street": {
            "latitude": "34.0456752",
            "closest_to": "temecula",
            "address": "Fourth Street, Walnut Hills Mobile Home Park, Pomona, Los Angeles County, California, 91765, United States of America",
            "locType": "residential",
            "blogLinks": [
                "http://www.travelvegas.com/cat/downtown/"
            ],
            "longitude": "-117.819163"
        },
        "southern california": {
            "latitude": "34.0224149",
            "closest_to": "temecula",
            "address": "University of Southern California, Watt Way, Saint James Park, LA, Los Angeles County, California, 90089, United States of America",
            "locType": "university",
            "blogLinks": [
                "http://www.daytrippen.com/lake-elsinore-day-trip-things-to-do/",
                "http://www.daytrippen.com/"
            ],
            "longitude": "-118.286343973446"
        },
        "morro rock ca": {
            "latitude": "35.369669",
            "closest_to": "temecula",
            "address": "Morro Rock, Morro Bay, San Luis Obispo County, California, United States of America",
            "locType": "peak",
            "blogLinks": [
                "http://www.california-blog.com/"
            ],
            "longitude": "-120.8676993"
        },
        "old town san diego": {
            "latitude": "32.7542167",
            "closest_to": "temecula",
            "address": "Old Town San Diego, San Diego County, California, United States of America",
            "locType": "hamlet",
            "blogLinks": [
                "http://www.california-blog.com/"
            ],
            "longitude": "-117.1969792"
        },
        "santa barbara": {
            "latitude": "34.4221319",
            "closest_to": "temecula",
            "address": "Santa Barbara, Santa Barbara County, California, United States of America",
            "locType": "city",
            "blogLinks": [
                "http://www.daytrippen.com/"
            ],
            "longitude": "-119.7026672"
        },
        "chilnualna falls": {
            "latitude": "37.5486657",
            "closest_to": "temecula",
            "address": "North Chilnualna Falls Road, North Wawona, Mariposa County, California, 95389, United States of America",
            "locType": "residential",
            "blogLinks": [
                "http://www.tripleblaze.com/best/?c=8"
            ],
            "longitude": "-119.633114"
        },
        "colorado": {
            "latitude": "33.71351445",
            "closest_to": "temecula",
            "address": "Colorado, Walnut, Irvine, Orange County, California, 92606, United States of America",
            "locType": "residential",
            "blogLinks": [
                "http://www.travelvegas.com/cat/downtown/"
            ],
            "longitude": "-117.791165718199"
        },
        "nevada": {
            "latitude": "39.3540335",
            "closest_to": "fremont",
            "address": "Nevada County, California, United States of America",
            "locType": "administrative",
            "blogLinks": [
                "http://www.daytrippen.com/"
            ],
            "longitude": "-120.8089842"
        },
        "rancho california road": {
            "latitude": "33.5023506",
            "closest_to": "temecula",
            "address": "Rancho California Road, Temecula Gardens, Old Town, Temecula, Riverside County, California, 92390, United States of America",
            "locType": "primary",
            "blogLinks": [
                "http://www.daytrippen.com/"
            ],
            "longitude": "-117.1493902"
        },
        "university drive": {
            "latitude": "33.9652539",
            "closest_to": "temecula",
            "address": "University Drive, Riverside, Riverside County, California, 92521, United States of America",
            "locType": "residential",
            "blogLinks": [
                "http://www.daytrippen.com/"
            ],
            "longitude": "-117.3271935"
        },
        "central coast": {
            "latitude": "35.3611193",
            "closest_to": "temecula",
            "address": "Central Coast Street, Bakersfield, Kern County, California, 93314, United States of America",
            "locType": "residential",
            "blogLinks": [
                "http://www.daytrippen.com/"
            ],
            "longitude": "-119.1665989"
        },
        "ogden": {
            "latitude": "34.0674563",
            "closest_to": "temecula",
            "address": "South Ogden Drive, Park La Brea, Hollywood, LA, Los Angeles County, California, 90036, United States of America",
            "locType": "residential",
            "blogLinks": [
                "http://www.travelvegas.com/cat/downtown/"
            ],
            "longitude": "-118.3604717"
        },
        "aliso creek": {
            "latitude": "33.602558",
            "closest_to": "temecula",
            "address": "Aliso Creek, Laguna Woods, Orange County, California, United States of America",
            "locType": "stream",
            "blogLinks": [
                "http://www.tripleblaze.com/best/?c=8"
            ],
            "longitude": "-117.7034805"
        },
        "palm springs": {
            "latitude": "33.8246269",
            "closest_to": "temecula",
            "address": "Palm Springs, Riverside County, California, United States of America",
            "locType": "city",
            "blogLinks": [
                "http://www.daytrippen.com/"
            ],
            "longitude": "-116.5403029"
        },
        "mount baldy ca": {
            "latitude": "34.2361168",
            "closest_to": "temecula",
            "address": "Mount Baldy, Los Angeles County, California, United States of America",
            "locType": "hamlet",
            "blogLinks": [
                "http://www.california-blog.com/"
            ],
            "longitude": "-117.6600552"
        },
        "eaton canyon park": {
            "latitude": "34.18216575",
            "closest_to": "temecula",
            "address": "Eaton Canyon Park, Canyon View Lane, Pasadena, Los Angeles County, California, 91107, United States of America",
            "locType": "park",
            "blogLinks": [
                "http://www.tripleblaze.com/best/?c=8"
            ],
            "longitude": "-118.095556461784"
        },
        "mount palomar ca": {
            "latitude": "33.1278146",
            "closest_to": "temecula",
            "address": "California Bank & Trust, 2501, Palomar Airport Road, Carlsbad, San Diego County, California, 92011, United States of America",
            "locType": "bank",
            "blogLinks": [
                "http://www.california-blog.com/"
            ],
            "longitude": "-117.270809764613"
        },
        "bellagio": {
            "latitude": "33.5203333",
            "closest_to": "temecula",
            "address": "Bellagio, Laguna Niguel, Orange County, California, 92677, United States of America",
            "locType": "residential",
            "blogLinks": [
                "http://vegasexperience.com/25-fun-things-to-do-on-fremont-street-if-youve-blown-your-gambling-allowance/"
            ],
            "longitude": "-117.7012358"
        },
        "mojave": {
            "latitude": "35.0524699",
            "closest_to": "temecula",
            "address": "Mojave, Kern County, California, United States of America",
            "locType": "village",
            "blogLinks": [
                "http://www.daytrippen.com/"
            ],
            "longitude": "-118.1739644"
        },
        "canada": {
            "latitude": "33.7298842",
            "closest_to": "temecula",
            "address": "La Canada, Lower Peters Canyon, Irvine, Orange County, California, 92602, United States of America",
            "locType": "residential",
            "blogLinks": [
                "http://www.fremontuniverse.com/"
            ],
            "longitude": "-117.7641381"
        },
        "creek": {
            "latitude": "39.3751013",
            "closest_to": "fremont",
            "address": "Creek, Mendocino County, California, United States of America",
            "locType": "stream",
            "blogLinks": [
                "http://www.tripleblaze.com/best/?c=8"
            ],
            "longitude": "-123.0482197"
        },
        "california st.": {
            "latitude": "37.7936491",
            "closest_to": "fremont",
            "address": "California Street, Financial District, SF, California, 94121, United States of America",
            "locType": "tertiary",
            "blogLinks": [
                "http://www.travelvegas.com/cat/downtown/"
            ],
            "longitude": "-122.3965522"
        },
        "pacific northwest": {
            "latitude": "37.98042375",
            "closest_to": "temecula",
            "address": "University of the Pacific, 3601, Pacific Avenue, Stockton, San Joaquin County, California, 95211, United States of America",
            "locType": "university",
            "blogLinks": [
                "http://www.fremontuniverse.com/"
            ],
            "longitude": "-121.312847098327"
        },
        "morongo valley": {
            "latitude": "34.0537585",
            "closest_to": "temecula",
            "address": "Morongo Valley, Vista Drive, Morongo Valley, San Bernardino County, California, 92256, United States of America",
            "locType": "administrative",
            "blogLinks": [
                "http://www.california-blog.com/"
            ],
            "longitude": "-116.596723958419"
        },
        "napa valley ca": {
            "latitude": "38.2972603",
            "closest_to": "fremont",
            "address": "California Boulevard, Napa, Napa County, California, 94558, United States of America",
            "locType": "secondary",
            "blogLinks": [
                "http://www.california-blog.com/"
            ],
            "longitude": "-122.3002947"
        },
        "capitan state beach": {
            "latitude": "34.48736925",
            "closest_to": "temecula",
            "address": "El Capitan State Beach, Bill Wallace Trail, Santa Barbara County, California, United States of America",
            "locType": "park",
            "blogLinks": [
                "http://www.daytrippen.com/"
            ],
            "longitude": "-120.012544859619"
        },
        "morro bay ca": {
            "latitude": "35.3658075",
            "closest_to": "temecula",
            "address": "Morro Bay, San Luis Obispo County, California, United States of America",
            "locType": "city",
            "blogLinks": [
                "http://www.california-blog.com/"
            ],
            "longitude": "-120.8499012"
        },
        "monterey peninsula ca": {
            "latitude": "36.5878734",
            "closest_to": "temecula",
            "address": "Monterey Regional Airport, Airport Road, Seaside, Del Monte Heights, Monterey County, California, 93940, United States of America",
            "locType": "aerodrome",
            "blogLinks": [
                "http://www.california-blog.com/"
            ],
            "longitude": "-121.843618374407"
        },
        "alpha phi": {
            "latitude": "37.9818363",
            "closest_to": "temecula",
            "address": "Alpha Phi, Presidents Drive, Stockton, San Joaquin County, California, 95211, United States of America",
            "locType": "yes",
            "blogLinks": [
                "http://www.fremontuniverse.com/"
            ],
            "longitude": "-121.311315241098"
        },
        "port san luis": {
            "latitude": "35.1749752",
            "closest_to": "temecula",
            "address": "Port San Luis, San Luis Obispo County, California, United States of America",
            "locType": "hamlet",
            "blogLinks": [
                "http://www.daytrippen.com/"
            ],
            "longitude": "-120.7551761"
        },
        "strawberry hills": {
            "latitude": "34.1518298",
            "closest_to": "temecula",
            "address": "Strawberry Hill, Agoura Hills, Los Angeles County, California, United States of America",
            "locType": "peak",
            "blogLinks": [
                "http://www.daytrippen.com/"
            ],
            "longitude": "-118.7720129"
        },
        "fremont": {
            "latitude": "37.5482697",
            "closest_to": "fremont",
            "address": "Fremont, Alameda County, California, United States of America",
            "locType": "city",
            "blogLinks": [
                "http://www.fremontuniverse.com/",
                "http://vegasexperience.com/25-fun-things-to-do-on-fremont-street-if-youve-blown-your-gambling-allowance/",
                "http://www.travelvegas.com/cat/downtown/"
            ],
            "longitude": "-121.9885718"
        },
        "lake elsinore": {
            "latitude": "33.6680772",
            "closest_to": "temecula",
            "address": "Lake Elsinore, Riverside County, California, United States of America",
            "locType": "administrative",
            "blogLinks": [
                "http://www.daytrippen.com/lake-elsinore-day-trip-things-to-do/",
                "https://www.yelp.com/list/places-in-or-near-temecula-and-san-diego-ca-temecula"
            ],
            "longitude": "-117.3272614"
        },
        "temecula": {
            "latitude": "33.4946353",
            "closest_to": "temecula",
            "address": "Temecula, Riverside County, California, United States of America",
            "locType": "city",
            "blogLinks": [
                "http://www.daytrippen.com/lake-elsinore-day-trip-things-to-do/",
                "https://www.yelp.com/list/places-in-or-near-temecula-and-san-diego-ca-temecula",
                "http://temeculaca.gov/207/Things-To-Do-Lodging-Transportation"
            ],
            "longitude": "-117.147366"
        },
        "monrovia": {
            "latitude": "34.1483499",
            "closest_to": "temecula",
            "address": "Monrovia, Los Angeles County, California, United States of America",
            "locType": "city",
            "blogLinks": [
                "http://www.california-blog.com/"
            ],
            "longitude": "-118.0014516"
        },
        "windsor": {
            "latitude": "38.519758",
            "closest_to": "fremont",
            "address": "Windsor, Sonoma County, California, United States of America",
            "locType": "administrative",
            "blogLinks": [
                "http://www.fremontuniverse.com/"
            ],
            "longitude": "-122.804427291464"
        },
        "newport beach ca": {
            "latitude": "33.6170092",
            "closest_to": "temecula",
            "address": "Newport Beach, Orange County, California, United States of America",
            "locType": "city",
            "blogLinks": [
                "http://www.california-blog.com/"
            ],
            "longitude": "-117.92944"
        },
        "la": {
            "latitude": "36.7014631",
            "closest_to": "temecula",
            "address": "California, United States of America",
            "locType": "administrative",
            "blogLinks": [
                "http://www.winecountry.com/blog/",
                "http://gocalifornia.about.com/od/topcalifornia/qt/From-To-In-California.htm"
            ],
            "longitude": "-118.7559973"
        },
        "el capitan state beach": {
            "latitude": "34.48736925",
            "closest_to": "temecula",
            "address": "El Capitan State Beach, Bill Wallace Trail, Santa Barbara County, California, United States of America",
            "locType": "park",
            "blogLinks": [
                "http://www.daytrippen.com/"
            ],
            "longitude": "-120.012544859619"
        },
        "whittier hills whittier": {
            "latitude": "33.9397495",
            "closest_to": "temecula",
            "address": "Whittwood Branch Whittier Public Library, Starbuck Street, Friendly Hills, Whittier, Los Angeles County, California, 90603, United States of America",
            "locType": "library",
            "blogLinks": [
                "http://www.tripleblaze.com/best/?c=8"
            ],
            "longitude": "-117.993545449378"
        },
        "pacific crest trail": {
            "latitude": "38.69418",
            "closest_to": "fremont",
            "address": "Pacific Crest Trail, Pleasant Valley, El Dorado County, California, 95667, United States of America",
            "locType": "residential",
            "blogLinks": [
                "http://www.tripleblaze.com/best/?c=8"
            ],
            "longitude": "-120.6375709"
        },
        "xa6laguna lake park": {
            "latitude": "39.4390595",
            "closest_to": "fremont",
            "address": "Pike, Sierra County, California, United States of America",
            "locType": "hamlet",
            "blogLinks": [
                "http://www.daytrippen.com/"
            ],
            "longitude": "-120.9980078"
        },
        "freemont street": {
            "latitude": "36.001262",
            "closest_to": "temecula",
            "address": "Freemont Street, Avenal, Kings County, California, 93204, United States of America",
            "locType": "residential",
            "blogLinks": [
                "http://vegasexperience.com/25-fun-things-to-do-on-fremont-street-if-youve-blown-your-gambling-allowance/",
                "http://gocalifornia.about.com/od/topcalifornia/qt/From-To-In-California.htm",
                "https://www.vegas.com/attractions/off-the-strip/fremont-street-experience/"
            ],
            "longitude": "-120.1119339"
        },
        "baltimore": {
            "latitude": "39.3876798",
            "closest_to": "fremont",
            "address": "Baltimore Town, Nevada County, California, United States of America",
            "locType": "hamlet",
            "blogLinks": [
                "https://www.tripadvisor.com/"
            ],
            "longitude": "-120.5402091"
        },
        "old town temecula": {
            "latitude": "33.49487155",
            "closest_to": "temecula",
            "address": "Old Town Temecula, 5th Street, Villa Del Sol, Old Town, Temecula, Riverside County, California, 92590, United States of America",
            "locType": "attraction",
            "blogLinks": [
                "http://www.fremontuniverse.com/"
            ],
            "longitude": "-117.149796716459"
        },
        "pebble beach ca": {
            "latitude": "36.5664874",
            "closest_to": "temecula",
            "address": "Pebble Beach, Monterey County, California, United States of America",
            "locType": "hamlet",
            "blogLinks": [
                "http://www.california-blog.com/"
            ],
            "longitude": "-121.9466112"
        },
        "valley center": {
            "latitude": "33.2183701",
            "closest_to": "temecula",
            "address": "Valley Center, San Diego County, California, United States of America",
            "locType": "administrative",
            "blogLinks": [
                "http://www.daytrippen.com/"
            ],
            "longitude": "-117.0341966"
        },
        "donner lake rim": {
            "latitude": "39.349315",
            "closest_to": "fremont",
            "address": "Donner Lake Rim Trail, Donner, Nevada County, California, 95724, United States of America",
            "locType": "footway",
            "blogLinks": [
                "http://www.tripleblaze.com/best/?c=8"
            ],
            "longitude": "-120.3406539"
        },
        "ojai valley": {
            "latitude": "34.4480495",
            "closest_to": "temecula",
            "address": "Ojai, Ventura County, California, United States of America",
            "locType": "city",
            "blogLinks": [
                "http://www.california-blog.com/"
            ],
            "longitude": "-119.2428889"
        },
        "santa rosa mountains": {
            "latitude": "33.412282",
            "closest_to": "temecula",
            "address": "Santa Rosa Mountains State Wilderness, San Diego County, California, United States of America",
            "locType": "nature_reserve",
            "blogLinks": [
                "http://www.daytrippen.com/"
            ],
            "longitude": "-116.231717855027"
        },
        "san juan capistrano": {
            "latitude": "33.5016932",
            "closest_to": "temecula",
            "address": "San Juan Capistrano, Orange County, California, United States of America",
            "locType": "city",
            "blogLinks": [
                "http://www.daytrippen.com/"
            ],
            "longitude": "-117.6625508"
        },
        "lakeshore": {
            "latitude": "37.2529407",
            "closest_to": "temecula",
            "address": "Lakeshore, Fresno County, California, United States of America",
            "locType": "hamlet",
            "blogLinks": [
                "http://www.daytrippen.com/lake-elsinore-day-trip-things-to-do/"
            ],
            "longitude": "-119.1748428"
        },
        "santa maria": {
            "latitude": "34.9531295",
            "closest_to": "temecula",
            "address": "Santa Maria, Santa Barbara County, California, United States of America",
            "locType": "city",
            "blogLinks": [
                "http://www.daytrippen.com/"
            ],
            "longitude": "-120.4358576"
        },
        "aurora": {
            "latitude": "37.65993",
            "closest_to": "temecula",
            "address": "Aurora, Stanislaus County, California, United States of America",
            "locType": "hamlet",
            "blogLinks": [
                "http://www.fremontuniverse.com/"
            ],
            "longitude": "-121.002712"
        },
        "downtown los angeles": {
            "latitude": "34.1789188",
            "closest_to": "temecula",
            "address": "Downtown Burbank, Front Street, Burbank, Los Angeles County, California, 91502, United States of America",
            "locType": "station",
            "blogLinks": [
                "http://www.daytrippen.com/"
            ],
            "longitude": "-118.312628"
        },
        "east mojave": {
            "latitude": "35.0596474",
            "closest_to": "temecula",
            "address": "E, Flight Line, Mojave, Kern County, California, 93501, United States of America",
            "locType": "taxiway",
            "blogLinks": [
                "http://www.daytrippen.com/"
            ],
            "longitude": "-118.1576185"
        },
        "owens valley": {
            "latitude": "36.61562975",
            "closest_to": "temecula",
            "address": "Owens Valley, Lone Pine, Inyo County, California, 93545, United States of America",
            "locType": "desert",
            "blogLinks": [
                "http://www.daytrippen.com/"
            ],
            "longitude": "-118.109577818995"
        },
        "paris": {
            "latitude": "34.4719383",
            "closest_to": "temecula",
            "address": "Paris, Los Angeles County, California, United States of America",
            "locType": "hamlet",
            "blogLinks": [
                "http://www.fremontuniverse.com/"
            ],
            "longitude": "-118.1809078"
        },
        "san pedro": {
            "latitude": "33.7358518",
            "closest_to": "temecula",
            "address": "San Pedro, LA, Los Angeles County, California, United States of America",
            "locType": "suburb",
            "blogLinks": [
                "http://www.daytrippen.com/"
            ],
            "longitude": "-118.2922933"
        },
        "main street station": {
            "latitude": "33.8099744",
            "closest_to": "temecula",
            "address": "Main Street Station, Main Street, Anaheim Resort District, Anaheim, Orange County, California, 217, United States of America",
            "locType": "attraction",
            "blogLinks": [
                "http://vegasexperience.com/25-fun-things-to-do-on-fremont-street-if-youve-blown-your-gambling-allowance/"
            ],
            "longitude": "-117.9189513"
        },
        "north lake ca": {
            "latitude": "37.76958295",
            "closest_to": "fremont",
            "address": "North Lake, Chain of Lakes Drive East, Sunset District, SF, California, 94122, United States of America",
            "locType": "water",
            "blogLinks": [
                "http://www.california-blog.com/"
            ],
            "longitude": "-122.501983281136"
        },
        "golden gate": {
            "latitude": "37.8190177",
            "closest_to": "fremont",
            "address": "Golden Gate, Golden Gate Bridge, Waldo, Marin County, California, 94965, United States of America",
            "locType": "strait",
            "blogLinks": [
                "http://vegasexperience.com/25-fun-things-to-do-on-fremont-street-if-youve-blown-your-gambling-allowance/",
                "http://www.travelvegas.com/cat/downtown/"
            ],
            "longitude": "-122.4793972"
        },
        "orange county": {
            "latitude": "33.7500378",
            "closest_to": "temecula",
            "address": "Orange County, California, United States of America",
            "locType": "administrative",
            "blogLinks": [
                "http://www.daytrippen.com/"
            ],
            "longitude": "-117.870493"
        },
        "diamond valley lake": {
            "latitude": "33.679902",
            "closest_to": "temecula",
            "address": "Diamond Valley Lake, Old Mine Road, Egan, Riverside County, California, 92543, United States of America",
            "locType": "water",
            "blogLinks": [
                "http://www.travelvegas.com/cat/downtown/"
            ],
            "longitude": "-117.027609780569"
        },
        "pizza rock": {
            "latitude": "33.6497659",
            "closest_to": "temecula",
            "address": "Blaze Pizza, Watson Bridge, Turtle Rock, Irvine, Orange County, California, 92617, United States of America",
            "locType": "restaurant",
            "blogLinks": [
                "http://www.travelvegas.com/cat/downtown/"
            ],
            "longitude": "-117.8390606"
        },
        "los angeles/anaheim": {
            "latitude": "33.7803597",
            "closest_to": "temecula",
            "address": "Global Tires of California, 233, East Anaheim Street, Wilmington, LA, Los Angeles County, California, 90744, United States of America",
            "locType": "car_repair",
            "blogLinks": [
                "http://gocalifornia.about.com/od/topcalifornia/qt/From-To-In-California.htm"
            ],
            "longitude": "-118.2602935"
        },
        "los angeles": {
            "latitude": "34.0543942",
            "closest_to": "temecula",
            "address": "LA, Los Angeles County, California, United States of America",
            "locType": "city",
            "blogLinks": [
                "http://www.daytrippen.com/lake-elsinore-day-trip-things-to-do/",
                "http://gocalifornia.about.com/od/topcalifornia/qt/From-To-In-California.htm"
            ],
            "longitude": "-118.2439408"
        },
        "new york": {
            "latitude": "34.0143928",
            "closest_to": "temecula",
            "address": "New York, West Covina, Los Angeles County, California, 91792, United States of America",
            "locType": "service",
            "blogLinks": [
                "http://www.fremontuniverse.com/"
            ],
            "longitude": "-117.8984509"
        },
        "san diego": {
            "latitude": "32.7174209",
            "closest_to": "temecula",
            "address": "San Diego, San Diego County, California, United States of America",
            "locType": "city",
            "blogLinks": [
                "http://www.tripleblaze.com/best/?c=8",
                "https://www.yelp.com/list/places-in-or-near-temecula-and-san-diego-ca-temecula",
                "http://gocalifornia.about.com/od/topcalifornia/qt/From-To-In-California.htm",
                "http://www.temeculawines.org/plan-your-trip/",
                "http://www.daytrippen.com/"
            ],
            "longitude": "-117.1627713"
        },
        "gold coast": {
            "latitude": "37.8038335",
            "closest_to": "fremont",
            "address": "Lakeside, Oakland, Alameda County, California, 94611, United States of America",
            "locType": "neighbourhood",
            "blogLinks": [
                "http://www.travelvegas.com/cat/downtown/"
            ],
            "longitude": "-122.2630806"
        },
        "la bayou": {
            "latitude": "33.705116",
            "closest_to": "temecula",
            "address": "Bayou, Northwood, Irvine, Orange County, California, 92620, United States of America",
            "locType": "residential",
            "blogLinks": [
                "http://vegasexperience.com/25-fun-things-to-do-on-fremont-street-if-youve-blown-your-gambling-allowance/",
                "http://www.travelvegas.com/cat/downtown/"
            ],
            "longitude": "-117.7631222"
        },
        "mono lake ca": {
            "latitude": "38.0077189",
            "closest_to": "temecula",
            "address": "Mono Lake, Mono County, California, United States of America",
            "locType": "water",
            "blogLinks": [
                "http://www.california-blog.com/"
            ],
            "longitude": "-118.967033937845"
        },
        "' ocean": {
            "latitude": "33.9157306",
            "closest_to": "temecula",
            "address": "Ocean, Hawthorne, Los Angeles County, California, 90261, United States of America",
            "locType": "residential",
            "blogLinks": [
                "http://www.daytrippen.com/"
            ],
            "longitude": "-118.3763704"
        },
        "vegas strip": {
            "latitude": "36.12050715",
            "closest_to": "temecula",
            "address": "California Pizza Kitchen, South Las Vegas Boulevard, Hughes Center, Paradise, Clark County, Nevada, 89123, United States of America",
            "locType": "restaurant",
            "blogLinks": [
                "http://www.travelvegas.com/cat/downtown/"
            ],
            "longitude": "-115.173775796208"
        },
        "las vegas": {
            "latitude": "36.17310935",
            "closest_to": "temecula",
            "address": "California Hotel, Sky Walk(Connection from Main Street to California, Cultural Corridor, Vegas Heights, Las Vegas, Clark County, Nevada, 89101, United States of America",
            "locType": "hotel",
            "blogLinks": [
                "http://www.travelvegas.com/cat/downtown/",
                "http://www.seattle.gov/visiting-seattle",
                "https://www.vegas.com/attractions/off-the-strip/fremont-street-experience/",
                "http://vegasexperience.com/25-fun-things-to-do-on-fremont-street-if-youve-blown-your-gambling-allowance/",
                "http://www.daytrippen.com/",
                "https://www.yelp.com/list/places-in-or-near-temecula-and-san-diego-ca-temecula",
                "http://gocalifornia.about.com/od/topcalifornia/qt/From-To-In-California.htm"
            ],
            "longitude": "-115.144667930325"
        },
        "united states": {
            "latitude": "36.7014631",
            "closest_to": "temecula",
            "address": "California, United States of America",
            "locType": "administrative",
            "blogLinks": [
                "http://www.fremontuniverse.com/",
                "https://www.tripadvisor.com/Attractions-g33165-Activities-Temecula_California.html",
                "https://www.tripadvisor.com/"
            ],
            "longitude": "-118.7559973"
        },
        "summerlin": {
            "latitude": "37.6999",
            "closest_to": "temecula",
            "address": "Summerlin Drive, Modesto, Stanislaus County, California, 95356, United States of America",
            "locType": "residential",
            "blogLinks": [
                "http://www.travelvegas.com/cat/downtown/"
            ],
            "longitude": "-121.0385659"
        },
        "ontario": {
            "latitude": "34.065846",
            "closest_to": "temecula",
            "address": "Ontario, San Bernardino County, California, United States of America",
            "locType": "city",
            "blogLinks": [
                "http://www.california-blog.com/"
            ],
            "longitude": "-117.6484303"
        },
        "lakeshore drive": {
            "latitude": "33.6909623",
            "closest_to": "temecula",
            "address": "Lakeshore Drive, Terra Cotta, Lake Elsinore, Riverside County, California, 92530, United States of America",
            "locType": "secondary",
            "blogLinks": [
                "http://www.daytrippen.com/lake-elsinore-day-trip-things-to-do/"
            ],
            "longitude": "-117.3769389"
        },
        "el cortez": {
            "latitude": "37.4753394",
            "closest_to": "temecula",
            "address": "Cortez, Ballico, Merced County, California, United States of America",
            "locType": "locality",
            "blogLinks": [
                "http://www.travelvegas.com/cat/downtown/"
            ],
            "longitude": "-120.739782"
        },
        "fremont east": {
            "latitude": "37.5482697",
            "closest_to": "fremont",
            "address": "Fremont, Alameda County, California, United States of America",
            "locType": "city",
            "blogLinks": [
                "http://vegasexperience.com/25-fun-things-to-do-on-fremont-street-if-youve-blown-your-gambling-allowance/",
                "http://www.travelvegas.com/cat/downtown/"
            ],
            "longitude": "-121.9885718"
        },
        "san luis bay": {
            "latitude": "35.1705821",
            "closest_to": "temecula",
            "address": "San Luis Bay, Avila Beach Drive, Port San Luis, San Luis Obispo County, California, 93424, United States of America",
            "locType": "bay",
            "blogLinks": [
                "http://www.daytrippen.com/"
            ],
            "longitude": "-120.7503094"
        },
        "pacific ocean": {
            "latitude": "36.16305775",
            "closest_to": "temecula",
            "address": "Pacific Ocean, Cabrillo Highway, Monterey County, California, 93920, United States of America",
            "locType": "cliff",
            "blogLinks": [
                "http://www.daytrippen.com/"
            ],
            "longitude": "-121.678715787326"
        },
        "henderson": {
            "latitude": "37.4793824",
            "closest_to": "fremont",
            "address": "Henderson, San Mateo County, California, United States of America",
            "locType": "hamlet",
            "blogLinks": [
                "http://www.travelvegas.com/cat/downtown/"
            ],
            "longitude": "-122.1655199"
        },
        "san francisco": {
            "latitude": "37.7792808",
            "closest_to": "fremont",
            "address": "SF, California, United States of America",
            "locType": "city",
            "blogLinks": [
                "http://gocalifornia.about.com/od/topcalifornia/qt/From-To-In-California.htm"
            ],
            "longitude": "-122.4192362"
        },
        "sacramento": {
            "latitude": "38.5815719",
            "closest_to": "fremont",
            "address": "Sacramento, Sacramento County, California, United States of America",
            "locType": "city",
            "blogLinks": [
                "http://www.daytrippen.com/"
            ],
            "longitude": "-121.4943995"
        },
        "irvine park": {
            "latitude": "33.9082151",
            "closest_to": "temecula",
            "address": "Irvine Park, Beaumont, Riverside County, California, 92223, United States of America",
            "locType": "residential",
            "blogLinks": [
                "http://www.daytrippen.com/"
            ],
            "longitude": "-116.9604311"
        },
        "agoura hills": {
            "latitude": "34.1363945",
            "closest_to": "temecula",
            "address": "Agoura Hills, Los Angeles County, California, United States of America",
            "locType": "city",
            "blogLinks": [
                "http://www.daytrippen.com/"
            ],
            "longitude": "-118.7745347"
        },
        "airbnb": {
            "latitude": "37.7719568",
            "closest_to": "fremont",
            "address": "Airbnb, 888, Brannan Street, West SoMa, SF, California, 94103, United States of America",
            "locType": "company",
            "blogLinks": [
                "http://www.fremontuniverse.com/"
            ],
            "longitude": "-122.4054483"
        },
        "pasadena": {
            "latitude": "34.1476452",
            "closest_to": "temecula",
            "address": "Pasadena, Los Angeles County, California, United States of America",
            "locType": "city",
            "blogLinks": [
                "http://www.tripleblaze.com/best/?c=8"
            ],
            "longitude": "-118.1444778"
        },
        "central coast of california": {
            "latitude": "35.3611193",
            "closest_to": "temecula",
            "address": "Central Coast Street, Bakersfield, Kern County, California, 93314, United States of America",
            "locType": "residential",
            "blogLinks": [
                "http://www.daytrippen.com/"
            ],
            "longitude": "-119.1665989"
        },
        "lake skinner": {
            "latitude": "33.5892362",
            "closest_to": "temecula",
            "address": "Lake Skinner, Benton Road, Robert A. Skinner Treatment Plant, French Valley, Country Road Estates, Riverside County, California, 92596, United States of America",
            "locType": "water",
            "blogLinks": [
                "http://temeculaca.gov/207/Things-To-Do-Lodging-Transportation"
            ],
            "longitude": "-117.059680888587"
        },
        "fremont street": {
            "latitude": "37.7880558",
            "closest_to": "fremont",
            "address": "Fremont Street, Financial District, SF, California, 94105, United States of America",
            "locType": "tertiary",
            "blogLinks": [
                "http://vegasexperience.com/25-fun-things-to-do-on-fremont-street-if-youve-blown-your-gambling-allowance/",
                "http://www.travelvegas.com/cat/downtown/"
            ],
            "longitude": "-122.3936438"
        },
        "maui": {
            "latitude": "33.8117742",
            "closest_to": "temecula",
            "address": "Maui, 1313, South Harbor Boulevard, Anaheim Resort District, Anaheim, Orange County, California, 217, United States of America",
            "locType": "artwork",
            "blogLinks": [
                "http://www.travelvegas.com/cat/downtown/"
            ],
            "longitude": "-117.9195069"
        },
        "cornell": {
            "latitude": "34.1144504",
            "closest_to": "temecula",
            "address": "Cornell, Los Angeles County, California, United States of America",
            "locType": "hamlet",
            "blogLinks": [
                "http://www.daytrippen.com/"
            ],
            "longitude": "-118.7778677"
        },
        "excalibur": {
            "latitude": "32.747803",
            "closest_to": "temecula",
            "address": "Excalibur, University Avenue, Hillcrest, San Diego, San Diego County, California, 92103, United States of America",
            "locType": "tobaconist",
            "blogLinks": [
                "http://vegasexperience.com/25-fun-things-to-do-on-fremont-street-if-youve-blown-your-gambling-allowance/"
            ],
            "longitude": "-117.1609664"
        },
        "malibu": {
            "latitude": "33.7932142",
            "closest_to": "temecula",
            "address": "Malibu, Palm Springs, Riverside County, California, 92264, United States of America",
            "locType": "residential",
            "blogLinks": [
                "http://www.tripleblaze.com/best/?c=8"
            ],
            "longitude": "-116.5023561"
        },
        "freemont st.": {
            "latitude": "36.001262",
            "closest_to": "temecula",
            "address": "Freemont Street, Avenal, Kings County, California, 93204, United States of America",
            "locType": "residential",
            "blogLinks": [
                "http://vegasexperience.com/25-fun-things-to-do-on-fremont-street-if-youve-blown-your-gambling-allowance/"
            ],
            "longitude": "-120.1119339"
        },
        "riverside county": {
            "latitude": "33.7219991",
            "closest_to": "temecula",
            "address": "Riverside County, California, United States of America",
            "locType": "administrative",
            "blogLinks": [
                "http://www.daytrippen.com/lake-elsinore-day-trip-things-to-do/"
            ],
            "longitude": "-116.0372471"
        },
        "container park": {
            "latitude": "37.8105928",
            "closest_to": "fremont",
            "address": "Port Of Oakland Transbay Container Terminal, Oakland, Alameda County, California, 94625, United States of America",
            "locType": "industrial",
            "blogLinks": [
                "http://www.travelvegas.com/cat/downtown/"
            ],
            "longitude": "-122.319095142738"
        },
        "bakersfield": {
            "latitude": "35.3738712",
            "closest_to": "temecula",
            "address": "Bakersfield, Kern County, California, United States of America",
            "locType": "city",
            "blogLinks": [
                "http://distancecalculator.globefeed.com/US_Distance_Calculator.asp?state=CA"
            ],
            "longitude": "-119.0194638"
        },
        "california delta": {
            "latitude": "38.2014877",
            "closest_to": "fremont",
            "address": "Snug Harbor, Solano County, California, United States of America",
            "locType": "hamlet",
            "blogLinks": [
                "http://www.daytrippen.com/"
            ],
            "longitude": "-121.6126406"
        },
        "palisades": {
            "latitude": "32.974109",
            "closest_to": "temecula",
            "address": "Palisades, San Diego County, California, United States of America",
            "locType": "hamlet",
            "blogLinks": [
                "http://www.fremontuniverse.com/"
            ],
            "longitude": "-117.0493668"
        },
        "mojave desert ca": {
            "latitude": "35.1456319",
            "closest_to": "temecula",
            "address": "Mojave Desert, Utility Road, San Bernardino County, California, United States of America",
            "locType": "desert",
            "blogLinks": [
                "http://www.california-blog.com/"
            ],
            "longitude": "-115.548963686646"
        },
        "monterey bay aquarium ca": {
            "latitude": "36.61809095",
            "closest_to": "temecula",
            "address": "MBA, 886, Cannery Row, Monterey, Monterey County, California, 93940, United States of America",
            "locType": "aquarium",
            "blogLinks": [
                "http://www.california-blog.com/"
            ],
            "longitude": "-121.901680002002"
        },
        "los osos": {
            "latitude": "35.3107214",
            "closest_to": "temecula",
            "address": "Los Osos, San Luis Obispo County, California, United States of America",
            "locType": "village",
            "blogLinks": [
                "http://www.daytrippen.com/"
            ],
            "longitude": "-120.8323486"
        },
        "mulholland highway": {
            "latitude": "34.1306145",
            "closest_to": "temecula",
            "address": "Mulholland Highway, Hollywood Hills, LA, Los Angeles County, California, 90068, United States of America",
            "locType": "residential",
            "blogLinks": [
                "http://www.daytrippen.com/"
            ],
            "longitude": "-118.3191905"
        },
        "luxor": {
            "latitude": "37.3348463",
            "closest_to": "temecula",
            "address": "Luxor Court, College Park, Rose Garden, San Jos\u00e9, Santa Clara County, California, 95126, United States of America",
            "locType": "residential",
            "blogLinks": [
                "http://vegasexperience.com/25-fun-things-to-do-on-fremont-street-if-youve-blown-your-gambling-allowance/"
            ],
            "longitude": "-121.9246258"
        },
        "laguna beach": {
            "latitude": "33.5420888",
            "closest_to": "temecula",
            "address": "Laguna Beach, Orange County, California, United States of America",
            "locType": "city",
            "blogLinks": [
                "http://www.daytrippen.com/"
            ],
            "longitude": "-117.7834146"
        },
        "seattle center": {
            "latitude": "41.8430395",
            "closest_to": "fremont",
            "address": "Seattle Creek, Siskiyou County, California, United States of America",
            "locType": "stream",
            "blogLinks": [
                "http://www.fremontuniverse.com/"
            ],
            "longitude": "-123.3031612"
        },
        "kern river": {
            "latitude": "36.6816956",
            "closest_to": "temecula",
            "address": "Kern River, Tulare County, California, United States of America",
            "locType": "river",
            "blogLinks": [
                "http://www.california-blog.com/"
            ],
            "longitude": "-118.4124188"
        },
        "calistoga": {
            "latitude": "38.582615",
            "closest_to": "fremont",
            "address": "Calistoga, Napa County, California, United States of America",
            "locType": "city",
            "blogLinks": [
                "http://www.tripleblaze.com/best/?c=8"
            ],
            "longitude": "-122.583325948608"
        },
        "san diego bay": {
            "latitude": "32.6500534",
            "closest_to": "temecula",
            "address": "San Diego Bay, Leyte Road, Crown Island, Coronado, San Diego County, California, 92118, United States of America",
            "locType": "bay",
            "blogLinks": [
                "http://www.daytrippen.com/"
            ],
            "longitude": "-117.1341977"
        },
        "palm springs air museum ca": {
            "latitude": "33.83250375",
            "closest_to": "temecula",
            "address": "Palm Springs Air Museum, 745, North Gene Autry Trail, Palm Springs, Riverside County, California, 92262, United States of America",
            "locType": "museum",
            "blogLinks": [
                "http://www.california-blog.com/"
            ],
            "longitude": "-116.504677958796"
        },
        "laguna lake park fullerton": {
            "latitude": "33.90523475",
            "closest_to": "temecula",
            "address": "Laguna Lake Park, Bud Turner Trail, Downtown Fullerton, Fullerton, Orange County, California, 92835, United States of America",
            "locType": "park",
            "blogLinks": [
                "http://www.daytrippen.com/"
            ],
            "longitude": "-117.938589767008"
        },
        "lake park": {
            "latitude": "33.66856335",
            "closest_to": "temecula",
            "address": "Lake Park, 11th Street, Huntington Beach, Orange County, California, 92648, United States of America",
            "locType": "park",
            "blogLinks": [
                "http://www.daytrippen.com/lake-elsinore-day-trip-things-to-do/"
            ],
            "longitude": "-117.999337083997"
        },
        "riverside national cemetery": {
            "latitude": "33.87692125",
            "closest_to": "temecula",
            "address": "Riverside National Cemetery, 22495, Alessandro, Riverside County, California, 92518, United States of America",
            "locType": "cemetery",
            "blogLinks": [
                "http://www.california-blog.com/"
            ],
            "longitude": "-117.270726607134"
        }
    },
    "fremont": {
        "type": "city",
        "osm_id": "111943",
        "class": "place",
        "importance": 0.70373394703995,
        "lat": "37.5482697",
        "lon": "-121.9885718",
        "boundingbox": [
            "37.4539501",
            "37.6066739",
            "-122.1509872",
            "-121.8701127"
        ],
        "display_name": "Fremont, Alameda County, California, United States of America",
        "licence": "Data \u00a9 OpenStreetMap contributors, ODbL 1.0. http://www.openstreetmap.org/copyright",
        "icon": "https://nominatim.openstreetmap.org/images/mapicons/poi_place_city.p.20.png",
        "place_id": "159050638",
        "osm_type": "relation"
    }
}