{
    "mentions": {
        "pacific coast highway": {
            "latitude": "33.6595127",
            "closest_to": "los angeles",
            "address": "Pacific Coast Highway, Huntington Beach, Orange County, California, 92648, United States of America",
            "locType": "primary",
            "blogLinks": [
                "http://traveltips.usatoday.com/fun-things-los-angeles-san-francisco-14664.html",
                "http://www.hopper.com/articles/291/five-great-stops-between-los-angeles-and-san-francisco-on-the-pacific-coast-highway",
                "https://www.gapyear.com/articles/216212/13-incredible-stops-on-the-pacific-coast-highway"
            ],
            "longitude": "-118.0051687"
        },
        "lake dolores": {
            "latitude": "33.8330727",
            "closest_to": "los angeles",
            "address": "Dolores, Los Angeles County, California, United States of America",
            "locType": "hamlet",
            "blogLinks": [
                "http://www.parks.ca.gov/?page_id=22722"
            ],
            "longitude": "-118.2264594"
        },
        "san luis obispo museum of art": {
            "latitude": "35.2795773",
            "closest_to": "los angeles",
            "address": "San Luis Obispo Museum of Art, 1010, Broad Street, San Luis Obispo, San Luis Obispo County, California, 93401, United States of America",
            "locType": "museum",
            "blogLinks": [
                "http://travelblog.viator.com/road-trip-san-francisco-los-angeles/"
            ],
            "longitude": "-120.6649345"
        },
        "bunker hill": {
            "latitude": "38.4265774",
            "closest_to": "fremont",
            "address": "Bunker Hill, Amador County, California, United States of America",
            "locType": "hamlet",
            "blogLinks": [
                "https://www.tripoto.com/places-to-visit/united-states/los-angeles"
            ],
            "longitude": "-120.8282696"
        },
        "primm": {
            "latitude": "37.333961",
            "closest_to": "los angeles",
            "address": "Primm Avenue, Little Saigon, San Jos\u00e9, Santa Clara County, California, 95122, United States of America",
            "locType": "residential",
            "blogLinks": [
                "https://www.vegas.com/traveltips/top-10-tips-for-driving-from-la-to-vegas/"
            ],
            "longitude": "-121.8420481"
        },
        "highway 101": {
            "latitude": "32.9967358",
            "closest_to": "los angeles",
            "address": "Highway 101, Solana Beach, San Diego County, California, 92075, United States of America",
            "locType": "primary",
            "blogLinks": [
                "http://travelblog.viator.com/road-trip-san-francisco-los-angeles/",
                "http://www.parks.ca.gov/?page_id=22722",
                "http://traveltips.usatoday.com/fun-things-los-angeles-san-francisco-14664.html"
            ],
            "longitude": "-117.2731974"
        },
        "carmel-by-the-sea": {
            "latitude": "36.5552387",
            "closest_to": "los angeles",
            "address": "Carmel-by-the-Sea, Monterey County, California, United States of America",
            "locType": "city",
            "blogLinks": [
                "http://travelblog.viator.com/road-trip-san-francisco-los-angeles/",
                "https://www.seemonterey.com/things-to-do/attractions/scenic-drives/",
                "http://www.hopper.com/articles/291/five-great-stops-between-los-angeles-and-san-francisco-on-the-pacific-coast-highway",
                "https://www.gapyear.com/articles/216212/13-incredible-stops-on-the-pacific-coast-highway"
            ],
            "longitude": "-121.9232878"
        },
        "phoenix": {
            "latitude": "33.6988015",
            "closest_to": "los angeles",
            "address": "Phoenix, Heritage Park Apartments, El Camino Real, Irvine, Orange County, California, 92604, United States of America",
            "locType": "residential",
            "blogLinks": [
                "https://www.yelp.com/biz/tombstone-tombstone"
            ],
            "longitude": "-117.7764481"
        },
        "greenfield": {
            "latitude": "35.2688739",
            "closest_to": "los angeles",
            "address": "Greenfield, Kern County, California, United States of America",
            "locType": "hamlet",
            "blogLinks": [
                "https://www.seemonterey.com/things-to-do/attractions/scenic-drives/"
            ],
            "longitude": "-119.002873"
        },
        "river road": {
            "latitude": "34.871679",
            "closest_to": "los angeles",
            "address": "River Road, Needles, San Bernardino County, California, United States of America",
            "locType": "secondary",
            "blogLinks": [
                "https://www.seemonterey.com/things-to-do/attractions/scenic-drives/"
            ],
            "longitude": "-114.6384652"
        },
        "rose garden": {
            "latitude": "37.3339825",
            "closest_to": "los angeles",
            "address": "Rose Garden, San Jos\u00e9, Santa Clara County, California, United States of America",
            "locType": "suburb",
            "blogLinks": [
                "https://www.timeout.com/los-angeles/things-to-do/free-attractions-in-la-best-places-to-visit-for-free"
            ],
            "longitude": "-121.9240707"
        },
        "ripley": {
            "latitude": "33.5253044",
            "closest_to": "los angeles",
            "address": "Ripley, Riverside County, California, United States of America",
            "locType": "hamlet",
            "blogLinks": [
                "https://www.yelp.com/biz/tombstone-tombstone"
            ],
            "longitude": "-114.6560684"
        },
        "bixby creek": {
            "latitude": "36.3691036",
            "closest_to": "los angeles",
            "address": "Bixby Creek, Monterey County, California, United States of America",
            "locType": "stream",
            "blogLinks": [
                "https://www.seemonterey.com/things-to-do/attractions/scenic-drives/"
            ],
            "longitude": "-121.8642246"
        },
        "spring street": {
            "latitude": "32.7568512",
            "closest_to": "los angeles",
            "address": "Spring Street, Date Avenue, La Mesa, San Diego County, California, 91941, United States of America",
            "locType": "station",
            "blogLinks": [
                "https://www.timeout.com/los-angeles/things-to-do/free-attractions-in-la-best-places-to-visit-for-free"
            ],
            "longitude": "-117.0174587"
        },
        "information center": {
            "latitude": "38.7799201",
            "closest_to": "fremont",
            "address": "Information Center, Gibson Drive, Roseville, Placer County, California, 95678, United States of America",
            "locType": "information",
            "blogLinks": [
                "https://www.yelp.com/biz/tombstone-tombstone"
            ],
            "longitude": "-121.2789656"
        },
        "bixby bridge": {
            "latitude": "36.3710197",
            "closest_to": "los angeles",
            "address": "Bixby Creek Bridge, Notleys Landing, Monterey County, California, 93923, United States of America",
            "locType": "primary",
            "blogLinks": [
                "https://www.seemonterey.com/things-to-do/attractions/scenic-drives/",
                "https://www.gapyear.com/articles/216212/13-incredible-stops-on-the-pacific-coast-highway"
            ],
            "longitude": "-121.9017572"
        },
        "camino capistrano": {
            "latitude": "33.5045525",
            "closest_to": "los angeles",
            "address": "Camino Capistrano, San Juan Capistrano, Orange County, California, 92675, United States of America",
            "locType": "secondary",
            "blogLinks": [
                "http://www.parks.ca.gov/?page_id=22722"
            ],
            "longitude": "-117.6641659"
        },
        "shadow brook inn": {
            "latitude": "34.4098374",
            "closest_to": "los angeles",
            "address": "Shadow Mountain Road, Deer Haven, San Bernardino County, California, 92397, United States of America",
            "locType": "track",
            "blogLinks": [
                "https://www.yelp.com/topic/fremont-things-to-do-in-santa-cruz"
            ],
            "longitude": "-117.6214951"
        },
        "venice beach": {
            "latitude": "33.9862012",
            "closest_to": "los angeles",
            "address": "Venice Beach, Venice Beach Bike Path, Venice, LA, Los Angeles County, California, 90405, United States of America",
            "locType": "police",
            "blogLinks": [
                "https://www.tripoto.com/places-to-visit/united-states/los-angeles",
                "https://www.timeout.com/los-angeles/things-to-do/great-things-to-do-in-los-angeles"
            ],
            "longitude": "-118.4739815"
        },
        "tombstone": {
            "latitude": "36.8770528",
            "closest_to": "los angeles",
            "address": "Tombstone Creek, Fresno County, California, United States of America",
            "locType": "stream",
            "blogLinks": [
                "https://www.yelp.com/biz/tombstone-tombstone"
            ],
            "longitude": "-118.8369372"
        },
        "tor house": {
            "latitude": "37.8190177",
            "closest_to": "fremont",
            "address": "Golden Gate, Golden Gate Bridge, Waldo, Marin County, California, 94965, United States of America",
            "locType": "strait",
            "blogLinks": [
                "https://www.seemonterey.com/things-to-do/attractions/scenic-drives/"
            ],
            "longitude": "-122.4793972"
        },
        "sin city": {
            "latitude": "37.7771563",
            "closest_to": "fremont",
            "address": "Wong Tai Sin Temple, Balboa Street, Jordan Park, SF, California, 94121, United States of America",
            "locType": "place_of_worship",
            "blogLinks": [
                "https://www.vegas.com/traveltips/top-10-tips-for-driving-from-la-to-vegas/"
            ],
            "longitude": "-122.4635886"
        },
        "mission beach": {
            "latitude": "32.7827144",
            "closest_to": "los angeles",
            "address": "Mission Beach, San Diego County, California, United States of America",
            "locType": "hamlet",
            "blogLinks": [
                "https://www.gapyear.com/articles/216212/13-incredible-stops-on-the-pacific-coast-highway"
            ],
            "longitude": "-117.2525056"
        },
        "main street usa": {
            "latitude": "34.1619793",
            "closest_to": "los angeles",
            "address": "Main Street, Burbank, Los Angeles County, California, 91502, United States of America",
            "locType": "secondary",
            "blogLinks": [
                "https://www.timeout.com/los-angeles/things-to-do/great-things-to-do-in-los-angeles"
            ],
            "longitude": "-118.3108771"
        },
        "mcway falls trail": {
            "latitude": "36.1578211",
            "closest_to": "los angeles",
            "address": "McWay Falls, Monterey County, California, United States of America",
            "locType": "waterfall",
            "blogLinks": [
                "http://travelblog.viator.com/road-trip-san-francisco-los-angeles/"
            ],
            "longitude": "-121.6723957"
        },
        "american riviera": {
            "latitude": "38.576666",
            "closest_to": "fremont",
            "address": "American River Drive, La Riviera, Sacramento County, California, 95608, United States of America",
            "locType": "tertiary",
            "blogLinks": [
                "http://travelblog.viator.com/road-trip-san-francisco-los-angeles/",
                "http://www.hopper.com/articles/291/five-great-stops-between-los-angeles-and-san-francisco-on-the-pacific-coast-highway"
            ],
            "longitude": "-121.3602199"
        },
        "southern california": {
            "latitude": "34.0224149",
            "closest_to": "los angeles",
            "address": "University of Southern California, Watt Way, Saint James Park, LA, Los Angeles County, California, 90089, United States of America",
            "locType": "university",
            "blogLinks": [
                "http://www.hopper.com/articles/291/five-great-stops-between-los-angeles-and-san-francisco-on-the-pacific-coast-highway",
                "https://www.vegas.com/traveltips/top-10-tips-for-driving-from-la-to-vegas/"
            ],
            "longitude": "-118.286343973446"
        },
        "los angeles": {
            "latitude": "34.0543942",
            "closest_to": "los angeles",
            "address": "LA, Los Angeles County, California, United States of America",
            "locType": "city",
            "blogLinks": [
                "https://www.tripadvisor.com/ShowTopic-g32655-i61-k6537049-Where_to_stop_on_I_5_from_Los_Angeles_to_San_Francisco-Los_Angeles_California.html",
                "https://www.timeout.com/los-angeles/things-to-do/free-attractions-in-la-best-places-to-visit-for-free",
                "http://www.parks.ca.gov/?page_id=22722",
                "https://www.gapyear.com/articles/216212/13-incredible-stops-on-the-pacific-coast-highway",
                "https://www.tripadvisor.com/ShowTopic-g60713-i30-k5261581-Scenic_Route_from_San_Francisco_to_Sacramento-San_Francisco_California.html",
                "https://www.triphobo.com/tripplans/los-angeles/itinerary-from-fremont-57bdebee4e82318f6800109d",
                "http://vagabond3.com/los-angeles-to-colorado/",
                "https://www.seemonterey.com/things-to-do/attractions/scenic-drives/",
                "http://travelblog.viator.com/road-trip-san-francisco-los-angeles/",
                "https://www.timeout.com/los-angeles/things-to-do/great-things-to-do-in-los-angeles",
                "https://www.tripoto.com/places-to-visit/united-states/los-angeles",
                "http://traveltips.usatoday.com/fun-things-los-angeles-san-francisco-14664.html",
                "http://www.hopper.com/articles/291/five-great-stops-between-los-angeles-and-san-francisco-on-the-pacific-coast-highway"
            ],
            "longitude": "-118.2439408"
        },
        "colorado": {
            "latitude": "33.71351445",
            "closest_to": "los angeles",
            "address": "Colorado, Walnut, Irvine, Orange County, California, 92606, United States of America",
            "locType": "residential",
            "blogLinks": [
                "http://vagabond3.com/los-angeles-to-colorado/"
            ],
            "longitude": "-117.791165718199"
        },
        "santa clara": {
            "latitude": "37.3541132",
            "closest_to": "los angeles",
            "address": "Santa Clara, Santa Clara County, California, United States of America",
            "locType": "city",
            "blogLinks": [
                "http://www.parks.ca.gov/?page_id=22722"
            ],
            "longitude": "-121.9551743"
        },
        "san mateo": {
            "latitude": "37.496904",
            "closest_to": "fremont",
            "address": "San Mateo County, California, United States of America",
            "locType": "administrative",
            "blogLinks": [
                "http://www.bestplaces.net/zip-code/california/fremont/94538"
            ],
            "longitude": "-122.3330572"
        },
        "' soda lake": {
            "latitude": "35.23913735",
            "closest_to": "los angeles",
            "address": "Soda Lake, Soda Lake Road, San Luis Obispo County, California, United States of America",
            "locType": "water",
            "blogLinks": [
                "https://www.gapyear.com/articles/216212/13-incredible-stops-on-the-pacific-coast-highway"
            ],
            "longitude": "-119.895515964214"
        },
        "hawk tower": {
            "latitude": "36.5419056",
            "closest_to": "los angeles",
            "address": "Hawk Tower, Stewart Way, Pebble Beach, Monterey County, California, 93923, United States of America",
            "locType": "yes",
            "blogLinks": [
                "https://www.seemonterey.com/things-to-do/attractions/scenic-drives/"
            ],
            "longitude": "-121.9310658"
        },
        "harris ranch": {
            "latitude": "36.2535766",
            "closest_to": "los angeles",
            "address": "Harris Ranch, West Dorris Avenue, Fresno County, California, 93210, United States of America",
            "locType": "hotel",
            "blogLinks": [
                "https://www.tripadvisor.com/ShowTopic-g32655-i61-k6537049-Where_to_stop_on_I_5_from_Los_Angeles_to_San_Francisco-Los_Angeles_California.html"
            ],
            "longitude": "-120.237368306069"
        },
        "san jose": {
            "latitude": "37.3361905",
            "closest_to": "los angeles",
            "address": "San Jos\u00e9, Santa Clara County, California, United States of America",
            "locType": "city",
            "blogLinks": [
                "http://www.parks.ca.gov/?page_id=22722",
                "https://www.gapyear.com/articles/216212/13-incredible-stops-on-the-pacific-coast-highway",
                "http://www.bestplaces.net/zip-code/california/fremont/94538"
            ],
            "longitude": "-121.8905832"
        },
        "king city": {
            "latitude": "36.2127439",
            "closest_to": "los angeles",
            "address": "King City, Monterey County, California, United States of America",
            "locType": "city",
            "blogLinks": [
                "http://traveltips.usatoday.com/fun-things-los-angeles-san-francisco-14664.html"
            ],
            "longitude": "-121.1260286"
        },
        "arlington theatre": {
            "latitude": "34.4242119",
            "closest_to": "los angeles",
            "address": "Arlington Theatre, 1317, State Street, Santa Barbara, Santa Barbara County, California, 93101, United States of America",
            "locType": "theatre",
            "blogLinks": [
                "https://www.gapyear.com/articles/216212/13-incredible-stops-on-the-pacific-coast-highway"
            ],
            "longitude": "-119.70696995537"
        },
        "ocean beach": {
            "latitude": "32.7477784",
            "closest_to": "los angeles",
            "address": "Ocean Beach, San Diego, San Diego County, California, United States of America",
            "locType": "region",
            "blogLinks": [
                "http://travelblog.viator.com/road-trip-san-francisco-los-angeles/"
            ],
            "longitude": "-117.249321"
        },
        "santa cruz beach boardwalk": {
            "latitude": "36.96446855",
            "closest_to": "los angeles",
            "address": "Santa Cruz Beach Boardwalk, Boardwalk, Beach & Boardwalk District (Commercial), Seabright, Santa Cruz, Santa Cruz County, California, 1982, United States of America",
            "locType": "attraction",
            "blogLinks": [
                "http://travelblog.viator.com/road-trip-san-francisco-los-angeles/",
                "https://www.gapyear.com/articles/216212/13-incredible-stops-on-the-pacific-coast-highway"
            ],
            "longitude": "-122.016027247326"
        },
        "las vegas": {
            "latitude": "36.17310935",
            "closest_to": "los angeles",
            "address": "California Hotel, Sky Walk(Connection from Main Street to California, Cultural Corridor, Vegas Heights, Las Vegas, Clark County, Nevada, 89101, United States of America",
            "locType": "hotel",
            "blogLinks": [
                "http://www.bestplaces.net/zip-code/california/fremont/94538",
                "http://travelblog.viator.com/road-trip-san-francisco-los-angeles/",
                "http://vagabond3.com/los-angeles-to-colorado/",
                "https://www.vegas.com/traveltips/top-10-tips-for-driving-from-la-to-vegas/"
            ],
            "longitude": "-115.144667930325"
        },
        "ano nuevo state park": {
            "latitude": "37.1642859",
            "closest_to": "los angeles",
            "address": "A\u00f1o Nuevo State Park, White House Canyon Road, San Mateo County, California, United States of America",
            "locType": "park",
            "blogLinks": [
                "https://www.gapyear.com/articles/216212/13-incredible-stops-on-the-pacific-coast-highway"
            ],
            "longitude": "-122.328030779329"
        },
        "san francisco": {
            "latitude": "37.7792808",
            "closest_to": "fremont",
            "address": "SF, California, United States of America",
            "locType": "city",
            "blogLinks": [
                "https://www.tripadvisor.com/ShowTopic-g32655-i61-k6537049-Where_to_stop_on_I_5_from_Los_Angeles_to_San_Francisco-Los_Angeles_California.html",
                "http://www.parks.ca.gov/?page_id=22722",
                "https://www.gapyear.com/articles/216212/13-incredible-stops-on-the-pacific-coast-highway",
                "https://www.tripadvisor.com/ShowTopic-g60713-i30-k5261581-Scenic_Route_from_San_Francisco_to_Sacramento-San_Francisco_California.html",
                "https://www.seemonterey.com/things-to-do/attractions/scenic-drives/",
                "http://travelblog.viator.com/road-trip-san-francisco-los-angeles/",
                "https://www.tripoto.com/places-to-visit/united-states/los-angeles",
                "http://traveltips.usatoday.com/fun-things-los-angeles-san-francisco-14664.html",
                "http://www.hopper.com/articles/291/five-great-stops-between-los-angeles-and-san-francisco-on-the-pacific-coast-highway",
                "http://www.bestplaces.net/zip-code/california/fremont/94538"
            ],
            "longitude": "-122.4192362"
        },
        "andrew molera state park": {
            "latitude": "36.27956995",
            "closest_to": "los angeles",
            "address": "Andrew Molera State Park, Cabrillo Highway, Big Sur, Monterey County, California, 93923, United States of America",
            "locType": "park",
            "blogLinks": [
                "https://www.yelp.com/biz/tombstone-tombstone"
            ],
            "longitude": "-121.83084118989"
        },
        "alcatraz island": {
            "latitude": "37.8267283",
            "closest_to": "fremont",
            "address": "Alcatraz Island, SF, California, United States of America",
            "locType": "island",
            "blogLinks": [
                "https://www.gapyear.com/articles/216212/13-incredible-stops-on-the-pacific-coast-highway"
            ],
            "longitude": "-122.422746492409"
        },
        "west": {
            "latitude": "33.9492548",
            "closest_to": "los angeles",
            "address": "W, Service road S, Westchester, Playa del Rey, LA, Los Angeles County, California, 90245, United States of America",
            "locType": "taxiway",
            "blogLinks": [
                "https://www.timeout.com/los-angeles/things-to-do/great-things-to-do-in-los-angeles"
            ],
            "longitude": "-118.4108078"
        },
        "berkeley": {
            "latitude": "37.8708393",
            "closest_to": "fremont",
            "address": "Berkeley, Alameda County, California, United States of America",
            "locType": "city",
            "blogLinks": [
                "https://www.yelp.com/topic/fremont-things-to-do-in-santa-cruz"
            ],
            "longitude": "-122.2728638"
        },
        "west coast": {
            "latitude": "34.0222263",
            "closest_to": "los angeles",
            "address": "West Coast, Motor Avenue, Palms, LA, Los Angeles County, California, 90034-5702, United States of America",
            "locType": "plumber",
            "blogLinks": [
                "https://www.gapyear.com/articles/216212/13-incredible-stops-on-the-pacific-coast-highway"
            ],
            "longitude": "-118.4051087"
        },
        "san luis obispo": {
            "latitude": "35.2827525",
            "closest_to": "los angeles",
            "address": "San Luis Obispo, San Luis Obispo County, California, United States of America",
            "locType": "city",
            "blogLinks": [
                "http://travelblog.viator.com/road-trip-san-francisco-los-angeles/",
                "http://www.parks.ca.gov/?page_id=22722",
                "http://traveltips.usatoday.com/fun-things-los-angeles-san-francisco-14664.html",
                "https://www.gapyear.com/articles/216212/13-incredible-stops-on-the-pacific-coast-highway"
            ],
            "longitude": "-120.6596155"
        },
        "fresno": {
            "latitude": "36.748793",
            "closest_to": "los angeles",
            "address": "Fresno, Fresno County, California, United States of America",
            "locType": "city",
            "blogLinks": [
                "https://www.tripadvisor.com/ShowTopic-g32655-i61-k6537049-Where_to_stop_on_I_5_from_Los_Angeles_to_San_Francisco-Los_Angeles_California.html"
            ],
            "longitude": "-119.714839601149"
        },
        "old coast road": {
            "latitude": "37.0114572",
            "closest_to": "los angeles",
            "address": "Old Coast Road, Davenport, Santa Cruz County, California, 95017, United States of America",
            "locType": "residential",
            "blogLinks": [
                "https://www.seemonterey.com/things-to-do/attractions/scenic-drives/"
            ],
            "longitude": "-122.1922656"
        },
        "victorville": {
            "latitude": "34.5361067",
            "closest_to": "los angeles",
            "address": "Victorville, San Bernardino County, California, United States of America",
            "locType": "city",
            "blogLinks": [
                "https://www.vegas.com/traveltips/top-10-tips-for-driving-from-la-to-vegas/"
            ],
            "longitude": "-117.2911564"
        },
        "carmel valley village": {
            "latitude": "36.4829185",
            "closest_to": "los angeles",
            "address": "Carmel Valley Village, Holman Road, Carmel Valley Village, Monterey County, California, 93924, United States of America",
            "locType": "administrative",
            "blogLinks": [
                "https://www.seemonterey.com/things-to-do/attractions/scenic-drives/"
            ],
            "longitude": "-121.714600790494"
        },
        "east beach": {
            "latitude": "37.8061771",
            "closest_to": "fremont",
            "address": "East Beach, Mason Street, Presidio Heights, SF, California, 94129, United States of America",
            "locType": "beach",
            "blogLinks": [
                "https://www.gapyear.com/articles/216212/13-incredible-stops-on-the-pacific-coast-highway"
            ],
            "longitude": "-122.452368017781"
        },
        "bubblegum alley": {
            "latitude": "35.2791663",
            "closest_to": "los angeles",
            "address": "Bubblegum Alley, San Luis Obispo, San Luis Obispo County, California, 93405, United States of America",
            "locType": "attraction",
            "blogLinks": [
                "https://www.gapyear.com/articles/216212/13-incredible-stops-on-the-pacific-coast-highway"
            ],
            "longitude": "-120.6638629"
        },
        "west cliff drive": {
            "latitude": "36.9619839",
            "closest_to": "los angeles",
            "address": "West Cliff Drive, Beach & Boardwalk District (Commercial), Downtown, Santa Cruz, Santa Cruz County, California, 95060, United States of America",
            "locType": "secondary",
            "blogLinks": [
                "https://www.yelp.com/topic/fremont-things-to-do-in-santa-cruz"
            ],
            "longitude": "-122.025308"
        },
        "bryce canyon": {
            "latitude": "33.5740174",
            "closest_to": "los angeles",
            "address": "Bryce Canyon, Aliso Viejo, Orange County, California, 92656, United States of America",
            "locType": "residential",
            "blogLinks": [
                "http://vagabond3.com/los-angeles-to-colorado/"
            ],
            "longitude": "-117.7368111"
        },
        "los pinos": {
            "latitude": "32.6515048",
            "closest_to": "los angeles",
            "address": "Los Pinos, Mexicali, Baja California, 21000, M\u00e9xico",
            "locType": "suburb",
            "blogLinks": [
                "https://www.yelp.com/topic/fremont-things-to-do-in-santa-cruz"
            ],
            "longitude": "-115.4497847"
        },
        "fremont": {
            "latitude": "37.5482697",
            "closest_to": "fremont",
            "address": "Fremont, Alameda County, California, United States of America",
            "locType": "city",
            "blogLinks": [
                "https://www.triphobo.com/tripplans/los-angeles/itinerary-from-fremont-57bdebee4e82318f6800109d",
                "http://www.parks.ca.gov/?page_id=22722",
                "https://www.seemonterey.com/things-to-do/attractions/scenic-drives/",
                "http://www.hopper.com/articles/291/five-great-stops-between-los-angeles-and-san-francisco-on-the-pacific-coast-highway"
            ],
            "longitude": "-121.9885718"
        },
        "carmel highlands": {
            "latitude": "36.5041286",
            "closest_to": "los angeles",
            "address": "Carmel Highlands, Monterey County, California, United States of America",
            "locType": "hamlet",
            "blogLinks": [
                "https://www.seemonterey.com/things-to-do/attractions/scenic-drives/"
            ],
            "longitude": "-121.9316212"
        },
        "old town": {
            "latitude": "35.142943",
            "closest_to": "los angeles",
            "address": "Old Town, Golden Hills, Kern County, California, United States of America",
            "locType": "locality",
            "blogLinks": [
                "https://www.gapyear.com/articles/216212/13-incredible-stops-on-the-pacific-coast-highway"
            ],
            "longitude": "-118.4954422"
        },
        "mojave desert": {
            "latitude": "35.1456319",
            "closest_to": "los angeles",
            "address": "Mojave Desert, Utility Road, San Bernardino County, California, United States of America",
            "locType": "desert",
            "blogLinks": [
                "https://www.vegas.com/traveltips/top-10-tips-for-driving-from-la-to-vegas/"
            ],
            "longitude": "-115.548963686646"
        },
        "santa cruz": {
            "latitude": "36.9735903",
            "closest_to": "los angeles",
            "address": "Santa Cruz, Santa Cruz County, California, United States of America",
            "locType": "city",
            "blogLinks": [
                "http://www.parks.ca.gov/?page_id=22722",
                "http://traveltips.usatoday.com/fun-things-los-angeles-san-francisco-14664.html",
                "https://www.gapyear.com/articles/216212/13-incredible-stops-on-the-pacific-coast-highway",
                "https://www.yelp.com/topic/fremont-things-to-do-in-santa-cruz"
            ],
            "longitude": "-122.0260569"
        },
        "frontierland": {
            "latitude": "33.81314275",
            "closest_to": "los angeles",
            "address": "Frontierland, Anaheim, Orange County, California, United States of America",
            "locType": "locality",
            "blogLinks": [
                "https://www.timeout.com/los-angeles/things-to-do/great-things-to-do-in-los-angeles"
            ],
            "longitude": "-117.921339068848"
        },
        "boyle heights": {
            "latitude": "34.0331656",
            "closest_to": "los angeles",
            "address": "Boyle Heights, LA, Los Angeles County, California, United States of America",
            "locType": "suburb",
            "blogLinks": [
                "https://www.timeout.com/los-angeles/things-to-do/free-attractions-in-la-best-places-to-visit-for-free"
            ],
            "longitude": "-118.2048647"
        },
        "national park": {
            "latitude": "37.7488554",
            "closest_to": "los angeles",
            "address": "Yosemite, Village Drive, Yosemite Village, Yosemite Valley, Mariposa County, California, United States of America",
            "locType": "attraction",
            "blogLinks": [
                "http://vagabond3.com/los-angeles-to-colorado/"
            ],
            "longitude": "-119.5893389"
        },
        "porter college": {
            "latitude": "36.9943425",
            "closest_to": "los angeles",
            "address": "Porter College, University of California Santa Cruz, Santa Cruz, Santa Cruz County, California, 95064, United States of America",
            "locType": "college",
            "blogLinks": [
                "https://www.yelp.com/topic/fremont-things-to-do-in-santa-cruz"
            ],
            "longitude": "-122.0654806"
        },
        "yerba buena island": {
            "latitude": "37.8099281",
            "closest_to": "fremont",
            "address": "Yerba Buena Island, SF, California, United States of America",
            "locType": "island",
            "blogLinks": [
                "http://www.parks.ca.gov/?page_id=22722"
            ],
            "longitude": "-122.3660816"
        },
        "hollywood walk of fame": {
            "latitude": "34.1018331",
            "closest_to": "los angeles",
            "address": "Old Hollywood Bookshop, Walk of Fame, Whitley Heights, LA, Los Angeles County, California, 90028, United States of America",
            "locType": "attraction",
            "blogLinks": [
                "https://www.timeout.com/los-angeles/things-to-do/great-things-to-do-in-los-angeles"
            ],
            "longitude": "-118.3385158"
        },
        "carmel beach": {
            "latitude": "36.5512525",
            "closest_to": "los angeles",
            "address": "Carmel Beach, Scenic Road, Carmel-by-the-Sea, Monterey County, California, 93921, United States of America",
            "locType": "beach",
            "blogLinks": [
                "https://www.seemonterey.com/things-to-do/attractions/scenic-drives/"
            ],
            "longitude": "-121.929450352027"
        },
        "otium": {
            "latitude": "34.0544145",
            "closest_to": "los angeles",
            "address": "Otium, 222, South Hope Street, Bunker Hill, LA, Los Angeles County, California, 90012, United States of America",
            "locType": "restaurant",
            "blogLinks": [
                "https://www.timeout.com/los-angeles/things-to-do/free-attractions-in-la-best-places-to-visit-for-free"
            ],
            "longitude": "-118.2512679"
        },
        "kettleman city": {
            "latitude": "36.008937",
            "closest_to": "los angeles",
            "address": "Kettleman City, 7th Street, Kettleman City, Kings County, California, 93239, United States of America",
            "locType": "administrative",
            "blogLinks": [
                "https://www.tripadvisor.com/ShowTopic-g32655-i61-k6537049-Where_to_stop_on_I_5_from_Los_Angeles_to_San_Francisco-Los_Angeles_California.html"
            ],
            "longitude": "-119.962676860725"
        },
        "france": {
            "latitude": "34.2013715",
            "closest_to": "los angeles",
            "address": "France, Sherman Way, Canoga Park, LA, Los Angeles County, California, 91307, United States of America",
            "locType": "cafe",
            "blogLinks": [
                "http://www.parks.ca.gov/?page_id=22722"
            ],
            "longitude": "-118.5935353"
        },
        "lobero theatre": {
            "latitude": "34.4216681",
            "closest_to": "los angeles",
            "address": "Lobero Theatre, Anacapa Street, Santa Barbara, Santa Barbara County, California, 93105, United States of America",
            "locType": "theatre",
            "blogLinks": [
                "https://www.gapyear.com/articles/216212/13-incredible-stops-on-the-pacific-coast-highway"
            ],
            "longitude": "-119.700020768116"
        },
        "pacific avenue": {
            "latitude": "34.1571445",
            "closest_to": "los angeles",
            "address": "Pacific Avenue, Glendale, Los Angeles County, California, 91203, United States of America",
            "locType": "secondary",
            "blogLinks": [
                "https://www.gapyear.com/articles/216212/13-incredible-stops-on-the-pacific-coast-highway"
            ],
            "longitude": "-118.2641839"
        },
        "alameda": {
            "latitude": "37.6090291",
            "closest_to": "los angeles",
            "address": "Alameda County, California, United States of America",
            "locType": "administrative",
            "blogLinks": [
                "http://www.parks.ca.gov/?page_id=22722"
            ],
            "longitude": "-121.8991419"
        },
        "atlanta": {
            "latitude": "37.8129826",
            "closest_to": "los angeles",
            "address": "Atlanta, San Joaquin County, California, United States of America",
            "locType": "hamlet",
            "blogLinks": [
                "https://www.vegas.com/traveltips/top-10-tips-for-driving-from-la-to-vegas/"
            ],
            "longitude": "-121.1207728"
        },
        "santa barbara": {
            "latitude": "34.4221319",
            "closest_to": "los angeles",
            "address": "Santa Barbara, Santa Barbara County, California, United States of America",
            "locType": "city",
            "blogLinks": [
                "http://travelblog.viator.com/road-trip-san-francisco-los-angeles/",
                "http://www.parks.ca.gov/?page_id=22722",
                "http://traveltips.usatoday.com/fun-things-los-angeles-san-francisco-14664.html",
                "http://www.hopper.com/articles/291/five-great-stops-between-los-angeles-and-san-francisco-on-the-pacific-coast-highway",
                "https://www.gapyear.com/articles/216212/13-incredible-stops-on-the-pacific-coast-highway"
            ],
            "longitude": "-119.7026672"
        },
        "oceanside": {
            "latitude": "33.1958696",
            "closest_to": "los angeles",
            "address": "Oceanside, San Diego County, California, United States of America",
            "locType": "city",
            "blogLinks": [
                "http://www.parks.ca.gov/?page_id=22722"
            ],
            "longitude": "-117.3794833"
        },
        "san juan capistrano": {
            "latitude": "33.5016932",
            "closest_to": "los angeles",
            "address": "San Juan Capistrano, Orange County, California, United States of America",
            "locType": "city",
            "blogLinks": [
                "http://www.parks.ca.gov/?page_id=22722"
            ],
            "longitude": "-117.6625508"
        },
        "buellton": {
            "latitude": "34.6134727",
            "closest_to": "los angeles",
            "address": "Buellton, Santa Barbara County, California, United States of America",
            "locType": "city",
            "blogLinks": [
                "http://traveltips.usatoday.com/fun-things-los-angeles-san-francisco-14664.html"
            ],
            "longitude": "-120.1936691"
        },
        "allen street": {
            "latitude": "37.7993538",
            "closest_to": "fremont",
            "address": "Allen Street, Russian Hill, SF, California, 94109, United States of America",
            "locType": "residential",
            "blogLinks": [
                "https://www.yelp.com/biz/tombstone-tombstone"
            ],
            "longitude": "-122.4201573"
        },
        "santa monica pier": {
            "latitude": "34.0104809",
            "closest_to": "los angeles",
            "address": "Santa Monica Pier, Santa Monica, Los Angeles County, California, CA 90401, United States of America",
            "locType": "service",
            "blogLinks": [
                "https://www.gapyear.com/articles/216212/13-incredible-stops-on-the-pacific-coast-highway"
            ],
            "longitude": "-118.4960541"
        },
        "seacliff state beach": {
            "latitude": "36.9710973",
            "closest_to": "los angeles",
            "address": "Seacliff State Beach, Las Olas Drive, Seacliff, Santa Cruz County, California, 95003, United States of America",
            "locType": "park",
            "blogLinks": [
                "https://www.yelp.com/topic/fremont-things-to-do-in-santa-cruz"
            ],
            "longitude": "-121.912285"
        },
        "elm avenue": {
            "latitude": "34.0696195",
            "closest_to": "los angeles",
            "address": "Elm Avenue, San Bernardino, San Bernardino County, California, 92354, United States of America",
            "locType": "residential",
            "blogLinks": [
                "https://www.seemonterey.com/things-to-do/attractions/scenic-drives/"
            ],
            "longitude": "-117.2469781"
        },
        "madonna inn": {
            "latitude": "35.2673282",
            "closest_to": "los angeles",
            "address": "Madonna Inn, 100, Madonna Road, San Luis Obispo, San Luis Obispo County, California, 93405, United States of America",
            "locType": "hotel",
            "blogLinks": [
                "http://traveltips.usatoday.com/fun-things-los-angeles-san-francisco-14664.html"
            ],
            "longitude": "-120.674725246222"
        },
        "bay bridge": {
            "latitude": "37.8193514",
            "closest_to": "fremont",
            "address": "San Francisco \u2013 Oakland Bay Bridge, Oakland, Alameda County, California, 94625, United States of America",
            "locType": "abandoned",
            "blogLinks": [
                "https://www.tripadvisor.com/ShowTopic-g60713-i30-k5261581-Scenic_Route_from_San_Francisco_to_Sacramento-San_Francisco_California.html",
                "http://www.bestplaces.net/zip-code/california/fremont/94538"
            ],
            "longitude": "-122.342234"
        },
        "pacific ave": {
            "latitude": "34.149823",
            "closest_to": "los angeles",
            "address": "Pacific Avenue, Glendale, Los Angeles County, California, 91203, United States of America",
            "locType": "secondary",
            "blogLinks": [
                "https://www.yelp.com/topic/fremont-things-to-do-in-santa-cruz"
            ],
            "longitude": "-118.2645622"
        },
        "rio rd.": {
            "latitude": "34.4960263",
            "closest_to": "los angeles",
            "address": "El Rio Road, Victorville, San Bernardino County, California, 92392, United States of America",
            "locType": "residential",
            "blogLinks": [
                "http://www.parks.ca.gov/?page_id=22722"
            ],
            "longitude": "-117.3317399"
        },
        "pfeiffer beach": {
            "latitude": "36.23934855",
            "closest_to": "los angeles",
            "address": "Pfeiffer Beach, Sycamore Canyon Road, Big Sur, Monterey County, California, 93920, United States of America",
            "locType": "beach",
            "blogLinks": [
                "https://www.gapyear.com/articles/216212/13-incredible-stops-on-the-pacific-coast-highway"
            ],
            "longitude": "-121.81778571416"
        },
        "golden gate": {
            "latitude": "37.8190177",
            "closest_to": "fremont",
            "address": "Golden Gate, Golden Gate Bridge, Waldo, Marin County, California, 94965, United States of America",
            "locType": "strait",
            "blogLinks": [
                "http://www.bestplaces.net/zip-code/california/fremont/94538"
            ],
            "longitude": "-122.4793972"
        },
        "national parks": {
            "latitude": "35.0310157",
            "closest_to": "los angeles",
            "address": "National Parks Service Road, San Bernardino County, California, United States of America",
            "locType": "residential",
            "blogLinks": [
                "http://vagabond3.com/los-angeles-to-colorado/"
            ],
            "longitude": "-115.383967"
        },
        "iceland": {
            "latitude": "39.3733802",
            "closest_to": "fremont",
            "address": "Iceland, Nevada County, California, United States of America",
            "locType": "hamlet",
            "blogLinks": [
                "http://www.parks.ca.gov/?page_id=22722"
            ],
            "longitude": "-120.0291429"
        },
        "point sur state historic park": {
            "latitude": "36.315378",
            "closest_to": "los angeles",
            "address": "Point Sur State Historic Park, Cabrillo Highway, Big Sur, Monterey County, California, 93923, United States of America",
            "locType": "park",
            "blogLinks": [
                "https://www.gapyear.com/articles/216212/13-incredible-stops-on-the-pacific-coast-highway"
            ],
            "longitude": "-121.881955510784"
        },
        "marin county": {
            "latitude": "38.0409144",
            "closest_to": "fremont",
            "address": "Marin County, California, United States of America",
            "locType": "administrative",
            "blogLinks": [
                "http://www.bestplaces.net/zip-code/california/fremont/94538"
            ],
            "longitude": "-122.6199637"
        },
        "laguna st.": {
            "latitude": "37.8048689",
            "closest_to": "fremont",
            "address": "Laguna Street, Marina District, SF, California, 14123, United States of America",
            "locType": "secondary",
            "blogLinks": [
                "http://www.parks.ca.gov/?page_id=22722"
            ],
            "longitude": "-122.4320022"
        },
        "redwood city": {
            "latitude": "37.4852152",
            "closest_to": "fremont",
            "address": "Redwood City, San Mateo County, California, United States of America",
            "locType": "city",
            "blogLinks": [
                "http://www.bestplaces.net/zip-code/california/fremont/94538"
            ],
            "longitude": "-122.2363547"
        },
        "rio road": {
            "latitude": "34.4960263",
            "closest_to": "los angeles",
            "address": "El Rio Road, Victorville, San Bernardino County, California, 92392, United States of America",
            "locType": "residential",
            "blogLinks": [
                "https://www.seemonterey.com/things-to-do/attractions/scenic-drives/"
            ],
            "longitude": "-117.3317399"
        },
        "salinas river": {
            "latitude": "35.2891002",
            "closest_to": "los angeles",
            "address": "Salinas River, San Luis Obispo County, California, United States of America",
            "locType": "river",
            "blogLinks": [
                "http://www.parks.ca.gov/?page_id=22722"
            ],
            "longitude": "-120.3596546"
        },
        "california science center": {
            "latitude": "34.0159757",
            "closest_to": "los angeles",
            "address": "California Science Center, 700, Exposition Park Drive, Jefferson, LA, Los Angeles County, California, 90037, United States of America",
            "locType": "museum",
            "blogLinks": [
                "https://www.timeout.com/los-angeles/things-to-do/free-attractions-in-la-best-places-to-visit-for-free",
                "https://www.timeout.com/los-angeles/things-to-do/great-things-to-do-in-los-angeles"
            ],
            "longitude": "-118.286286870567"
        },
        "black mountain ranch": {
            "latitude": "37.302427",
            "closest_to": "los angeles",
            "address": "Black Ranch Road, Oakhurst, Madera County, California, 93644, United States of America",
            "locType": "residential",
            "blogLinks": [
                "http://vagabond3.com/los-angeles-to-colorado/"
            ],
            "longitude": "-119.6150609"
        },
        "california science centre": {
            "latitude": "34.0159757",
            "closest_to": "los angeles",
            "address": "California Science Center, 700, Exposition Park Drive, Jefferson, LA, Los Angeles County, California, 90037, United States of America",
            "locType": "museum",
            "blogLinks": [
                "https://www.tripoto.com/places-to-visit/united-states/los-angeles"
            ],
            "longitude": "-118.286286870567"
        },
        "soledad": {
            "latitude": "36.4269452",
            "closest_to": "los angeles",
            "address": "Soledad, Monterey County, California, United States of America",
            "locType": "city",
            "blogLinks": [
                "http://www.parks.ca.gov/?page_id=22722",
                "https://www.seemonterey.com/things-to-do/attractions/scenic-drives/",
                "http://traveltips.usatoday.com/fun-things-los-angeles-san-francisco-14664.html"
            ],
            "longitude": "-121.3272146"
        },
        "the bird cage theater": {
            "latitude": "33.8431558",
            "closest_to": "los angeles",
            "address": "Bird Cage Theatre, 8039, Beach Boulevard, Buena Park, Orange County, California, 90620, United States of America",
            "locType": "theatre",
            "blogLinks": [
                "https://www.yelp.com/biz/tombstone-tombstone"
            ],
            "longitude": "-118.0002407"
        },
        "palou": {
            "latitude": "37.732919",
            "closest_to": "fremont",
            "address": "Palou Avenue, Bayview District, SF, California, 94124, United States of America",
            "locType": "residential",
            "blogLinks": [
                "http://www.parks.ca.gov/?page_id=22722"
            ],
            "longitude": "-122.3890349"
        },
        "paso robles": {
            "latitude": "35.6267654",
            "closest_to": "los angeles",
            "address": "Paso Robles, San Luis Obispo County, California, United States of America",
            "locType": "city",
            "blogLinks": [
                "http://www.parks.ca.gov/?page_id=22722"
            ],
            "longitude": "-120.6912455"
        },
        "oxnard": {
            "latitude": "34.1976308",
            "closest_to": "los angeles",
            "address": "Oxnard, Ventura County, California, United States of America",
            "locType": "city",
            "blogLinks": [
                "http://traveltips.usatoday.com/fun-things-los-angeles-san-francisco-14664.html",
                "https://www.gapyear.com/articles/216212/13-incredible-stops-on-the-pacific-coast-highway"
            ],
            "longitude": "-119.1803817"
        },
        "big sur": {
            "latitude": "36.270241",
            "closest_to": "los angeles",
            "address": "Big Sur, Monterey County, California, United States of America",
            "locType": "village",
            "blogLinks": [
                "https://www.seemonterey.com/things-to-do/attractions/scenic-drives/"
            ],
            "longitude": "-121.8074544"
        },
        "sacramento": {
            "latitude": "38.5815719",
            "closest_to": "fremont",
            "address": "Sacramento, Sacramento County, California, United States of America",
            "locType": "city",
            "blogLinks": [
                "https://www.tripadvisor.com/ShowTopic-g60713-i30-k5261581-Scenic_Route_from_San_Francisco_to_Sacramento-San_Francisco_California.html"
            ],
            "longitude": "-121.4943995"
        },
        "pacific beach": {
            "latitude": "32.7978268",
            "closest_to": "los angeles",
            "address": "Pacific Beach, San Diego, San Diego County, California, United States of America",
            "locType": "suburb",
            "blogLinks": [
                "https://www.gapyear.com/articles/216212/13-incredible-stops-on-the-pacific-coast-highway"
            ],
            "longitude": "-117.2403182"
        },
        "huntington beach": {
            "latitude": "33.6783336",
            "closest_to": "los angeles",
            "address": "Huntington Beach, Orange County, California, United States of America",
            "locType": "city",
            "blogLinks": [
                "https://www.gapyear.com/articles/216212/13-incredible-stops-on-the-pacific-coast-highway"
            ],
            "longitude": "-118.0000165"
        },
        "san simeon": {
            "latitude": "35.6438587",
            "closest_to": "los angeles",
            "address": "San Simeon, San Luis Obispo County, California, United States of America",
            "locType": "hamlet",
            "blogLinks": [
                "http://traveltips.usatoday.com/fun-things-los-angeles-san-francisco-14664.html",
                "http://www.hopper.com/articles/291/five-great-stops-between-los-angeles-and-san-francisco-on-the-pacific-coast-highway",
                "https://www.gapyear.com/articles/216212/13-incredible-stops-on-the-pacific-coast-highway"
            ],
            "longitude": "-121.1907532"
        },
        "mir": {
            "latitude": "37.3823701",
            "closest_to": "los angeles",
            "address": "Mir Mirou Drive, Los Altos Hills, Santa Clara County, California, 94022, United States of America",
            "locType": "residential",
            "blogLinks": [
                "https://www.timeout.com/los-angeles/things-to-do/great-things-to-do-in-los-angeles"
            ],
            "longitude": "-122.1700025"
        },
        "brazil cafe": {
            "latitude": "37.871604",
            "closest_to": "fremont",
            "address": "Brazil Cafe, 1960, University Avenue, Downtown Berkeley, Berkeley, Alameda County, California, 94704, United States of America",
            "locType": "restaurant",
            "blogLinks": [
                "https://www.yelp.com/topic/fremont-things-to-do-in-santa-cruz"
            ],
            "longitude": "-122.2714969"
        },
        "mission hills": {
            "latitude": "32.7528279",
            "closest_to": "los angeles",
            "address": "Mission Hills, San Diego County, California, United States of America",
            "locType": "hamlet",
            "blogLinks": [
                "http://www.parks.ca.gov/?page_id=22722"
            ],
            "longitude": "-117.1869788"
        },
        "santa monica mountains": {
            "latitude": "34.11008435",
            "closest_to": "los angeles",
            "address": "Santa Monica Mountains National Recreation Area, Simes Lane, Seminole Hot Springs, Los Angeles County, California, 91301, United States of America",
            "locType": "protected_area",
            "blogLinks": [
                "https://www.timeout.com/los-angeles/things-to-do/free-attractions-in-la-best-places-to-visit-for-free"
            ],
            "longitude": "-118.789983284662"
        },
        "mission street": {
            "latitude": "37.7937635",
            "closest_to": "fremont",
            "address": "Mission Street, Financial District, SF, California, 94105, United States of America",
            "locType": "secondary",
            "blogLinks": [
                "https://www.yelp.com/topic/fremont-things-to-do-in-santa-cruz"
            ],
            "longitude": "-122.3925412"
        },
        "south": {
            "latitude": "33.3054766",
            "closest_to": "los angeles",
            "address": "South, Los Angeles County, California, United States of America",
            "locType": "peak",
            "blogLinks": [
                "http://vagabond3.com/los-angeles-to-colorado/"
            ],
            "longitude": "-118.3432299"
        },
        "malibu": {
            "latitude": "33.7932142",
            "closest_to": "los angeles",
            "address": "Malibu, Palm Springs, Riverside County, California, 92264, United States of America",
            "locType": "residential",
            "blogLinks": [
                "https://www.gapyear.com/articles/216212/13-incredible-stops-on-the-pacific-coast-highway"
            ],
            "longitude": "-116.5023561"
        },
        "silver lake": {
            "latitude": "34.0896518",
            "closest_to": "los angeles",
            "address": "Silver Lake, Angelino Heights, LA, Los Angeles County, California, 90026, United States of America",
            "locType": "neighbourhood",
            "blogLinks": [
                "https://www.timeout.com/los-angeles/things-to-do/great-things-to-do-in-los-angeles"
            ],
            "longitude": "-118.2693734"
        },
        "carmel mission": {
            "latitude": "36.5426927",
            "closest_to": "los angeles",
            "address": "Mission San Carlos Borromeo de Carmelo, 3080, Rio Road, Carmel-by-the-Sea, Monterey County, California, 93923, United States of America",
            "locType": "museum",
            "blogLinks": [
                "https://www.seemonterey.com/things-to-do/attractions/scenic-drives/"
            ],
            "longitude": "-121.9197418"
        },
        "capitola": {
            "latitude": "36.9762927",
            "closest_to": "los angeles",
            "address": "Capitola, Santa Cruz County, California, United States of America",
            "locType": "city",
            "blogLinks": [
                "https://www.yelp.com/topic/fremont-things-to-do-in-santa-cruz"
            ],
            "longitude": "-121.9540576"
        },
        "bisbee": {
            "latitude": "38.4915752",
            "closest_to": "fremont",
            "address": "Bisbee Peak, Amador County, California, United States of America",
            "locType": "peak",
            "blogLinks": [
                "https://www.yelp.com/biz/tombstone-tombstone"
            ],
            "longitude": "-120.8893826"
        },
        "republic of california": {
            "latitude": "34.0562192",
            "closest_to": "los angeles",
            "address": "Republic Street, El Pueblo, Little Tokyo Historic District, LA, Los Angeles County, California, 90012, United States of America",
            "locType": "residential",
            "blogLinks": [
                "http://www.parks.ca.gov/?page_id=22722"
            ],
            "longitude": "-118.2397302"
        },
        "san fernando valley": {
            "latitude": "34.2819461",
            "closest_to": "los angeles",
            "address": "San Fernando, Los Angeles County, California, United States of America",
            "locType": "administrative",
            "blogLinks": [
                "http://www.parks.ca.gov/?page_id=22722",
                "https://www.gapyear.com/articles/216212/13-incredible-stops-on-the-pacific-coast-highway"
            ],
            "longitude": "-118.4389718"
        },
        "ventura": {
            "latitude": "34.4458248",
            "closest_to": "los angeles",
            "address": "Ventura County, California, United States of America",
            "locType": "administrative",
            "blogLinks": [
                "http://travelblog.viator.com/road-trip-san-francisco-los-angeles/",
                "http://www.parks.ca.gov/?page_id=22722",
                "http://traveltips.usatoday.com/fun-things-los-angeles-san-francisco-14664.html",
                "https://www.gapyear.com/articles/216212/13-incredible-stops-on-the-pacific-coast-highway"
            ],
            "longitude": "-119.0779358"
        },
        "sunset boulevard": {
            "latitude": "34.0759222",
            "closest_to": "los angeles",
            "address": "Sunset Boulevard, Echo Park, Angelino Heights, LA, Los Angeles County, California, 90026, United States of America",
            "locType": "primary",
            "blogLinks": [
                "https://www.tripoto.com/places-to-visit/united-states/los-angeles",
                "https://www.tripadvisor.in/Attractions-g32655-Activities-Los_Angeles_California.html",
                "https://www.gapyear.com/articles/216212/13-incredible-stops-on-the-pacific-coast-highway"
            ],
            "longitude": "-118.2554183"
        },
        "denver": {
            "latitude": "33.6996403",
            "closest_to": "los angeles",
            "address": "Denver, Heritage Park Apartments, El Camino Real, Irvine, Orange County, California, 92604, United States of America",
            "locType": "residential",
            "blogLinks": [
                "http://vagabond3.com/los-angeles-to-colorado/"
            ],
            "longitude": "-117.7762651"
        },
        "long beach": {
            "latitude": "33.78538945",
            "closest_to": "los angeles",
            "address": "Long Beach, Los Angeles County, California, United States of America",
            "locType": "city",
            "blogLinks": [
                "https://www.tripoto.com/places-to-visit/united-states/los-angeles",
                "https://www.gapyear.com/articles/216212/13-incredible-stops-on-the-pacific-coast-highway"
            ],
            "longitude": "-118.158049215311"
        },
        "america": {
            "latitude": "36.2573198",
            "closest_to": "los angeles",
            "address": "America, Kings County, California, 93246, United States of America",
            "locType": "residential",
            "blogLinks": [
                "https://www.seemonterey.com/things-to-do/attractions/scenic-drives/",
                "http://traveltips.usatoday.com/fun-things-los-angeles-san-francisco-14664.html",
                "https://www.timeout.com/los-angeles/things-to-do/great-things-to-do-in-los-angeles"
            ],
            "longitude": "-119.8948706"
        },
        "santa barbara botanic garden": {
            "latitude": "34.456953",
            "closest_to": "los angeles",
            "address": "Santa Barbara Botanic Gardens, Mission Canyon Road, Mission Canyon, Santa Barbara County, California, 93105, United States of America",
            "locType": "park",
            "blogLinks": [
                "https://www.gapyear.com/articles/216212/13-incredible-stops-on-the-pacific-coast-highway"
            ],
            "longitude": "-119.709585108231"
        },
        "menlo park": {
            "latitude": "37.4538274",
            "closest_to": "fremont",
            "address": "Menlo Park, San Mateo County, California, United States of America",
            "locType": "administrative",
            "blogLinks": [
                "http://www.bestplaces.net/zip-code/california/fremont/94538"
            ],
            "longitude": "-122.182187"
        },
        "san francisco solano": {
            "latitude": "38.21389995",
            "closest_to": "fremont",
            "address": "California Missions Museum, Arnold Drive, McGill, Sonoma County, California, United States of America",
            "locType": "museum",
            "blogLinks": [
                "http://www.parks.ca.gov/?page_id=22722"
            ],
            "longitude": "-122.458560315194"
        },
        "san diego county": {
            "latitude": "32.9637838",
            "closest_to": "los angeles",
            "address": "San Diego County, California, United States of America",
            "locType": "administrative",
            "blogLinks": [
                "https://www.gapyear.com/articles/216212/13-incredible-stops-on-the-pacific-coast-highway"
            ],
            "longitude": "-116.7706276"
        },
        "carmel valley": {
            "latitude": "36.4796839",
            "closest_to": "los angeles",
            "address": "Carmel Valley, Monterey County, California, United States of America",
            "locType": "village",
            "blogLinks": [
                "https://www.seemonterey.com/things-to-do/attractions/scenic-drives/"
            ],
            "longitude": "-121.7324475"
        },
        "union square": {
            "latitude": "37.78794125",
            "closest_to": "fremont",
            "address": "Union Square, Post Street, Chinatown, SF, California, 94115, United States of America",
            "locType": "park",
            "blogLinks": [
                "https://www.gapyear.com/articles/216212/13-incredible-stops-on-the-pacific-coast-highway"
            ],
            "longitude": "-122.407502671706"
        },
        "space mountain": {
            "latitude": "33.810975",
            "closest_to": "los angeles",
            "address": "Hyperspace Mountain, 1313, South Harbor Boulevard, Anaheim Resort District, Anaheim, Orange County, California, 217, United States of America",
            "locType": "attraction",
            "blogLinks": [
                "https://www.timeout.com/los-angeles/things-to-do/great-things-to-do-in-los-angeles"
            ],
            "longitude": "-117.9174943"
        },
        "scenic road": {
            "latitude": "36.5492648",
            "closest_to": "los angeles",
            "address": "Scenic Road, Carmel-by-the-Sea, Monterey County, California, 93921, United States of America",
            "locType": "residential",
            "blogLinks": [
                "https://www.seemonterey.com/things-to-do/attractions/scenic-drives/"
            ],
            "longitude": "-121.9284886"
        },
        "moss landing": {
            "latitude": "36.7988827",
            "closest_to": "los angeles",
            "address": "Moss Landing, Monterey County, California, United States of America",
            "locType": "administrative",
            "blogLinks": [
                "https://www.seemonterey.com/things-to-do/attractions/scenic-drives/"
            ],
            "longitude": "-121.786581"
        },
        "beach hill": {
            "latitude": "36.96676875",
            "closest_to": "los angeles",
            "address": "Beach Hill, Downtown, Santa Cruz, Santa Cruz County, California, 1982, United States of America",
            "locType": "residential",
            "blogLinks": [
                "https://www.yelp.com/topic/fremont-things-to-do-in-santa-cruz"
            ],
            "longitude": "-122.022031972397"
        },
        "golden state": {
            "latitude": "39.6712719",
            "closest_to": "fremont",
            "address": "Golden State Island, Butte County, California, United States of America",
            "locType": "island",
            "blogLinks": [
                "http://www.parks.ca.gov/?page_id=22722"
            ],
            "longitude": "-121.9619226"
        },
        "seabright beach": {
            "latitude": "36.96289905",
            "closest_to": "los angeles",
            "address": "Seabright Beach, East Cliff Drive, Lower Seabright, Seabright, Santa Cruz, Santa Cruz County, California, 95062, United States of America",
            "locType": "beach",
            "blogLinks": [
                "https://www.yelp.com/topic/fremont-things-to-do-in-santa-cruz"
            ],
            "longitude": "-122.005579996389"
        },
        "griffith park": {
            "latitude": "38.68813",
            "closest_to": "fremont",
            "address": "Griffith Park, Citrus Heights, Sacramento County, California, 95621, United States of America",
            "locType": "service",
            "blogLinks": [
                "https://www.timeout.com/los-angeles/things-to-do/great-things-to-do-in-los-angeles"
            ],
            "longitude": "-121.3121659"
        },
        "arizona": {
            "latitude": "34.4631398",
            "closest_to": "los angeles",
            "address": "Arizona, San Bernardino County, California, 92371, United States of America",
            "locType": "track",
            "blogLinks": [
                "http://traveltips.usatoday.com/fun-things-los-angeles-san-francisco-14664.html",
                "https://www.yelp.com/biz/tombstone-tombstone"
            ],
            "longitude": "-117.5060679"
        },
        "klondike canyon": {
            "latitude": "38.6798822",
            "closest_to": "fremont",
            "address": "Klondike Way, Bridlewood Canyon, El Dorado County, California, 95762, United States of America",
            "locType": "residential",
            "blogLinks": [
                "https://www.seemonterey.com/things-to-do/attractions/scenic-drives/"
            ],
            "longitude": "-121.0103391"
        },
        "mount tamalpais": {
            "latitude": "37.879988",
            "closest_to": "fremont",
            "address": "Tamalpais-Homestead Valley, Wendy Way, Almonte, Tamalpais Valley, Marin County, California, 94941, United States of America",
            "locType": "census",
            "blogLinks": [
                "http://www.parks.ca.gov/?page_id=22722"
            ],
            "longitude": "-122.535021480702"
        },
        "los alamos": {
            "latitude": "34.7379311",
            "closest_to": "los angeles",
            "address": "Los Alamos, Bell Street, Los Alamos, Santa Barbara County, California, 93455, United States of America",
            "locType": "administrative",
            "blogLinks": [
                "http://travelblog.viator.com/road-trip-san-francisco-los-angeles/"
            ],
            "longitude": "-120.26591036241"
        },
        "monterey bay": {
            "latitude": "36.7999557",
            "closest_to": "los angeles",
            "address": "Monterey Bay, Monterey County, California, United States of America",
            "locType": "bay",
            "blogLinks": [
                "http://travelblog.viator.com/road-trip-san-francisco-los-angeles/",
                "http://www.parks.ca.gov/?page_id=22722",
                "http://www.hopper.com/articles/291/five-great-stops-between-los-angeles-and-san-francisco-on-the-pacific-coast-highway",
                "https://www.gapyear.com/articles/216212/13-incredible-stops-on-the-pacific-coast-highway"
            ],
            "longitude": "-121.9010667"
        },
        "pismo beach": {
            "latitude": "35.1427533",
            "closest_to": "los angeles",
            "address": "Pismo Beach, San Luis Obispo County, California, United States of America",
            "locType": "city",
            "blogLinks": [
                "http://traveltips.usatoday.com/fun-things-los-angeles-san-francisco-14664.html",
                "http://www.hopper.com/articles/291/five-great-stops-between-los-angeles-and-san-francisco-on-the-pacific-coast-highway",
                "https://www.gapyear.com/articles/216212/13-incredible-stops-on-the-pacific-coast-highway"
            ],
            "longitude": "-120.6412826"
        },
        "mission creek rd.": {
            "latitude": "33.329445",
            "closest_to": "los angeles",
            "address": "Mission Creek Road, Winterwarm, San Diego County, California, 92028, United States of America",
            "locType": "residential",
            "blogLinks": [
                "http://www.parks.ca.gov/?page_id=22722"
            ],
            "longitude": "-117.2382279"
        },
        "venice": {
            "latitude": "33.995044",
            "closest_to": "los angeles",
            "address": "Venice, LA, Los Angeles County, California, United States of America",
            "locType": "suburb",
            "blogLinks": [
                "https://www.timeout.com/los-angeles/things-to-do/free-attractions-in-la-best-places-to-visit-for-free"
            ],
            "longitude": "-118.4668874"
        },
        "disneyland": {
            "latitude": "33.8136367",
            "closest_to": "los angeles",
            "address": "DL, 1313, South Harbor Boulevard, Anaheim Resort District, Anaheim, Orange County, California, 92805, United States of America",
            "locType": "theme_park",
            "blogLinks": [
                "https://www.triphobo.com/tripplans/los-angeles/itinerary-from-fremont-57bdebee4e82318f6800109d",
                "http://gocalifornia.about.com/"
            ],
            "longitude": "-117.91971186569"
        },
        "us": {
            "latitude": "36.7014631",
            "closest_to": "los angeles",
            "address": "California, United States of America",
            "locType": "administrative",
            "blogLinks": [
                "https://www.tripadvisor.com/ShowTopic-g32655-i61-k6537049-Where_to_stop_on_I_5_from_Los_Angeles_to_San_Francisco-Los_Angeles_California.html"
            ],
            "longitude": "-118.7559973"
        },
        "arroyo seco road": {
            "latitude": "34.1978653",
            "closest_to": "los angeles",
            "address": "Arroyo Seco Road, Pasadena, Los Angeles County, California, 91109, United States of America",
            "locType": "track",
            "blogLinks": [
                "https://www.seemonterey.com/things-to-do/attractions/scenic-drives/"
            ],
            "longitude": "-118.1661337"
        },
        "wilder ranch state park": {
            "latitude": "36.96021805",
            "closest_to": "los angeles",
            "address": "Wilder Ranch State Park, Coast Road, Westside, Santa Cruz County, California, 95060, United States of America",
            "locType": "park",
            "blogLinks": [
                "https://www.gapyear.com/articles/216212/13-incredible-stops-on-the-pacific-coast-highway"
            ],
            "longitude": "-122.079566815934"
        },
        "utah": {
            "latitude": "37.413408",
            "closest_to": "los angeles",
            "address": "Utah, Rovana, Inyo County, California, United States of America",
            "locType": "residential",
            "blogLinks": [
                "http://vagabond3.com/los-angeles-to-colorado/",
                "https://www.yelp.com/topic/fremont-things-to-do-in-santa-cruz"
            ],
            "longitude": "-118.6125359"
        },
        "santa monica": {
            "latitude": "34.0195598",
            "closest_to": "los angeles",
            "address": "Santa Monica, Los Angeles County, California, United States of America",
            "locType": "city",
            "blogLinks": [
                "http://travelblog.viator.com/road-trip-san-francisco-los-angeles/",
                "https://www.timeout.com/los-angeles/things-to-do/great-things-to-do-in-los-angeles"
            ],
            "longitude": "-118.4869738"
        },
        "sierra hill": {
            "latitude": "39.5849065",
            "closest_to": "fremont",
            "address": "Sierra County, California, United States of America",
            "locType": "administrative",
            "blogLinks": [
                "https://www.seemonterey.com/things-to-do/attractions/scenic-drives/"
            ],
            "longitude": "-120.530573"
        },
        "monterrey": {
            "latitude": "32.5492861",
            "closest_to": "los angeles",
            "address": "Monterrey, Mexicali, Baja California, M\u00e9xico",
            "locType": "village",
            "blogLinks": [
                "http://www.parks.ca.gov/?page_id=22722"
            ],
            "longitude": "-115.0704122"
        },
        "san luis rey": {
            "latitude": "33.2319797",
            "closest_to": "los angeles",
            "address": "San Luis Rey, San Diego County, California, United States of America",
            "locType": "hamlet",
            "blogLinks": [
                "http://www.parks.ca.gov/?page_id=22722"
            ],
            "longitude": "-117.3236484"
        },
        "broad": {
            "latitude": "35.1980688",
            "closest_to": "los angeles",
            "address": "Broad Creek, Kern County, California, United States of America",
            "locType": "stream",
            "blogLinks": [
                "https://www.timeout.com/los-angeles/things-to-do/free-attractions-in-la-best-places-to-visit-for-free"
            ],
            "longitude": "-119.4020094"
        },
        "seabright": {
            "latitude": "36.9688186",
            "closest_to": "los angeles",
            "address": "Seabright, Santa Cruz, Santa Cruz County, California, United States of America",
            "locType": "suburb",
            "blogLinks": [
                "https://www.yelp.com/topic/fremont-things-to-do-in-santa-cruz"
            ],
            "longitude": "-122.0078621"
        },
        "san luis obispo county": {
            "latitude": "35.3540209",
            "closest_to": "los angeles",
            "address": "San Luis Obispo County, California, United States of America",
            "locType": "administrative",
            "blogLinks": [
                "http://www.hopper.com/articles/291/five-great-stops-between-los-angeles-and-san-francisco-on-the-pacific-coast-highway"
            ],
            "longitude": "-120.3757162"
        },
        "san juan bautista": {
            "latitude": "36.8455173",
            "closest_to": "los angeles",
            "address": "San Juan Bautista, San Benito County, California, United States of America",
            "locType": "city",
            "blogLinks": [
                "http://www.parks.ca.gov/?page_id=22722"
            ],
            "longitude": "-121.5379893"
        },
        "san miguel": {
            "latitude": "35.7524679",
            "closest_to": "los angeles",
            "address": "San Miguel, San Luis Obispo County, California, United States of America",
            "locType": "village",
            "blogLinks": [
                "http://www.parks.ca.gov/?page_id=22722"
            ],
            "longitude": "-120.6962825"
        },
        "mcway falls": {
            "latitude": "36.1578211",
            "closest_to": "los angeles",
            "address": "McWay Falls, Monterey County, California, United States of America",
            "locType": "waterfall",
            "blogLinks": [
                "https://www.gapyear.com/articles/216212/13-incredible-stops-on-the-pacific-coast-highway"
            ],
            "longitude": "-121.6723957"
        },
        "newport beach": {
            "latitude": "33.6170092",
            "closest_to": "los angeles",
            "address": "Newport Beach, Orange County, California, United States of America",
            "locType": "city",
            "blogLinks": [
                "https://www.gapyear.com/articles/216212/13-incredible-stops-on-the-pacific-coast-highway"
            ],
            "longitude": "-117.92944"
        },
        "central coast": {
            "latitude": "35.3611193",
            "closest_to": "los angeles",
            "address": "Central Coast Street, Bakersfield, Kern County, California, 93314, United States of America",
            "locType": "residential",
            "blogLinks": [
                "http://travelblog.viator.com/road-trip-san-francisco-los-angeles/"
            ],
            "longitude": "-119.1665989"
        },
        "islay hill": {
            "latitude": "35.2455305",
            "closest_to": "los angeles",
            "address": "Islay Hill, San Luis Obispo, San Luis Obispo County, California, United States of America",
            "locType": "peak",
            "blogLinks": [
                "https://www.gapyear.com/articles/216212/13-incredible-stops-on-the-pacific-coast-highway"
            ],
            "longitude": "-120.622392"
        },
        "monterey bay aquarium": {
            "latitude": "36.61809095",
            "closest_to": "los angeles",
            "address": "MBA, 886, Cannery Row, Monterey, Monterey County, California, 93940, United States of America",
            "locType": "aquarium",
            "blogLinks": [
                "http://travelblog.viator.com/road-trip-san-francisco-los-angeles/",
                "http://traveltips.usatoday.com/fun-things-los-angeles-san-francisco-14664.html",
                "http://www.hopper.com/articles/291/five-great-stops-between-los-angeles-and-san-francisco-on-the-pacific-coast-highway",
                "https://www.gapyear.com/articles/216212/13-incredible-stops-on-the-pacific-coast-highway"
            ],
            "longitude": "-121.901680002002"
        },
        "salinas valley": {
            "latitude": "36.6744117",
            "closest_to": "los angeles",
            "address": "Salinas, Monterey County, California, United States of America",
            "locType": "city",
            "blogLinks": [
                "http://www.parks.ca.gov/?page_id=22722",
                "https://www.seemonterey.com/things-to-do/attractions/scenic-drives/"
            ],
            "longitude": "-121.6550371"
        },
        "earth": {
            "latitude": "35.4780569",
            "closest_to": "los angeles",
            "address": "Mountain Pass Rare Earth Mine, Mountain Pass, San Bernardino County, California, 92364, United States of America",
            "locType": "quarry",
            "blogLinks": [
                "http://vagabond3.com/los-angeles-to-colorado/"
            ],
            "longitude": "-115.541994345811"
        },
        "lompoc": {
            "latitude": "34.6391501",
            "closest_to": "los angeles",
            "address": "Lompoc, Santa Barbara County, California, United States of America",
            "locType": "city",
            "blogLinks": [
                "http://www.parks.ca.gov/?page_id=22722"
            ],
            "longitude": "-120.4579408"
        },
        "hearst castle": {
            "latitude": "35.6853689",
            "closest_to": "los angeles",
            "address": "Hearst Castle, 750, Hearst Castle Road, San Simeon, San Luis Obispo County, California, 93452, United States of America",
            "locType": "museum",
            "blogLinks": [
                "http://traveltips.usatoday.com/fun-things-los-angeles-san-francisco-14664.html"
            ],
            "longitude": "-121.167587299509"
        },
        "new orleans": {
            "latitude": "33.8116219",
            "closest_to": "los angeles",
            "address": "New Orleans Square, Anaheim, Orange County, California, United States of America",
            "locType": "locality",
            "blogLinks": [
                "https://www.timeout.com/los-angeles/things-to-do/great-things-to-do-in-los-angeles"
            ],
            "longitude": "-117.9206364"
        },
        "carmel valley road": {
            "latitude": "32.9529657",
            "closest_to": "los angeles",
            "address": "Carmel Valley Road, San Diego, San Diego County, California, 92130, United States of America",
            "locType": "secondary",
            "blogLinks": [
                "https://www.seemonterey.com/things-to-do/attractions/scenic-drives/"
            ],
            "longitude": "-117.1946599"
        },
        "gilroy": {
            "latitude": "37.0065078",
            "closest_to": "los angeles",
            "address": "Gilroy, Santa Clara County, California, United States of America",
            "locType": "city",
            "blogLinks": [
                "http://traveltips.usatoday.com/fun-things-los-angeles-san-francisco-14664.html"
            ],
            "longitude": "-121.5631722"
        },
        "carmelo street": {
            "latitude": "32.721252",
            "closest_to": "los angeles",
            "address": "Carmelo Street, San Diego, San Diego County, California, 92107, United States of America",
            "locType": "residential",
            "blogLinks": [
                "https://www.seemonterey.com/things-to-do/attractions/scenic-drives/"
            ],
            "longitude": "-117.2557679"
        },
        "black hill": {
            "latitude": "34.1788953",
            "closest_to": "los angeles",
            "address": "Black Hill, San Bernardino County, California, United States of America",
            "locType": "peak",
            "blogLinks": [
                "https://www.gapyear.com/articles/216212/13-incredible-stops-on-the-pacific-coast-highway"
            ],
            "longitude": "-116.49196"
        },
        "bixby creek bridge": {
            "latitude": "36.3710197",
            "closest_to": "los angeles",
            "address": "Bixby Creek Bridge, Notleys Landing, Monterey County, California, 93923, United States of America",
            "locType": "primary",
            "blogLinks": [
                "http://travelblog.viator.com/road-trip-san-francisco-los-angeles/"
            ],
            "longitude": "-121.9017572"
        },
        "broadway": {
            "latitude": "37.7958391",
            "closest_to": "fremont",
            "address": "Broadway, Russian Hill, SF, California, 94109;94115, United States of America",
            "locType": "primary",
            "blogLinks": [
                "https://www.tripadvisor.com/ShowTopic-g32655-i61-k6537049-Where_to_stop_on_I_5_from_Los_Angeles_to_San_Francisco-Los_Angeles_California.html"
            ],
            "longitude": "-122.4226908"
        },
        "boot hill cemetery": {
            "latitude": "38.9502968",
            "closest_to": "fremont",
            "address": "Boot Hill, Highland Springs, Lake County, California, United States of America",
            "locType": "path",
            "blogLinks": [
                "https://www.yelp.com/biz/tombstone-tombstone"
            ],
            "longitude": "-122.907277"
        },
        "pinnacles national park": {
            "latitude": "36.4862515",
            "closest_to": "los angeles",
            "address": "Pinnacles National Park, Pinnacles Road, San Benito County, California, United States of America",
            "locType": "national_park",
            "blogLinks": [
                "https://www.seemonterey.com/things-to-do/attractions/scenic-drives/"
            ],
            "longitude": "-121.171140689253"
        },
        "morro bay": {
            "latitude": "35.3658075",
            "closest_to": "los angeles",
            "address": "Morro Bay, San Luis Obispo County, California, United States of America",
            "locType": "city",
            "blogLinks": [
                "http://traveltips.usatoday.com/fun-things-los-angeles-san-francisco-14664.html"
            ],
            "longitude": "-120.8499012"
        },
        "hollywood bowl": {
            "latitude": "34.1121836",
            "closest_to": "los angeles",
            "address": "Hollywood Bowl, Los Tilos Road, Whitley Heights, LA, Los Angeles County, California, 90068, United States of America",
            "locType": "theatre",
            "blogLinks": [
                "https://www.timeout.com/los-angeles/things-to-do/great-things-to-do-in-los-angeles"
            ],
            "longitude": "-118.339277261641"
        },
        "gouda": {
            "latitude": "37.6925633",
            "closest_to": "los angeles",
            "address": "Gouda Lane, Modesto, Stanislaus County, California, 95356, United States of America",
            "locType": "residential",
            "blogLinks": [
                "https://www.tripoto.com/places-to-visit/united-states/los-angeles"
            ],
            "longitude": "-121.0421101"
        },
        "rio theatre": {
            "latitude": "36.9801486",
            "closest_to": "los angeles",
            "address": "Rio Theatre, Soquel Avenue, Soquel Avenue Commercial Corridor, Eastside, Santa Cruz, Santa Cruz County, California, 95062, United States of America",
            "locType": "theatre",
            "blogLinks": [
                "https://www.gapyear.com/articles/216212/13-incredible-stops-on-the-pacific-coast-highway"
            ],
            "longitude": "-122.0104295"
        },
        "san diego river": {
            "latitude": "32.7686163",
            "closest_to": "los angeles",
            "address": "San Diego River, San Diego, San Diego County, California, United States of America",
            "locType": "river",
            "blogLinks": [
                "http://www.parks.ca.gov/?page_id=22722"
            ],
            "longitude": "-117.1585474"
        },
        "lake berryessa": {
            "latitude": "35.376803",
            "closest_to": "los angeles",
            "address": "Lake Berryessa, Rosedale, Kern County, California, 93314, United States of America",
            "locType": "residential",
            "blogLinks": [
                "https://www.tripadvisor.com/ShowTopic-g60713-i30-k5261581-Scenic_Route_from_San_Francisco_to_Sacramento-San_Francisco_California.html"
            ],
            "longitude": "-119.1745059"
        },
        "tokyo": {
            "latitude": "34.0431787",
            "closest_to": "los angeles",
            "address": "Southern California Institute of Architecture, 960, East 3rd Street, Arts District, Little Tokyo Historic District, LA, Los Angeles County, California, 90013, United States of America",
            "locType": "school",
            "blogLinks": [
                "https://www.tripoto.com/places-to-visit/united-states/los-angeles"
            ],
            "longitude": "-118.2328066"
        },
        "golden gate park": {
            "latitude": "37.7693681",
            "closest_to": "fremont",
            "address": "Golden Gate Park, Overlook Drive, Richmond District, SF, California, 94122, United States of America",
            "locType": "park",
            "blogLinks": [
                "https://www.gapyear.com/articles/216212/13-incredible-stops-on-the-pacific-coast-highway"
            ],
            "longitude": "-122.482183611177"
        },
        "daly city": {
            "latitude": "37.7057671",
            "closest_to": "fremont",
            "address": "Daly City, San Mateo County, California, United States of America",
            "locType": "city",
            "blogLinks": [
                "http://www.bestplaces.net/zip-code/california/fremont/94538"
            ],
            "longitude": "-122.4619204"
        },
        "santa lucia mountain": {
            "latitude": "34.4379129",
            "closest_to": "los angeles",
            "address": "Santa Lucia, Santa Barbara County, California, 93111, United States of America",
            "locType": "residential",
            "blogLinks": [
                "http://travelblog.viator.com/road-trip-san-francisco-los-angeles/"
            ],
            "longitude": "-119.8003246"
        },
        "pacific": {
            "latitude": "38.7601815",
            "closest_to": "fremont",
            "address": "Pacific, El Dorado County, California, United States of America",
            "locType": "hamlet",
            "blogLinks": [
                "http://travelblog.viator.com/road-trip-san-francisco-los-angeles/",
                "https://www.timeout.com/los-angeles/things-to-do/free-attractions-in-la-best-places-to-visit-for-free"
            ],
            "longitude": "-120.507146"
        },
        "la": {
            "latitude": "36.7014631",
            "closest_to": "los angeles",
            "address": "California, United States of America",
            "locType": "administrative",
            "blogLinks": [
                "https://www.tripoto.com/places-to-visit/united-states/los-angeles",
                "https://www.timeout.com/los-angeles/things-to-do/free-attractions-in-la-best-places-to-visit-for-free",
                "http://traveltips.usatoday.com/fun-things-los-angeles-san-francisco-14664.html",
                "https://www.timeout.com/los-angeles/things-to-do/great-things-to-do-in-los-angeles"
            ],
            "longitude": "-118.7559973"
        },
        "downtown ventura": {
            "latitude": "34.15184445",
            "closest_to": "los angeles",
            "address": "Downtown Johnny's, 14649, Ventura Boulevard, Sherman Oaks, LA, Los Angeles County, California, 91403, United States of America",
            "locType": "restaurant",
            "blogLinks": [
                "https://www.gapyear.com/articles/216212/13-incredible-stops-on-the-pacific-coast-highway"
            ],
            "longitude": "-118.452523182928"
        },
        "aptos": {
            "latitude": "36.9787725",
            "closest_to": "los angeles",
            "address": "Aptos, Santa Cruz County, California, United States of America",
            "locType": "town",
            "blogLinks": [
                "https://www.yelp.com/topic/fremont-things-to-do-in-santa-cruz"
            ],
            "longitude": "-121.8976334"
        },
        "downtown la": {
            "latitude": "37.8036295",
            "closest_to": "fremont",
            "address": "Downtown, Oakland, Alameda County, California, 94612, United States of America",
            "locType": "neighbourhood",
            "blogLinks": [
                "https://www.tripoto.com/places-to-visit/united-states/los-angeles"
            ],
            "longitude": "-122.2715243"
        },
        "rancho la brea": {
            "latitude": "33.901833",
            "closest_to": "los angeles",
            "address": "Rancho La Brea Drive, Riverside, Riverside County, California, 92505, United States of America",
            "locType": "residential",
            "blogLinks": [
                "https://www.timeout.com/los-angeles/things-to-do/free-attractions-in-la-best-places-to-visit-for-free"
            ],
            "longitude": "-117.4851889"
        },
        "nevada": {
            "latitude": "39.3540335",
            "closest_to": "fremont",
            "address": "Nevada County, California, United States of America",
            "locType": "administrative",
            "blogLinks": [
                "https://www.vegas.com/traveltips/top-10-tips-for-driving-from-la-to-vegas/"
            ],
            "longitude": "-120.8089842"
        },
        "st. anthony": {
            "latitude": "33.8449442",
            "closest_to": "los angeles",
            "address": "Saints (St Anthony) Stadium, Clark Avenue, Bixby Knolls, Long Beach, Los Angeles County, California, 90712, United States of America",
            "locType": "pitch",
            "blogLinks": [
                "http://www.parks.ca.gov/?page_id=22722"
            ],
            "longitude": "-118.132889673818"
        },
        "little sur river": {
            "latitude": "36.339883",
            "closest_to": "los angeles",
            "address": "Little Sur River, Monterey County, California, United States of America",
            "locType": "river",
            "blogLinks": [
                "https://www.seemonterey.com/things-to-do/attractions/scenic-drives/"
            ],
            "longitude": "-121.818577"
        },
        "solvang": {
            "latitude": "34.5958572",
            "closest_to": "los angeles",
            "address": "Solvang, Santa Barbara County, California, United States of America",
            "locType": "city",
            "blogLinks": [
                "http://www.parks.ca.gov/?page_id=22722"
            ],
            "longitude": "-120.1390893"
        },
        "oregon": {
            "latitude": "33.7123207",
            "closest_to": "los angeles",
            "address": "Oregon, Walnut, Irvine, Orange County, California, 92606, United States of America",
            "locType": "residential",
            "blogLinks": [
                "https://www.gapyear.com/articles/216212/13-incredible-stops-on-the-pacific-coast-highway"
            ],
            "longitude": "-117.7911567"
        },
        "coronado bridge": {
            "latitude": "32.6904606",
            "closest_to": "los angeles",
            "address": "San Diego-Coronado Bridge, San Diego, San Diego County, California, 92118, United States of America",
            "locType": "motorway",
            "blogLinks": [
                "https://www.gapyear.com/articles/216212/13-incredible-stops-on-the-pacific-coast-highway"
            ],
            "longitude": "-117.1524863"
        },
        "chinatown": {
            "latitude": "37.7999301",
            "closest_to": "fremont",
            "address": "Chinatown, Oakland, Alameda County, California, ca, United States of America",
            "locType": "neighbourhood",
            "blogLinks": [
                "https://www.timeout.com/los-angeles/things-to-do/great-things-to-do-in-los-angeles",
                "http://www.bestplaces.net/zip-code/california/fremont/94538"
            ],
            "longitude": "-122.2702385"
        },