{
    "stockton": {
        "type": "city",
        "osm_id": "112382",
        "class": "place",
        "importance": 0.7132631887217,
        "lat": "37.9577016",
        "lon": "-121.2907795",
        "boundingbox": [
            "37.887747",
            "38.0583",
            "-121.4197359",
            "-121.1840371"
        ],
        "display_name": "Stockton, San Joaquin County, California, United States of America",
        "licence": "Data \u00a9 OpenStreetMap contributors, ODbL 1.0. http://www.openstreetmap.org/copyright",
        "icon": "https://nominatim.openstreetmap.org/images/mapicons/poi_place_city.p.20.png",
        "place_id": "157785814",
        "osm_type": "relation"
    },
    "mentions": {
        "santa clara": {
            "latitude": "37.3541132",
            "closest_to": "fremont",
            "address": "Santa Clara, Santa Clara County, California, United States of America",
            "locType": "city",
            "blogLinks": [
                "https://www.cagreatamerica.com/hours-directions/directions"
            ],
            "longitude": "-121.9551743"
        },
        "sacramento": {
            "latitude": "38.5815719",
            "closest_to": "stockton",
            "address": "Sacramento, Sacramento County, California, United States of America",
            "locType": "city",
            "blogLinks": [
                "https://www.cagreatamerica.com/hours-directions/directions"
            ],
            "longitude": "-121.4943995"
        },
        "great america": {
            "latitude": "37.4034903",
            "closest_to": "fremont",
            "address": "Great America, West Tasman Drive, Santa Clara, Santa Clara County, California, 95002, United States of America",
            "locType": "tram_stop",
            "blogLinks": [
                "https://www.cagreatamerica.com/hours-directions/directions"
            ],
            "longitude": "-121.9743159"
        },
        "chinatown": {
            "latitude": "37.7999301",
            "closest_to": "fremont",
            "address": "Chinatown, Oakland, Alameda County, California, ca, United States of America",
            "locType": "neighbourhood",
            "blogLinks": [
                "http://www.bestplaces.net/city/california/discovery_bay",
                "http://www.bestplaces.net/city/california/oakland"
            ],
            "longitude": "-122.2702385"
        },
        "san francisco": {
            "latitude": "37.7792808",
            "closest_to": "fremont",
            "address": "SF, California, United States of America",
            "locType": "city",
            "blogLinks": [
                "http://www.timeanddate.com/worldclock/distances.html?n=224",
                "http://www.bestplaces.net/city/california/discovery_bay",
                "http://www.visitstockton.org/events/stockton-heat-vs-san-antonio-rampage-superhero-night/",
                "http://www.bestplaces.net/city/california/oakland"
            ],
            "longitude": "-122.4192362"
        },
        "airbnb": {
            "latitude": "37.7719568",
            "closest_to": "fremont",
            "address": "Airbnb, 888, Brannan Street, West SoMa, SF, California, 94103, United States of America",
            "locType": "company",
            "blogLinks": [
                "http://www.fremontuniverse.com/"
            ],
            "longitude": "-122.4054483"
        },
        "fremont": {
            "latitude": "37.5482697",
            "closest_to": "stockton",
            "address": "Fremont, Alameda County, California, United States of America",
            "locType": "city",
            "blogLinks": [
                "http://www.fremontuniverse.com/",
                "https://www.ridebooker.com/transfers/stockton-ca/fremont-ca/van",
                "https://www.ridebooker.com/transfers/stockton-ca/fremont-ca/luxury-suv",
                "https://www.ridebooker.com/transfers/stockton-ca/fremont-ca/taxi"
            ],
            "longitude": "-121.9885718"
        },
        "pleasanton": {
            "latitude": "37.6624312",
            "closest_to": "stockton",
            "address": "Pleasanton, Alameda County, California, United States of America",
            "locType": "administrative",
            "blogLinks": [
                "https://www.cagreatamerica.com/hours-directions/directions"
            ],
            "longitude": "-121.8746788"
        },
        "alpha phi": {
            "latitude": "37.9818363",
            "closest_to": "stockton",
            "address": "Alpha Phi, Presidents Drive, Stockton, San Joaquin County, California, 95211, United States of America",
            "locType": "yes",
            "blogLinks": [
                "http://www.fremontuniverse.com/"
            ],
            "longitude": "-121.311315241098"
        },
        "aurora": {
            "latitude": "37.65993",
            "closest_to": "stockton",
            "address": "Aurora, Stanislaus County, California, United States of America",
            "locType": "hamlet",
            "blogLinks": [
                "http://www.fremontuniverse.com/"
            ],
            "longitude": "-121.002712"
        },
        "pacific northwest": {
            "latitude": "37.98042375",
            "closest_to": "stockton",
            "address": "University of the Pacific, 3601, Pacific Avenue, Stockton, San Joaquin County, California, 95211, United States of America",
            "locType": "university",
            "blogLinks": [
                "http://www.fremontuniverse.com/"
            ],
            "longitude": "-121.312847098327"
        },
        "bay bridge": {
            "latitude": "37.8193514",
            "closest_to": "fremont",
            "address": "San Francisco \u2013 Oakland Bay Bridge, Oakland, Alameda County, California, 94625, United States of America",
            "locType": "abandoned",
            "blogLinks": [
                "http://www.bestplaces.net/city/california/discovery_bay",
                "http://www.bestplaces.net/city/california/oakland"
            ],
            "longitude": "-122.342234"
        },
        "stockton arena": {
            "latitude": "37.956038",
            "closest_to": "stockton",
            "address": "Stockton Arena, West Fremont Street, Stockton, San Joaquin County, California, 95203, United States of America",
            "locType": "stadium",
            "blogLinks": [
                "http://www.visitstockton.org/events/stockton-heat-vs-san-antonio-rampage-superhero-night/"
            ],
            "longitude": "-121.295880884831"
        },
        "oakland": {
            "latitude": "37.8044557",
            "closest_to": "fremont",
            "address": "Oakland, Alameda County, California, United States of America",
            "locType": "city",
            "blogLinks": [
                "https://www.cagreatamerica.com/hours-directions/directions",
                "http://www.bestplaces.net/city/california/oakland"
            ],
            "longitude": "-122.2713562"
        },
        "brentwood": {
            "latitude": "37.9317766",
            "closest_to": "stockton",
            "address": "Brentwood, Contra Costa County, California, United States of America",
            "locType": "city",
            "blogLinks": [
                "http://www.bestplaces.net/city/california/discovery_bay"
            ],
            "longitude": "-121.6960265"
        },
        "golden gate": {
            "latitude": "37.8190177",
            "closest_to": "fremont",
            "address": "Golden Gate, Golden Gate Bridge, Waldo, Marin County, California, 94965, United States of America",
            "locType": "strait",
            "blogLinks": [
                "http://www.bestplaces.net/city/california/discovery_bay",
                "http://www.bestplaces.net/city/california/oakland"
            ],
            "longitude": "-122.4793972"
        },
        "south san francisco": {
            "latitude": "37.6549493",
            "closest_to": "fremont",
            "address": "South San Francisco, San Mateo County, California, United States of America",
            "locType": "administrative",
            "blogLinks": [
                "http://www.bestplaces.net/city/california/discovery_bay",
                "http://www.bestplaces.net/city/california/oakland"
            ],
            "longitude": "-122.408125"
        },
        "ca": {
            "latitude": "37.8242285466918",
            "closest_to": "fremont",
            "address": "Piedmont, Alameda County, California, ca, United States of America",
            "locType": "postcode",
            "blogLinks": [
                "https://www.ridebooker.com/transfers/fremont-ca/stockton-ca/van",
                "https://www.ridebooker.com/transfers/fremont-ca/stockton-ca/luxury-suv",
                "https://www.ridebooker.com/transfers/fremont-ca/stockton-ca/luxury-sedan",
                "https://www.ridebooker.com/transfers/fremont-ca/stockton-ca/stretch-limo",
                "https://www.ridebooker.com/transfers/stockton-ca/fremont-ca/taxi",
                "https://www.ridebooker.com/transfers/stockton-ca/fremont-ca/van",
                "https://www.ridebooker.com/transfers/stockton-ca/fremont-ca/luxury-suv"
            ],
            "longitude": "-122.232613735941"
        },
        "redwood city": {
            "latitude": "37.4852152",
            "closest_to": "fremont",
            "address": "Redwood City, San Mateo County, California, United States of America",
            "locType": "city",
            "blogLinks": [
                "http://www.bestplaces.net/city/california/discovery_bay",
                "http://www.bestplaces.net/city/california/oakland"
            ],
            "longitude": "-122.2363547"
        },
        "downtown oakland": {
            "latitude": "37.8036295",
            "closest_to": "fremont",
            "address": "Downtown, Oakland, Alameda County, California, 94612, United States of America",
            "locType": "neighbourhood",
            "blogLinks": [
                "https://www.ridebooker.com/transfers/stockton-ca/fremont-ca/luxury-suv"
            ],
            "longitude": "-122.2715243"
        },
        "vietnam": {
            "latitude": "37.7979399",
            "closest_to": "fremont",
            "address": "Vietnam, 618-626, Broadway Street, Nob Hill, SF, California, 94109, United States of America",
            "locType": "restaurant",
            "blogLinks": [
                "http://www.visitstockton.org/restaurants/"
            ],
            "longitude": "-122.4074503"
        },
        "china": {
            "latitude": "37.9989198",
            "closest_to": "fremont",
            "address": "China Camp State Park, Bay View Trail, Santa Venetia, Marin County, California, 94901, United States of America",
            "locType": "park",
            "blogLinks": [
                "http://www.visitstockton.org/restaurants/"
            ],
            "longitude": "-122.49033307856"
        },
        "daly city": {
            "latitude": "37.7057671",
            "closest_to": "fremont",
            "address": "Daly City, San Mateo County, California, United States of America",
            "locType": "city",
            "blogLinks": [
                "http://www.bestplaces.net/city/california/discovery_bay",
                "http://www.bestplaces.net/city/california/oakland"
            ],
            "longitude": "-122.4619204"
        },
        "san mateo": {
            "latitude": "37.496904",
            "closest_to": "fremont",
            "address": "San Mateo County, California, United States of America",
            "locType": "administrative",
            "blogLinks": [
                "http://www.bestplaces.net/city/california/discovery_bay",
                "http://www.bestplaces.net/city/california/oakland"
            ],
            "longitude": "-122.3330572"
        },
        "stockton": {
            "latitude": "37.9577016",
            "closest_to": "stockton",
            "address": "Stockton, San Joaquin County, California, United States of America",
            "locType": "city",
            "blogLinks": [
                "https://www.cagreatamerica.com/hours-directions/directions",
                "http://www.yellowpages.com/stockton-ca/fremont-center",
                "http://www.visitstockton.org/restaurants/"
            ],
            "longitude": "-121.2907795"
        },
        "santa clara county": {
            "latitude": "37.2333253",
            "closest_to": "fremont",
            "address": "Santa Clara County, California, United States of America",
            "locType": "administrative",
            "blogLinks": [
                "https://www.cagreatamerica.com/hours-directions/directions"
            ],
            "longitude": "-121.6846348"
        },
        "san jose": {
            "latitude": "37.3361905",
            "closest_to": "fremont",
            "address": "San Jos\u00e9, Santa Clara County, California, United States of America",
            "locType": "city",
            "blogLinks": [
                "http://www.bestplaces.net/city/california/discovery_bay",
                "http://www.bestplaces.net/city/california/oakland",
                "http://www.visitstockton.org/events/stockton-heat-vs-san-antonio-rampage-superhero-night/"
            ],
            "longitude": "-121.8905832"
        },
        "menlo park": {
            "latitude": "37.4538274",
            "closest_to": "fremont",
            "address": "Menlo Park, San Mateo County, California, United States of America",
            "locType": "administrative",
            "blogLinks": [
                "http://www.bestplaces.net/city/california/discovery_bay",
                "http://www.bestplaces.net/city/california/oakland"
            ],
            "longitude": "-122.182187"
        },
        "mountain view caltrain": {
            "latitude": "37.3933099",
            "closest_to": "fremont",
            "address": "Mountain View Caltrain, Mountain View, Santa Clara County, California, 94041, United States of America",
            "locType": "industrial",
            "blogLinks": [
                "https://www.cagreatamerica.com/hours-directions/directions"
            ],
            "longitude": "-122.073860803658"
        }
    },
    "fremont": {
        "type": "city",
        "osm_id": "111943",
        "class": "place",
        "importance": 0.70373394703995,
        "lat": "37.5482697",
        "lon": "-121.9885718",
        "boundingbox": [
            "37.4539501",
            "37.6066739",
            "-122.1509872",
            "-121.8701127"
        ],
        "display_name": "Fremont, Alameda County, California, United States of America",
        "licence": "Data \u00a9 OpenStreetMap contributors, ODbL 1.0. http://www.openstreetmap.org/copyright",
        "icon": "https://nominatim.openstreetmap.org/images/mapicons/poi_place_city.p.20.png",
        "place_id": "159050638",
        "osm_type": "relation"
    }
}