{
    "hampi": {
        "place_id": "2384737",
        "osm_id": "345110048",
        "icon": "https://nominatim.openstreetmap.org/images/mapicons/poi_place_village.p.20.png",
        "osm_type": "node",
        "licence": "Data \u00a9 OpenStreetMap contributors, ODbL 1.0. http://www.openstreetmap.org/copyright",
        "display_name": "Hampe, Hosapete taluk, Bellary district, Karnataka, 583239, India",
        "type": "village",
        "lon": "76.4606199",
        "boundingbox": [
            "15.3159769",
            "15.3559769",
            "76.4406199",
            "76.4806199"
        ],
        "importance": 0.375,
        "lat": "15.3359769",
        "class": "place"
    },
    "mentions": {
        "badami": {
            "closest_to": "murudeshwara",
            "address": "Badami, Badami taluku, Bagalkote district, Karnataka, 587200, India",
            "longitude": "75.6807865",
            "latitude": "15.9203874",
            "blogLinks": [
                "https://www.thrillophilia.com/places-to-visit-in-hampi",
                "https://en.wikipedia.org/wiki/Tourism_in_Karnataka",
                "https://www.quora.com/What-are-the-best-places-to-visit-on-a-3-day-trip-in-and-around-Karnataka"
            ],
            "locType": "town"
        },
        "sagara taluk": {
            "closest_to": "murudeshwara",
            "address": "Sagara taluk, Shimoga district, Karnataka, India",
            "longitude": "74.9610874491152",
            "latitude": "14.09993045",
            "blogLinks": [
                "https://en.wikipedia.org/wiki/Tourism_in_Karnataka"
            ],
            "locType": "administrative"
        },
        "manipal": {
            "closest_to": "murudeshwara",
            "address": "Manipal, Udupi taluku, Udupi district, Karnataka, India",
            "longitude": "74.7870308",
            "latitude": "13.3519723",
            "blogLinks": [
                "https://en.wikipedia.org/wiki/Tourism_in_Karnataka"
            ],
            "locType": "town"
        },
        "veera narayana temple": {
            "closest_to": "murudeshwara",
            "address": "Veera Narayana Temple, Chikmagalur Javagal Road, Narasipura, Chikkamagaluru taluku, Chikkamagaluru district, Karnataka, India",
            "longitude": "75.9953525",
            "latitude": "13.2821212",
            "blogLinks": [
                "https://www.quora.com/What-are-the-best-places-to-visit-on-a-3-day-trip-in-and-around-Karnataka"
            ],
            "locType": "place_of_worship"
        },
        "coastal karnataka": {
            "closest_to": "murudeshwara",
            "address": "Bharat Petroleum Mangalore Coastal Installation, Baikampady, Mangaluru taluk, Dakshina Kannada, Karnataka, 575014, India",
            "longitude": "74.8137275833157",
            "latitude": "12.96014675",
            "blogLinks": [
                "https://en.wikipedia.org/wiki/Tourism_in_Karnataka"
            ],
            "locType": "industrial"
        },
        "dattatreya": {
            "closest_to": "murudeshwara",
            "address": "Inam Dattatreya Pitha, Chikkamagaluru taluku, Chikkamagaluru district, Karnataka, India",
            "longitude": "75.7539724",
            "latitude": "13.4315216",
            "blogLinks": [
                "https://en.wikipedia.org/wiki/Tourism_in_Karnataka"
            ],
            "locType": "hamlet"
        },
        "mastikatte": {
            "closest_to": "murudeshwara",
            "address": "Mastikatte, Ankola taluk, Uttara Kannada, Karnataka, India",
            "longitude": "74.4604101",
            "latitude": "14.6857168",
            "blogLinks": [
                "https://en.wikipedia.org/wiki/Tourism_in_Karnataka"
            ],
            "locType": "village"
        },
        "gotagodi village": {
            "closest_to": "murudeshwara",
            "address": "Gotagodi, Hanagal taluk, Haveri district, Karnataka, India",
            "longitude": "75.0452834",
            "latitude": "14.7634556",
            "blogLinks": [
                "https://en.wikipedia.org/wiki/Tourism_in_Karnataka"
            ],
            "locType": "village"
        },
        "belgaum": {
            "closest_to": "murudeshwara",
            "address": "Belgaum, Belgaum district, Karnataka, India",
            "longitude": "74.75",
            "latitude": "16.333333",
            "blogLinks": [
                "https://en.wikipedia.org/wiki/Tourism_in_Karnataka",
                "https://www.quora.com/What-are-the-best-places-to-visit-on-a-3-day-trip-in-and-around-Karnataka"
            ],
            "locType": "county"
        },
        "tungabhadra river": {
            "closest_to": "hampi",
            "address": "Tungabhadra, Gangavati taluku, Koppal district, Karnataka, India",
            "longitude": "76.4931607",
            "latitude": "15.3446123",
            "blogLinks": [
                "https://www.thrillophilia.com/places-to-visit-in-hampi",
                "https://www.tripoto.com/places-to-visit/india/hampi",
                "http://www.holidayiq.com/Hampi-Sightseeing-370.html",
                "http://www.nivalink.com/destination/hospet",
                "https://en.wikipedia.org/wiki/Hampi",
                "http://www.mapsofindia.com/karnataka/places-to-visit-in-hampi.html"
            ],
            "locType": "river"
        },
        "hebbe falls": {
            "closest_to": "murudeshwara",
            "address": "Hebbe falls, Kemmannagundi Road, Attigundi, Chikkamagaluru taluku, Chikkamagaluru district, Karnataka, India",
            "longitude": "75.7253701",
            "latitude": "13.5414025",
            "blogLinks": [
                "https://en.wikipedia.org/wiki/Tourism_in_Karnataka"
            ],
            "locType": "attraction"
        },
        "bellary district": {
            "closest_to": "hampi",
            "address": "Bellary district, Karnataka, India",
            "longitude": "76.7137978546465",
            "latitude": "15.20597305",
            "blogLinks": [
                "https://en.wikipedia.org/wiki/Tourism_in_Karnataka"
            ],
            "locType": "administrative"
        },
        "anshi national park": {
            "closest_to": "murudeshwara",
            "address": "Anshi National Park, SH46, Bidoli, Joida taluk, Uttara Kannada, Karnataka, India",
            "longitude": "74.3934408094182",
            "latitude": "14.9994424",
            "blogLinks": [
                "https://en.wikipedia.org/wiki/Tourism_in_Karnataka"
            ],
            "locType": "national_park"
        },
        "panambur - panambur beach": {
            "closest_to": "murudeshwara",
            "address": "Panambur Beach, Panambur Beach Road, Gandhinagar, Panambur, Mangaluru taluk, Dakshina Kannada, Karnataka, 575013, India",
            "longitude": "74.8034667207214",
            "latitude": "12.93907195",
            "blogLinks": [
                "https://www.quora.com/What-are-the-best-places-to-visit-on-a-3-day-trip-in-and-around-Karnataka"
            ],
            "locType": "beach"
        },
        "south-west": {
            "closest_to": "murudeshwara",
            "address": "Karnataka, India",
            "longitude": "75.7223521",
            "latitude": "14.5203896",
            "blogLinks": [
                "https://www.thrillophilia.com/places-to-visit-in-hampi"
            ],
            "locType": "administrative"
        },
        "amboli": {
            "closest_to": "murudeshwara",
            "address": "Amboli, Khanapura taluku, Belgaum district, Karnataka, India",
            "longitude": "74.4340839",
            "latitude": "15.6456171",
            "blogLinks": [
                "https://www.quora.com/What-are-the-best-places-to-visit-on-a-3-day-trip-in-and-around-Karnataka"
            ],
            "locType": "village"
        },
        "gejjala mantapa": {
            "closest_to": "hampi",
            "address": "Gejjala Mantapa, Way to Vitthala Temple, Hampe, Hosapete taluk, Bellary district, Karnataka, 583239, India",
            "longitude": "76.4848482044349",
            "latitude": "15.33976025",
            "blogLinks": [
                "http://www.holidayiq.com/Hampi-Sightseeing-370.html"
            ],
            "locType": "ruins"
        },
        "koppal": {
            "closest_to": "murudeshwara",
            "address": "Koppala, Koppala taluku, Koppal district, Karnataka, 583231, India",
            "longitude": "76.1547421",
            "latitude": "15.3484144",
            "blogLinks": [
                "https://en.wikipedia.org/wiki/Tourism_in_Karnataka"
            ],
            "locType": "town"
        },
        "sirsi": {
            "closest_to": "murudeshwara",
            "address": "Sirsi, Shirasi taluk, Uttara Kannada, Karnataka, 581400, India",
            "longitude": "74.8388611",
            "latitude": "14.6192362",
            "blogLinks": [
                "https://www.quora.com/What-are-the-best-places-to-visit-on-a-3-day-trip-in-and-around-Karnataka"
            ],
            "locType": "town"
        },
        "kali": {
            "closest_to": "murudeshwara",
            "address": "Kali, Joida taluk, Uttara Kannada, Karnataka, India",
            "longitude": "74.5802901",
            "latitude": "15.0145378",
            "blogLinks": [
                "https://www.quora.com/What-are-the-best-places-to-visit-on-a-3-day-trip-in-and-around-Karnataka"
            ],
            "locType": "river"
        },
        "prince restaurant": {
            "closest_to": "murudeshwara",
            "address": "Prince, Hampi Bazaar, Hampe, Hosapete taluk, Bellary district, Karnataka, 583239, India",
            "longitude": "76.4602348",
            "latitude": "15.3355701",
            "blogLinks": [
                "https://www.tripoto.com/places-to-visit/india/hampi"
            ],
            "locType": "restaurant"
        },
        "kudalasangama": {
            "closest_to": "hampi",
            "address": "Kudala Sangama, Hunagunda taluku, Bagalkote district, Karnataka, India",
            "longitude": "76.0604244",
            "latitude": "16.2033992",
            "blogLinks": [
                "https://en.wikipedia.org/wiki/Tourism_in_Karnataka"
            ],
            "locType": "village"
        },
        "hassan district": {
            "closest_to": "murudeshwara",
            "address": "Hassan district, Karnataka, India",
            "longitude": "76.1745460751981",
            "latitude": "13.0315068",
            "blogLinks": [
                "https://en.wikipedia.org/wiki/Tourism_in_Karnataka"
            ],
            "locType": "administrative"
        },
        "markandeya river": {
            "closest_to": "murudeshwara",
            "address": "Markandeya, Belagavi taluku, Belgaum district, Karnataka, India",
            "longitude": "74.5774895",
            "latitude": "15.9707453",
            "blogLinks": [
                "https://www.quora.com/What-are-the-best-places-to-visit-on-a-3-day-trip-in-and-around-Karnataka"
            ],
            "locType": "river"
        },
        "bagalkot district": {
            "closest_to": "hampi",
            "address": "Bagalakote, Bagalakote taluk, Bagalkote district, Karnataka, India",
            "longitude": "75.6967919",
            "latitude": "16.1853166",
            "blogLinks": [
                "https://en.wikipedia.org/wiki/Tourism_in_Karnataka"
            ],
            "locType": "city"
        },
        "karkala": {
            "closest_to": "murudeshwara",
            "address": "Karkala, Karkala taluk, Udupi district, Karnataka, 574104, India",
            "longitude": "74.9959586",
            "latitude": "13.2112826",
            "blogLinks": [
                "https://en.wikipedia.org/wiki/Tourism_in_Karnataka",
                "https://www.quora.com/What-are-the-best-places-to-visit-on-a-3-day-trip-in-and-around-Karnataka"
            ],
            "locType": "town"
        },
        "bijapur": {
            "closest_to": "hampi",
            "address": "Vijayapura, Vijayapura taluk, Bijapur district, Karnataka, 586101, India",
            "longitude": "75.7175387",
            "latitude": "16.8269911",
            "blogLinks": [
                "https://www.thrillophilia.com/places-to-visit-in-hampi",
                "https://en.wikipedia.org/wiki/Tourism_in_Karnataka"
            ],
            "locType": "city"
        },
        "shirali": {
            "closest_to": "murudeshwara",
            "address": "Shirali, Bhatkala taluk, Uttara Kannada, Karnataka, 581354, India",
            "longitude": "74.5286591",
            "latitude": "14.0280925",
            "blogLinks": [
                "https://en.wikipedia.org/wiki/Tourism_in_Karnataka"
            ],
            "locType": "village"
        },
        "uttara kannada": {
            "closest_to": "murudeshwara",
            "address": "Uttara Kannada, Karnataka, India",
            "longitude": "74.4729163045979",
            "latitude": "14.6726379",
            "blogLinks": [
                "https://en.wikipedia.org/wiki/Tourism_in_Karnataka",
                "https://www.quora.com/What-are-the-best-places-to-visit-on-a-3-day-trip-in-and-around-Karnataka"
            ],
            "locType": "administrative"
        },
        "gadag": {
            "closest_to": "murudeshwara",
            "address": "Gadag, Gadag taluk, Gadag district, Karnataka, 582101, India",
            "longitude": "75.6300786",
            "latitude": "15.4263647",
            "blogLinks": [
                "https://en.wikipedia.org/wiki/Tourism_in_Karnataka"
            ],
            "locType": "town"
        },
        "mullayanagiri": {
            "closest_to": "murudeshwara",
            "address": "Mullayyanagiri, Chikkamagaluru, Chikkamagaluru taluku, Chikkamagaluru district, Karnataka, 577101, India",
            "longitude": "75.7214034",
            "latitude": "13.3909217",
            "blogLinks": [
                "https://www.quora.com/What-are-the-best-places-to-visit-on-a-3-day-trip-in-and-around-Karnataka"
            ],
            "locType": "peak"
        },
        "nagareshwara": {
            "closest_to": "hampi",
            "address": "Nagareshwara Temple, SH126, Dantapur, Yadagiri taluku, Yadagiri district, Karnataka, India",
            "longitude": "77.3934679",
            "latitude": "16.8662525",
            "blogLinks": [
                "https://en.wikipedia.org/wiki/Tourism_in_Karnataka"
            ],
            "locType": "place_of_worship"
        },
        "hubli": {
            "closest_to": "murudeshwara",
            "address": "Hubballi - \u0cb9\u0cc1\u0cac\u0ccd\u0cac\u0cb3\u0ccd\u0cb3\u0cbf, Hubballi taluku, Dharwad district, Karnataka, 580020, India",
            "longitude": "75.1379848",
            "latitude": "15.3518378",
            "blogLinks": [
                "http://www.indiamike.com/india/india-travel-itinerary-advice-f91/hampi-murudeshwar-connection-t29145/",
                "https://en.wikipedia.org/wiki/Tourism_in_Karnataka",
                "http://www.nivalink.com/destination/hospet"
            ],
            "locType": "city"
        },
        "tumkur": {
            "closest_to": "hampi",
            "address": "Tumakuru, Tumkur district, Karnataka, India",
            "longitude": "77.0002445",
            "latitude": "13.4999406",
            "blogLinks": [
                "https://en.wikipedia.org/wiki/Tourism_in_Karnataka"
            ],
            "locType": "county"
        },
        "bankpur fort": {
            "closest_to": "murudeshwara",
            "address": "Bankapura Fort, SH137, Guddada Channapura, Shiggaon taluk, Haveri district, Karnataka, 581202, India",
            "longitude": "75.2512090188504",
            "latitude": "14.9231815",
            "blogLinks": [
                "https://en.wikipedia.org/wiki/Tourism_in_Karnataka"
            ],
            "locType": "archaeological_site"
        },
        "vittalapura": {
            "closest_to": "hampi",
            "address": "Vittalapura, Gangavati taluku, Koppal district, Karnataka, India",
            "longitude": "76.4095029",
            "latitude": "15.4917365",
            "blogLinks": [
                "https://www.thrillophilia.com/places-to-visit-in-hampi"
            ],
            "locType": "village"
        },
        "kudala sangama": {
            "closest_to": "hampi",
            "address": "Kudala Sangama, Hunagunda taluku, Bagalkote district, Karnataka, India",
            "longitude": "76.0604244",
            "latitude": "16.2033992",
            "blogLinks": [
                "https://en.wikipedia.org/wiki/Tourism_in_Karnataka"
            ],
            "locType": "village"
        },
        "rock garden": {
            "closest_to": "murudeshwara",
            "address": "Waterfalls by the Rock site, Madikeri taluku, Kodagu, Karnataka, India",
            "longitude": "75.6142269",
            "latitude": "12.2248591",
            "blogLinks": [
                "https://en.wikipedia.org/wiki/Tourism_in_Karnataka"
            ],
            "locType": "waterfall"
        },
        "anegondi": {
            "closest_to": "hampi",
            "address": "Anegundi, Gangavati taluku, Koppal district, Karnataka, India",
            "longitude": "76.4924232",
            "latitude": "15.3509583",
            "blogLinks": [
                "http://www.mapsofindia.com/karnataka/places-to-visit-in-hampi.html"
            ],
            "locType": "village"
        },
        "tunga": {
            "closest_to": "murudeshwara",
            "address": "Tunga, Tirthahalli taluk, Shimoga district, Karnataka, India",
            "longitude": "75.3221835",
            "latitude": "13.6632221",
            "blogLinks": [
                "https://www.quora.com/What-are-the-best-places-to-visit-on-a-3-day-trip-in-and-around-Karnataka"
            ],
            "locType": "river"
        },
        "sannati": {
            "closest_to": "hampi",
            "address": "Sannati, Chitapura taluku, Kalaburagi district, Karnataka, India",
            "longitude": "76.9080631",
            "latitude": "16.8293201",
            "blogLinks": [
                "https://en.wikipedia.org/wiki/Tourism_in_Karnataka"
            ],
            "locType": "village"
        },
        "pattadakal": {
            "closest_to": "murudeshwara",
            "address": "Pattadakal Temples, SH14, \u0cac\u0cbe\u0c9a\u0cbf\u0ca8\u0c97\u0cc1\u0ca1\u0ccd\u0ca1, Badami taluku, Bagalkote district, Karnataka, 587211, India",
            "longitude": "75.815884048161",
            "latitude": "15.9506349",
            "blogLinks": [
                "https://en.wikipedia.org/wiki/Tourism_in_Karnataka",
                "http://www.mapsofindia.com/karnataka/tourism/"
            ],
            "locType": "attraction"
        },
        "district bagalkot": {
            "closest_to": "hampi",
            "address": "District Commissioner's Office, Bagalkot, Navanagara, Bagalakote, Bagalakote taluk, Bagalkote district, Karnataka, India",
            "longitude": "75.6736388363024",
            "latitude": "16.16028195",
            "blogLinks": [
                "https://en.wikipedia.org/wiki/Tourism_in_Karnataka"
            ],
            "locType": "commercial"
        },
        "gokak": {
            "closest_to": "murudeshwara",
            "address": "Gokak, Gokak taluku, Belgaum district, Karnataka, 591307, India",
            "longitude": "74.8224338",
            "latitude": "16.1693033",
            "blogLinks": [
                "https://en.wikipedia.org/wiki/Tourism_in_Karnataka",
                "https://www.quora.com/What-are-the-best-places-to-visit-on-a-3-day-trip-in-and-around-Karnataka"
            ],
            "locType": "town"
        },
        "yellapur": {
            "closest_to": "murudeshwara",
            "address": "Yellapura, Yallapura taluk, Uttara Kannada, Karnataka, 581359, India",
            "longitude": "74.7061458",
            "latitude": "14.9622518",
            "blogLinks": [
                "https://www.quora.com/What-are-the-best-places-to-visit-on-a-3-day-trip-in-and-around-Karnataka"
            ],
            "locType": "town"
        },
        "hampi": {
            "closest_to": "murudeshwara",
            "address": "Hampe, Hosapete taluk, Bellary district, Karnataka, 583239, India",
            "longitude": "76.4606199",
            "latitude": "15.3359769",
            "blogLinks": [
                "https://www.thrillophilia.com/places-to-visit-in-hampi",
                "https://en.wikipedia.org/wiki/Tourism_in_Karnataka",
                "http://www.mapsofindia.com/karnataka/tourism/",
                "https://www.tripoto.com/places-to-visit/india/hampi",
                "http://www.oktatabyebye.com/Travel-Ideas/Weekend-Getaways/murudeshwar.aspx",
                "http://www.holidayiq.com/Hampi-Sightseeing-370.html",
                "http://www.nivalink.com/destination/hospet",
                "https://en.wikipedia.org/wiki/Hampi",
                "http://www.indiamike.com/india/india-travel-itinerary-advice-f91/hampi-murudeshwar-connection-t29145/",
                "http://www.mapsofindia.com/karnataka/places-to-visit-in-hampi.html",
                "http://www.karnatakatourism.org/",
                "https://www.quora.com/What-are-the-best-places-to-visit-on-a-3-day-trip-in-and-around-Karnataka"
            ],
            "locType": "village"
        },
        "honnavar": {
            "closest_to": "murudeshwara",
            "address": "Honnavar, Honnavara taluku, Uttara Kannada, Karnataka, 581334, India",
            "longitude": "74.4446716",
            "latitude": "14.2810827",
            "blogLinks": [
                "http://www.oktatabyebye.com/Travel-Ideas/Weekend-Getaways/murudeshwar.aspx"
            ],
            "locType": "town"
        },
        "netrani island of uttara kannada": {
            "closest_to": "murudeshwara",
            "address": "Netrani, Uttara Kannada, Karnataka, India",
            "longitude": "74.3272086675849",
            "latitude": "14.0174924",
            "blogLinks": [
                "https://en.wikipedia.org/wiki/Tourism_in_Karnataka"
            ],
            "locType": "island"
        },
        "gurupura": {
            "closest_to": "murudeshwara",
            "address": "Gurupura, Tarikere taluku, Chikkamagaluru district, Karnataka, India",
            "longitude": "75.7161587",
            "latitude": "13.6686411",
            "blogLinks": [
                "https://www.quora.com/What-are-the-best-places-to-visit-on-a-3-day-trip-in-and-around-Karnataka"
            ],
            "locType": "village"
        },
        "river tungabhadra": {
            "closest_to": "hampi",
            "address": "Tungabhadra, Gangavati taluku, Koppal district, Karnataka, India",
            "longitude": "76.4931607",
            "latitude": "15.3446123",
            "blogLinks": [
                "https://www.tripoto.com/places-to-visit/india/hampi"
            ],
            "locType": "river"
        },
        "malpe": {
            "closest_to": "murudeshwara",
            "address": "Malpe, Udupi taluku, Udupi district, Karnataka, India",
            "longitude": "74.7036914",
            "latitude": "13.3507423",
            "blogLinks": [
                "https://en.wikipedia.org/wiki/Tourism_in_Karnataka",
                "https://www.quora.com/What-are-the-best-places-to-visit-on-a-3-day-trip-in-and-around-Karnataka"
            ],
            "locType": "village"
        },
        "shimoga district": {
            "closest_to": "murudeshwara",
            "address": "Shimoga district, Karnataka, India",
            "longitude": "75.1312533993886",
            "latitude": "14.0558284",
            "blogLinks": [
                "https://en.wikipedia.org/wiki/Tourism_in_Karnataka"
            ],
            "locType": "administrative"
        },
        "hoysaleswara temple": {
            "closest_to": "murudeshwara",
            "address": "Hoysaleswara Temple, SH21, Halebidu, Beluru taluk, Hassan district, Karnataka, 573121, India",
            "longitude": "75.9941649",
            "latitude": "13.2127193",
            "blogLinks": [
                "http://www.mapsofindia.com/karnataka/tourism/"
            ],
            "locType": "place_of_worship"
        },
        "afzalpur": {
            "closest_to": "hampi",
            "address": "Afzalpur, Afzalpura taluku, Kalaburagi district, Karnataka, 585301, India",
            "longitude": "76.3605783",
            "latitude": "17.2005764",
            "blogLinks": [
                "https://en.wikipedia.org/wiki/Tourism_in_Karnataka"
            ],
            "locType": "town"
        },
        "kemmangundi": {
            "closest_to": "murudeshwara",
            "address": "Kemmannagundi, Tarikere taluku, Chikkamagaluru district, Karnataka, India",
            "longitude": "75.7520082",
            "latitude": "13.5463048",
            "blogLinks": [
                "https://en.wikipedia.org/wiki/Tourism_in_Karnataka"
            ],
            "locType": "village"
        },
        "bhatkal": {
            "closest_to": "murudeshwara",
            "address": "Bhatkal, Bhatkala taluk, Uttara Kannada, Karnataka, 581320, India",
            "longitude": "74.5485295",
            "latitude": "13.9952114",
            "blogLinks": [
                "https://en.wikipedia.org/wiki/Tourism_in_Karnataka",
                "http://www.mapsofindia.com/karnataka/tourism/",
                "http://www.oktatabyebye.com/Travel-Ideas/Weekend-Getaways/murudeshwar.aspx"
            ],
            "locType": "town"
        },
        "netravati": {
            "closest_to": "murudeshwara",
            "address": "Netravati, Bantwal taluk, Dakshina Kannada, Karnataka, India",
            "longitude": "75.1562182",
            "latitude": "12.8537655",
            "blogLinks": [
                "https://en.wikipedia.org/wiki/Tourism_in_Karnataka"
            ],
            "locType": "river"
        },
        "mangalore": {
            "closest_to": "murudeshwara",
            "address": "Mangaluru, Mangaluru taluk, Dakshina Kannada, Karnataka, 575001, India",
            "longitude": "74.8430082",
            "latitude": "12.8698101",
            "blogLinks": [
                "http://www.indiamike.com/india/india-travel-itinerary-advice-f91/hampi-murudeshwar-connection-t29145/",
                "https://en.wikipedia.org/wiki/Tourism_in_Karnataka",
                "http://www.mapsofindia.com/karnataka/tourism/",
                "http://www.oktatabyebye.com/Travel-Ideas/Weekend-Getaways/murudeshwar.aspx",
                "https://www.quora.com/What-are-the-best-places-to-visit-on-a-3-day-trip-in-and-around-Karnataka"
            ],
            "locType": "city"
        },
        "vijayanagara": {
            "closest_to": "murudeshwara",
            "address": "Vijayanagara, Chikodi taluk, Belgaum district, Karnataka, India",
            "longitude": "74.7380455",
            "latitude": "16.3270486",
            "blogLinks": [
                "https://en.wikipedia.org/wiki/Tourism_in_Karnataka",
                "http://www.nivalink.com/destination/hospet",
                "https://en.wikipedia.org/wiki/Hampi"
            ],
            "locType": "village"
        },
        "varur": {
            "closest_to": "murudeshwara",
            "address": "Varur, Hubballi taluku, Dharwad district, Karnataka, India",
            "longitude": "75.1387568",
            "latitude": "15.2077105",
            "blogLinks": [
                "https://en.wikipedia.org/wiki/Tourism_in_Karnataka"
            ],
            "locType": "village"
        },
        "gokul garden": {
            "closest_to": "murudeshwara",
            "address": "Gokul Garden, Gokul Road / Airport Road, Renuka Nagar, Padmaraj Nagar, Gokul, Hubballi taluku, Dharwad district, Karnataka, 580030, India",
            "longitude": "75.1141861403246",
            "latitude": "15.35009745",
            "blogLinks": [
                "https://www.quora.com/What-are-the-best-places-to-visit-on-a-3-day-trip-in-and-around-Karnataka"
            ],
            "locType": "recreation_ground"
        },
        "shimoga": {
            "closest_to": "murudeshwara",
            "address": "Shivamogga, Shivamogga taluku, Shimoga district, Karnataka, 577200, India",
            "longitude": "75.569737",
            "latitude": "13.9311723",
            "blogLinks": [
                "https://en.wikipedia.org/wiki/Tourism_in_Karnataka"
            ],
            "locType": "city"
        },
        "kanakagiri": {
            "closest_to": "hampi",
            "address": "Kanakagiri, Gangavati taluku, Koppal district, Karnataka, 584119, India",
            "longitude": "76.4189879",
            "latitude": "15.5696792",
            "blogLinks": [
                "https://en.wikipedia.org/wiki/Hampi"
            ],
            "locType": "town"
        },
        "sasivekalu": {
            "closest_to": "murudeshwara",
            "address": "Sasivekalu Ganesha, Hampi Kamalapura Road, Hampe, Hosapete taluk, Bellary district, Karnataka, 583239, India",
            "longitude": "76.4604025",
            "latitude": "15.3322644",
            "blogLinks": [
                "https://www.thrillophilia.com/places-to-visit-in-hampi"
            ],
            "locType": "place_of_worship"
        },
        "varaha": {
            "closest_to": "murudeshwara",
            "address": "Varaha, Hirekeruru taluk, Haveri district, Karnataka, India",
            "longitude": "75.3718812",
            "latitude": "14.390777",
            "blogLinks": [
                "https://en.wikipedia.org/wiki/Tourism_in_Karnataka"
            ],
            "locType": "village"
        },
        "banavasi": {
            "closest_to": "murudeshwara",
            "address": "Banavasi, Shirasi taluk, Uttara Kannada, Karnataka, India",
            "longitude": "75.0129845",
            "latitude": "14.5389738",
            "blogLinks": [
                "https://en.wikipedia.org/wiki/Tourism_in_Karnataka",
                "https://www.quora.com/What-are-the-best-places-to-visit-on-a-3-day-trip-in-and-around-Karnataka"
            ],
            "locType": "town"
        },
        "shiggaon taluk": {
            "closest_to": "murudeshwara",
            "address": "Shiggaon taluk, Haveri district, Karnataka, India",
            "longitude": "75.1756764988777",
            "latitude": "15.0138079",
            "blogLinks": [
                "https://en.wikipedia.org/wiki/Tourism_in_Karnataka"
            ],
            "locType": "administrative"
        },
        "mirjan fort": {
            "closest_to": "murudeshwara",
            "address": "Mirjana Fort, Edapally- Panvel Highway, Kimani, Kumata taluk, Uttara Kannada, Karnataka, 581344, India",
            "longitude": "74.4174838158512",
            "latitude": "14.48905715",
            "blogLinks": [
                "https://www.quora.com/What-are-the-best-places-to-visit-on-a-3-day-trip-in-and-around-Karnataka"
            ],
            "locType": "attraction"
        },
        "brahmagiri range": {
            "closest_to": "hampi",
            "address": "Brahmagiri Betta, Molakalmuru taluku, Chitradurga district, Karnataka, India",
            "longitude": "76.8122474",
            "latitude": "14.8001586",
            "blogLinks": [
                "https://www.quora.com/What-are-the-best-places-to-visit-on-a-3-day-trip-in-and-around-Karnataka"
            ],
            "locType": "peak"
        },
        "bagalkote": {
            "closest_to": "hampi",
            "address": "Bagalkote district, Karnataka, India",
            "longitude": "75.5825586777167",
            "latitude": "16.28998085",
            "blogLinks": [
                "https://en.wikipedia.org/wiki/Tourism_in_Karnataka"
            ],
            "locType": "administrative"
        },
        "karwar": {
            "closest_to": "murudeshwara",
            "address": "Karwar, Karavara taluk, Uttara Kannada, Karnataka, 581300, India",
            "longitude": "74.1319229",
            "latitude": "14.8120931",
            "blogLinks": [
                "https://en.wikipedia.org/wiki/Tourism_in_Karnataka"
            ],
            "locType": "town"
        },
        "chola": {
            "closest_to": "murudeshwara",
            "address": "Chola Gold Loan, Bengaluru - Mangaluru Road, Ravindra Nagar, Santhe Pete, Hassan, Hasana taluk, Hassan district, Karnataka, 573201, India",
            "longitude": "76.098782",
            "latitude": "13.0023906",
            "blogLinks": [
                "https://en.wikipedia.org/wiki/Tourism_in_Karnataka"
            ],
            "locType": "yes"
        },
        "kambadahalli": {
            "closest_to": "hampi",
            "address": "Kambadahalli, Madhugiri taluk, Tumkur district, Karnataka, India",
            "longitude": "77.1671918",
            "latitude": "13.6843692",
            "blogLinks": [
                "https://en.wikipedia.org/wiki/Tourism_in_Karnataka"
            ],
            "locType": "village"
        },
        "golden temple": {
            "closest_to": "murudeshwara",
            "address": "Padmasambhava Buddhist Vihara (Golden Temple), MDR21, Koppa, Piriyapattana taluk, Mysuru district, Karnataka, India",
            "longitude": "75.9674656",
            "latitude": "12.430821",
            "blogLinks": [
                "https://www.quora.com/What-are-the-best-places-to-visit-on-a-3-day-trip-in-and-around-Karnataka"
            ],
            "locType": "place_of_worship"
        },
        "kannada": {
            "closest_to": "murudeshwara",
            "address": "Dakshina Kannada, Karnataka, India",
            "longitude": "75.1008028650794",
            "latitude": "12.8114089",
            "blogLinks": [
                "https://www.tripoto.com/places-to-visit/india/hampi",
                "https://www.quora.com/What-are-the-best-places-to-visit-on-a-3-day-trip-in-and-around-Karnataka",
                "https://en.wikipedia.org/wiki/Hampi"
            ],
            "locType": "administrative"
        },
        "belavadi": {
            "closest_to": "murudeshwara",
            "address": "Belavadi, Koppa taluk, Chikkamagaluru district, Karnataka, India",
            "longitude": "75.3760773",
            "latitude": "13.5284899",
            "blogLinks": [
                "https://en.wikipedia.org/wiki/Tourism_in_Karnataka"
            ],
            "locType": "village"
        },
        "kagal": {
            "closest_to": "murudeshwara",
            "address": "Kagal Fort, Birkodi Village, Kumata taluk, Uttara Kannada, Karnataka, India",
            "longitude": "74.3575302591262",
            "latitude": "14.5055819",
            "blogLinks": [
                "https://en.wikipedia.org/wiki/Tourism_in_Karnataka"
            ],
            "locType": "grass"
        },
        "nippani": {
            "closest_to": "hampi",
            "address": "Nippani, Chikodi taluk, Belgaum district, Karnataka, 591237, India",
            "longitude": "74.3842372",
            "latitude": "16.4020402",
            "blogLinks": [
                "https://en.wikipedia.org/wiki/Tourism_in_Karnataka"
            ],
            "locType": "town"
        },
        "mercara": {
            "closest_to": "murudeshwara",
            "address": "Madikeri, Madikeri taluku, Kodagu, Karnataka, India",
            "longitude": "75.740031",
            "latitude": "12.4204003",
            "blogLinks": [
                "https://en.wikipedia.org/wiki/Tourism_in_Karnataka"
            ],
            "locType": "town"
        },
        "tungabhadra dam": {
            "closest_to": "murudeshwara",
            "address": "Tungabhadra Dam, Hosapete taluk, Bellary district, Karnataka, India",
            "longitude": "76.3339514796436",
            "latitude": "15.2639032",
            "blogLinks": [
                "https://en.wikipedia.org/wiki/Hampi"
            ],
            "locType": "dam"
        },
        "' river varahi": {
            "closest_to": "murudeshwara",
            "address": "Varahi, \u0c95\u0cc1\u0c82\u0ca6\u0cbe\u0caa\u0cc1\u0cb0 \u0ca4\u0cbe\u0cb2\u0cc2\u0c95\u0cc1, Udupi district, Karnataka, India",
            "longitude": "74.9489117",
            "latitude": "13.6582668",
            "blogLinks": [
                "https://en.wikipedia.org/wiki/Tourism_in_Karnataka"
            ],
            "locType": "river"
        },
        "narayana": {
            "closest_to": "murudeshwara",
            "address": "Narayana Gondanahalli, Holalkere taluk, Chitradurga district, Karnataka, India",
            "longitude": "76.201037",
            "latitude": "13.9181889",
            "blogLinks": [
                "https://en.wikipedia.org/wiki/Tourism_in_Karnataka"
            ],
            "locType": "village"
        },
        "sagara": {
            "closest_to": "murudeshwara",
            "address": "Sagara, Sagara taluk, Shimoga district, Karnataka, 577400, India",
            "longitude": "75.0262551",
            "latitude": "14.1666594",
            "blogLinks": [
                "https://en.wikipedia.org/wiki/Tourism_in_Karnataka"
            ],
            "locType": "town"
        },
        "coorg": {
            "closest_to": "murudeshwara",
            "address": "Madikeri, Madikeri taluku, Kodagu, Karnataka, India",
            "longitude": "75.740031",
            "latitude": "12.4204003",
            "blogLinks": [
                "https://www.quora.com/What-are-the-best-places-to-visit-on-a-3-day-trip-in-and-around-Karnataka"
            ],
            "locType": "town"
        },
        "arabhavi": {
            "closest_to": "murudeshwara",
            "address": "Arabhavi, Gokak taluku, Belgaum district, Karnataka, India",
            "longitude": "74.8213227",
            "latitude": "16.2193552",
            "blogLinks": [
                "https://en.wikipedia.org/wiki/Tourism_in_Karnataka"
            ],
            "locType": "village"
        },
        "madhukeshwara": {
            "closest_to": "murudeshwara",
            "address": "Madhukeshwara Temple, Kattinakere Road, Kattinakere Bus Stand, Soraba taluk, Shimoga district, Karnataka, India",
            "longitude": "75.1480027",
            "latitude": "14.3058996",
            "blogLinks": [
                "https://www.quora.com/What-are-the-best-places-to-visit-on-a-3-day-trip-in-and-around-Karnataka"
            ],
            "locType": "place_of_worship"
        },
        "kodachadri": {
            "closest_to": "murudeshwara",
            "address": "Kodachadri, \u0c95\u0cc1\u0c82\u0ca6\u0cbe\u0caa\u0cc1\u0cb0 \u0ca4\u0cbe\u0cb2\u0cc2\u0c95\u0cc1, Udupi district, Karnataka, India",
            "longitude": "74.8705395",
            "latitude": "13.8565758",
            "blogLinks": [
                "https://en.wikipedia.org/wiki/Tourism_in_Karnataka",
                "https://www.quora.com/What-are-the-best-places-to-visit-on-a-3-day-trip-in-and-around-Karnataka"
            ],
            "locType": "peak"
        },
        "sangameshwara": {
            "closest_to": "murudeshwara",
            "address": "Sangameshwara, Kalaghatagi taluku, Dharwad district, Karnataka, India",
            "longitude": "74.87651",
            "latitude": "15.184341",
            "blogLinks": [
                "https://en.wikipedia.org/wiki/Tourism_in_Karnataka",
                "https://www.quora.com/What-are-the-best-places-to-visit-on-a-3-day-trip-in-and-around-Karnataka"
            ],
            "locType": "village"
        },
        "chikmagalur district": {
            "closest_to": "murudeshwara",
            "address": "Chikmagalur, Chikkamagaluru district, Karnataka, India",
            "longitude": "75.5",
            "latitude": "13.5",
            "blogLinks": [
                "https://en.wikipedia.org/wiki/Tourism_in_Karnataka"
            ],
            "locType": "county"
        },
        "bijapur district": {
            "closest_to": "hampi",
            "address": "Bijapur district, Karnataka, India",
            "longitude": "75.897147327785",
            "latitude": "16.81105965",
            "blogLinks": [
                "https://www.quora.com/What-are-the-best-places-to-visit-on-a-3-day-trip-in-and-around-Karnataka"
            ],
            "locType": "administrative"
        },
        "anjanadri hill": {
            "closest_to": "hampi",
            "address": "Anjanadri Hill, Gangavati taluku, Koppal district, Karnataka, India",
            "longitude": "76.4691482",
            "latitude": "15.3550046",
            "blogLinks": [
                "https://www.thrillophilia.com/places-to-visit-in-hampi"
            ],
            "locType": "peak"
        },
        "hemakuta hill": {
            "closest_to": "murudeshwara",
            "address": "Hemakuta Hill, Hosapete taluk, Bellary district, Karnataka, India",
            "longitude": "76.4602971",
            "latitude": "15.332915",
            "blogLinks": [
                "https://www.thrillophilia.com/places-to-visit-in-hampi",
                "https://www.tripoto.com/places-to-visit/india/hampi",
                "http://www.holidayiq.com/Hampi-Sightseeing-370.html"
            ],
            "locType": "peak"
        },
        "itagi": {
            "closest_to": "murudeshwara",
            "address": "Itagi, Ranebennuru taluk, Haveri district, Karnataka, India",
            "longitude": "75.6701043",
            "latitude": "14.550374",
            "blogLinks": [
                "https://en.wikipedia.org/wiki/Tourism_in_Karnataka"
            ],
            "locType": "village"
        },
        "parvati": {
            "closest_to": "hampi",
            "address": "Parvati, Badami taluku, Bagalkote district, Karnataka, India",
            "longitude": "75.7898501",
            "latitude": "16.0395701",
            "blogLinks": [
                "https://www.quora.com/What-are-the-best-places-to-visit-on-a-3-day-trip-in-and-around-Karnataka"
            ],
            "locType": "village"
        },
        "virupaksha temple": {
            "closest_to": "murudeshwara",
            "address": "Virupaksha Temple, Hampi Bazaar, Hampe, Hosapete taluk, Bellary district, Karnataka, 583239, India",
            "longitude": "76.4587777156223",
            "latitude": "15.3351754",
            "blogLinks": [
                "https://www.thrillophilia.com/places-to-visit-in-hampi",
                "http://www.mapsofindia.com/karnataka/places-to-visit-in-hampi.html",
                "https://en.wikipedia.org/wiki/Tourism_in_Karnataka",
                "http://www.holidayiq.com/Hampi-Sightseeing-370.html"
            ],
            "locType": "place_of_worship"
        },
        "chikkamagaluru": {
            "closest_to": "murudeshwara",
            "address": "Chikkamagaluru, Chikkamagaluru taluku, Chikkamagaluru district, Karnataka, 577101, India",
            "longitude": "75.7738743",
            "latitude": "13.318014",
            "blogLinks": [
                "https://www.quora.com/What-are-the-best-places-to-visit-on-a-3-day-trip-in-and-around-Karnataka"
            ],
            "locType": "city"
        },
        "halebid": {
            "closest_to": "murudeshwara",
            "address": "Halebidu, Beluru taluk, Hassan district, Karnataka, 573121, India",
            "longitude": "75.9918793",
            "latitude": "13.2167959",
            "blogLinks": [
                "http://www.mapsofindia.com/karnataka/tourism/"
            ],
            "locType": "village"
        },
        "ghataprabha river": {
            "closest_to": "murudeshwara",
            "address": "Ghataprabha, Gokak taluku, Belgaum district, Karnataka, India",
            "longitude": "74.9165235",
            "latitude": "16.2124344",
            "blogLinks": [
                "https://en.wikipedia.org/wiki/Tourism_in_Karnataka"
            ],
            "locType": "river"
        },
        "hospet": {
            "closest_to": "murudeshwara",
            "address": "Hosapete, Hosapete taluk, Bellary district, Karnataka, 583200, India",
            "longitude": "76.3870527",
            "latitude": "15.266079",
            "blogLinks": [
                "http://www.indiamike.com/india/india-travel-itinerary-advice-f91/hampi-murudeshwar-connection-t29145/"
            ],
            "locType": "town"
        },
        "belgaum fort": {
            "closest_to": "murudeshwara",
            "address": "Belgaum Fort, Belagavi, Belagavi taluku, Belgaum district, Karnataka, 590001, India",
            "longitude": "74.5255651",
            "latitude": "15.8581696",
            "blogLinks": [
                "https://en.wikipedia.org/wiki/Tourism_in_Karnataka"
            ],
            "locType": "locality"
        },
        "veerabhadra temple": {
            "closest_to": "hampi",
            "address": "Veerabhadra Temple, SH149, Taranalli, Chitapura taluku, Kalaburagi district, Karnataka, India",
            "longitude": "76.9293272",
            "latitude": "17.1417262",
            "blogLinks": [
                "http://www.holidayiq.com/Hampi-Sightseeing-370.html"
            ],
            "locType": "place_of_worship"
        },
        "kadalekalu ganesha": {
            "closest_to": "murudeshwara",
            "address": "Kadalekalu Ganesha, Hampi Kamalapura Road, Hampe, Hosapete taluk, Bellary district, Karnataka, 583239, India",
            "longitude": "76.4611816490679",
            "latitude": "15.3328686",
            "blogLinks": [
                "https://www.thrillophilia.com/places-to-visit-in-hampi"
            ],
            "locType": "place_of_worship"
        },
        "dharwad": {
            "closest_to": "murudeshwara",
            "address": "Dharwad, Dharawada taluku, Dharwad district, Karnataka, 580001, India",
            "longitude": "75.0066516",
            "latitude": "15.4540505",
            "blogLinks": [
                "https://en.wikipedia.org/wiki/Tourism_in_Karnataka"
            ],
            "locType": "city"
        },
        "kudremukh national park": {
            "closest_to": "murudeshwara",
            "address": "Kudremukh National Park, SH66, Sringeri taluku, Chikkamagaluru district, Karnataka, India",
            "longitude": "75.1828713712862",
            "latitude": "13.25397485",
            "blogLinks": [
                "https://en.wikipedia.org/wiki/Tourism_in_Karnataka",
                "https://www.quora.com/What-are-the-best-places-to-visit-on-a-3-day-trip-in-and-around-Karnataka"
            ],
            "locType": "national_park"
        },
        "gulbarga district": {
            "closest_to": "hampi",
            "address": "Kalaburgi, Kalaburagi district, Karnataka, India",
            "longitude": "77.083333",
            "latitude": "17.166667",
            "blogLinks": [
                "https://en.wikipedia.org/wiki/Tourism_in_Karnataka"
            ],
            "locType": "county"
        },
        "udupi": {
            "closest_to": "murudeshwara",
            "address": "Udupi, Udupi taluku, Udupi district, Karnataka, 576101, India",
            "longitude": "74.7473232",
            "latitude": "13.3419169",
            "blogLinks": [
                "https://en.wikipedia.org/wiki/Tourism_in_Karnataka",
                "http://www.mapsofindia.com/karnataka/tourism/"
            ],
            "locType": "city"
        },
        "nethrani island": {
            "closest_to": "murudeshwara",
            "address": "Netrani, Uttara Kannada, Karnataka, India",
            "longitude": "74.3272086675849",
            "latitude": "14.0174924",
            "blogLinks": [
                "https://en.wikipedia.org/wiki/Tourism_in_Karnataka"
            ],
            "locType": "island"
        },
        "marikamba temple": {
            "closest_to": "murudeshwara",
            "address": "Marikamba Temple, NH766C;SH26, Halkal, \u0c95\u0cc1\u0c82\u0ca6\u0cbe\u0caa\u0cc1\u0cb0 \u0ca4\u0cbe\u0cb2\u0cc2\u0c95\u0cc1, Udupi district, Karnataka, 576220, India",
            "longitude": "74.8103631279317",
            "latitude": "13.8626958",
            "blogLinks": [
                "https://www.quora.com/What-are-the-best-places-to-visit-on-a-3-day-trip-in-and-around-Karnataka"
            ],
            "locType": "place_of_worship"
        },
        "kalasa": {
            "closest_to": "murudeshwara",
            "address": "Kalasa, Mudigere taluk, Chikkamagaluru district, Karnataka, 577124, India",
            "longitude": "75.3582366",
            "latitude": "13.2322235",
            "blogLinks": [
                "https://en.wikipedia.org/wiki/Tourism_in_Karnataka"
            ],
            "locType": "town"
        },
        "bhadra river": {
            "closest_to": "murudeshwara",
            "address": "Bhadra, Chikkamagaluru taluku, Chikkamagaluru district, Karnataka, India",
            "longitude": "75.527118",
            "latitude": "13.4888356",
            "blogLinks": [
                "https://en.wikipedia.org/wiki/Tourism_in_Karnataka"
            ],
            "locType": "river"
        },
        "gulbarga": {
            "closest_to": "hampi",
            "address": "Kalaburgi, Kalaburagi district, Karnataka, India",
            "longitude": "77.083333",
            "latitude": "17.166667",
            "blogLinks": [
                "https://en.wikipedia.org/wiki/Tourism_in_Karnataka",
                "https://www.quora.com/What-are-the-best-places-to-visit-on-a-3-day-trip-in-and-around-Karnataka"
            ],
            "locType": "county"
        },
        "hampi bazaar": {
            "closest_to": "hampi",
            "address": "Hampi Bazaar, Hampe, Hosapete taluk, Bellary district, Karnataka, 583239, India",
            "longitude": "76.4621571",
            "latitude": "15.3347585",
            "blogLinks": [
                "http://www.mapsofindia.com/karnataka/places-to-visit-in-hampi.html",
                "http://www.nivalink.com/destination/hospet",
                "https://en.wikipedia.org/wiki/Hampi"
            ],
            "locType": "unclassified"
        },
        "mandalpatti": {
            "closest_to": "murudeshwara",
            "address": "Mandalpatti road junction, Galibidu Road, Kalakeri Nidugane, Madikeri taluku, Kodagu, Karnataka, India",
            "longitude": "75.7307012",
            "latitude": "12.4486242",
            "blogLinks": [
                "https://www.quora.com/What-are-the-best-places-to-visit-on-a-3-day-trip-in-and-around-Karnataka"
            ],
            "locType": "attraction"
        },
        "gudavi": {
            "closest_to": "murudeshwara",
            "address": "Gudavi, Soraba taluk, Shimoga district, Karnataka, India",
            "longitude": "75.009649",
            "latitude": "14.4400296",
            "blogLinks": [
                "https://en.wikipedia.org/wiki/Tourism_in_Karnataka"
            ],
            "locType": "village"
        },
        "tungabhadra": {
            "closest_to": "hampi",
            "address": "Tungabhadra, Gangavati taluku, Koppal district, Karnataka, India",
            "longitude": "76.4931607",
            "latitude": "15.3446123",
            "blogLinks": [
                "https://en.wikipedia.org/wiki/Tourism_in_Karnataka",
                "http://www.nivalink.com/destination/hospet"
            ],
            "locType": "river"
        },
        "hassan": {
            "closest_to": "murudeshwara",
            "address": "Hassan, Hasana taluk, Hassan district, Karnataka, 573201, India",
            "longitude": "76.0992703",
            "latitude": "13.0070817",
            "blogLinks": [
                "https://en.wikipedia.org/wiki/Tourism_in_Karnataka"
            ],
            "locType": "town"
        },
        "kodagu": {
            "closest_to": "murudeshwara",
            "address": "Kodagu, Karnataka, India",
            "longitude": "75.6677235950852",
            "latitude": "12.38117345",
            "blogLinks": [
                "https://en.wikipedia.org/wiki/Tourism_in_Karnataka",
                "http://www.mapsofindia.com/karnataka/tourism/",
                "https://www.quora.com/What-are-the-best-places-to-visit-on-a-3-day-trip-in-and-around-Karnataka"
            ],
            "locType": "administrative"
        },
        "kuknur": {
            "closest_to": "murudeshwara",
            "address": "Kukanura, Yelaburga taluku, Koppal district, Karnataka, 583232, India",
            "longitude": "75.9934934",
            "latitude": "15.4902753",
            "blogLinks": [
                "https://en.wikipedia.org/wiki/Tourism_in_Karnataka"
            ],
            "locType": "village"
        },
        "jaina": {
            "closest_to": "hampi",
            "address": "Meguti Jaina temple, SH133, Aihole, Hunagunda taluku, Bagalkote district, Karnataka, India",
            "longitude": "75.8840813",
            "latitude": "16.0173371",
            "blogLinks": [
                "https://en.wikipedia.org/wiki/Hampi"
            ],
            "locType": "place_of_worship"
        },
        "kuppali": {
            "closest_to": "murudeshwara",
            "address": "Kuppali Road, Kuppalli, Tirthahalli taluk, Shimoga district, Karnataka, India",
            "longitude": "75.3158067",
            "latitude": "13.5998255",
            "blogLinks": [
                "https://www.quora.com/What-are-the-best-places-to-visit-on-a-3-day-trip-in-and-around-Karnataka"
            ],
            "locType": "tertiary"
        },
        "haveri": {
            "closest_to": "murudeshwara",
            "address": "Haveri, Haveri taluku, Haveri district, Karnataka, 581110, India",
            "longitude": "75.3996731",
            "latitude": "14.7874825",
            "blogLinks": [
                "https://en.wikipedia.org/wiki/Tourism_in_Karnataka"
            ],
            "locType": "town"
        },
        "manjusha museum": {
            "closest_to": "murudeshwara",
            "address": "Manjusha Museum, SH37, Dharmasthala, Beltangadi taluk, Dakshina Kannada, Karnataka, 574216, India",
            "longitude": "75.3821342838196",
            "latitude": "12.95116975",
            "blogLinks": [
                "https://en.wikipedia.org/wiki/Tourism_in_Karnataka"
            ],
            "locType": "museum"
        },
        "chitradurga": {
            "closest_to": "murudeshwara",
            "address": "Chitradurga, Chitradurga taluku, Chitradurga district, Karnataka, 577500, India",
            "longitude": "76.4005122",
            "latitude": "14.2266443",
            "blogLinks": [
                "https://en.wikipedia.org/wiki/Tourism_in_Karnataka"
            ],
            "locType": "town"
        },
        "sirigere": {
            "closest_to": "murudeshwara",
            "address": "Sirigere, Chitradurga taluku, Chitradurga district, Karnataka, India",
            "longitude": "76.2051907",
            "latitude": "14.2840739",
            "blogLinks": [
                "https://en.wikipedia.org/wiki/Tourism_in_Karnataka"
            ],
            "locType": "village"
        },
        "chennakeshava": {
            "closest_to": "murudeshwara",
            "address": "Chennakeshava Temple, NH73, Arakere, Arasikere taluku, Hassan district, Karnataka, 573112, India",
            "longitude": "76.1294164",
            "latitude": "13.3748908",
            "blogLinks": [
                "https://www.quora.com/What-are-the-best-places-to-visit-on-a-3-day-trip-in-and-around-Karnataka"
            ],
            "locType": "place_of_worship"
        },
        "haveri district": {
            "closest_to": "murudeshwara",
            "address": "Haveri district, Karnataka, India",
            "longitude": "75.3845674304742",
            "latitude": "14.714635",
            "blogLinks": [
                "https://en.wikipedia.org/wiki/Tourism_in_Karnataka"
            ],
            "locType": "administrative"
        },
        "gadag district": {
            "closest_to": "murudeshwara",
            "address": "Gadag district, Karnataka, India",
            "longitude": "75.6807542794645",
            "latitude": "15.416337",
            "blogLinks": [
                "https://en.wikipedia.org/wiki/Tourism_in_Karnataka"
            ],
            "locType": "administrative"
        },
        "kudremukh": {
            "closest_to": "murudeshwara",
            "address": "Kudremukha, Mudigere taluk, Chikkamagaluru district, Karnataka, India",
            "longitude": "75.2523304",
            "latitude": "13.2144007",
            "blogLinks": [
                "https://en.wikipedia.org/wiki/Tourism_in_Karnataka"
            ],
            "locType": "village"
        },
        "lakkundi": {
            "closest_to": "hampi",
            "address": "Lakkundi, Muddebihala taluku, Bijapur district, Karnataka, India",
            "longitude": "76.4084687",
            "latitude": "16.5255464",
            "blogLinks": [
                "https://en.wikipedia.org/wiki/Tourism_in_Karnataka"
            ],
            "locType": "village"
        },
        "sakleshpur": {
            "closest_to": "murudeshwara",
            "address": "Sakaleshpura, Sakaleshapura taluk, Hassan district, Karnataka, 573134, India",
            "longitude": "75.7862318",
            "latitude": "12.9434349",
            "blogLinks": [
                "https://www.quora.com/What-are-the-best-places-to-visit-on-a-3-day-trip-in-and-around-Karnataka"
            ],
            "locType": "town"
        },
        "kurnool": {
            "closest_to": "hampi",
            "address": "Karnataka Guest House, Jadcherla - Hagari Road, Kurnool, Andhra Pradesh, India",
            "longitude": "77.4217916",
            "latitude": "15.9394081",
            "blogLinks": [
                "http://www.nivalink.com/destination/hospet"
            ],
            "locType": "hotel"
        },
        "naganur": {
            "closest_to": "murudeshwara",
            "address": "Naganur, Hukkeri taluku, Belgaum district, Karnataka, India",
            "longitude": "74.4824431",
            "latitude": "16.073351",
            "blogLinks": [
                "https://en.wikipedia.org/wiki/Tourism_in_Karnataka"
            ],
            "locType": "village"
        },
        "bagamandala": {
            "closest_to": "murudeshwara",
            "address": "Madikeri - Bagamandala ,Tala Kaveri Road, Mekeri, Madikeri taluku, Kodagu, Karnataka, India",
            "longitude": "75.748408",
            "latitude": "12.388062",
            "blogLinks": [
                "https://en.wikipedia.org/wiki/Tourism_in_Karnataka"
            ],
            "locType": "primary"
        },
        "badami of karnataka": {
            "closest_to": "murudeshwara",
            "address": "Badami taluku, Bagalkote district, Karnataka, India",
            "longitude": "75.6419100722642",
            "latitude": "15.98301895",
            "blogLinks": [
                "http://www.mapsofindia.com/karnataka/tourism/"
            ],
            "locType": "administrative"
        },
        "anegundi": {
            "closest_to": "hampi",
            "address": "Anegundi, Gangavati taluku, Koppal district, Karnataka, India",
            "longitude": "76.4924232",
            "latitude": "15.3509583",
            "blogLinks": [
                "https://www.thrillophilia.com/places-to-visit-in-hampi",
                "https://en.wikipedia.org/wiki/Tourism_in_Karnataka"
            ],
            "locType": "village"
        },
        "varada": {
            "closest_to": "murudeshwara",
            "address": "Varada, Savanura taluk, Haveri district, Karnataka, India",
            "longitude": "75.47206",
            "latitude": "14.8717792",
            "blogLinks": [
                "https://en.wikipedia.org/wiki/Tourism_in_Karnataka"
            ],
            "locType": "river"
        },
        "matanga hill": {
            "closest_to": "hampi",
            "address": "Matanga Hill, Hosapete taluk, Bellary district, Karnataka, India",
            "longitude": "76.4682314",
            "latitude": "15.3315267",
            "blogLinks": [
                "https://www.thrillophilia.com/places-to-visit-in-hampi"
            ],
            "locType": "peak"
        },
        "narasimha swamy temple": {
            "closest_to": "murudeshwara",
            "address": "Narasimha Swamy Temple, Attavara Mudigere Road, Attavara, Hasana taluk, Hassan district, Karnataka, India",
            "longitude": "76.2427318",
            "latitude": "13.0943931",
            "blogLinks": [
                "https://en.wikipedia.org/wiki/Tourism_in_Karnataka"
            ],
            "locType": "place_of_worship"
        },
        "chennakesava temple": {
            "closest_to": "murudeshwara",
            "address": "Chennakesava Temple, NH73, Navilahalli, Beluru taluk, Hassan district, Karnataka, India",
            "longitude": "75.8603311",
            "latitude": "13.1629239",
            "blogLinks": [
                "http://www.mapsofindia.com/karnataka/tourism/"
            ],
            "locType": "place_of_worship"
        },
        "kali river": {
            "closest_to": "murudeshwara",
            "address": "Kali, Joida taluk, Uttara Kannada, Karnataka, India",
            "longitude": "74.5802901",
            "latitude": "15.0145378",
            "blogLinks": [
                "https://www.quora.com/What-are-the-best-places-to-visit-on-a-3-day-trip-in-and-around-Karnataka"
            ],
            "locType": "river"
        },
        "mookambika": {
            "closest_to": "murudeshwara",
            "address": "Mukambika Devasthana, NH766C;SH26, Halkal, \u0c95\u0cc1\u0c82\u0ca6\u0cbe\u0caa\u0cc1\u0cb0 \u0ca4\u0cbe\u0cb2\u0cc2\u0c95\u0cc1, Udupi district, Karnataka, 576220, India",
            "longitude": "74.8145296",
            "latitude": "13.8638043",
            "blogLinks": [
                "https://en.wikipedia.org/wiki/Tourism_in_Karnataka"
            ],
            "locType": "place_of_worship"
        },
        "lakshmeshwar": {
            "closest_to": "murudeshwara",
            "address": "Lakshmeshwar KSRTC Bus stand, SH6, Bastibana, Lakshmeshvara, Shirahatti taluku, Gadag district, Karnataka, 582116, India",
            "longitude": "75.4741167",
            "latitude": "15.12373",
            "blogLinks": [
                "https://en.wikipedia.org/wiki/Tourism_in_Karnataka"
            ],
            "locType": "bus_station"
        },
        "kumta": {
            "closest_to": "murudeshwara",
            "address": "Kumta, Kumata taluk, Uttara Kannada, Karnataka, India",
            "longitude": "74.4107617",
            "latitude": "14.4261647",
            "blogLinks": [
                "https://en.wikipedia.org/wiki/Tourism_in_Karnataka"
            ],
            "locType": "town"
        },
        "chandramouleshwara temple": {
            "closest_to": "murudeshwara",
            "address": "Chandramouleshwara Temple, Edapally - Panvel Highway, Kolnad, Karnad, Padu Panambur, Mangaluru taluk, Dakshina Kannada, Karnataka, 575025, India",
            "longitude": "74.8024264",
            "latitude": "13.0636768",
            "blogLinks": [
                "https://en.wikipedia.org/wiki/Hampi"
            ],
            "locType": "place_of_worship"
        },
        "tagore beach": {
            "closest_to": "murudeshwara",
            "address": "Rabindranath Tagore Beach, NH66, Kodibag, Karwar, Karavara taluk, Uttara Kannada, Karnataka, 581300, India",
            "longitude": "74.126114099183",
            "latitude": "14.81741155",
            "blogLinks": [
                "https://www.quora.com/What-are-the-best-places-to-visit-on-a-3-day-trip-in-and-around-Karnataka"
            ],
            "locType": "beach"
        },
        "kudremukh peak": {
            "closest_to": "murudeshwara",
            "address": "Kudremukha, Mudigere taluk, Chikkamagaluru district, Karnataka, India",
            "longitude": "75.2748196",
            "latitude": "13.1255691",
            "blogLinks": [
                "https://www.quora.com/What-are-the-best-places-to-visit-on-a-3-day-trip-in-and-around-Karnataka"
            ],
            "locType": "peak"
        },
        "ganeshgudi": {
            "closest_to": "murudeshwara",
            "address": "Ganeshagudi, Joida taluk, Uttara Kannada, Karnataka, India",
            "longitude": "74.5335693",
            "latitude": "15.2815822",
            "blogLinks": [
                "https://www.quora.com/What-are-the-best-places-to-visit-on-a-3-day-trip-in-and-around-Karnataka"
            ],
            "locType": "village"
        },
        "bellary": {
            "closest_to": "hampi",
            "address": "Bellary, Bellary district, Karnataka, India",
            "longitude": "76.8323648",
            "latitude": "15.2485413",
            "blogLinks": [
                "http://www.mapsofindia.com/karnataka/places-to-visit-in-hampi.html",
                "https://en.wikipedia.org/wiki/Tourism_in_Karnataka",
                "https://en.wikipedia.org/wiki/Hampi"
            ],
            "locType": "county"
        },
        "mullayanagiri range": {
            "closest_to": "murudeshwara",
            "address": "Mullayyanagiri, Chikkamagaluru, Chikkamagaluru taluku, Chikkamagaluru district, Karnataka, 577101, India",
            "longitude": "75.7214034",
            "latitude": "13.3909217",
            "blogLinks": [
                "https://www.quora.com/What-are-the-best-places-to-visit-on-a-3-day-trip-in-and-around-Karnataka"
            ],
            "locType": "peak"
        },
        "unchalli falls": {
            "closest_to": "murudeshwara",
            "address": "\u0c89\u0c82\u0c9a\u0cb3\u0ccd\u0cb3\u0cbf \u0c9c\u0cb2\u0caa\u0cbe\u0ca4, Siddapura taluk, Uttara Kannada, Karnataka, India",
            "longitude": "74.7477592",
            "latitude": "14.4097755",
            "blogLinks": [
                "https://en.wikipedia.org/wiki/Tourism_in_Karnataka"
            ],
            "locType": "waterfall"
        },
        "ananthapadmanabha": {
            "closest_to": "murudeshwara",
            "address": "Kudupu Ananthapadmanabha Temple, Solapur-Mangalore Highway, Shakthinagar, Kulashekara, Kudupu, Mangaluru taluk, Dakshina Kannada, Karnataka, 575007, India",
            "longitude": "74.8937899082456",
            "latitude": "12.9039019",
            "blogLinks": [
                "https://www.quora.com/What-are-the-best-places-to-visit-on-a-3-day-trip-in-and-around-Karnataka"
            ],
            "locType": "place_of_worship"
        },
        "lokapura": {
            "closest_to": "murudeshwara",
            "address": "Lokapura, Mudhola taluku, Bagalkote district, Karnataka, 587122, India",
            "longitude": "75.3685939",
            "latitude": "16.1627427",
            "blogLinks": [
                "https://en.wikipedia.org/wiki/Tourism_in_Karnataka"
            ],
            "locType": "town"
        },
        "malaprabha": {
            "closest_to": "murudeshwara",
            "address": "Malaprabha, Ramadurga taluku, Belgaum district, Karnataka, India",
            "longitude": "75.1982668",
            "latitude": "15.8914192",
            "blogLinks": [
                "https://en.wikipedia.org/wiki/Tourism_in_Karnataka"
            ],
            "locType": "river"
        },
        "murudeshwar": {
            "closest_to": "murudeshwara",
            "address": "Murudeshwara, Bhatkala taluk, Uttara Kannada, Karnataka, 581350, India",
            "longitude": "74.4883354",
            "latitude": "14.0959549",
            "blogLinks": [
                "http://www.indiamike.com/india/india-travel-itinerary-advice-f91/hampi-murudeshwar-connection-t29145/"
            ],
            "locType": "town"
        },
        "lushington falls": {
            "closest_to": "murudeshwara",
            "address": "\u0c89\u0c82\u0c9a\u0cb3\u0ccd\u0cb3\u0cbf \u0c9c\u0cb2\u0caa\u0cbe\u0ca4, Siddapura taluk, Uttara Kannada, Karnataka, India",
            "longitude": "74.7477592",
            "latitude": "14.4097755",
            "blogLinks": [
                "https://en.wikipedia.org/wiki/Tourism_in_Karnataka"
            ],
            "locType": "waterfall"
        },
        "hemakuta": {
            "closest_to": "murudeshwara",
            "address": "Hemakuta Hill, Hosapete taluk, Bellary district, Karnataka, India",
            "longitude": "76.4602971",
            "latitude": "15.332915",
            "blogLinks": [
                "https://www.thrillophilia.com/places-to-visit-in-hampi",
                "http://www.holidayiq.com/Hampi-Sightseeing-370.html",
                "https://en.wikipedia.org/wiki/Hampi"
            ],
            "locType": "peak"
        },
        "hasan": {
            "closest_to": "murudeshwara",
            "address": "Hassan, Hasana taluk, Hassan district, Karnataka, 573201, India",
            "longitude": "76.0992703",
            "latitude": "13.0070817",
            "blogLinks": [
                "http://www.mapsofindia.com/karnataka/tourism/"
            ],
            "locType": "town"
        },
        "monkey temple": {
            "closest_to": "hampi",
            "address": "Monkey temple, SH130, Basapura, Koppala taluku, Koppal district, Karnataka, India",
            "longitude": "76.469358",
            "latitude": "15.354654",
            "blogLinks": [
                "https://www.thrillophilia.com/places-to-visit-in-hampi"
            ],
            "locType": "place_of_worship"
        },
        "dakshina kannada": {
            "closest_to": "murudeshwara",
            "address": "Dakshina Kannada, Karnataka, India",
            "longitude": "75.1008028650794",
            "latitude": "12.8114089",
            "blogLinks": [
                "https://en.wikipedia.org/wiki/Tourism_in_Karnataka",
                "https://www.quora.com/What-are-the-best-places-to-visit-on-a-3-day-trip-in-and-around-Karnataka"
            ],
            "locType": "administrative"
        },
        "koppal district": {
            "closest_to": "hampi",
            "address": "Koppal district, Karnataka, India",
            "longitude": "76.310639117029",
            "latitude": "15.57825725",
            "blogLinks": [
                "https://en.wikipedia.org/wiki/Tourism_in_Karnataka"
            ],
            "locType": "administrative"
        },
        "venur": {
            "closest_to": "murudeshwara",
            "address": "Venoor, Beltangadi taluk, Dakshina Kannada, Karnataka, 574242, India",
            "longitude": "75.1443252",
            "latitude": "13.0122097",
            "blogLinks": [
                "https://en.wikipedia.org/wiki/Tourism_in_Karnataka"
            ],
            "locType": "village"
        },
        "virupaksha": {
            "closest_to": "murudeshwara",
            "address": "Virupaksha Temple, Hampi Bazaar, Hampe, Hosapete taluk, Bellary district, Karnataka, 583239, India",
            "longitude": "76.4587777156223",
            "latitude": "15.3351754",
            "blogLinks": [
                "https://en.wikipedia.org/wiki/Hampi"
            ],
            "locType": "place_of_worship"
        },
        "gokarna": {
            "closest_to": "murudeshwara",
            "address": "Gokarna, Kumata taluk, Uttara Kannada, Karnataka, 581326, India",
            "longitude": "74.3184418",
            "latitude": "14.5439629",
            "blogLinks": [
                "https://en.wikipedia.org/wiki/Tourism_in_Karnataka",
                "http://www.mapsofindia.com/karnataka/tourism/",
                "http://www.oktatabyebye.com/Travel-Ideas/Weekend-Getaways/murudeshwar.aspx"
            ],
            "locType": "town"
        },
        "bankapura": {
            "closest_to": "murudeshwara",
            "address": "Bankapura, Shiggaon taluk, Haveri district, Karnataka, 581202, India",
            "longitude": "75.2639298",
            "latitude": "14.9217443",
            "blogLinks": [
                "https://en.wikipedia.org/wiki/Tourism_in_Karnataka"
            ],
            "locType": "town"
        },
        "india": {
            "closest_to": "murudeshwara",
            "address": "Karnataka, India",
            "longitude": "75.7223521",
            "latitude": "14.5203896",
            "blogLinks": [
                "https://www.thrillophilia.com/places-to-visit-in-hampi",
                "https://en.wikipedia.org/wiki/Tourism_in_Karnataka",
                "http://www.mapsofindia.com/karnataka/tourism/",
                "http://www.nivalink.com/destination/hospet",
                "https://en.wikipedia.org/wiki/Hampi",
                "http://www.mapsofindia.com/karnataka/places-to-visit-in-hampi.html",
                "https://www.quora.com/What-are-the-best-places-to-visit-on-a-3-day-trip-in-and-around-Karnataka"
            ],
            "locType": "administrative"
        },
        "sharavati": {
            "closest_to": "murudeshwara",
            "address": "Sharavati, Sagara taluk, Shimoga district, Karnataka, India",
            "longitude": "74.7647294",
            "latitude": "14.2360979",
            "blogLinks": [
                "https://en.wikipedia.org/wiki/Tourism_in_Karnataka",
                "https://www.quora.com/What-are-the-best-places-to-visit-on-a-3-day-trip-in-and-around-Karnataka"
            ],
            "locType": "river"
        }
    },
    "murudeshwara": {
        "place_id": "622093",
        "osm_id": "245626123",
        "icon": "https://nominatim.openstreetmap.org/images/mapicons/poi_place_town.p.20.png",
        "osm_type": "node",
        "licence": "Data \u00a9 OpenStreetMap contributors, ODbL 1.0. http://www.openstreetmap.org/copyright",
        "display_name": "Murudeshwara, Bhatkala taluk, Uttara Kannada, Karnataka, 581350, India",
        "type": "town",
        "lon": "74.4883354",
        "boundingbox": [
            "14.0559549",
            "14.1359549",
            "74.4483354",
            "74.5283354"
        ],
        "importance": 0.5,
        "lat": "14.0959549",
        "class": "place"
    }
}