{
    "yana": {
        "place_id": "196766914",
        "osm_id": "1890842669",
        "icon": "https://nominatim.openstreetmap.org/images/mapicons/poi_place_village.p.20.png",
        "osm_type": "node",
        "licence": "Data \u00a9 OpenStreetMap contributors, ODbL 1.0. http://www.openstreetmap.org/copyright",
        "display_name": "Yana, Kumata taluk, Uttara Kannada, Karnataka, India",
        "type": "village",
        "lon": "74.5598169",
        "boundingbox": [
            "14.5586094",
            "14.5986094",
            "74.5398169",
            "74.5798169"
        ],
        "importance": 0.475,
        "lat": "14.5786094",
        "class": "place"
    },
    "mentions": {
        "kittur": {
            "closest_to": "hubli",
            "address": "Kitturu, Bailahongala taluku, Belgaum district, Karnataka, 591115, India",
            "longitude": "74.7876971",
            "latitude": "15.5957166",
            "blogLinks": [
                "http://wikitravel.org/en/Hubli",
                "http://travel.paintedstork.com/blog/2005/11/road-trip-bangalore-to-goa.html"
            ],
            "locType": "town"
        },
        "bhairaveshwara shikhara": {
            "closest_to": "yana",
            "address": "Bhairaveshwara Shikhara, Kumata taluk, Uttara Kannada, Karnataka, India",
            "longitude": "74.5674551",
            "latitude": "14.5902071",
            "blogLinks": [
                "http://www.nivalink.com/destination/gokarna",
                "https://en.wikipedia.org/wiki/Yana,_India"
            ],
            "locType": "peak"
        },
        "badami": {
            "closest_to": "hubli",
            "address": "Badami, Badami taluku, Bagalkote district, Karnataka, 587200, India",
            "longitude": "75.6807865",
            "latitude": "15.9203874",
            "blogLinks": [
                "http://www.nivalink.com/destination/hubli"
            ],
            "locType": "town"
        },
        "honnavar": {
            "closest_to": "yana",
            "address": "Honnavar, Honnavara taluku, Uttara Kannada, Karnataka, 581334, India",
            "longitude": "74.4446716",
            "latitude": "14.2810827",
            "blogLinks": [
                "http://praveenpn.com/blog/2011/01/05/bangalore-to-goa-by-car/"
            ],
            "locType": "town"
        },
        "yellapur": {
            "closest_to": "yana",
            "address": "Yellapura, Yallapura taluk, Uttara Kannada, Karnataka, 581359, India",
            "longitude": "74.7061458",
            "latitude": "14.9622518",
            "blogLinks": [
                "http://www.team-bhp.com/forum/route-travel-queries/47758-bangalore-sirsi-dandeli-hubli.html"
            ],
            "locType": "town"
        },
        "urdu": {
            "closest_to": "hubli",
            "address": "Urdu Ground, Ranebennur, Ranebennuru taluk, Haveri district, Karnataka, 581115, India",
            "longitude": "75.636575371858",
            "latitude": "14.6180369",
            "blogLinks": [
                "https://en.wikipedia.org/wiki/Sirsi,_Karnataka"
            ],
            "locType": "recreation_ground"
        },
        "dharwad": {
            "closest_to": "hubli",
            "address": "Dharwad, Dharawada taluku, Dharwad district, Karnataka, 580001, India",
            "longitude": "75.0066516",
            "latitude": "15.4540505",
            "blogLinks": [
                "https://en.wikipedia.org/wiki/Sirsi,_Karnataka"
            ],
            "locType": "city"
        },
        "jog falls": {
            "closest_to": "yana",
            "address": "Jog Falls, Joga - Kargal, Sagara taluk, Shimoga district, Karnataka, India",
            "longitude": "74.8128715",
            "latitude": "14.2276106",
            "blogLinks": [
                "http://wikitravel.org/en/Hubli"
            ],
            "locType": "locality"
        },
        "swaswara": {
            "closest_to": "yana",
            "address": "Swaswara, Om beach road, Gokarna, Kumata taluk, Uttara Kannada, Karnataka, 581326, India",
            "longitude": "74.3201237772373",
            "latitude": "14.5212941",
            "blogLinks": [
                "http://www.nivalink.com/destination/gokarna"
            ],
            "locType": "hotel"
        },
        "ulavi": {
            "closest_to": "yana",
            "address": "Ulavi, Soraba taluk, Shimoga district, Karnataka, 577434, India",
            "longitude": "75.109001",
            "latitude": "14.2716118",
            "blogLinks": [
                "http://wikitravel.org/en/Hubli"
            ],
            "locType": "village"
        },
        "gokarn": {
            "closest_to": "yana",
            "address": "Gokarna, Kumata taluk, Uttara Kannada, Karnataka, 581326, India",
            "longitude": "74.3184418",
            "latitude": "14.5439629",
            "blogLinks": [
                "http://wikitravel.org/en/Hubli",
                "https://en.wikipedia.org/wiki/Yana,_India"
            ],
            "locType": "town"
        },
        "kali": {
            "closest_to": "yana",
            "address": "Kali, Joida taluk, Uttara Kannada, Karnataka, India",
            "longitude": "74.5802901",
            "latitude": "15.0145378",
            "blogLinks": [
                "http://www.team-bhp.com/forum/route-travel-queries/47758-bangalore-sirsi-dandeli-hubli.html"
            ],
            "locType": "river"
        },
        "uppinapattana": {
            "closest_to": "yana",
            "address": "Uppinapattana, Kumata taluk, Uttara Kannada, Karnataka, India",
            "longitude": "74.4910299",
            "latitude": "14.4729897",
            "blogLinks": [
                "https://en.wikipedia.org/wiki/Yana,_India"
            ],
            "locType": "village"
        },
        "khanapur": {
            "closest_to": "hubli",
            "address": "Khanapur, Khanapura taluku, Belgaum district, Karnataka, 591302, India",
            "longitude": "74.5088917",
            "latitude": "15.639879",
            "blogLinks": [
                "http://www.nivalink.com/destination/hubli"
            ],
            "locType": "town"
        },
        "aghanashini river": {
            "closest_to": "yana",
            "address": "Aghanashini, Kumata taluk, Uttara Kannada, Karnataka, India",
            "longitude": "74.3985687",
            "latitude": "14.4947118",
            "blogLinks": [
                "https://en.wikipedia.org/wiki/Yana,_India"
            ],
            "locType": "river"
        },
        "hubli airport": {
            "closest_to": "yana",
            "address": "Hubli Airport, \u0c97\u0ccb\u0c95\u0cc1\u0cb2 \u0cb0\u0ccb\u0ca1\u0ccd, Padmaraj Nagar, Gokul, Hubballi taluku, Dharwad district, Karnataka, 580030, India",
            "longitude": "75.0860974",
            "latitude": "15.3598315",
            "blogLinks": [
                "http://www.travelhaathi.com/hampi-travel-guide/",
                "http://www.nivalink.com/destination/hubli"
            ],
            "locType": "aerodrome"
        },
        "uttara kannada": {
            "closest_to": "yana",
            "address": "Uttara Kannada, Karnataka, India",
            "longitude": "74.4729163045979",
            "latitude": "14.6726379",
            "blogLinks": [
                "https://en.wikipedia.org/wiki/Sirsi,_Karnataka",
                "http://www.team-bhp.com/forum/route-travel-queries/47758-bangalore-sirsi-dandeli-hubli.html",
                "https://en.wikipedia.org/wiki/Yana,_India"
            ],
            "locType": "administrative"
        },
        "yellapura": {
            "closest_to": "yana",
            "address": "Yellapura, Yallapura taluk, Uttara Kannada, Karnataka, 581359, India",
            "longitude": "74.7061458",
            "latitude": "14.9622518",
            "blogLinks": [
                "http://travel.paintedstork.com/blog/2005/11/road-trip-bangalore-to-goa.html"
            ],
            "locType": "town"
        },
        "p.b rd": {
            "closest_to": "yana",
            "address": "Pune Bangalore Road, Chanakya Puri, Old Hubli, Hubballi - \u0cb9\u0cc1\u0cac\u0ccd\u0cac\u0cb3\u0ccd\u0cb3\u0cbf, Hubballi taluku, Dharwad district, Karnataka, 580020, India",
            "longitude": "75.1368445",
            "latitude": "15.3416245",
            "blogLinks": [
                "http://wikitravel.org/en/Hubli"
            ],
            "locType": "primary"
        },
        "yana": {
            "closest_to": "yana",
            "address": "Yana, Kumata taluk, Uttara Kannada, Karnataka, India",
            "longitude": "74.5598169",
            "latitude": "14.5786094",
            "blogLinks": [
                "https://en.wikipedia.org/wiki/Yana,_India"
            ],
            "locType": "village"
        },
        "unkal lake": {
            "closest_to": "hubli",
            "address": "Unakal, Hubballi - \u0cb9\u0cc1\u0cac\u0ccd\u0cac\u0cb3\u0ccd\u0cb3\u0cbf, Hubballi taluku, Dharwad district, Karnataka, 580020, India",
            "longitude": "75.1152303",
            "latitude": "15.379556",
            "blogLinks": [
                "https://www.ixigo.com/places-to-visit-see-in-hubli-lp-1158159"
            ],
            "locType": "suburb"
        },
        "kamat hotel": {
            "closest_to": "hubli",
            "address": "Kamat Hotel, Subhas Road, Saidapur, Kamalapura, Dharwad, Dharawada taluku, Dharwad district, Karnataka, 580001, India",
            "longitude": "75.0131542",
            "latitude": "15.4595482",
            "blogLinks": [
                "http://praveenpn.com/blog/2011/01/05/bangalore-to-goa-by-car/"
            ],
            "locType": "restaurant"
        },
        "unkal": {
            "closest_to": "hubli",
            "address": "Unakal, Hubballi - \u0cb9\u0cc1\u0cac\u0ccd\u0cac\u0cb3\u0ccd\u0cb3\u0cbf, Hubballi taluku, Dharwad district, Karnataka, 580020, India",
            "longitude": "75.1152303",
            "latitude": "15.379556",
            "blogLinks": [
                "http://www.nivalink.com/destination/hubli"
            ],
            "locType": "suburb"
        },
        "haveri": {
            "closest_to": "yana",
            "address": "Haveri, Haveri taluku, Haveri district, Karnataka, 581110, India",
            "longitude": "75.3996731",
            "latitude": "14.7874825",
            "blogLinks": [
                "https://en.wikipedia.org/wiki/Sirsi,_Karnataka"
            ],
            "locType": "town"
        },
        "kalghatgi": {
            "closest_to": "yana",
            "address": "Kalghatgi Road, Hindasageri, Kalaghatagi taluku, Dharwad district, Karnataka, 581204, India",
            "longitude": "75.0064745",
            "latitude": "15.1756059",
            "blogLinks": [
                "http://wikitravel.org/en/Hubli"
            ],
            "locType": "primary"
        },
        "west of hubli": {
            "closest_to": "yana",
            "address": "Hubballi - \u0cb9\u0cc1\u0cac\u0ccd\u0cac\u0cb3\u0ccd\u0cb3\u0cbf, Hubballi taluku, Dharwad district, Karnataka, 580020, India",
            "longitude": "75.1379848",
            "latitude": "15.3518378",
            "blogLinks": [
                "http://www.travelhaathi.com/hampi-travel-guide/"
            ],
            "locType": "city"
        },
        "hubli road": {
            "closest_to": "hubli",
            "address": "Hubli Road, Betageri, Gadag, Gadag taluk, Gadag district, Karnataka, 582102, India",
            "longitude": "75.6212485",
            "latitude": "15.4223718",
            "blogLinks": [
                "https://en.wikipedia.org/wiki/Sirsi,_Karnataka"
            ],
            "locType": "trunk"
        },
        "hubli-dharwad road": {
            "closest_to": "hubli",
            "address": "Hubli Dharwad Road, Gandhinagar, Navalur, Dharawada taluku, Dharwad district, Karnataka, 580002, India",
            "longitude": "75.0366396",
            "latitude": "15.4231154",
            "blogLinks": [
                "http://wikitravel.org/en/Hubli"
            ],
            "locType": "primary"
        },
        "gokul road": {
            "closest_to": "yana",
            "address": "Gokul, Hubballi taluku, Dharwad district, Karnataka, India",
            "longitude": "75.0813826",
            "latitude": "15.3496233",
            "blogLinks": [
                "http://www.travelhaathi.com/hampi-travel-guide/"
            ],
            "locType": "village"
        },
        "yana village": {
            "closest_to": "yana",
            "address": "Yana, Kumata taluk, Uttara Kannada, Karnataka, India",
            "longitude": "74.5598169",
            "latitude": "14.5786094",
            "blogLinks": [
                "https://en.wikipedia.org/wiki/Yana,_India"
            ],
            "locType": "village"
        },
        "panaji": {
            "closest_to": "yana",
            "address": "Belgaum - Panaji Highway, Londa, Khanapura taluku, Belgaum district, Karnataka, India",
            "longitude": "74.4876784",
            "latitude": "15.4422981",
            "blogLinks": [
                "http://travel.paintedstork.com/blog/2005/11/road-trip-bangalore-to-goa.html"
            ],
            "locType": "trunk"
        },
        "om beach": {
            "closest_to": "yana",
            "address": "Om Beach, Om beach road, Gokarna, Kumata taluk, Uttara Kannada, Karnataka, 581326, India",
            "longitude": "74.3254331800289",
            "latitude": "14.5190376",
            "blogLinks": [
                "http://www.nivalink.com/destination/gokarna"
            ],
            "locType": "beach"
        },
        "kumta": {
            "closest_to": "yana",
            "address": "Kumta, Kumata taluk, Uttara Kannada, Karnataka, India",
            "longitude": "74.4107617",
            "latitude": "14.4261647",
            "blogLinks": [
                "https://en.wikipedia.org/wiki/Sirsi,_Karnataka",
                "https://en.wikipedia.org/wiki/Yana,_India"
            ],
            "locType": "town"
        },
        "hubli": {
            "closest_to": "yana",
            "address": "Hubballi - \u0cb9\u0cc1\u0cac\u0ccd\u0cac\u0cb3\u0ccd\u0cb3\u0cbf, Hubballi taluku, Dharwad district, Karnataka, 580020, India",
            "longitude": "75.1379848",
            "latitude": "15.3518378",
            "blogLinks": [
                "http://www.team-bhp.com/forum/route-travel-queries/47758-bangalore-sirsi-dandeli-hubli.html"
            ],
            "locType": "city"
        },
        "gokak falls": {
            "closest_to": "hubli",
            "address": "Gokak Falls, Gokak taluku, Belgaum district, Karnataka, India",
            "longitude": "74.7775947",
            "latitude": "16.1918383",
            "blogLinks": [
                "http://wikitravel.org/en/Hubli"
            ],
            "locType": "waterfall"
        },
        "mundgod": {
            "closest_to": "yana",
            "address": "Mundgod, Mundagoda taluk, Uttara Kannada, Karnataka, 581349, India",
            "longitude": "75.0371451",
            "latitude": "14.9705105",
            "blogLinks": [
                "http://www.nivalink.com/destination/hubli"
            ],
            "locType": "village"
        },
        "marikamba": {
            "closest_to": "yana",
            "address": "Marikamba Temple, NH766C;SH26, Halkal, \u0c95\u0cc1\u0c82\u0ca6\u0cbe\u0caa\u0cc1\u0cb0 \u0ca4\u0cbe\u0cb2\u0cc2\u0c95\u0cc1, Udupi district, Karnataka, 576220, India",
            "longitude": "74.8103631279317",
            "latitude": "13.8626958",
            "blogLinks": [
                "https://en.wikipedia.org/wiki/Sirsi,_Karnataka"
            ],
            "locType": "place_of_worship"
        },
        "sagar": {
            "closest_to": "yana",
            "address": "Sagara, Sagara taluk, Shimoga district, Karnataka, 577400, India",
            "longitude": "75.0262551",
            "latitude": "14.1666594",
            "blogLinks": [
                "http://travel.paintedstork.com/blog/2005/11/road-trip-bangalore-to-goa.html"
            ],
            "locType": "town"
        },
        "margao": {
            "closest_to": "yana",
            "address": "Karnataka bank, NH66, Aquem, Fatorda, Margao, South Goa, Goa, 403600, India",
            "longitude": "73.9583411",
            "latitude": "15.2740083",
            "blogLinks": [
                "http://praveenpn.com/blog/2011/01/05/bangalore-to-goa-by-car/"
            ],
            "locType": "bank"
        },
        "gadag": {
            "closest_to": "hubli",
            "address": "Gadag, Gadag taluk, Gadag district, Karnataka, 582101, India",
            "longitude": "75.6300786",
            "latitude": "15.4263647",
            "blogLinks": [
                "http://www.nivalink.com/destination/hubli"
            ],
            "locType": "town"
        },
        "chennamma circle": {
            "closest_to": "hubli",
            "address": "Rani Chennamma Circle, Cantonment, Belagavi, Belagavi taluku, Belgaum district, Karnataka, 590001, India",
            "longitude": "74.511712864861",
            "latitude": "15.86722145",
            "blogLinks": [
                "http://wikitravel.org/en/Hubli"
            ],
            "locType": "trunk"
        },
        "honnavara": {
            "closest_to": "yana",
            "address": "Honnavar, Honnavara taluku, Uttara Kannada, Karnataka, 581334, India",
            "longitude": "74.4446716",
            "latitude": "14.2810827",
            "blogLinks": [
                "http://travel.paintedstork.com/blog/2005/11/road-trip-bangalore-to-goa.html"
            ],
            "locType": "town"
        },
        "kamalapur": {
            "closest_to": "hubli",
            "address": "Kamalapur Nursing Home, Station Road, Kalyana nagar, Gandhinagar, Dharwad, Dharawada taluku, Dharwad district, Karnataka, 580001, India",
            "longitude": "75.003629911571",
            "latitude": "15.4456282",
            "blogLinks": [
                "http://www.travelhaathi.com/hampi-travel-guide/"
            ],
            "locType": "yes"
        },
        "bankapura": {
            "closest_to": "yana",
            "address": "Bankapura, Shiggaon taluk, Haveri district, Karnataka, 581202, India",
            "longitude": "75.2639298",
            "latitude": "14.9217443",
            "blogLinks": [
                "http://praveenpn.com/blog/2011/01/05/bangalore-to-goa-by-car/"
            ],
            "locType": "town"
        },
        "hubli-dharwad": {
            "closest_to": "yana",
            "address": "Hubballi - \u0cb9\u0cc1\u0cac\u0ccd\u0cac\u0cb3\u0ccd\u0cb3\u0cbf, Hubballi taluku, Dharwad district, Karnataka, 580020, India",
            "longitude": "75.1379848",
            "latitude": "15.3518378",
            "blogLinks": [
                "http://travel.paintedstork.com/blog/2005/11/road-trip-bangalore-to-goa.html",
                "http://www.nivalink.com/destination/hubli"
            ],
            "locType": "city"
        },
        "banavasi": {
            "closest_to": "yana",
            "address": "Banavasi, Shirasi taluk, Uttara Kannada, Karnataka, India",
            "longitude": "75.0129845",
            "latitude": "14.5389738",
            "blogLinks": [
                "https://en.wikipedia.org/wiki/Sirsi,_Karnataka",
                "http://wikitravel.org/en/Hubli"
            ],
            "locType": "town"
        },
        "p.b road": {
            "closest_to": "yana",
            "address": "Pune Bangalore Road, Chanakya Puri, Old Hubli, Hubballi - \u0cb9\u0cc1\u0cac\u0ccd\u0cac\u0cb3\u0ccd\u0cb3\u0cbf, Hubballi taluku, Dharwad district, Karnataka, 580020, India",
            "longitude": "75.1368445",
            "latitude": "15.3416245",
            "blogLinks": [
                "http://wikitravel.org/en/Hubli"
            ],
            "locType": "primary"
        },
        "gokarna": {
            "closest_to": "yana",
            "address": "Gokarna, Kumata taluk, Uttara Kannada, Karnataka, 581326, India",
            "longitude": "74.3184418",
            "latitude": "14.5439629",
            "blogLinks": [
                "http://www.nivalink.com/destination/gokarna",
                "http://www.team-bhp.com/forum/route-travel-queries/47758-bangalore-sirsi-dandeli-hubli.html",
                "http://www.distancesfrom.com/in/flight-time-from-Hubli-to-murudeshwar-via-Gokarna-Yana-Murudeshwara/FlightTimeHistory/31103225.aspx"
            ],
            "locType": "town"
        },
        "karwar": {
            "closest_to": "yana",
            "address": "Karwar, Karavara taluk, Uttara Kannada, Karnataka, 581300, India",
            "longitude": "74.1319229",
            "latitude": "14.8120931",
            "blogLinks": [
                "http://praveenpn.com/blog/2011/01/05/bangalore-to-goa-by-car/",
                "https://en.wikipedia.org/wiki/Sirsi,_Karnataka",
                "http://wikitravel.org/en/Hubli",
                "http://travel.paintedstork.com/blog/2005/11/road-trip-bangalore-to-goa.html",
                "https://en.wikipedia.org/wiki/Yana,_India"
            ],
            "locType": "town"
        },
        "dandeli": {
            "closest_to": "yana",
            "address": "Dandeli, Haliyala taluku, Uttara Kannada, Karnataka, 581325, India",
            "longitude": "74.6236037",
            "latitude": "15.2490284",
            "blogLinks": [
                "http://www.team-bhp.com/forum/route-travel-queries/47758-bangalore-sirsi-dandeli-hubli.html"
            ],
            "locType": "town"
        },
        "bankapur": {
            "closest_to": "yana",
            "address": "Bankapura, Shiggaon taluk, Haveri district, Karnataka, 581202, India",
            "longitude": "75.2639298",
            "latitude": "14.9217443",
            "blogLinks": [
                "http://praveenpn.com/blog/2011/01/05/bangalore-to-goa-by-car/"
            ],
            "locType": "town"
        },
        "mohini shikhara": {
            "closest_to": "yana",
            "address": "Mohini Shikhara, Kumata taluk, Uttara Kannada, Karnataka, India",
            "longitude": "74.5664511",
            "latitude": "14.5886491",
            "blogLinks": [
                "https://en.wikipedia.org/wiki/Yana,_India"
            ],
            "locType": "peak"
        },
        "unchalli falls": {
            "closest_to": "yana",
            "address": "\u0c89\u0c82\u0c9a\u0cb3\u0ccd\u0cb3\u0cbf \u0c9c\u0cb2\u0caa\u0cbe\u0ca4, Siddapura taluk, Uttara Kannada, Karnataka, India",
            "longitude": "74.7477592",
            "latitude": "14.4097755",
            "blogLinks": [
                "https://en.wikipedia.org/wiki/Sirsi,_Karnataka"
            ],
            "locType": "waterfall"
        },
        "hubli dharwad": {
            "closest_to": "yana",
            "address": "Hubballi - \u0cb9\u0cc1\u0cac\u0ccd\u0cac\u0cb3\u0ccd\u0cb3\u0cbf, Hubballi taluku, Dharwad district, Karnataka, 580020, India",
            "longitude": "75.1379848",
            "latitude": "15.3518378",
            "blogLinks": [
                "http://www.nivalink.com/destination/hubli"
            ],
            "locType": "city"
        }
    },
    "hubli": {
        "place_id": "6298582",
        "osm_id": "670289984",
        "icon": "https://nominatim.openstreetmap.org/images/mapicons/poi_place_city.p.20.png",
        "osm_type": "node",
        "licence": "Data \u00a9 OpenStreetMap contributors, ODbL 1.0. http://www.openstreetmap.org/copyright",
        "display_name": "Hubballi - \u0cb9\u0cc1\u0cac\u0ccd\u0cac\u0cb3\u0ccd\u0cb3\u0cbf, Hubballi taluku, Dharwad district, Karnataka, 580020, India",
        "type": "city",
        "lon": "75.1379848",
        "boundingbox": [
            "15.1918378",
            "15.5118378",
            "74.9779848",
            "75.2979848"
        ],
        "importance": 0.45,
        "lat": "15.3518378",
        "class": "place"
    }
}