{
    "riverside": {
        "type": "city",
        "osm_id": "98628503",
        "class": "place",
        "importance": 0.72980766319189,
        "lat": "33.9533546",
        "lon": "-117.3961622",
        "boundingbox": [
            "33.8724207",
            "34.0192691",
            "-117.5237611",
            "-117.2741721"
        ],
        "display_name": "Riverside, Riverside County, California, United States of America",
        "licence": "Data \u00a9 OpenStreetMap contributors, ODbL 1.0. http://www.openstreetmap.org/copyright",
        "icon": "https://nominatim.openstreetmap.org/images/mapicons/poi_place_city.p.20.png",
        "place_id": "85715402",
        "osm_type": "way"
    },
    "mentions": {
        "mount san jacinto ca": {
            "latitude": "33.7839084",
            "closest_to": "riverside",
            "address": "San Jacinto, Riverside County, California, United States of America",
            "locType": "city",
            "blogLinks": [
                "http://www.california-blog.com/"
            ],
            "longitude": "-116.9586349"
        },
        "la mirada theatre": {
            "latitude": "33.8966667",
            "closest_to": "irvine",
            "address": "La Mirada Theatre For The Performing Arts, La Mirada Boulevard, La Mirada, Los Angeles County, California, 90638, United States of America",
            "locType": "arts_centre",
            "blogLinks": [
                "http://www.safewise.com/blog/50-safest-cities-california/"
            ],
            "longitude": "-118.0097221"
        },
        "irvine": {
            "latitude": "33.6856969",
            "closest_to": "irvine",
            "address": "Irvine, Orange County, California, United States of America",
            "locType": "city",
            "blogLinks": [
                "http://www.distancesfrom.com/us/travel-from-Irvine-to-riverside-CA/TravelFromHistory/1536600.aspx",
                "https://www.virtualtourist.com/travel/North_America/United_States_of_America/California/Irvine-753293/Things_To_Do-Irvine-TG-C-1.html",
                "http://www.distancesfrom.com/us/travel-from-Irvine-to-Riverside/TravelFromHistory/23011932.aspx",
                "https://www.tripadvisor.com/Attractions-g32530-Activities-Irvine_California.html",
                "http://www.movoto.com/blog/top-ten/most-boring-places-in-california/",
                "http://www.bestplaces.net/cost_of_living/city/california/irvine",
                "http://www.safewise.com/blog/50-safest-cities-california/",
                "https://www.yelp.com/biz/irvine-transportation-center-irvine"
            ],
            "longitude": "-117.8259818"
        },
        "long beach": {
            "latitude": "33.78538945",
            "closest_to": "irvine",
            "address": "Long Beach, Los Angeles County, California, United States of America",
            "locType": "city",
            "blogLinks": [
                "http://www.movoto.com/blog/top-ten/most-boring-places-in-california/"
            ],
            "longitude": "-118.158049215311"
        },
        "la mirada": {
            "latitude": "33.9060971",
            "closest_to": "irvine",
            "address": "La Mirada, Los Angeles County, California, United States of America",
            "locType": "city",
            "blogLinks": [
                "http://www.safewise.com/blog/50-safest-cities-california/"
            ],
            "longitude": "-118.0107091"
        },
        "san juan capistrano": {
            "latitude": "33.5016932",
            "closest_to": "irvine",
            "address": "San Juan Capistrano, Orange County, California, United States of America",
            "locType": "city",
            "blogLinks": [
                "http://www.safewise.com/blog/50-safest-cities-california/",
                "https://www.yelp.com/biz/irvine-transportation-center-irvine"
            ],
            "longitude": "-117.6625508"
        },
        "philly": {
            "latitude": "34.1488309",
            "closest_to": "riverside",
            "address": "Philly Drive, Rancho Cucamonga, San Bernardino County, California, 91739, United States of America",
            "locType": "residential",
            "blogLinks": [
                "https://www.yelp.com/biz/irvine-transportation-center-irvine"
            ],
            "longitude": "-117.5146442"
        },
        "mount san gorgonio ca": {
            "latitude": "33.9121294",
            "closest_to": "riverside",
            "address": "San Gorgonio Avenue, Banning, Riverside County, California, 92220, United States of America",
            "locType": "secondary",
            "blogLinks": [
                "http://www.california-blog.com/"
            ],
            "longitude": "-116.8766731"
        },
        "disneyland": {
            "latitude": "33.8136367",
            "closest_to": "irvine",
            "address": "DL, 1313, South Harbor Boulevard, Anaheim Resort District, Anaheim, Orange County, California, 92805, United States of America",
            "locType": "theme_park",
            "blogLinks": [
                "http://www.safewise.com/blog/50-safest-cities-california/"
            ],
            "longitude": "-117.91971186569"
        },
        "aliso viejo": {
            "latitude": "33.5761376",
            "closest_to": "irvine",
            "address": "Aliso Viejo, Orange County, California, United States of America",
            "locType": "city",
            "blogLinks": [
                "http://www.safewise.com/blog/50-safest-cities-california/"
            ],
            "longitude": "-117.7258121"
        },
        "moreno valley ca": {
            "latitude": "33.937517",
            "closest_to": "riverside",
            "address": "Moreno Valley, Riverside County, California, United States of America",
            "locType": "city",
            "blogLinks": [
                "http://www.california-blog.com/"
            ],
            "longitude": "-117.2305943"
        },
        "john wayne airport": {
            "latitude": "33.6742056",
            "closest_to": "irvine",
            "address": "John Wayne Airport, Airport Way, Paularino, Orange County, California, 92707, United States of America",
            "locType": "aerodrome",
            "blogLinks": [
                "http://www.safewise.com/blog/50-safest-cities-california/"
            ],
            "longitude": "-117.868014707705"
        },
        "disneyland resort": {
            "latitude": "33.81193845",
            "closest_to": "irvine",
            "address": "DLR, Mill View Lane, Anaheim Resort District, Anaheim, Orange County, California, 217, United States of America",
            "locType": "administrative",
            "blogLinks": [
                "https://blog.trekaroo.com/top-ten-holiday-events-to-enjoy-with-kids-in-southern-california/"
            ],
            "longitude": "-117.921900616601"
        },
        "riverside route": {
            "latitude": "33.9533546",
            "closest_to": "riverside",
            "address": "Riverside, Riverside County, California, United States of America",
            "locType": "city",
            "blogLinks": [
                "http://www.distancesfrom.com/us/travel-from-Irvine-to-Riverside/TravelFromHistory/23011932.aspx"
            ],
            "longitude": "-117.3961622"
        },
        "orange county": {
            "latitude": "33.7500378",
            "closest_to": "riverside",
            "address": "Orange County, California, United States of America",
            "locType": "administrative",
            "blogLinks": [
                "https://blog.trekaroo.com/top-ten-holiday-events-to-enjoy-with-kids-in-southern-california/",
                "http://www.safewise.com/blog/50-safest-cities-california/",
                "https://www.yelp.com/biz/irvine-transportation-center-irvine"
            ],
            "longitude": "-117.870493"
        },
        "angel stadium": {
            "latitude": "33.8002599",
            "closest_to": "riverside",
            "address": "Angel Stadium of Anaheim, South Douglass Road, Anaheim Resort District, Anaheim, Orange County, California, 92806, United States of America",
            "locType": "stadium",
            "blogLinks": [
                "http://www.safewise.com/blog/50-safest-cities-california/",
                "https://www.yelp.com/biz/irvine-transportation-center-irvine"
            ],
            "longitude": "-117.881742527598"
        },
        "lakewood": {
            "latitude": "33.8503463",
            "closest_to": "irvine",
            "address": "Lakewood, Los Angeles County, California, United States of America",
            "locType": "city",
            "blogLinks": [
                "http://www.movoto.com/blog/top-ten/most-boring-places-in-california/"
            ],
            "longitude": "-118.1171913"
        },
        "irvine park railroad": {
            "latitude": "33.7962496",
            "closest_to": "riverside",
            "address": "Irvine Park Railroad, 1, Irvine Regional Park, Cowan Heights, Orange Park Acres, Orange County, California, 92869, United States of America",
            "locType": "yes",
            "blogLinks": [
                "https://blog.trekaroo.com/top-ten-holiday-events-to-enjoy-with-kids-in-southern-california/"
            ],
            "longitude": "-117.754123588843"
        },
        "laguna beach": {
            "latitude": "33.5420888",
            "closest_to": "irvine",
            "address": "Laguna Beach, Orange County, California, United States of America",
            "locType": "city",
            "blogLinks": [
                "https://blog.trekaroo.com/top-ten-holiday-events-to-enjoy-with-kids-in-southern-california/"
            ],
            "longitude": "-117.7834146"
        },
        "california eureka": {
            "latitude": "33.8070091",
            "closest_to": "irvine",
            "address": "Pixar Play Parade, 1620, South Disneyland Drive, Anaheim Resort District, Anaheim, Orange County, California, 92802, United States of America",
            "locType": "theatre",
            "blogLinks": [
                "https://blog.trekaroo.com/top-ten-holiday-events-to-enjoy-with-kids-in-southern-california/"
            ],
            "longitude": "-117.9194387"
        },
        "la puente": {
            "latitude": "34.01979",
            "closest_to": "irvine",
            "address": "La Puente, Los Angeles County, California, United States of America",
            "locType": "city",
            "blogLinks": [
                "http://www.safewise.com/blog/50-safest-cities-california/"
            ],
            "longitude": "-117.9503676"
        },
        "newport beach": {
            "latitude": "33.6170092",
            "closest_to": "irvine",
            "address": "Newport Beach, Orange County, California, United States of America",
            "locType": "city",
            "blogLinks": [
                "https://blog.trekaroo.com/top-ten-holiday-events-to-enjoy-with-kids-in-southern-california/",
                "http://www.visitnewportbeach.com/"
            ],
            "longitude": "-117.92944"
        },
        "lake forest": {
            "latitude": "33.6469261",
            "closest_to": "riverside",
            "address": "Lake Forest, Orange County, California, United States of America",
            "locType": "city",
            "blogLinks": [
                "https://blog.trekaroo.com/top-ten-holiday-events-to-enjoy-with-kids-in-southern-california/",
                "http://www.safewise.com/blog/50-safest-cities-california/"
            ],
            "longitude": "-117.6859212"
        },
        "riverside": {
            "latitude": "33.9533546",
            "closest_to": "riverside",
            "address": "Riverside, Riverside County, California, United States of America",
            "locType": "city",
            "blogLinks": [
                "http://www.distancesfrom.com/us/travel-from-Irvine-to-Riverside/TravelFromHistory/23011932.aspx",
                "https://blog.trekaroo.com/top-ten-holiday-events-to-enjoy-with-kids-in-southern-california/",
                "http://www.safewise.com/blog/50-safest-cities-california/",
                "http://www.distancesfrom.com/us/travel-from-Irvine-to-riverside-CA/TravelFromHistory/1536600.aspx",
                "https://www.yelp.com/biz/irvine-transportation-center-irvine"
            ],
            "longitude": "-117.3961622"
        },
        "ontario": {
            "latitude": "34.065846",
            "closest_to": "riverside",
            "address": "Ontario, San Bernardino County, California, United States of America",
            "locType": "city",
            "blogLinks": [
                "http://www.movoto.com/blog/top-ten/most-boring-places-in-california/",
                "http://www.california-blog.com/"
            ],
            "longitude": "-117.6484303"
        },
        "orange county line": {
            "latitude": "33.7500378",
            "closest_to": "riverside",
            "address": "Orange County, California, United States of America",
            "locType": "administrative",
            "blogLinks": [
                "https://www.yelp.com/biz/irvine-transportation-center-irvine"
            ],
            "longitude": "-117.870493"
        },
        "laguna niguel": {
            "latitude": "33.5225261",
            "closest_to": "irvine",
            "address": "Laguna Niguel, Orange County, California, United States of America",
            "locType": "city",
            "blogLinks": [
                "https://blog.trekaroo.com/top-ten-holiday-events-to-enjoy-with-kids-in-southern-california/",
                "http://www.safewise.com/blog/50-safest-cities-california/"
            ],
            "longitude": "-117.7075525"
        },
        "los rios historic district": {
            "latitude": "33.5015539",
            "closest_to": "irvine",
            "address": "Los Rios Historic District, Ramos Street, San Juan Capistrano, Orange County, California, 92675, United States of America",
            "locType": "park",
            "blogLinks": [
                "http://www.safewise.com/blog/50-safest-cities-california/"
            ],
            "longitude": "-117.6655412"
        },
        "irvine park": {
            "latitude": "33.9082151",
            "closest_to": "riverside",
            "address": "Irvine Park, Beaumont, Riverside County, California, 92223, United States of America",
            "locType": "residential",
            "blogLinks": [
                "https://blog.trekaroo.com/top-ten-holiday-events-to-enjoy-with-kids-in-southern-california/"
            ],
            "longitude": "-116.9604311"
        },
        "chino hills state park": {
            "latitude": "33.91604865",
            "closest_to": "riverside",
            "address": "Chino Hills State Park, South Ridge Trail, Orange County, California, 92886, United States of America",
            "locType": "park",
            "blogLinks": [
                "http://www.safewise.com/blog/50-safest-cities-california/"
            ],
            "longitude": "-117.760259865186"
        },
        "mount baldy ca": {
            "latitude": "34.2361168",
            "closest_to": "riverside",
            "address": "Mount Baldy, Los Angeles County, California, United States of America",
            "locType": "hamlet",
            "blogLinks": [
                "http://www.california-blog.com/"
            ],
            "longitude": "-117.6600552"
        },
        "costa mesa": {
            "latitude": "33.6633386",
            "closest_to": "irvine",
            "address": "Costa Mesa, Orange County, California, United States of America",
            "locType": "city",
            "blogLinks": [
                "https://blog.trekaroo.com/top-ten-holiday-events-to-enjoy-with-kids-in-southern-california/"
            ],
            "longitude": "-117.9033169"
        },
        "rancho santa margarita": {
            "latitude": "33.6408845",
            "closest_to": "riverside",
            "address": "Rancho Santa Margarita, Orange County, California, United States of America",
            "locType": "city",
            "blogLinks": [
                "http://www.safewise.com/blog/50-safest-cities-california/"
            ],
            "longitude": "-117.602934"
        },
        "chino hills": {
            "latitude": "33.9926803",
            "closest_to": "riverside",
            "address": "Chino Hills, San Bernardino County, California, United States of America",
            "locType": "city",
            "blogLinks": [
                "http://www.safewise.com/blog/50-safest-cities-california/"
            ],
            "longitude": "-117.7600559"
        },
        "riverside national cemetery": {
            "latitude": "33.87692125",
            "closest_to": "riverside",
            "address": "Riverside National Cemetery, 22495, Alessandro, Riverside County, California, 92518, United States of America",
            "locType": "cemetery",
            "blogLinks": [
                "http://www.california-blog.com/"
            ],
            "longitude": "-117.270726607134"
        },
        "irvine station": {
            "latitude": "33.6431901",
            "closest_to": "irvine",
            "address": "University of California, Irvine, East Peltason Drive, Turtle Rock, Irvine, Orange County, California, 92612, United States of America",
            "locType": "university",
            "blogLinks": [
                "https://www.yelp.com/biz/irvine-transportation-center-irvine"
            ],
            "longitude": "-117.84016483553"
        },
        "irvine spectrum center": {
            "latitude": "33.65023015",
            "closest_to": "riverside",
            "address": "The Irvine Spectrum Center, Irvine, Orange County, California, 92618, United States of America",
            "locType": "retail",
            "blogLinks": [
                "https://blog.trekaroo.com/top-ten-holiday-events-to-enjoy-with-kids-in-southern-california/"
            ],
            "longitude": "-117.743290013547"
        },
        "santa ana": {
            "latitude": "33.7494951",
            "closest_to": "riverside",
            "address": "Santa Ana, Orange County, California, United States of America",
            "locType": "city",
            "blogLinks": [
                "http://www.safewise.com/blog/50-safest-cities-california/"
            ],
            "longitude": "-117.8732212"
        },
        "maywood": {
            "latitude": "33.9866807",
            "closest_to": "irvine",
            "address": "Maywood, Los Angeles County, California, United States of America",
            "locType": "administrative",
            "blogLinks": [
                "http://www.safewise.com/blog/50-safest-cities-california/"
            ],
            "longitude": "-118.1853489"
        },
        "san clemente": {
            "latitude": "33.4270275",
            "closest_to": "irvine",
            "address": "San Clemente, Orange County, California, United States of America",
            "locType": "city",
            "blogLinks": [
                "http://www.safewise.com/blog/50-safest-cities-california/"
            ],
            "longitude": "-117.6124178"
        },
        "flintridge": {
            "latitude": "33.6338013",
            "closest_to": "irvine",
            "address": "Flintridge, Turtle Rock, Irvine, Orange County, California, 92603, United States of America",
            "locType": "residential",
            "blogLinks": [
                "http://www.safewise.com/blog/50-safest-cities-california/"
            ],
            "longitude": "-117.8111037"
        },
        "newport beach california": {
            "latitude": "33.6170092",
            "closest_to": "irvine",
            "address": "Newport Beach, Orange County, California, United States of America",
            "locType": "city",
            "blogLinks": [
                "http://www.visitnewportbeach.com/"
            ],
            "longitude": "-117.92944"
        },
        "mountain road": {
            "latitude": "33.8076363",
            "closest_to": "irvine",
            "address": "Mountain Road, Anaheim Resort District, Anaheim, Orange County, California, 92802, United States of America",
            "locType": "pedestrian",
            "blogLinks": [
                "http://www.sandiego.org/articles/tours-sightseeing/san-diegos-59-mile-scenic-drive.aspx"
            ],
            "longitude": "-117.9208871"
        },
        "west covina": {
            "latitude": "34.0686208",
            "closest_to": "irvine",
            "address": "West Covina, Los Angeles County, California, United States of America",
            "locType": "city",
            "blogLinks": [
                "http://www.movoto.com/blog/top-ten/most-boring-places-in-california/"
            ],
            "longitude": "-117.9389525"
        },
        "catalina": {
            "latitude": "33.810513",
            "closest_to": "irvine",
            "address": "Catalina, Anaheim Resort District, Anaheim, Orange County, California, 217, United States of America",
            "locType": "forest",
            "blogLinks": [
                "http://www.sandiego.org/articles/tours-sightseeing/san-diegos-59-mile-scenic-drive.aspx"
            ],
            "longitude": "-117.920102663284"
        },
        "turtle rock community park": {
            "latitude": "33.6334803",
            "closest_to": "irvine",
            "address": "Turtle Rock Community Park, Turtle Rock Drive, Turtle Rock, Irvine, Orange County, California, 92603, United States of America",
            "locType": "park",
            "blogLinks": [
                "https://www.yelp.com/biz/irvine-transportation-center-irvine"
            ],
            "longitude": "-117.805040466157"
        },
        "new hampshire": {
            "latitude": "33.7157856",
            "closest_to": "riverside",
            "address": "New Hampshire, Walnut, Irvine, Orange County, California, 92606, United States of America",
            "locType": "residential",
            "blogLinks": [
                "http://www.distancesfrom.com/us/travel-from-Irvine-to-Riverside/TravelFromHistory/23011932.aspx"
            ],
            "longitude": "-117.7905719"
        },
        "murrieta": {
            "latitude": "33.560832",
            "closest_to": "riverside",
            "address": "Murrieta, Riverside County, California, United States of America",
            "locType": "city",
            "blogLinks": [
                "http://www.safewise.com/blog/50-safest-cities-california/"
            ],
            "longitude": "-117.2106563"
        },
        "beaumont": {
            "latitude": "33.9294606",
            "closest_to": "riverside",
            "address": "Beaumont, Riverside County, California, United States of America",
            "locType": "city",
            "blogLinks": [
                "http://www.movoto.com/blog/top-ten/most-boring-places-in-california/"
            ],
            "longitude": "-116.9772479"
        },
        "valley": {
            "latitude": "34.0148403",
            "closest_to": "irvine",
            "address": "Valley, South Stimson Avenue, Industry, Los Angeles County, California, 91745, United States of America",
            "locType": "yes",
            "blogLinks": [
                "https://blog.trekaroo.com/top-ten-holiday-events-to-enjoy-with-kids-in-southern-california/"
            ],
            "longitude": "-117.955234675878"
        },
        "laguna hills": {
            "latitude": "33.5948758",
            "closest_to": "riverside",
            "address": "Laguna Hills, Orange County, California, United States of America",
            "locType": "city",
            "blogLinks": [
                "https://www.yelp.com/biz/irvine-transportation-center-irvine"
            ],
            "longitude": "-117.6882066"
        },
        "taylor street": {
            "latitude": "33.8797864",
            "closest_to": "irvine",
            "address": "Taylor Street, North Long Beach, Long Beach, Los Angeles County, California, 90805, United States of America",
            "locType": "residential",
            "blogLinks": [
                "http://www.sandiego.org/articles/tours-sightseeing/san-diegos-59-mile-scenic-drive.aspx"
            ],
            "longitude": "-118.2071834"
        },
        "laguna niguel/mission viejo": {
            "latitude": "33.5529174",
            "closest_to": "irvine",
            "address": "Laguna Niguel/Mission Viejo, 28200, Forbes Road, Laguna Niguel, Orange County, California, 92677, United States of America",
            "locType": "station",
            "blogLinks": [
                "https://www.yelp.com/biz/irvine-transportation-center-irvine"
            ],
            "longitude": "-117.6742159"
        },
        "state street": {
            "latitude": "34.1572853",
            "closest_to": "riverside",
            "address": "State Street, San Bernardino, San Bernardino County, California, 92407, United States of America",
            "locType": "secondary",
            "blogLinks": [
                "https://blog.trekaroo.com/top-ten-holiday-events-to-enjoy-with-kids-in-southern-california/"
            ],
            "longitude": "-117.3347322"
        },
        "newport beach ca": {
            "latitude": "33.6170092",
            "closest_to": "irvine",
            "address": "Newport Beach, Orange County, California, United States of America",
            "locType": "city",
            "blogLinks": [
                "http://www.visitnewportbeach.com/",
                "http://www.california-blog.com/"
            ],
            "longitude": "-117.92944"
        },
        "fairmont newport beach": {
            "latitude": "33.6671875",
            "closest_to": "irvine",
            "address": "Fairmont Newport Beach, Von Karman Avenue, Newport Beach, Orange County, California, 92697, United States of America",
            "locType": "hotel",
            "blogLinks": [
                "http://www.visitnewportbeach.com/"
            ],
            "longitude": "-117.8626598"
        }
    },
    "irvine": {
        "type": "city",
        "osm_id": "114485",
        "class": "place",
        "importance": 0.55,
        "lat": "33.6856969",
        "lon": "-117.8259818",
        "boundingbox": [
            "33.5993914",
            "33.7736521",
            "-117.8687518",
            "-117.6780258"
        ],
        "display_name": "Irvine, Orange County, California, United States of America",
        "licence": "Data \u00a9 OpenStreetMap contributors, ODbL 1.0. http://www.openstreetmap.org/copyright",
        "icon": "https://nominatim.openstreetmap.org/images/mapicons/poi_place_city.p.20.png",
        "place_id": "159062335",
        "osm_type": "relation"
    }
}