{
    "mentions": {
        "pacific coast highway": {
            "latitude": "33.6595127",
            "closest_to": "sausalito",
            "address": "Pacific Coast Highway, Huntington Beach, Orange County, California, 92648, United States of America",
            "locType": "primary",
            "blogLinks": [
                "https://blog.trekaroo.com/grand-california-road-trip/"
            ],
            "longitude": "-118.0051687"
        },
        "lemoore": {
            "latitude": "36.3007835",
            "closest_to": "sausalito",
            "address": "Lemoore, Kings County, California, United States of America",
            "locType": "city",
            "blogLinks": [
                "http://www.roadsideamerica.com/location/ca"
            ],
            "longitude": "-119.7829106"
        },
        "temecula": {
            "latitude": "33.4946353",
            "closest_to": "irvine",
            "address": "Temecula, Riverside County, California, United States of America",
            "locType": "city",
            "blogLinks": [
                "http://www.roadsideamerica.com/location/ca"
            ],
            "longitude": "-117.147366"
        },
        "irvine": {
            "latitude": "33.6856969",
            "closest_to": "irvine",
            "address": "Irvine, Orange County, California, United States of America",
            "locType": "city",
            "blogLinks": [
                "https://www.villagesofirvine.com/villages-neighborhoods/stonegate/sausalito/residence-3/",
                "https://blog.trekaroo.com/grand-california-road-trip/",
                "http://www.sheahomes.com/newhomes/orangecounty/"
            ],
            "longitude": "-117.8259818"
        },
        "norco": {
            "latitude": "33.9323307",
            "closest_to": "sausalito",
            "address": "Norco, Riverside County, California, 92860, United States of America",
            "locType": "city",
            "blogLinks": [
                "http://www.roadsideamerica.com/location/ca"
            ],
            "longitude": "-117.55089"
        },
        "woodland hills": {
            "latitude": "34.1683386",
            "closest_to": "sausalito",
            "address": "Woodland Hills, LA, Los Angeles County, California, United States of America",
            "locType": "suburb",
            "blogLinks": [
                "http://www.roadsideamerica.com/location/ca"
            ],
            "longitude": "-118.6059196"
        },
        "mount san gorgonio ca": {
            "latitude": "33.9121294",
            "closest_to": "irvine",
            "address": "San Gorgonio Avenue, Banning, Riverside County, California, 92220, United States of America",
            "locType": "secondary",
            "blogLinks": [
                "http://www.california-blog.com/"
            ],
            "longitude": "-116.8766731"
        },
        "central park": {
            "latitude": "37.391994",
            "closest_to": "sausalito",
            "address": "Central Park, Central Park At Whisman Station, Mountain View, Santa Clara County, California, 94043, United States of America",
            "locType": "service",
            "blogLinks": [
                "http://playavista.com/faqs/"
            ],
            "longitude": "-122.0638948"
        },
        "mission bay ca": {
            "latitude": "37.7707742",
            "closest_to": "sausalito",
            "address": "Mission Bay, SF, California, 94158, United States of America",
            "locType": "neighbourhood",
            "blogLinks": [
                "http://www.california-blog.com/"
            ],
            "longitude": "-122.3911711"
        },
        "san jacinto ca": {
            "latitude": "33.7839084",
            "closest_to": "irvine",
            "address": "San Jacinto, Riverside County, California, United States of America",
            "locType": "city",
            "blogLinks": [
                "http://www.california-blog.com/"
            ],
            "longitude": "-116.9586349"
        },
        "san francisco bay area": {
            "latitude": "37.7884969",
            "closest_to": "sausalito",
            "address": "San Francisco Bay Area, SF, California, United States of America",
            "locType": "region",
            "blogLinks": [
                "http://www.hopper.com/articles/890/travel-guide-to-sausalito-and-its-best-attractions"
            ],
            "longitude": "-122.3558472"
        },
        "moreno valley ca": {
            "latitude": "33.937517",
            "closest_to": "irvine",
            "address": "Moreno Valley, Riverside County, California, United States of America",
            "locType": "city",
            "blogLinks": [
                "http://www.california-blog.com/"
            ],
            "longitude": "-117.2305943"
        },
        "palos verdes peninsula ca": {
            "latitude": "33.77984925",
            "closest_to": "sausalito",
            "address": "Palos Verdes Peninsula High School, Hawthorne Boulevard, Rolling Hills Estates, Los Angeles County, California, 90274, United States of America",
            "locType": "school",
            "blogLinks": [
                "http://www.california-blog.com/"
            ],
            "longitude": "-118.372196730215"
        },
        "anaheim": {
            "latitude": "33.8347516",
            "closest_to": "sausalito",
            "address": "Anaheim, Orange County, California, United States of America",
            "locType": "city",
            "blogLinks": [
                "http://www.sheahomes.com/newhomes/orangecounty/"
            ],
            "longitude": "-117.9117319"
        },
        "death valley national park": {
            "latitude": "36.4914385",
            "closest_to": "sausalito",
            "address": "Death Valley National Park, Lucky Wash Road, Skidoo, Inyo County, California, United States of America",
            "locType": "national_park",
            "blogLinks": [
                "http://www.roadsideamerica.com/location/ca"
            ],
            "longitude": "-117.102293507719"
        },
        "tonga": {
            "latitude": "32.579494",
            "closest_to": "irvine",
            "address": "Via Tonga, Otay Mesa West, San Ysidro, San Diego, San Diego County, California, 92154, United States of America",
            "locType": "residential",
            "blogLinks": [
                "http://www.roadsideamerica.com/location/ca"
            ],
            "longitude": "-117.0612559"
        },
        "montecito": {
            "latitude": "34.4364435",
            "closest_to": "sausalito",
            "address": "Montecito, East Valley Lane, Montecito, Santa Barbara County, California, 93108, United States of America",
            "locType": "administrative",
            "blogLinks": [
                "http://playavista.com/faqs/"
            ],
            "longitude": "-119.622205630583"
        },
        "santa monica": {
            "latitude": "34.0195598",
            "closest_to": "sausalito",
            "address": "Santa Monica, Los Angeles County, California, United States of America",
            "locType": "city",
            "blogLinks": [
                "http://playavista.com/faqs/"
            ],
            "longitude": "-118.4869738"
        },
        "guadalupe": {
            "latitude": "29.0350656",
            "closest_to": "irvine",
            "address": "Isla Guadalupe, Ensenada, Baja California, M\u00e9xico",
            "locType": "island",
            "blogLinks": [
                "http://www.roadsideamerica.com/location/ca"
            ],
            "longitude": "-118.269896818344"
        },
        "santa clara": {
            "latitude": "37.3541132",
            "closest_to": "sausalito",
            "address": "Santa Clara, Santa Clara County, California, United States of America",
            "locType": "city",
            "blogLinks": [
                "http://www.roadsideamerica.com/location/ca"
            ],
            "longitude": "-121.9551743"
        },
        "black hills": {
            "latitude": "34.2398292",
            "closest_to": "sausalito",
            "address": "Black Oak Court, Mission Hills, Sepulveda, LA, Los Angeles County, California, 91345, United States of America",
            "locType": "residential",
            "blogLinks": [
                "http://www.timeanddate.com/worldclock/distances.html?n=224"
            ],
            "longitude": "-118.4613485"
        },
        "san jose": {
            "latitude": "37.3361905",
            "closest_to": "sausalito",
            "address": "San Jos\u00e9, Santa Clara County, California, United States of America",
            "locType": "city",
            "blogLinks": [
                "http://www.bestplaces.net/city/california/sausalito",
                "http://www.roadsideamerica.com/location/ca"
            ],
            "longitude": "-121.8905832"
        },
        "bodie state historic park": {
            "latitude": "38.2154734",
            "closest_to": "sausalito",
            "address": "Bodie State Historic Park, Street, Bodie, Mono County, California, United States of America",
            "locType": "park",
            "blogLinks": [
                "http://www.roadsideamerica.com/location/ca"
            ],
            "longitude": "-119.0109761"
        },
        "mentone": {
            "latitude": "34.05884",
            "closest_to": "irvine",
            "address": "Mentone, Reservoir Canal Road, Crafton, San Bernardino County, California, 92374, United States of America",
            "locType": "administrative",
            "blogLinks": [
                "http://www.roadsideamerica.com/location/ca"
            ],
            "longitude": "-117.109606374724"
        },
        "ty warner sea center": {
            "latitude": "34.4104258",
            "closest_to": "sausalito",
            "address": "Santa Barbara Museum of Natural History Sea Center, 211, Stearns Wharf, Santa Barbara, Santa Barbara County, California, 93101, United States of America",
            "locType": "aquarium",
            "blogLinks": [
                "https://blog.trekaroo.com/grand-california-road-trip/"
            ],
            "longitude": "-119.685686"
        },
        "hollywood": {
            "latitude": "34.1028268",
            "closest_to": "sausalito",
            "address": "Hollywood, LA, Los Angeles County, California, United States of America",
            "locType": "suburb",
            "blogLinks": [
                "http://www.roadsideamerica.com/location/ca"
            ],
            "longitude": "-118.3299898"
        },
        "costa mesa": {
            "latitude": "33.6633386",
            "closest_to": "sausalito",
            "address": "Costa Mesa, Orange County, California, United States of America",
            "locType": "city",
            "blogLinks": [
                "http://www.roadsideamerica.com/location/ca",
                "http://www.sheahomes.com/newhomes/orangecounty/"
            ],
            "longitude": "-117.9033169"
        },
        "mount palomar ca": {
            "latitude": "33.1278146",
            "closest_to": "irvine",
            "address": "California Bank & Trust, 2501, Palomar Airport Road, Carlsbad, San Diego County, California, 92011, United States of America",
            "locType": "bank",
            "blogLinks": [
                "http://www.california-blog.com/"
            ],
            "longitude": "-117.270809764613"
        },
        "ukiah": {
            "latitude": "39.1501662",
            "closest_to": "sausalito",
            "address": "Ukiah, Mendocino County, California, United States of America",
            "locType": "city",
            "blogLinks": [
                "http://www.roadsideamerica.com/location/ca"
            ],
            "longitude": "-123.207786"
        },
        "marine mammal center": {
            "latitude": "37.8351754",
            "closest_to": "sausalito",
            "address": "The Marine Mammal Center, 2000, Bunker Road, Marin City, Marin County, California, 94965, United States of America",
            "locType": "zoo",
            "blogLinks": [
                "http://www.hopper.com/articles/890/travel-guide-to-sausalito-and-its-best-attractions"
            ],
            "longitude": "-122.531050866098"
        },
        "berkeley": {
            "latitude": "37.8708393",
            "closest_to": "sausalito",
            "address": "Berkeley, Alameda County, California, United States of America",
            "locType": "city",
            "blogLinks": [
                "http://www.roadsideamerica.com/location/ca"
            ],
            "longitude": "-122.2728638"
        },
        "morro rock ca": {
            "latitude": "35.369669",
            "closest_to": "sausalito",
            "address": "Morro Rock, Morro Bay, San Luis Obispo County, California, United States of America",
            "locType": "peak",
            "blogLinks": [
                "http://www.california-blog.com/"
            ],
            "longitude": "-120.8676993"
        },
        "fresno": {
            "latitude": "36.748793",
            "closest_to": "sausalito",
            "address": "Fresno, Fresno County, California, United States of America",
            "locType": "city",
            "blogLinks": [
                "http://www.roadsideamerica.com/location/ca"
            ],
            "longitude": "-119.714839601149"
        },
        "healdsburg": {
            "latitude": "38.6106812",
            "closest_to": "sausalito",
            "address": "Healdsburg, Sonoma County, California, United States of America",
            "locType": "city",
            "blogLinks": [
                "http://www.roadsideamerica.com/location/ca"
            ],
            "longitude": "-122.8701379"
        },
        "ontario": {
            "latitude": "34.065846",
            "closest_to": "sausalito",
            "address": "Ontario, San Bernardino County, California, United States of America",
            "locType": "city",
            "blogLinks": [
                "http://www.california-blog.com/"
            ],
            "longitude": "-117.6484303"
        },
        "morro bay ca": {
            "latitude": "35.3658075",
            "closest_to": "sausalito",
            "address": "Morro Bay, San Luis Obispo County, California, United States of America",
            "locType": "city",
            "blogLinks": [
                "http://www.california-blog.com/"
            ],
            "longitude": "-120.8499012"
        },
        "monterey peninsula ca": {
            "latitude": "36.5878734",
            "closest_to": "sausalito",
            "address": "Monterey Regional Airport, Airport Road, Seaside, Del Monte Heights, Monterey County, California, 93940, United States of America",
            "locType": "aerodrome",
            "blogLinks": [
                "http://www.california-blog.com/"
            ],
            "longitude": "-121.843618374407"
        },
        "califia": {
            "latitude": "34.4290422",
            "closest_to": "sausalito",
            "address": "Califia Court, Santa Barbara County, California, 93111, United States of America",
            "locType": "residential",
            "blogLinks": [
                "http://www.roadsideamerica.com/location/ca"
            ],
            "longitude": "-119.8065791"
        },
        "east beach": {
            "latitude": "37.8061771",
            "closest_to": "sausalito",
            "address": "East Beach, Mason Street, Presidio Heights, SF, California, 94129, United States of America",
            "locType": "beach",
            "blogLinks": [
                "https://blog.trekaroo.com/grand-california-road-trip/"
            ],
            "longitude": "-122.452368017781"
        },
        "santa monica bay": {
            "latitude": "33.9350121",
            "closest_to": "sausalito",
            "address": "Santa Monica Bay, South Bay Bike Path, El Segundo, Los Angeles County, California, 90245, United States of America",
            "locType": "bay",
            "blogLinks": [
                "http://playavista.com/faqs/"
            ],
            "longitude": "-118.4667443"
        },
        "old town": {
            "latitude": "35.142943",
            "closest_to": "sausalito",
            "address": "Old Town, Golden Hills, Kern County, California, United States of America",
            "locType": "locality",
            "blogLinks": [
                "https://blog.trekaroo.com/grand-california-road-trip/"
            ],
            "longitude": "-118.4954422"
        },
        "jerusalem": {
            "latitude": "40.5175442",
            "closest_to": "sausalito",
            "address": "Jerusalem Creek, Shasta County, California, United States of America",
            "locType": "stream",
            "blogLinks": [
                "http://www.roadsideamerica.com/location/ca"
            ],
            "longitude": "-122.7581059"
        },
        "santa cruz": {
            "latitude": "36.9735903",
            "closest_to": "sausalito",
            "address": "Santa Cruz, Santa Cruz County, California, United States of America",
            "locType": "city",
            "blogLinks": [
                "http://www.roadsideamerica.com/location/ca"
            ],
            "longitude": "-122.0260569"
        },
        "lincoln blvd": {
            "latitude": "33.9593928",
            "closest_to": "sausalito",
            "address": "Lincoln Boulevard, Westchester, Playa Vista, LA, Los Angeles County, California, 90293, United States of America",
            "locType": "primary",
            "blogLinks": [
                "http://playavista.com/faqs/"
            ],
            "longitude": "-118.41883"
        },
        "glendale": {
            "latitude": "34.1423455",
            "closest_to": "sausalito",
            "address": "Glendale, Los Angeles County, California, United States of America",
            "locType": "city",
            "blogLinks": [
                "http://www.roadsideamerica.com/location/ca"
            ],
            "longitude": "-118.248367"
        },
        "mount san jacinto ca": {
            "latitude": "33.7839084",
            "closest_to": "irvine",
            "address": "San Jacinto, Riverside County, California, United States of America",
            "locType": "city",
            "blogLinks": [
                "http://www.california-blog.com/"
            ],
            "longitude": "-116.9586349"
        },
        "yermo": {
            "latitude": "34.9049849",
            "closest_to": "sausalito",
            "address": "Yermo, San Bernardino County, California, United States of America",
            "locType": "hamlet",
            "blogLinks": [
                "http://www.roadsideamerica.com/location/ca"
            ],
            "longitude": "-116.8203126"
        },
        "turlock": {
            "latitude": "37.4946568",
            "closest_to": "sausalito",
            "address": "Turlock, Stanislaus County, California, United States of America",
            "locType": "city",
            "blogLinks": [
                "http://www.roadsideamerica.com/location/ca"
            ],
            "longitude": "-120.846594"
        },
        "pebble beach ca": {
            "latitude": "36.5664874",
            "closest_to": "sausalito",
            "address": "Pebble Beach, Monterey County, California, United States of America",
            "locType": "hamlet",
            "blogLinks": [
                "http://www.california-blog.com/"
            ],
            "longitude": "-121.9466112"
        },
        "santa barbara": {
            "latitude": "34.4221319",
            "closest_to": "sausalito",
            "address": "Santa Barbara, Santa Barbara County, California, United States of America",
            "locType": "city",
            "blogLinks": [
                "https://blog.trekaroo.com/grand-california-road-trip/"
            ],
            "longitude": "-119.7026672"
        },
        "palmdale": {
            "latitude": "34.5793131",
            "closest_to": "sausalito",
            "address": "Palmdale, Los Angeles County, California, United States of America",
            "locType": "city",
            "blogLinks": [
                "http://www.roadsideamerica.com/location/ca"
            ],
            "longitude": "-118.1171107"
        },
        "buellton": {
            "latitude": "34.6134727",
            "closest_to": "sausalito",
            "address": "Buellton, Santa Barbara County, California, United States of America",
            "locType": "city",
            "blogLinks": [
                "http://www.roadsideamerica.com/location/ca"
            ],
            "longitude": "-120.1936691"
        },
        "trona": {
            "latitude": "35.7627322",
            "closest_to": "sausalito",
            "address": "Trona, San Bernardino County, California, United States of America",
            "locType": "hamlet",
            "blogLinks": [
                "http://www.roadsideamerica.com/location/ca"
            ],
            "longitude": "-117.3728345"
        },
        "emeryville": {
            "latitude": "37.8314089",
            "closest_to": "sausalito",
            "address": "Emeryville, Alameda County, California, United States of America",
            "locType": "administrative",
            "blogLinks": [
                "http://www.roadsideamerica.com/location/ca"
            ],
            "longitude": "-122.2865265"
        },
        "placerville": {
            "latitude": "38.7296252",
            "closest_to": "sausalito",
            "address": "Placerville, El Dorado County, California, United States of America",
            "locType": "city",
            "blogLinks": [
                "http://www.roadsideamerica.com/location/ca"
            ],
            "longitude": "-120.7985459"
        },
        "east los angeles": {
            "latitude": "34.0239015",
            "closest_to": "sausalito",
            "address": "East Los Angeles, Belvedere Gardens, Los Angeles County, California, United States of America",
            "locType": "suburb",
            "blogLinks": [
                "http://www.roadsideamerica.com/location/ca"
            ],
            "longitude": "-118.1720156"
        },
        "bay bridge": {
            "latitude": "37.8193514",
            "closest_to": "sausalito",
            "address": "San Francisco \u2013 Oakland Bay Bridge, Oakland, Alameda County, California, 94625, United States of America",
            "locType": "abandoned",
            "blogLinks": [
                "http://www.bestplaces.net/city/california/sausalito"
            ],
            "longitude": "-122.342234"
        },
        "san pedro": {
            "latitude": "33.7358518",
            "closest_to": "sausalito",
            "address": "San Pedro, LA, Los Angeles County, California, United States of America",
            "locType": "suburb",
            "blogLinks": [
                "http://www.roadsideamerica.com/location/ca"
            ],
            "longitude": "-118.2922933"
        },
        "ballona": {
            "latitude": "34.04282",
            "closest_to": "sausalito",
            "address": "Ballona Creek, LA, Los Angeles County, California, United States of America",
            "locType": "drain",
            "blogLinks": [
                "http://playavista.com/faqs/"
            ],
            "longitude": "-118.3567944"
        },
        "simi valley": {
            "latitude": "34.2694474",
            "closest_to": "sausalito",
            "address": "Simi Valley, Ventura County, California, United States of America",
            "locType": "city",
            "blogLinks": [
                "http://www.roadsideamerica.com/location/ca"
            ],
            "longitude": "-118.7814819"
        },
        "golden gate": {
            "latitude": "37.8190177",
            "closest_to": "sausalito",
            "address": "Golden Gate, Golden Gate Bridge, Waldo, Marin County, California, 94965, United States of America",
            "locType": "strait",
            "blogLinks": [
                "http://www.bestplaces.net/city/california/sausalito"
            ],
            "longitude": "-122.4793972"
        },
        "cabrillo boulevard": {
            "latitude": "34.0121457",
            "closest_to": "sausalito",
            "address": "Cabrillo Boulevard, Mar Vista, LA, Los Angeles County, California, 90066, United States of America",
            "locType": "residential",
            "blogLinks": [
                "https://blog.trekaroo.com/grand-california-road-trip/"
            ],
            "longitude": "-118.4470019"
        },
        "marin county": {
            "latitude": "38.0409144",
            "closest_to": "sausalito",
            "address": "Marin County, California, United States of America",
            "locType": "administrative",
            "blogLinks": [
                "http://www.bestplaces.net/city/california/sausalito"
            ],
            "longitude": "-122.6199637"
        },
        "redwood city": {
            "latitude": "37.4852152",
            "closest_to": "sausalito",
            "address": "Redwood City, San Mateo County, California, United States of America",
            "locType": "city",
            "blogLinks": [
                "http://www.bestplaces.net/city/california/sausalito",
                "http://www.roadsideamerica.com/location/ca"
            ],
            "longitude": "-122.2363547"
        },
        "california science center": {
            "latitude": "34.0159757",
            "closest_to": "sausalito",
            "address": "California Science Center, 700, Exposition Park Drive, Jefferson, LA, Los Angeles County, California, 90037, United States of America",
            "locType": "museum",
            "blogLinks": [
                "https://blog.trekaroo.com/grand-california-road-trip/"
            ],
            "longitude": "-118.286286870567"
        },
        "mono lake ca": {
            "latitude": "38.0077189",
            "closest_to": "sausalito",
            "address": "Mono Lake, Mono County, California, United States of America",
            "locType": "water",
            "blogLinks": [
                "http://www.california-blog.com/"
            ],
            "longitude": "-118.967033937845"
        },
        "inglewood": {
            "latitude": "33.9616801",
            "closest_to": "sausalito",
            "address": "Inglewood, Los Angeles County, California, United States of America",
            "locType": "city",
            "blogLinks": [
                "http://www.roadsideamerica.com/location/ca"
            ],
            "longitude": "-118.353131"
        },
        "las vegas": {
            "latitude": "36.17310935",
            "closest_to": "irvine",
            "address": "California Hotel, Sky Walk(Connection from Main Street to California, Cultural Corridor, Vegas Heights, Las Vegas, Clark County, Nevada, 89101, United States of America",
            "locType": "hotel",
            "blogLinks": [
                "https://blog.trekaroo.com/grand-california-road-trip/"
            ],
            "longitude": "-115.144667930325"
        },
        "napa valley ca": {
            "latitude": "38.2972603",
            "closest_to": "sausalito",
            "address": "California Boulevard, Napa, Napa County, California, 94558, United States of America",
            "locType": "secondary",
            "blogLinks": [
                "http://www.california-blog.com/"
            ],
            "longitude": "-122.3002947"
        },
        "state street": {
            "latitude": "34.1572853",
            "closest_to": "sausalito",
            "address": "State Street, San Bernardino, San Bernardino County, California, 92407, United States of America",
            "locType": "secondary",
            "blogLinks": [
                "https://blog.trekaroo.com/grand-california-road-trip/"
            ],
            "longitude": "-117.3347322"
        },
        "channel islands national park": {
            "latitude": "34.248597",
            "closest_to": "sausalito",
            "address": "Channel Islands National Park, Spinnaker Drive, Ventura, Ventura County, California, 93006, United States of America",
            "locType": "national_park",
            "blogLinks": [
                "https://blog.trekaroo.com/grand-california-road-trip/"
            ],
            "longitude": "-119.266377755078"
        },
        "pasadena": {
            "latitude": "34.1476452",
            "closest_to": "sausalito",
            "address": "Pasadena, Los Angeles County, California, United States of America",
            "locType": "city",
            "blogLinks": [
                "http://www.roadsideamerica.com/location/ca"
            ],
            "longitude": "-118.1444778"
        },
        "san simeon": {
            "latitude": "35.6438587",
            "closest_to": "sausalito",
            "address": "San Simeon, San Luis Obispo County, California, United States of America",
            "locType": "hamlet",
            "blogLinks": [
                "http://www.roadsideamerica.com/location/ca"
            ],
            "longitude": "-121.1907532"
        },
        "sunol": {
            "latitude": "37.5943781",
            "closest_to": "sausalito",
            "address": "Sunol, Alameda County, California, United States of America",
            "locType": "hamlet",
            "blogLinks": [
                "http://www.roadsideamerica.com/location/ca"
            ],
            "longitude": "-121.8885682"
        },
        "w. millennium drive": {
            "latitude": "33.9780534",
            "closest_to": "sausalito",
            "address": "West Millennium Drive, The Campus at Playa Vista, Playa Vista, LA, Los Angeles County, California, 90094, United States of America",
            "locType": "residential",
            "blogLinks": [
                "http://playavista.com/faqs/"
            ],
            "longitude": "-118.4116128"
        },
        "castroville": {
            "latitude": "36.7657904",
            "closest_to": "sausalito",
            "address": "Castroville, Monterey County, California, United States of America",
            "locType": "administrative",
            "blogLinks": [
                "http://www.roadsideamerica.com/location/ca"
            ],
            "longitude": "-121.7580049"
        },
        "malibu": {
            "latitude": "33.7932142",
            "closest_to": "irvine",
            "address": "Malibu, Palm Springs, Riverside County, California, 92264, United States of America",
            "locType": "residential",
            "blogLinks": [
                "http://playavista.com/faqs/",
                "http://www.roadsideamerica.com/location/ca/all",
                "http://www.roadsideamerica.com/location/ca"
            ],
            "longitude": "-116.5023561"
        },
        "exposition park": {
            "latitude": "34.01496305",
            "closest_to": "sausalito",
            "address": "Exposition Park, Exposition Park Drive, Jefferson, LA, Los Angeles County, California, 90037, United States of America",
            "locType": "park",
            "blogLinks": [
                "https://blog.trekaroo.com/grand-california-road-trip/"
            ],
            "longitude": "-118.287178776841"
        },
        "chase palm park": {
            "latitude": "34.41527625",
            "closest_to": "sausalito",
            "address": "Chase Palm Park, East Cabrillo Boulevard, Santa Barbara, Santa Barbara County, California, 93103, United States of America",
            "locType": "park",
            "blogLinks": [
                "https://blog.trekaroo.com/grand-california-road-trip/"
            ],
            "longitude": "-119.679267670006"
        },
        "sebastopol": {
            "latitude": "38.4021359",
            "closest_to": "sausalito",
            "address": "Sebastopol, Sonoma County, California, United States of America",
            "locType": "city",
            "blogLinks": [
                "http://www.roadsideamerica.com/location/ca"
            ],
            "longitude": "-122.8238805"
        },
        "mojave desert ca": {
            "latitude": "35.1456319",
            "closest_to": "irvine",
            "address": "Mojave Desert, Utility Road, San Bernardino County, California, United States of America",
            "locType": "desert",
            "blogLinks": [
                "http://www.california-blog.com/"
            ],
            "longitude": "-115.548963686646"
        },
        "palm springs": {
            "latitude": "33.8246269",
            "closest_to": "irvine",
            "address": "Palm Springs, Riverside County, California, United States of America",
            "locType": "city",
            "blogLinks": [
                "http://www.roadsideamerica.com/location/ca"
            ],
            "longitude": "-116.5403029"
        },
        "arcata": {
            "latitude": "40.8665166",
            "closest_to": "sausalito",
            "address": "Arcata, Humboldt County, California, United States of America",
            "locType": "city",
            "blogLinks": [
                "http://www.roadsideamerica.com/location/ca"
            ],
            "longitude": "-124.0828395"
        },
        "kern river": {
            "latitude": "36.6816956",
            "closest_to": "sausalito",
            "address": "Kern River, Tulare County, California, United States of America",
            "locType": "river",
            "blogLinks": [
                "http://www.california-blog.com/"
            ],
            "longitude": "-118.4124188"
        },
        "forestville": {
            "latitude": "38.4833405",
            "closest_to": "sausalito",
            "address": "Forestville, Trenton Road, Trenton, Sonoma County, California, 95436, United States of America",
            "locType": "administrative",
            "blogLinks": [
                "http://www.roadsideamerica.com/location/ca"
            ],
            "longitude": "-122.861584174866"
        },
        "north hollywood": {
            "latitude": "34.1729044",
            "closest_to": "sausalito",
            "address": "North Hollywood, LA, Los Angeles County, California, United States of America",
            "locType": "suburb",
            "blogLinks": [
                "http://www.roadsideamerica.com/location/ca"
            ],
            "longitude": "-118.374037"
        },
        "omni san diego hotel": {
            "latitude": "32.70681915",
            "closest_to": "irvine",
            "address": "Omni San Diego Hotel, 675, L Street, Hillcrest, San Diego, San Diego County, California, 92101, United States of America",
            "locType": "hotel",
            "blogLinks": [
                "https://blog.trekaroo.com/grand-california-road-trip/"
            ],
            "longitude": "-117.158593973277"
        },
        "barstow": {
            "latitude": "34.8957684",
            "closest_to": "sausalito",
            "address": "Barstow, San Bernardino County, California, United States of America",
            "locType": "administrative",
            "blogLinks": [
                "http://www.roadsideamerica.com/location/ca"
            ],
            "longitude": "-117.0172076"
        },
        "fort irwin": {
            "latitude": "35.2627527",
            "closest_to": "sausalito",
            "address": "Fort Irwin, San Bernardino County, California, United States of America",
            "locType": "hamlet",
            "blogLinks": [
                "http://www.roadsideamerica.com/location/ca"
            ],
            "longitude": "-116.6847523"
        },
        "golden gate bridge": {
            "latitude": "37.8302809",
            "closest_to": "sausalito",
            "address": "Golden Gate Bridge, Waldo, Marin County, California, 94965, United States of America",
            "locType": "motorway",
            "blogLinks": [
                "https://blog.trekaroo.com/grand-california-road-trip/",
                "http://www.hopper.com/articles/890/travel-guide-to-sausalito-and-its-best-attractions"
            ],
            "longitude": "-122.4798473"
        },
        "alcatraz": {
            "latitude": "37.8267283",
            "closest_to": "sausalito",
            "address": "Alcatraz Island, SF, California, United States of America",
            "locType": "island",
            "blogLinks": [
                "https://blog.trekaroo.com/grand-california-road-trip/"
            ],
            "longitude": "-122.422746492409"
        },
        "usa": {
            "latitude": "36.7014631",
            "closest_to": "sausalito",
            "address": "California, United States of America",
            "locType": "administrative",
            "blogLinks": [
                "https://blog.trekaroo.com/grand-california-road-trip/"
            ],
            "longitude": "-118.7559973"
        },
        "san mateo": {
            "latitude": "37.496904",
            "closest_to": "sausalito",
            "address": "San Mateo County, California, United States of America",
            "locType": "administrative",
            "blogLinks": [
                "http://www.bestplaces.net/city/california/sausalito"
            ],
            "longitude": "-122.3330572"
        },
        "guerneville": {
            "latitude": "38.5116609",
            "closest_to": "sausalito",
            "address": "Guerneville, Orchard Road, El Bonita, Sonoma County, California, 95446, United States of America",
            "locType": "administrative",
            "blogLinks": [
                "http://www.roadsideamerica.com/location/ca"
            ],
            "longitude": "-122.987128549631"
        },
        "indio": {
            "latitude": "33.7192808",
            "closest_to": "irvine",
            "address": "Indio, Riverside County, California, United States of America",
            "locType": "city",
            "blogLinks": [
                "http://www.roadsideamerica.com/location/ca"
            ],
            "longitude": "-116.2188053"
        },
        "huntington beach": {
            "latitude": "33.6783336",
            "closest_to": "sausalito",
            "address": "Huntington Beach, Orange County, California, United States of America",
            "locType": "city",
            "blogLinks": [
                "https://blog.trekaroo.com/grand-california-road-trip/",
                "http://www.roadsideamerica.com/location/ca",
                "http://www.sheahomes.com/newhomes/orangecounty/"
            ],
            "longitude": "-118.0000165"
        },
        "kettleman city": {
            "latitude": "36.008937",
            "closest_to": "sausalito",
            "address": "Kettleman City, 7th Street, Kettleman City, Kings County, California, 93239, United States of America",
            "locType": "administrative",
            "blogLinks": [
                "http://www.roadsideamerica.com/location/ca"
            ],
            "longitude": "-119.962676860725"
        },
        "venice": {
            "latitude": "33.995044",
            "closest_to": "sausalito",
            "address": "Venice, LA, Los Angeles County, California, United States of America",
            "locType": "suburb",
            "blogLinks": [
                "http://playavista.com/faqs/",
                "http://www.roadsideamerica.com/location/ca"
            ],
            "longitude": "-118.4668874"
        },
        "us": {
            "latitude": "36.7014631",
            "closest_to": "sausalito",
            "address": "California, United States of America",
            "locType": "administrative",
            "blogLinks": [
                "https://blog.trekaroo.com/grand-california-road-trip/"
            ],
            "longitude": "-118.7559973"
        },
        "boonville": {
            "latitude": "39.0091667",
            "closest_to": "sausalito",
            "address": "Boonville, Mendocino County, California, 95415, United States of America",
            "locType": "village",
            "blogLinks": [
                "http://www.roadsideamerica.com/location/ca"
            ],
            "longitude": "-123.366111"
        },
        "santa fe springs": {
            "latitude": "33.9482434",
            "closest_to": "sausalito",
            "address": "Santa Fe Springs, Los Angeles County, California, United States of America",
            "locType": "city",
            "blogLinks": [
                "http://www.roadsideamerica.com/location/ca"
            ],
            "longitude": "-118.0676102"
        },
        "lax": {
            "latitude": "33.94211345",
            "closest_to": "sausalito",
            "address": "Los Angeles International Airport, Gate 41, Westchester, Playa del Rey, LA, Los Angeles County, California, 90245, United States of America",
            "locType": "aerodrome",
            "blogLinks": [
                "http://playavista.com/faqs/"
            ],
            "longitude": "-118.407057290249"
        },
        "maritime museum of san diego": {
            "latitude": "32.7209274",
            "closest_to": "irvine",
            "address": "Maritime Museum of San Diego, North Harbor Drive, Hillcrest, San Diego, San Diego County, California, 92106, United States of America",
            "locType": "museum",
            "blogLinks": [
                "https://blog.trekaroo.com/grand-california-road-trip/"
            ],
            "longitude": "-117.1738105"
        },
        "sausalito": {
            "latitude": "37.8590272",
            "closest_to": "sausalito",
            "address": "Sausalito, Marin County, California, United States of America",
            "locType": "administrative",
            "blogLinks": [
                "https://www.villagesofirvine.com/villages-neighborhoods/stonegate/sausalito/residence-3/",
                "http://playavista.com/faqs/",
                "http://www.bestplaces.net/city/california/sausalito",
                "http://www.hopper.com/articles/890/travel-guide-to-sausalito-and-its-best-attractions",
                "http://www.sheahomes.com/newhomes/orangecounty/"
            ],
            "longitude": "-122.4854693"
        },
        "mission santa barbara": {
            "latitude": "34.4383725",
            "closest_to": "sausalito",
            "address": "Mission Santa Barbara, 2201, Laguna Street, Santa Barbara, Santa Barbara County, California, 93105, United States of America",
            "locType": "place_of_worship",
            "blogLinks": [
                "https://blog.trekaroo.com/grand-california-road-trip/"
            ],
            "longitude": "-119.713226705403"
        },
        "southern california": {
            "latitude": "34.0224149",
            "closest_to": "sausalito",
            "address": "University of Southern California, Watt Way, Saint James Park, LA, Los Angeles County, California, 90089, United States of America",
            "locType": "university",
            "blogLinks": [
                "https://blog.trekaroo.com/grand-california-road-trip/"
            ],
            "longitude": "-118.286343973446"
        },
        "west beach": {
            "latitude": "34.4114406",
            "closest_to": "sausalito",
            "address": "West Beach, Stearns Wharf, Santa Barbara, Santa Barbara County, California, 93103, United States of America",
            "locType": "beach",
            "blogLinks": [
                "https://blog.trekaroo.com/grand-california-road-trip/"
            ],
            "longitude": "-119.688942969453"
        },
        "orchard hills": {
            "latitude": "33.746392",
            "closest_to": "sausalito",
            "address": "Orchard Hills, Irvine, Orange County, California, United States of America",
            "locType": "administrative",
            "blogLinks": [
                "http://www.roadsideamerica.com/location/ca/all"
            ],
            "longitude": "-117.7437359"
        },
        "u.s.a.": {
            "latitude": "37.7959257",
            "closest_to": "sausalito",
            "address": "Pacific Overseas Group (U.S.A) Inc., Grant Avenue, Chinatown, SF, California, 94133, United States of America",
            "locType": "yes",
            "blogLinks": [
                "http://www.sheahomes.com/newhomes/orangecounty/"
            ],
            "longitude": "-122.4067326"
        },
        "garberville": {
            "latitude": "40.1005685",
            "closest_to": "sausalito",
            "address": "Garberville, Humboldt County, California, United States of America",
            "locType": "village",
            "blogLinks": [
                "http://www.roadsideamerica.com/location/ca"
            ],
            "longitude": "-123.7961393"
        },
        "u.s.s.": {
            "latitude": "36.7014631",
            "closest_to": "sausalito",
            "address": "California, United States of America",
            "locType": "administrative",
            "blogLinks": [
                "http://www.roadsideamerica.com/location/ca/all"
            ],
            "longitude": "-118.7559973"
        },
        "burbank": {
            "latitude": "34.1816482",
            "closest_to": "sausalito",
            "address": "Burbank, Los Angeles County, California, United States of America",
            "locType": "city",
            "blogLinks": [
                "http://www.roadsideamerica.com/location/ca"
            ],
            "longitude": "-118.3258553"
        },
        "london": {
            "latitude": "36.4760619",
            "closest_to": "sausalito",
            "address": "London, Tulare County, California, United States of America",
            "locType": "village",
            "blogLinks": [
                "http://www.roadsideamerica.com/location/ca"
            ],
            "longitude": "-119.4431784"
        },
        "newport beach": {
            "latitude": "33.6170092",
            "closest_to": "sausalito",
            "address": "Newport Beach, Orange County, California, United States of America",
            "locType": "city",
            "blogLinks": [
                "http://www.roadsideamerica.com/location/ca"
            ],
            "longitude": "-117.92944"
        },
        "ojai valley": {
            "latitude": "34.4480495",
            "closest_to": "sausalito",
            "address": "Ojai, Ventura County, California, United States of America",
            "locType": "city",
            "blogLinks": [
                "http://www.california-blog.com/"
            ],
            "longitude": "-119.2428889"
        },
        "south lake tahoe": {
            "latitude": "38.929125",
            "closest_to": "sausalito",
            "address": "South Lake Tahoe, El Dorado County, California, United States of America",
            "locType": "city",
            "blogLinks": [
                "http://www.roadsideamerica.com/location/ca"
            ],
            "longitude": "-119.987846390157"
        },
        "sylmar": {
            "latitude": "34.3076252",
            "closest_to": "sausalito",
            "address": "Sylmar, LA, Los Angeles County, California, United States of America",
            "locType": "suburb",
            "blogLinks": [
                "http://www.roadsideamerica.com/location/ca"
            ],
            "longitude": "-118.4492147"
        },
        "pacifica": {
            "latitude": "37.6138253",
            "closest_to": "sausalito",
            "address": "Pacifica, San Mateo County, California, United States of America",
            "locType": "city",
            "blogLinks": [
                "https://blog.trekaroo.com/grand-california-road-trip/",
                "http://www.roadsideamerica.com/location/ca"
            ],
            "longitude": "-122.4869193"
        },
        "tulelake": {
            "latitude": "41.9559885",
            "closest_to": "sausalito",
            "address": "Tulelake, Siskiyou County, California, United States of America",
            "locType": "city",
            "blogLinks": [
                "http://www.roadsideamerica.com/location/ca"
            ],
            "longitude": "-121.4774915"
        },
        "hopland": {
            "latitude": "38.9729542",
            "closest_to": "sausalito",
            "address": "Hopland, Mendocino County, California, United States of America",
            "locType": "hamlet",
            "blogLinks": [
                "http://www.roadsideamerica.com/location/ca"
            ],
            "longitude": "-123.1163917"
        },
        "rialto": {
            "latitude": "34.1064001",
            "closest_to": "sausalito",
            "address": "Rialto, San Bernardino County, California, United States of America",
            "locType": "city",
            "blogLinks": [
                "http://www.roadsideamerica.com/location/ca/all"
            ],
            "longitude": "-117.3703234"
        },
        "golden state": {
            "latitude": "39.6712719",
            "closest_to": "sausalito",
            "address": "Golden State Island, Butte County, California, United States of America",
            "locType": "island",
            "blogLinks": [
                "https://blog.trekaroo.com/grand-california-road-trip/"
            ],
            "longitude": "-121.9619226"
        },
        "northern california": {
            "latitude": "32.7349196",
            "closest_to": "irvine",
            "address": "Northern Frontier, San Diego, San Diego County, California, United States of America",
            "locType": "locality",
            "blogLinks": [
                "https://blog.trekaroo.com/grand-california-road-trip/"
            ],
            "longitude": "-117.1545973"
        },
        "old town san diego": {
            "latitude": "32.7542167",
            "closest_to": "irvine",
            "address": "Old Town San Diego, San Diego County, California, United States of America",
            "locType": "hamlet",
            "blogLinks": [
                "http://www.california-blog.com/"
            ],
            "longitude": "-117.1969792"
        },
        "apple valley": {
            "latitude": "34.5008311",
            "closest_to": "sausalito",
            "address": "Apple Valley, San Bernardino County, California, United States of America",
            "locType": "administrative",
            "blogLinks": [
                "http://www.roadsideamerica.com/location/ca"
            ],
            "longitude": "-117.1858758"
        },
        "mount baldy ca": {
            "latitude": "34.2361168",
            "closest_to": "sausalito",
            "address": "Mount Baldy, Los Angeles County, California, United States of America",
            "locType": "hamlet",
            "blogLinks": [
                "http://www.california-blog.com/"
            ],
            "longitude": "-117.6600552"
        },
        "buena park": {
            "latitude": "33.870413",
            "closest_to": "sausalito",
            "address": "Buena Park, Orange County, California, United States of America",
            "locType": "city",
            "blogLinks": [
                "http://www.roadsideamerica.com/location/ca"
            ],
            "longitude": "-117.9962164"
        },
        "san carlos": {
            "latitude": "37.4982065",
            "closest_to": "sausalito",
            "address": "San Carlos, San Mateo County, California, United States of America",
            "locType": "city",
            "blogLinks": [
                "http://www.roadsideamerica.com/location/ca"
            ],
            "longitude": "-122.266149723864"
        },
        "santa clarita": {
            "latitude": "34.3916641",
            "closest_to": "sausalito",
            "address": "Santa Clarita, Los Angeles County, California, United States of America",
            "locType": "city",
            "blogLinks": [
                "http://www.roadsideamerica.com/location/ca"
            ],
            "longitude": "-118.5425859"
        },
        "morongo valley": {
            "latitude": "34.0537585",
            "closest_to": "irvine",
            "address": "Morongo Valley, Vista Drive, Morongo Valley, San Bernardino County, California, 92256, United States of America",
            "locType": "administrative",
            "blogLinks": [
                "http://www.california-blog.com/"
            ],
            "longitude": "-116.596723958419"
        },
        "carmel valley ranch": {
            "latitude": "36.51756",
            "closest_to": "sausalito",
            "address": "Carmel Valley Ranch, Club House Road, Rancho Tierra Grande, Monterey County, California, United States of America",
            "locType": "hotel",
            "blogLinks": [
                "https://blog.trekaroo.com/grand-california-road-trip/"
            ],
            "longitude": "-121.79927851435"
        },
        "loma ridge": {
            "latitude": "37.0400666",
            "closest_to": "sausalito",
            "address": "Epicenter, 1989 Loma Prieta earthquake, Santa Cruz County, California, United States of America",
            "locType": "locality",
            "blogLinks": [
                "https://www.villagesofirvine.com/villages-neighborhoods/stonegate/sausalito/residence-3/"
            ],
            "longitude": "-121.8770254"
        },
        "balboa park": {
            "latitude": "37.72494875",
            "closest_to": "sausalito",
            "address": "Balboa Park, Sergeant John V Young Lane, Ingleside, SF, California, 94112, United States of America",
            "locType": "park",
            "blogLinks": [
                "https://blog.trekaroo.com/grand-california-road-trip/"
            ],
            "longitude": "-122.444804424152"
        },
        "willow creek": {
            "latitude": "40.9395774",
            "closest_to": "sausalito",
            "address": "Willow Creek, Humboldt County, California, United States of America",
            "locType": "hamlet",
            "blogLinks": [
                "http://www.roadsideamerica.com/location/ca"
            ],
            "longitude": "-123.6314411"
        },
        "palo alto": {
            "latitude": "37.442156",
            "closest_to": "sausalito",
            "address": "Palo Alto, Santa Clara County, California, United States of America",
            "locType": "city",
            "blogLinks": [
                "http://www.roadsideamerica.com/location/ca"
            ],
            "longitude": "-122.1634471"
        },
        "glendora": {
            "latitude": "34.1361187",
            "closest_to": "sausalito",
            "address": "Glendora, Los Angeles County, California, United States of America",
            "locType": "city",
            "blogLinks": [
                "http://www.roadsideamerica.com/location/ca"
            ],
            "longitude": "-117.8653389"
        },
        "golden gate park": {
            "latitude": "37.7693681",
            "closest_to": "sausalito",
            "address": "Golden Gate Park, Overlook Drive, Richmond District, SF, California, 94122, United States of America",
            "locType": "park",
            "blogLinks": [
                "https://blog.trekaroo.com/grand-california-road-trip/"
            ],
            "longitude": "-122.482183611177"
        },
        "whittier": {
            "latitude": "33.9748932",
            "closest_to": "sausalito",
            "address": "Whittier, Los Angeles County, California, United States of America",
            "locType": "city",
            "blogLinks": [
                "http://www.roadsideamerica.com/location/ca"
            ],
            "longitude": "-118.0336974"
        },
        "monrovia": {
            "latitude": "34.1483499",
            "closest_to": "sausalito",
            "address": "Monrovia, Los Angeles County, California, United States of America",
            "locType": "city",
            "blogLinks": [
                "http://www.california-blog.com/"
            ],
            "longitude": "-118.0014516"
        },
        "daly city": {
            "latitude": "37.7057671",
            "closest_to": "sausalito",
            "address": "Daly City, San Mateo County, California, United States of America",
            "locType": "city",
            "blogLinks": [
                "http://www.bestplaces.net/city/california/sausalito"
            ],
            "longitude": "-122.4619204"
        },
        "newport beach ca": {
            "latitude": "33.6170092",
            "closest_to": "sausalito",
            "address": "Newport Beach, Orange County, California, United States of America",
            "locType": "city",
            "blogLinks": [
                "http://www.california-blog.com/"
            ],
            "longitude": "-117.92944"
        },
        "la": {
            "latitude": "36.7014631",
            "closest_to": "sausalito",
            "address": "California, United States of America",
            "locType": "administrative",
            "blogLinks": [
                "http://www.travelchannel.com/destinations/us/ca",
                "https://blog.trekaroo.com/grand-california-road-trip/",
                "http://www.sheahomes.com/newhomes/orangecounty/"
            ],
            "longitude": "-118.7559973"
        },
        "menlo park": {
            "latitude": "37.4538274",
            "closest_to": "sausalito",
            "address": "Menlo Park, San Mateo County, California, United States of America",
            "locType": "administrative",
            "blogLinks": [
                "http://www.bestplaces.net/city/california/sausalito"
            ],
            "longitude": "-122.182187"
        },
        "palm springs air museum ca": {
            "latitude": "33.83250375",
            "closest_to": "irvine",
            "address": "Palm Springs Air Museum, 745, North Gene Autry Trail, Palm Springs, Riverside County, California, 92262, United States of America",
            "locType": "museum",
            "blogLinks": [
                "http://www.california-blog.com/"
            ],
            "longitude": "-116.504677958796"
        },
        "coronado bridge": {
            "latitude": "32.6904606",
            "closest_to": "irvine",
            "address": "San Diego-Coronado Bridge, San Diego, San Diego County, California, 92118, United States of America",
            "locType": "motorway",
            "blogLinks": [
                "https://blog.trekaroo.com/grand-california-road-trip/"
            ],
            "longitude": "-117.1524863"
        },
        "chinatown": {
            "latitude": "37.7999301",
            "closest_to": "sausalito",
            "address": "Chinatown, Oakland, Alameda County, California, ca, United States of America",
            "locType": "neighbourhood",
            "blogLinks": [
                "http://www.bestplaces.net/city/california/sausalito",
                "https://blog.trekaroo.com/grand-california-road-trip/"
            ],
            "longitude": "-122.2702385"
        },
        "centinela ave.": {
            "latitude": "33.9822181",
            "closest_to": "sausalito",
            "address": "Centinela Avenue, Del Rey, Playa Vista, LA, Los Angeles County, California, 90094, United States of America",
            "locType": "secondary",
            "blogLinks": [
                "http://playavista.com/faqs/"
            ],
            "longitude": "-118.4102138"
        },
        "welcome center": {
            "latitude": "37.7973208",
            "closest_to": "sausalito",
            "address": "Welcome Center, Civic Center, Oakland, Alameda County, California, 94611, United States of America",
            "locType": "pedestrian",
            "blogLinks": [
                "http://playavista.com/faqs/"
            ],
            "longitude": "-122.263191755881"
        },
        "embarcadero": {
            "latitude": "37.7928455",
            "closest_to": "sausalito",
            "address": "Embarcadero, Market Street, Financial District, SF, California, 94111, United States of America",
            "locType": "station",
            "blogLinks": [
                "https://blog.trekaroo.com/grand-california-road-trip/"
            ],
            "longitude": "-122.396892"
        },
        "great wolf lodge": {
            "latitude": "33.7789302",
            "closest_to": "sausalito",
            "address": "Great Wolf Lodge, Harbor Boulevard, Garden Grove, Orange County, California, 92840, United States of America",
            "locType": "hotel",
            "blogLinks": [
                "http://www.sheahomes.com/newhomes/orangecounty/"
            ],
            "longitude": "-117.916002460128"
        },
        "orange county": {
            "latitude": "33.7500378",
            "closest_to": "sausalito",
            "address": "Orange County, California, United States of America",
            "locType": "administrative",
            "blogLinks": [
                "http://playavista.com/faqs/",
                "https://blog.trekaroo.com/grand-california-road-trip/",
                "http://www.california-blog.com/",
                "http://www.sheahomes.com/newhomes/orangecounty/"
            ],
            "longitude": "-117.870493"
        },
        "north lake ca": {
            "latitude": "37.76958295",
            "closest_to": "sausalito",
            "address": "North Lake, Chain of Lakes Drive East, Sunset District, SF, California, 94122, United States of America",
            "locType": "water",
            "blogLinks": [
                "http://www.california-blog.com/"
            ],
            "longitude": "-122.501983281136"
        },
        "granada hills": {
            "latitude": "34.2647247",
            "closest_to": "sausalito",
            "address": "Granada Hills, Northridge, LA, Los Angeles County, California, 91344, United States of America",
            "locType": "neighbourhood",
            "blogLinks": [
                "http://www.roadsideamerica.com/location/ca/all"
            ],
            "longitude": "-118.5231414"
        },
        "aguanga": {
            "latitude": "33.4428094",
            "closest_to": "irvine",
            "address": "Aguanga, Riverside County, California, United States of America",
            "locType": "hamlet",
            "blogLinks": [
                "http://www.roadsideamerica.com/location/ca"
            ],
            "longitude": "-116.8650234"
        },
        "laguna beach": {
            "latitude": "33.5420888",
            "closest_to": "irvine",
            "address": "Laguna Beach, Orange County, California, United States of America",
            "locType": "city",
            "blogLinks": [
                "http://www.sheahomes.com/newhomes/orangecounty/"
            ],
            "longitude": "-117.7834146"
        },
        "los angeles": {
            "latitude": "34.0543942",
            "closest_to": "sausalito",
            "address": "LA, Los Angeles County, California, United States of America",
            "locType": "city",
            "blogLinks": [
                "http://playavista.com/faqs/",
                "https://blog.trekaroo.com/grand-california-road-trip/",
                "http://www.roadsideamerica.com/location/ca"
            ],
            "longitude": "-118.2439408"
        },
        "san diego": {
            "latitude": "32.7174209",
            "closest_to": "irvine",
            "address": "San Diego, San Diego County, California, United States of America",
            "locType": "city",
            "blogLinks": [
                "http://playavista.com/faqs/",
                "http://www.roadsideamerica.com/location/ca/all",
                "https://blog.trekaroo.com/grand-california-road-trip/",
                "http://www.roadsideamerica.com/location/ca"
            ],
            "longitude": "-117.1627713"
        },
        "new england": {
            "latitude": "33.8793794",
            "closest_to": "sausalito",
            "address": "New England, Cerritos, Los Angeles County, California, 90701, United States of America",
            "locType": "residential",
            "blogLinks": [
                "http://www.hopper.com/articles/890/travel-guide-to-sausalito-and-its-best-attractions"
            ],
            "longitude": "-118.0890007"
        },
        "america": {
            "latitude": "36.2573198",
            "closest_to": "sausalito",
            "address": "America, Kings County, California, 93246, United States of America",
            "locType": "residential",
            "blogLinks": [
                "https://blog.trekaroo.com/grand-california-road-trip/",
                "http://www.roadsideamerica.com/location/ca"
            ],
            "longitude": "-119.8948706"
        },
        "san quentin": {
            "latitude": "37.9413133",
            "closest_to": "sausalito",
            "address": "San Quentin, Marin County, California, United States of America",
            "locType": "hamlet",
            "blogLinks": [
                "http://www.roadsideamerica.com/location/ca"
            ],
            "longitude": "-122.4849738"
        },
        "bay area discovery museum": {
            "latitude": "37.8357085",
            "closest_to": "sausalito",
            "address": "Bay Area Discovery Museum, East Road, Belvedere Island, Marin County, California, 94965, United States of America",
            "locType": "museum",
            "blogLinks": [
                "https://blog.trekaroo.com/grand-california-road-trip/"
            ],
            "longitude": "-122.4770556"
        },
        "playa vista": {
            "latitude": "33.9727898",
            "closest_to": "sausalito",
            "address": "Playa Vista, LA, Los Angeles County, California, United States of America",
            "locType": "suburb",
            "blogLinks": [
                "http://playavista.com/faqs/"
            ],
            "longitude": "-118.4275775"
        },
        "cotati": {
            "latitude": "38.3266798",
            "closest_to": "sausalito",
            "address": "Cotati, Sonoma County, California, United States of America",
            "locType": "city",
            "blogLinks": [
                "http://www.roadsideamerica.com/location/ca"
            ],
            "longitude": "-122.706844"
        },
        "monterey": {
            "latitude": "36.5844165",
            "closest_to": "sausalito",
            "address": "Monterey, Monterey County, California, United States of America",
            "locType": "city",
            "blogLinks": [
                "https://blog.trekaroo.com/grand-california-road-trip/"
            ],
            "longitude": "-121.866792846206"
        },
        "southern pacific": {
            "latitude": "34.391601",
            "closest_to": "sausalito",
            "address": "Southern Pacific, Fillmore, Ventura County, California, 93015, United States of America",
            "locType": "residential",
            "blogLinks": [
                "http://www.bestplaces.net/city/california/sausalito"
            ],
            "longitude": "-118.9223619"
        },
        "surf city": {
            "latitude": "37.8588436",
            "closest_to": "sausalito",
            "address": "Surf City, Tuolumne County, California, United States of America",
            "locType": "rapids",
            "blogLinks": [
                "https://blog.trekaroo.com/grand-california-road-trip/"
            ],
            "longitude": "-120.6349548"
        },
        "san francisco": {
            "latitude": "37.7792808",
            "closest_to": "sausalito",
            "address": "SF, California, United States of America",
            "locType": "city",
            "blogLinks": [
                "https://blog.trekaroo.com/grand-california-road-trip/",
                "http://www.roadsideamerica.com/location/ca",
                "http://www.bestplaces.net/city/california/sausalito",
                "http://www.hopper.com/articles/890/travel-guide-to-sausalito-and-its-best-attractions",
                "http://www.timeanddate.com/worldclock/distances.html?n=224",
                "http://www.roadsideamerica.com/location/ca/all"
            ],
            "longitude": "-122.4192362"
        },
        "coalinga": {
            "latitude": "36.1298952",
            "closest_to": "sausalito",
            "address": "Coalinga, Fresno County, California, United States of America",
            "locType": "city",
            "blogLinks": [
                "http://www.roadsideamerica.com/location/ca"
            ],
            "longitude": "-120.245046293019"
        },
        "carlsbad": {
            "latitude": "33.1580933",
            "closest_to": "irvine",
            "address": "Carlsbad, San Diego County, California, United States of America",
            "locType": "city",
            "blogLinks": [
                "http://www.roadsideamerica.com/location/ca"
            ],
            "longitude": "-117.3505938"
        },
        "united states": {
            "latitude": "36.7014631",
            "closest_to": "sausalito",
            "address": "California, United States of America",
            "locType": "administrative",
            "blogLinks": [
                "http://playavista.com/faqs/",
                "http://www.bestplaces.net/city/california/sausalito",
                "https://blog.trekaroo.com/grand-california-road-trip/"
            ],
            "longitude": "-118.7559973"
        },
        "sequoia national park": {
            "latitude": "36.49584065",
            "closest_to": "sausalito",
            "address": "Sequoia National Park, Black Rock Pass Trail, Mineral King, Tulare County, California, United States of America",
            "locType": "national_park",
            "blogLinks": [
                "http://www.roadsideamerica.com/location/ca"
            ],
            "longitude": "-118.559919284386"
        },
        "bluff creek drive": {
            "latitude": "37.66203",
            "closest_to": "sausalito",
            "address": "Bluff Creek Drive, Modesto, Stanislaus County, California, 95355, United States of America",
            "locType": "residential",
            "blogLinks": [
                "http://playavista.com/faqs/"
            ],
            "longitude": "-120.9135019"
        },
        "manhattan beach": {
            "latitude": "33.8950839",
            "closest_to": "sausalito",
            "address": "Manhattan Beach, Los Angeles County, California, United States of America",
            "locType": "city",
            "blogLinks": [
                "http://playavista.com/faqs/"
            ],
            "longitude": "-118.4000146"
        },
        "getty center": {
            "latitude": "34.07757975",
            "closest_to": "sausalito",
            "address": "J. Paul Getty Museum, 1200, Getty Center Drive, Westgate Heights, Brentwood, LA, Los Angeles County, California, 90049, United States of America",
            "locType": "museum",
            "blogLinks": [
                "https://blog.trekaroo.com/grand-california-road-trip/"
            ],
            "longitude": "-118.474695033531"
        },
        "riverside national cemetery": {
            "latitude": "33.87692125",
            "closest_to": "irvine",
            "address": "Riverside National Cemetery, 22495, Alessandro, Riverside County, California, 92518, United States of America",
            "locType": "cemetery",
            "blogLinks": [
                "http://www.california-blog.com/"
            ],
            "longitude": "-117.270726607134"
        },
        "san rafael": {
            "latitude": "37.9735346",
            "closest_to": "sausalito",
            "address": "San Rafael, Marin County, California, United States of America",
            "locType": "city",
            "blogLinks": [
                "http://www.roadsideamerica.com/location/ca"
            ],
            "longitude": "-122.5310873"
        },
        "oroville": {
            "latitude": "39.5137752",
            "closest_to": "sausalito",
            "address": "Oroville, Butte County, California, United States of America",
            "locType": "city",
            "blogLinks": [
                "http://www.roadsideamerica.com/location/ca"
            ],
            "longitude": "-121.5563589"
        },
        "omni san francisco": {
            "latitude": "37.7930209",
            "closest_to": "sausalito",
            "address": "Omni San Francisco Hotel, 500, California Street, Chinatown, SF, California, 94104, United States of America",
            "locType": "hotel",
            "blogLinks": [
                "https://blog.trekaroo.com/grand-california-road-trip/"
            ],
            "longitude": "-122.403039"
        },
        "geyserville": {
            "latitude": "38.707687",
            "closest_to": "sausalito",
            "address": "Geyserville, Sonoma County, California, United States of America",
            "locType": "hamlet",
            "blogLinks": [
                "http://www.roadsideamerica.com/location/ca"
            ],
            "longitude": "-122.9024963"
        },
        "baldwin park": {
            "latitude": "34.0854739",
            "closest_to": "sausalito",
            "address": "Baldwin Park, Los Angeles County, California, United States of America",
            "locType": "city",
            "blogLinks": [
                "http://www.roadsideamerica.com/location/ca"
            ],
            "longitude": "-117.961176"
        },
        "riviera": {
            "latitude": "38.568972",
            "closest_to": "sausalito",
            "address": "La Riviera, Sparks Way, Mayhew, Sacramento County, California, 95827, United States of America",
            "locType": "administrative",
            "blogLinks": [
                "https://blog.trekaroo.com/grand-california-road-trip/"
            ],
            "longitude": "-121.351801220501"
        },
        "richmond": {
            "latitude": "37.9357576",
            "closest_to": "sausalito",
            "address": "Richmond, Contra Costa County, California, United States of America",
            "locType": "city",
            "blogLinks": [
                "http://www.roadsideamerica.com/location/ca"
            ],
            "longitude": "-122.3477485"
        },
        "bakersfield": {
            "latitude": "35.3738712",
            "closest_to": "sausalito",
            "address": "Bakersfield, Kern County, California, United States of America",
            "locType": "city",
            "blogLinks": [
                "http://www.roadsideamerica.com/location/ca"
            ],
            "longitude": "-119.0194638"
        },
        "south san francisco": {
            "latitude": "37.6549493",
            "closest_to": "sausalito",
            "address": "South San Francisco, San Mateo County, California, United States of America",
            "locType": "administrative",
            "blogLinks": [
                "http://www.bestplaces.net/city/california/sausalito"
            ],
            "longitude": "-122.408125"
        },
        "atascadero": {
            "latitude": "35.4894169",
            "closest_to": "sausalito",
            "address": "Atascadero, San Luis Obispo County, California, United States of America",
            "locType": "city",
            "blogLinks": [
                "http://www.roadsideamerica.com/location/ca"
            ],
            "longitude": "-120.6707254"
        },
        "monterey bay aquarium ca": {
            "latitude": "36.61809095",
            "closest_to": "sausalito",
            "address": "MBA, 886, Cannery Row, Monterey, Monterey County, California, 93940, United States of America",
            "locType": "aquarium",
            "blogLinks": [
                "http://www.california-blog.com/"
            ],
            "longitude": "-121.901680002002"
        },
        "colma": {
            "latitude": "37.6768779",
            "closest_to": "sausalito",
            "address": "Colma, San Mateo County, California, United States of America",
            "locType": "administrative",
            "blogLinks": [
                "http://www.roadsideamerica.com/location/ca"
            ],
            "longitude": "-122.4596949"
        },
        "coronado island": {
            "latitude": "32.4172137",
            "closest_to": "irvine",
            "address": "Isla Coronado Centro, Tijuana, Baja California, M\u00e9xico",
            "locType": "island",
            "blogLinks": [
                "https://blog.trekaroo.com/grand-california-road-trip/"
            ],
            "longitude": "-117.260743289496"
        },
        "carmel": {
            "latitude": "38.75511285",
            "closest_to": "sausalito",
            "address": "Carmel, Roseville, Placer County, California, 95747, United States of America",
            "locType": "residential",
            "blogLinks": [
                "https://blog.trekaroo.com/grand-california-road-trip/"
            ],
            "longitude": "-121.353308848273"
        }
    },
    "irvine": {
        "type": "city",
        "osm_id": "114485",
        "class": "place",
        "importance": 0.55,
        "lat": "33.6856969",
        "lon": "-117.8259818",
        "boundingbox": [
            "33.5993914",
            "33.7736521",
            "-117.8687518",
            "-117.6780258"
        ],
        "display_name": "Irvine, Orange County, California, United States of America",
        "licence": "Data \u00a9 OpenStreetMap contributors, ODbL 1.0. http://www.openstreetmap.org/copyright",
        "icon": "https://nominatim.openstreetmap.org/images/mapicons/poi_place_city.p.20.png",
        "place_id": "159062335",
        "osm_type": "relation"
    },
    "sausalito": {
        "type": "administrative",
        "osm_id": "2829689",
        "class": "boundary",
        "importance": 0.64561533453658,
        "lat": "37.8590272",
        "lon": "-122.4854693",
        "boundingbox": [
            "37.8436795",
            "37.8731429",
            "-122.5102612",
            "-122.4753744"
        ],
        "display_name": "Sausalito, Marin County, California, United States of America",
        "licence": "Data \u00a9 OpenStreetMap contributors, ODbL 1.0. http://www.openstreetmap.org/copyright",
        "icon": "https://nominatim.openstreetmap.org/images/mapicons/poi_boundary_administrative.p.20.png",
        "place_id": "159575624",
        "osm_type": "relation"
    }
}