{
    "mentions": {
        "vagabond inn san luis obispo": {
            "latitude": "35.2640601",
            "closest_to": "san luis obispo",
            "address": "Vagabond Inn San Luis Obispo, 210, Madonna Road, San Luis Obispo, San Luis Obispo County, California, 93405, United States of America",
            "locType": "motel",
            "blogLinks": [
                "http://wikitravel.org/en/San_Luis_Obispo"
            ],
            "longitude": "-120.67683719842"
        },
        "highway 101": {
            "latitude": "32.9967358",
            "closest_to": "long beach",
            "address": "Highway 101, Solana Beach, San Diego County, California, 92075, United States of America",
            "locType": "primary",
            "blogLinks": [
                "http://travelblog.viator.com/road-trip-san-francisco-los-angeles/",
                "http://wikitravel.org/en/San_Luis_Obispo",
                "https://sanluisobispovacations.com/shareslo-blog/"
            ],
            "longitude": "-117.2731974"
        },
        "san luis obispo museum of art": {
            "latitude": "35.2795773",
            "closest_to": "san luis obispo",
            "address": "San Luis Obispo Museum of Art, 1010, Broad Street, San Luis Obispo, San Luis Obispo County, California, 93401, United States of America",
            "locType": "museum",
            "blogLinks": [
                "http://travelblog.viator.com/road-trip-san-francisco-los-angeles/",
                "http://wikitravel.org/en/San_Luis_Obispo"
            ],
            "longitude": "-120.6649345"
        },
        "mcway falls trail": {
            "latitude": "36.1578211",
            "closest_to": "san luis obispo",
            "address": "McWay Falls, Monterey County, California, United States of America",
            "locType": "waterfall",
            "blogLinks": [
                "http://travelblog.viator.com/road-trip-san-francisco-los-angeles/"
            ],
            "longitude": "-121.6723957"
        },
        "carmel-by-the-sea": {
            "latitude": "36.5552387",
            "closest_to": "san luis obispo",
            "address": "Carmel-by-the-Sea, Monterey County, California, United States of America",
            "locType": "city",
            "blogLinks": [
                "http://travelblog.viator.com/road-trip-san-francisco-los-angeles/",
                "https://www.gapyear.com/articles/216212/13-incredible-stops-on-the-pacific-coast-highway",
                "http://www.hopper.com/articles/291/five-great-stops-between-los-angeles-and-san-francisco-on-the-pacific-coast-highway"
            ],
            "longitude": "-121.9232878"
        },
        "avila beach resort": {
            "latitude": "35.18524475",
            "closest_to": "san luis obispo",
            "address": "Avila Beach Resort Golf Course, Alt Egress, Avila Beach, San Luis Obispo County, California, 93424, United States of America",
            "locType": "golf_course",
            "blogLinks": [
                "https://sanluisobispovacations.com/shareslo-blog/"
            ],
            "longitude": "-120.739445736618"
        },
        "phoenix": {
            "latitude": "33.6988015",
            "closest_to": "long beach",
            "address": "Phoenix, Heritage Park Apartments, El Camino Real, Irvine, Orange County, California, 92604, United States of America",
            "locType": "residential",
            "blogLinks": [
                "http://wikitravel.org/en/San_Luis_Obispo"
            ],
            "longitude": "-117.7764481"
        },
        "baggett stadium": {
            "latitude": "35.3066584",
            "closest_to": "san luis obispo",
            "address": "Baggett Stadium, Pinnacles Road, San Luis Obispo County, California, 93407, United States of America",
            "locType": "pitch",
            "blogLinks": [
                "https://sanluisobispovacations.com/shareslo-blog/"
            ],
            "longitude": "-120.664894520715"
        },
        "garden street": {
            "latitude": "34.416549",
            "closest_to": "san luis obispo",
            "address": "Garden Street, Santa Barbara, Santa Barbara County, California, 93101, United States of America",
            "locType": "secondary",
            "blogLinks": [
                "http://wikitravel.org/en/San_Luis_Obispo",
                "https://sanluisobispovacations.com/shareslo-blog/"
            ],
            "longitude": "-119.6875199"
        },
        "shell beach": {
            "latitude": "35.1552532",
            "closest_to": "san luis obispo",
            "address": "Shell Beach, San Luis Obispo County, California, United States of America",
            "locType": "village",
            "blogLinks": [
                "http://wikitravel.org/en/San_Luis_Obispo",
                "https://www.tripadvisor.com/ShowTopic-g32894-i392-k4315982-Between_monterey_and_los_angeles-Pismo_Beach_San_Luis_Obispo_County_California.html"
            ],
            "longitude": "-120.6723948"
        },
        "lemoore": {
            "latitude": "36.3007835",
            "closest_to": "san luis obispo",
            "address": "Lemoore, Kings County, California, United States of America",
            "locType": "city",
            "blogLinks": [
                "http://highway1discoveryroute.com/blog/"
            ],
            "longitude": "-119.7829106"
        },
        "morro bay strand": {
            "latitude": "33.255497",
            "closest_to": "long beach",
            "address": "Morro Bay Street, Oceanside, San Diego County, California, 92057, United States of America",
            "locType": "residential",
            "blogLinks": [
                "http://highway1discoveryroute.com/blog/"
            ],
            "longitude": "-117.3174209"
        },
        "san diego county": {
            "latitude": "32.9637838",
            "closest_to": "long beach",
            "address": "San Diego County, California, United States of America",
            "locType": "administrative",
            "blogLinks": [
                "https://www.gapyear.com/articles/216212/13-incredible-stops-on-the-pacific-coast-highway"
            ],
            "longitude": "-116.7706276"
        },
        "san luis obispo creek": {
            "latitude": "35.2674805",
            "closest_to": "san luis obispo",
            "address": "San Luis Obispo Creek, San Luis Obispo, San Luis Obispo County, California, United States of America",
            "locType": "stream",
            "blogLinks": [
                "http://www.calpoly.edu/visitors/visitors.html"
            ],
            "longitude": "-120.6726436"
        },
        "las angeles": {
            "latitude": "33.9995929",
            "closest_to": "san luis obispo",
            "address": "California, Obregon Street, West Whittier, Rosemead, Los Angeles County, California, 90606, United States of America",
            "locType": "abandoned",
            "blogLinks": [
                "http://www.travbuddy.com/California-travel-guide-p85"
            ],
            "longitude": "-118.0668337"
        },
        "bixby bridge": {
            "latitude": "36.3710197",
            "closest_to": "san luis obispo",
            "address": "Bixby Creek Bridge, Notleys Landing, Monterey County, California, 93923, United States of America",
            "locType": "primary",
            "blogLinks": [
                "https://www.gapyear.com/articles/216212/13-incredible-stops-on-the-pacific-coast-highway"
            ],
            "longitude": "-121.9017572"
        },
        "avila beach and valley": {
            "latitude": "35.1799752",
            "closest_to": "san luis obispo",
            "address": "Avila Beach, San Luis Obispo County, California, United States of America",
            "locType": "hamlet",
            "blogLinks": [
                "http://highway1discoveryroute.com/blog/"
            ],
            "longitude": "-120.7318417"
        },
        "vandenburg air force base": {
            "latitude": "34.7425933",
            "closest_to": "san luis obispo",
            "address": "Vandenberg AFB, Cabrillo Highway, Santa Barbara County, California, 93437, United States of America",
            "locType": "administrative",
            "blogLinks": [
                "http://wikitravel.org/en/San_Luis_Obispo"
            ],
            "longitude": "-120.515598534764"
        },
        "north bay area": {
            "latitude": "32.7667127",
            "closest_to": "long beach",
            "address": "California Collections, Smoking Area, Old Town, San Diego, San Diego County, California, 921009, United States of America",
            "locType": "gift",
            "blogLinks": [
                "https://sanluisobispovacations.com/shareslo-blog/"
            ],
            "longitude": "-117.228172861512"
        },
        "jaffa cafe": {
            "latitude": "35.284631",
            "closest_to": "san luis obispo",
            "address": "Jaffa Cafe, 1308, Monterey Street, San Luis Obispo, San Luis Obispo County, California, 93401, United States of America",
            "locType": "restaurant",
            "blogLinks": [
                "http://wikitravel.org/en/San_Luis_Obispo"
            ],
            "longitude": "-120.6570579"
        },
        "mission beach": {
            "latitude": "32.7827144",
            "closest_to": "long beach",
            "address": "Mission Beach, San Diego County, California, United States of America",
            "locType": "hamlet",
            "blogLinks": [
                "https://www.gapyear.com/articles/216212/13-incredible-stops-on-the-pacific-coast-highway"
            ],
            "longitude": "-117.2525056"
        },
        "mallard lake ranch": {
            "latitude": "33.6682758",
            "closest_to": "long beach",
            "address": "Mallard Road, Terra Cotta, Lake Elsinore, Riverside County, California, 92530, United States of America",
            "locType": "residential",
            "blogLinks": [
                "http://highway1discoveryroute.com/blog/"
            ],
            "longitude": "-117.3792448"
        },
        "los osos valley road": {
            "latitude": "35.2676425",
            "closest_to": "san luis obispo",
            "address": "Los Osos Valley Road, San Luis Obispo, San Luis Obispo County, California, 93402, United States of America",
            "locType": "secondary",
            "blogLinks": [
                "http://wikitravel.org/en/San_Luis_Obispo"
            ],
            "longitude": "-120.7033035"
        },
        "santa lucia": {
            "latitude": "34.4379129",
            "closest_to": "san luis obispo",
            "address": "Santa Lucia, Santa Barbara County, California, 93111, United States of America",
            "locType": "residential",
            "blogLinks": [
                "http://wikitravel.org/en/San_Luis_Obispo"
            ],
            "longitude": "-119.8003246"
        },
        "santa monica": {
            "latitude": "34.0195598",
            "closest_to": "san luis obispo",
            "address": "Santa Monica, Los Angeles County, California, United States of America",
            "locType": "city",
            "blogLinks": [
                "http://travelblog.viator.com/road-trip-san-francisco-los-angeles/"
            ],
            "longitude": "-118.4869738"
        },
        "los angeles county": {
            "latitude": "34.3155072",
            "closest_to": "san luis obispo",
            "address": "Los Angeles County, California, United States of America",
            "locType": "administrative",
            "blogLinks": [
                "http://www.travbuddy.com/California-travel-guide-p85",
                "http://centralcoast.com/"
            ],
            "longitude": "-118.2096813"
        },
        "banana republic": {
            "latitude": "34.0720673",
            "closest_to": "san luis obispo",
            "address": "Banana Republic, 1st Street, The Grove, Hollywood, LA, Los Angeles County, California, 90036, United States of America",
            "locType": "clothes",
            "blogLinks": [
                "http://wikitravel.org/en/San_Luis_Obispo"
            ],
            "longitude": "-118.3586321"
        },
        "skate park": {
            "latitude": "37.02295575",
            "closest_to": "san luis obispo",
            "address": "Skate Park, Gilroy, Santa Clara County, California, 95036, United States of America",
            "locType": "recreation_ground",
            "blogLinks": [
                "https://www.tripadvisor.com/Tourism-g33026-San_Luis_Obispo_San_Luis_Obispo_County_California-Vacations.html"
            ],
            "longitude": "-121.585292446619"
        },
        "' soda lake": {
            "latitude": "35.23913735",
            "closest_to": "san luis obispo",
            "address": "Soda Lake, Soda Lake Road, San Luis Obispo County, California, United States of America",
            "locType": "water",
            "blogLinks": [
                "https://www.gapyear.com/articles/216212/13-incredible-stops-on-the-pacific-coast-highway"
            ],
            "longitude": "-119.895515964214"
        },
        "kennedy library": {
            "latitude": "34.0675",
            "closest_to": "san luis obispo",
            "address": "Kennedy Library, Eagle's Lane, University Hills, Boyle Heights, LA, Los Angeles County, California, 90032, United States of America",
            "locType": "library",
            "blogLinks": [
                "http://www.calpoly.edu/visitors/visitors.html"
            ],
            "longitude": "-118.1674999"
        },
        "morro strand state beach": {
            "latitude": "35.39266105",
            "closest_to": "san luis obispo",
            "address": "Morro Strand State Beach, Sienna Street, Morro Bay, San Luis Obispo County, California, 93442, United States of America",
            "locType": "nature_reserve",
            "blogLinks": [
                "http://wikitravel.org/en/San_Luis_Obispo"
            ],
            "longitude": "-120.865032583746"
        },
        "moonstone beach": {
            "latitude": "35.573855",
            "closest_to": "san luis obispo",
            "address": "Moonstone Beach, Cambria, San Luis Obispo County, California, CA 93428, United States of America",
            "locType": "path",
            "blogLinks": [
                "http://highway1discoveryroute.com/blog/"
            ],
            "longitude": "-121.1128747"
        },
        "san jose": {
            "latitude": "37.3361905",
            "closest_to": "san luis obispo",
            "address": "San Jos\u00e9, Santa Clara County, California, United States of America",
            "locType": "city",
            "blogLinks": [
                "http://www.trippy.com/question/California-Where-to-stay-half-way-between-S-F--and-L-A",
                "https://www.gapyear.com/articles/216212/13-incredible-stops-on-the-pacific-coast-highway",
                "http://www.travbuddy.com/California-travel-guide-p85"
            ],
            "longitude": "-121.8905832"
        },
        "arlington theatre": {
            "latitude": "34.4242119",
            "closest_to": "san luis obispo",
            "address": "Arlington Theatre, 1317, State Street, Santa Barbara, Santa Barbara County, California, 93101, United States of America",
            "locType": "theatre",
            "blogLinks": [
                "https://www.gapyear.com/articles/216212/13-incredible-stops-on-the-pacific-coast-highway"
            ],
            "longitude": "-119.70696995537"
        },
        "ocean beach": {
            "latitude": "32.7477784",
            "closest_to": "long beach",
            "address": "Ocean Beach, San Diego, San Diego County, California, United States of America",
            "locType": "region",
            "blogLinks": [
                "http://travelblog.viator.com/road-trip-san-francisco-los-angeles/"
            ],
            "longitude": "-117.249321"
        },
        "santa cruz beach boardwalk": {
            "latitude": "36.96446855",
            "closest_to": "san luis obispo",
            "address": "Santa Cruz Beach Boardwalk, Boardwalk, Beach & Boardwalk District (Commercial), Seabright, Santa Cruz, Santa Cruz County, California, 1982, United States of America",
            "locType": "attraction",
            "blogLinks": [
                "http://travelblog.viator.com/road-trip-san-francisco-los-angeles/",
                "https://www.gapyear.com/articles/216212/13-incredible-stops-on-the-pacific-coast-highway"
            ],
            "longitude": "-122.016027247326"
        },
        "pacific coast highway": {
            "latitude": "33.6595127",
            "closest_to": "long beach",
            "address": "Pacific Coast Highway, Huntington Beach, Orange County, California, 92648, United States of America",
            "locType": "primary",
            "blogLinks": [
                "http://highway1discoveryroute.com/blog/",
                "https://www.gapyear.com/articles/216212/13-incredible-stops-on-the-pacific-coast-highway",
                "http://www.hopper.com/articles/291/five-great-stops-between-los-angeles-and-san-francisco-on-the-pacific-coast-highway",
                "http://www.travbuddy.com/California-travel-guide-p85"
            ],
            "longitude": "-118.0051687"
        },
        "hollywood": {
            "latitude": "34.1028268",
            "closest_to": "san luis obispo",
            "address": "Hollywood, LA, Los Angeles County, California, United States of America",
            "locType": "suburb",
            "blogLinks": [
                "https://www.gapyear.com/articles/216212/13-incredible-stops-on-the-pacific-coast-highway",
                "http://www.travbuddy.com/California-travel-guide-p85"
            ],
            "longitude": "-118.3299898"
        },
        "kreuzberg": {
            "latitude": "35.2784947",
            "closest_to": "san luis obispo",
            "address": "Kreuzberg, 685, Higuera Street, San Luis Obispo, San Luis Obispo County, California, 93401, United States of America",
            "locType": "cafe",
            "blogLinks": [
                "http://wikitravel.org/en/San_Luis_Obispo",
                "https://sanluisobispovacations.com/shareslo-blog/"
            ],
            "longitude": "-120.664630981886"
        },
        "ano nuevo state park": {
            "latitude": "37.1642859",
            "closest_to": "san luis obispo",
            "address": "A\u00f1o Nuevo State Park, White House Canyon Road, San Mateo County, California, United States of America",
            "locType": "park",
            "blogLinks": [
                "https://www.gapyear.com/articles/216212/13-incredible-stops-on-the-pacific-coast-highway"
            ],
            "longitude": "-122.328030779329"
        },
        "orcutt road": {
            "latitude": "35.2612967",
            "closest_to": "san luis obispo",
            "address": "Orcutt Road, San Luis Obispo, San Luis Obispo County, California, 93401, United States of America",
            "locType": "tertiary",
            "blogLinks": [
                "http://wikitravel.org/en/San_Luis_Obispo"
            ],
            "longitude": "-120.6461204"
        },
        "alta california": {
            "latitude": "37.3964868",
            "closest_to": "san luis obispo",
            "address": "Alta California, 20421, Geer Avenue, Irwin, Merced County, California, 95324, United States of America",
            "locType": "house",
            "blogLinks": [
                "https://www.virtualtourist.com/travel/North_America/United_States_of_America/California/San_Luis_Obispo-755495/Things_To_Do-San_Luis_Obispo-TG-C-1.html"
            ],
            "longitude": "-120.8579018"
        },
        "pismo state beach": {
            "latitude": "35.1061627",
            "closest_to": "san luis obispo",
            "address": "Pismo State Beach, San Luis Obispo County, California, United States of America",
            "locType": "national_park",
            "blogLinks": [
                "http://highway1discoveryroute.com/blog/",
                "http://wikitravel.org/en/San_Luis_Obispo"
            ],
            "longitude": "-120.62834686522"
        },
        "west coast": {
            "latitude": "34.0222263",
            "closest_to": "san luis obispo",
            "address": "West Coast, Motor Avenue, Palms, LA, Los Angeles County, California, 90034-5702, United States of America",
            "locType": "plumber",
            "blogLinks": [
                "http://highway1discoveryroute.com/blog/",
                "https://www.virtualtourist.com/travel/North_America/United_States_of_America/California/San_Luis_Obispo-755495/Things_To_Do-San_Luis_Obispo-TG-C-1.html",
                "https://www.gapyear.com/articles/216212/13-incredible-stops-on-the-pacific-coast-highway"
            ],
            "longitude": "-118.4051087"
        },
        "higuera street": {
            "latitude": "34.0219755",
            "closest_to": "san luis obispo",
            "address": "Higuera Street, The Village Green, LA, Los Angeles County, California, 90232, United States of America",
            "locType": "residential",
            "blogLinks": [
                "http://wikitravel.org/en/San_Luis_Obispo",
                "http://www.calpoly.edu/visitors/visitors.html",
                "https://sanluisobispovacations.com/shareslo-blog/",
                "https://www.virtualtourist.com/travel/North_America/United_States_of_America/California/San_Luis_Obispo-755495/Things_To_Do-San_Luis_Obispo-TG-C-1.html",
                "http://visitslo.com/things-to-do/signature-attractions/"
            ],
            "longitude": "-118.3779645"
        },
        "fresno": {
            "latitude": "36.748793",
            "closest_to": "san luis obispo",
            "address": "Fresno, Fresno County, California, United States of America",
            "locType": "city",
            "blogLinks": [
                "http://highway1discoveryroute.com/blog/"
            ],
            "longitude": "-119.714839601149"
        },
        "san luis creek": {
            "latitude": "37.0334262",
            "closest_to": "san luis obispo",
            "address": "San Luis Creek, Merced County, California, United States of America",
            "locType": "stream",
            "blogLinks": [
                "https://sanluisobispovacations.com/shareslo-blog/",
                "http://visitslo.com/things-to-do/signature-attractions/"
            ],
            "longitude": "-121.0987331"
        },
        "cambria shores inn": {
            "latitude": "35.5741271",
            "closest_to": "san luis obispo",
            "address": "Cambria Shores Inn, 6276, Moonstone Beach Drive, Cambria, San Luis Obispo County, California, 93428, United States of America",
            "locType": "hotel",
            "blogLinks": [
                "http://highway1discoveryroute.com/blog/"
            ],
            "longitude": "-121.1123155"
        },
        "railroad district": {
            "latitude": "35.27124815",
            "closest_to": "san luis obispo",
            "address": "Railroad District, San Luis Obispo, San Luis Obispo County, California, 93401, United States of America",
            "locType": "commercial",
            "blogLinks": [
                "http://wikitravel.org/en/San_Luis_Obispo"
            ],
            "longitude": "-120.655163272531"
        },
        "caribbean": {
            "latitude": "33.81078775",
            "closest_to": "long beach",
            "address": "Pirates of the Caribbean, 50, Esplanade Road, Anaheim Resort District, Anaheim, Orange County, California, 217, United States of America",
            "locType": "attraction",
            "blogLinks": [
                "https://sanluisobispovacations.com/shareslo-blog/"
            ],
            "longitude": "-117.921214705842"
        },
        "ontario road": {
            "latitude": "35.1818929",
            "closest_to": "san luis obispo",
            "address": "Ontario Road, Sunset Palisades, Squire Canyon, San Luis Obispo County, California, 93405, United States of America",
            "locType": "tertiary",
            "blogLinks": [
                "https://sanluisobispovacations.com/shareslo-blog/"
            ],
            "longitude": "-120.7039797"
        },
        "old town": {
            "latitude": "35.142943",
            "closest_to": "san luis obispo",
            "address": "Old Town, Golden Hills, Kern County, California, United States of America",
            "locType": "locality",
            "blogLinks": [
                "https://www.gapyear.com/articles/216212/13-incredible-stops-on-the-pacific-coast-highway"
            ],
            "longitude": "-118.4954422"
        },
        "santa cruz": {
            "latitude": "36.9735903",
            "closest_to": "san luis obispo",
            "address": "Santa Cruz, Santa Cruz County, California, United States of America",
            "locType": "city",
            "blogLinks": [
                "https://www.gapyear.com/articles/216212/13-incredible-stops-on-the-pacific-coast-highway",
                "http://www.travbuddy.com/California-travel-guide-p85"
            ],
            "longitude": "-122.0260569"
        },
        "bubblegum alley": {
            "latitude": "35.2791663",
            "closest_to": "san luis obispo",
            "address": "Bubblegum Alley, San Luis Obispo, San Luis Obispo County, California, 93405, United States of America",
            "locType": "attraction",
            "blogLinks": [
                "https://www.gapyear.com/articles/216212/13-incredible-stops-on-the-pacific-coast-highway"
            ],
            "longitude": "-120.6638629"
        },
        "valencia": {
            "latitude": "34.1466768",
            "closest_to": "long beach",
            "address": "Valencia, San Bernardino County, California, United States of America",
            "locType": "hamlet",
            "blogLinks": [
                "http://wikitravel.org/en/San_Luis_Obispo"
            ],
            "longitude": "-117.2725426"
        },
        "los osos/baywood park": {
            "latitude": "35.3605294",
            "closest_to": "san luis obispo",
            "address": "KSTT-FM (Los Osos-Baywood Park), Tv Tower Road, San Luis Obispo County, California, United States of America",
            "locType": "tower",
            "blogLinks": [
                "http://highway1discoveryroute.com/blog/"
            ],
            "longitude": "-120.656837"
        },
        "glendale": {
            "latitude": "34.1423455",
            "closest_to": "san luis obispo",
            "address": "Glendale, Los Angeles County, California, United States of America",
            "locType": "city",
            "blogLinks": [
                "http://centralcoast.com/"
            ],
            "longitude": "-118.248367"
        },
        "montana de oro state park": {
            "latitude": "35.2714109",
            "closest_to": "san luis obispo",
            "address": "Montana de Oro State Park, San Luis Obispo County, California, United States of America",
            "locType": "track",
            "blogLinks": [
                "http://highway1discoveryroute.com/blog/"
            ],
            "longitude": "-120.8888312"
        },
        "france": {
            "latitude": "34.2013715",
            "closest_to": "san luis obispo",
            "address": "France, Sherman Way, Canoga Park, LA, Los Angeles County, California, 91307, United States of America",
            "locType": "cafe",
            "blogLinks": [
                "http://centralcoast.com/"
            ],
            "longitude": "-118.5935353"
        },
        "lobero theatre": {
            "latitude": "34.4216681",
            "closest_to": "san luis obispo",
            "address": "Lobero Theatre, Anacapa Street, Santa Barbara, Santa Barbara County, California, 93105, United States of America",
            "locType": "theatre",
            "blogLinks": [
                "https://www.gapyear.com/articles/216212/13-incredible-stops-on-the-pacific-coast-highway"
            ],
            "longitude": "-119.700020768116"
        },
        "pacific avenue": {
            "latitude": "34.1571445",
            "closest_to": "san luis obispo",
            "address": "Pacific Avenue, Glendale, Los Angeles County, California, 91203, United States of America",
            "locType": "secondary",
            "blogLinks": [
                "https://www.gapyear.com/articles/216212/13-incredible-stops-on-the-pacific-coast-highway"
            ],
            "longitude": "-118.2641839"
        },
        "santa barbara county": {
            "latitude": "34.7136533",
            "closest_to": "san luis obispo",
            "address": "Santa Barbara County, California, United States of America",
            "locType": "administrative",
            "blogLinks": [
                "https://www.quora.com/What-are-some-of-the-best-wineries-to-visit-in-the-San-Luis-Obispo-area"
            ],
            "longitude": "-119.9858231"
        },
        "san miguel": {
            "latitude": "35.7524679",
            "closest_to": "san luis obispo",
            "address": "San Miguel, San Luis Obispo County, California, United States of America",
            "locType": "village",
            "blogLinks": [
                "https://www.virtualtourist.com/travel/North_America/United_States_of_America/California/San_Luis_Obispo-755495/Things_To_Do-San_Luis_Obispo-TG-C-1.html"
            ],
            "longitude": "-120.6962825"
        },
        "santa barbara": {
            "latitude": "34.4221319",
            "closest_to": "san luis obispo",
            "address": "Santa Barbara, Santa Barbara County, California, United States of America",
            "locType": "city",
            "blogLinks": [
                "https://www.gapyear.com/articles/216212/13-incredible-stops-on-the-pacific-coast-highway",
                "http://www.trippy.com/question/California-Where-to-stay-half-way-between-S-F--and-L-A",
                "http://centralcoast.com/",
                "http://travelblog.viator.com/road-trip-san-francisco-los-angeles/",
                "http://wikitravel.org/en/San_Luis_Obispo",
                "https://www.tripadvisor.com/ShowTopic-g32894-i392-k4315982-Between_monterey_and_los_angeles-Pismo_Beach_San_Luis_Obispo_County_California.html",
                "https://www.quora.com/What-are-some-of-the-best-wineries-to-visit-in-the-San-Luis-Obispo-area",
                "http://www.hopper.com/articles/291/five-great-stops-between-los-angeles-and-san-francisco-on-the-pacific-coast-highway"
            ],
            "longitude": "-119.7026672"
        },
        "los osos valley": {
            "latitude": "35.3107214",
            "closest_to": "san luis obispo",
            "address": "Los Osos, San Luis Obispo County, California, United States of America",
            "locType": "village",
            "blogLinks": [
                "http://wikitravel.org/en/San_Luis_Obispo"
            ],
            "longitude": "-120.8323486"
        },
        "santa margarita": {
            "latitude": "35.3899734",
            "closest_to": "san luis obispo",
            "address": "Santa Margarita, San Luis Obispo County, California, United States of America",
            "locType": "hamlet",
            "blogLinks": [
                "https://www.quora.com/What-are-some-of-the-best-wineries-to-visit-in-the-San-Luis-Obispo-area"
            ],
            "longitude": "-120.6090569"
        },
        "newport harbor": {
            "latitude": "33.6083549",
            "closest_to": "long beach",
            "address": "Newport Harbor Nautical Museum, 18th Street, Balboa Island, Newport Beach, Orange County, California, 92663, United States of America",
            "locType": "museum",
            "blogLinks": [
                "http://visitslo.com/"
            ],
            "longitude": "-117.9245022"
        },
        "state parks": {
            "latitude": "37.4648304",
            "closest_to": "san luis obispo",
            "address": "California State Mining and Mineral Museum, 5005, Fairgrounds Road, Mormon Bar, Mariposa County, California, 95338, United States of America",
            "locType": "museum",
            "blogLinks": [
                "http://highway1discoveryroute.com/blog/"
            ],
            "longitude": "-119.948196593988"
        },
        "santa monica pier": {
            "latitude": "34.0104809",
            "closest_to": "san luis obispo",
            "address": "Santa Monica Pier, Santa Monica, Los Angeles County, California, CA 90401, United States of America",
            "locType": "service",
            "blogLinks": [
                "https://www.gapyear.com/articles/216212/13-incredible-stops-on-the-pacific-coast-highway"
            ],
            "longitude": "-118.4960541"
        },
        "slo county": {
            "latitude": "35.6442814",
            "closest_to": "san luis obispo",
            "address": "Slo San Simeon Road, San Simeon, San Luis Obispo County, California, United States of America",
            "locType": "service",
            "blogLinks": [
                "https://www.tripadvisor.com/Tourism-g33026-San_Luis_Obispo_San_Luis_Obispo_County_California-Vacations.html",
                "http://highway1discoveryroute.com/blog/",
                "https://sanluisobispovacations.com/shareslo-blog/"
            ],
            "longitude": "-121.1870436"
        },
        "broad street": {
            "latitude": "35.3664626",
            "closest_to": "san luis obispo",
            "address": "Broad Street, Bakersfield, Kern County, California, 93307, United States of America",
            "locType": "residential",
            "blogLinks": [
                "http://wikitravel.org/en/San_Luis_Obispo"
            ],
            "longitude": "-119.0005638"
        },
        "prefumo canyon": {
            "latitude": "35.24716",
            "closest_to": "san luis obispo",
            "address": "Prefumo Canyon Road, San Luis Obispo County, California, 93405, United States of America",
            "locType": "residential",
            "blogLinks": [
                "https://sanluisobispovacations.com/shareslo-blog/"
            ],
            "longitude": "-120.7772119"
        },
        "san simeon bay": {
            "latitude": "35.6396921",
            "closest_to": "san luis obispo",
            "address": "San Simeon Bay, Slo San Simeon Road, San Simeon, San Luis Obispo County, California, United States of America",
            "locType": "bay",
            "blogLinks": [
                "http://highway1discoveryroute.com/blog/"
            ],
            "longitude": "-121.1888087"
        },
        "los angeles": {
            "latitude": "34.0543942",
            "closest_to": "san luis obispo",
            "address": "LA, Los Angeles County, California, United States of America",
            "locType": "city",
            "blogLinks": [
                "http://highway1discoveryroute.com/blog/",
                "http://www.calpoly.edu/visitors/visitors.html",
                "http://www.trippy.com/question/California-Where-to-stay-half-way-between-S-F--and-L-A",
                "https://www.gapyear.com/articles/216212/13-incredible-stops-on-the-pacific-coast-highway",
                "https://sanluisobispovacations.com/shareslo-blog/",
                "http://centralcoast.com/",
                "http://travelblog.viator.com/road-trip-san-francisco-los-angeles/",
                "http://www.travbuddy.com/California-travel-guide-p85",
                "http://wikitravel.org/en/San_Luis_Obispo",
                "https://www.tripadvisor.com/Tourism-g33026-San_Luis_Obispo_San_Luis_Obispo_County_California-Vacations.html",
                "http://www.hopper.com/articles/291/five-great-stops-between-los-angeles-and-san-francisco-on-the-pacific-coast-highway"
            ],
            "longitude": "-118.2439408"
        },
        "monterey": {
            "latitude": "36.5844165",
            "closest_to": "san luis obispo",
            "address": "Monterey, Monterey County, California, United States of America",
            "locType": "city",
            "blogLinks": [
                "http://californiathroughmylens.com/splash-cafe-pismo-beach-clam-chowder",
                "http://www.trippy.com/question/California-Where-to-stay-half-way-between-S-F--and-L-A",
                "https://www.gapyear.com/articles/216212/13-incredible-stops-on-the-pacific-coast-highway",
                "https://sanluisobispovacations.com/shareslo-blog/",
                "http://centralcoast.com/",
                "http://www.travbuddy.com/California-travel-guide-p85",
                "http://wikitravel.org/en/San_Luis_Obispo"
            ],
            "longitude": "-121.866792846206"
        },
        "pfeiffer beach": {
            "latitude": "36.23934855",
            "closest_to": "san luis obispo",
            "address": "Pfeiffer Beach, Sycamore Canyon Road, Big Sur, Monterey County, California, 93920, United States of America",
            "locType": "beach",
            "blogLinks": [
                "https://www.gapyear.com/articles/216212/13-incredible-stops-on-the-pacific-coast-highway"
            ],
            "longitude": "-121.81778571416"
        },
        "tablas creek": {
            "latitude": "35.6334711",
            "closest_to": "san luis obispo",
            "address": "Las Tablas Creek, Paso Robles, San Luis Obispo County, California, United States of America",
            "locType": "stream",
            "blogLinks": [
                "https://www.quora.com/What-are-some-of-the-best-wineries-to-visit-in-the-San-Luis-Obispo-area"
            ],
            "longitude": "-120.9093532"
        },
        "point sur state historic park": {
            "latitude": "36.315378",
            "closest_to": "san luis obispo",
            "address": "Point Sur State Historic Park, Cabrillo Highway, Big Sur, Monterey County, California, 93923, United States of America",
            "locType": "park",
            "blogLinks": [
                "https://www.gapyear.com/articles/216212/13-incredible-stops-on-the-pacific-coast-highway"
            ],
            "longitude": "-121.881955510784"
        },
        "boston": {
            "latitude": "33.696779",
            "closest_to": "long beach",
            "address": "Boston, Heritage Park Apartments, El Camino Real, Irvine, Orange County, California, 92604, United States of America",
            "locType": "residential",
            "blogLinks": [
                "http://highway1discoveryroute.com/blog/"
            ],
            "longitude": "-117.7757132"
        },
        "lopez lake": {
            "latitude": "35.2060338",
            "closest_to": "san luis obispo",
            "address": "Lopez Lake, Wittenberg Creek, San Luis Obispo County, California, 94320, United States of America",
            "locType": "water",
            "blogLinks": [
                "http://highway1discoveryroute.com/blog/"
            ],
            "longitude": "-120.483517275303"
        },
        "monterey st.": {
            "latitude": "34.097787",
            "closest_to": "san luis obispo",
            "address": "Monterey Street, Mount Washington, Highland Park, LA, Los Angeles County, California, 90065, United States of America",
            "locType": "residential",
            "blogLinks": [
                "http://californiathroughmylens.com/splash-cafe-pismo-beach-clam-chowder",
                "http://wikitravel.org/en/San_Luis_Obispo"
            ],
            "longitude": "-118.2146689"
        },
        "marsh": {
            "latitude": "35.47331",
            "closest_to": "san luis obispo",
            "address": "Marsh, Paso Robles, San Luis Obispo County, California, 93430, United States of America",
            "locType": "residential",
            "blogLinks": [
                "http://wikitravel.org/en/San_Luis_Obispo"
            ],
            "longitude": "-120.8019939"
        },
        "peninsula": {
            "latitude": "33.5987849",
            "closest_to": "long beach",
            "address": "Peninsula, Corona del Mar, Newport Beach, Orange County, California, 92657, United States of America",
            "locType": "residential",
            "blogLinks": [
                "https://sanluisobispovacations.com/shareslo-blog/"
            ],
            "longitude": "-117.830566223937"
        },
        "eureka burger": {
            "latitude": "35.279143",
            "closest_to": "san luis obispo",
            "address": "Eureka! Burger, 1141, Chorro Street, San Luis Obispo, San Luis Obispo County, California, 93401, United States of America",
            "locType": "restaurant",
            "blogLinks": [
                "http://wikitravel.org/en/San_Luis_Obispo"
            ],
            "longitude": "-120.6624261"
        },
        "dinosaur caves park": {
            "latitude": "35.15378375",
            "closest_to": "san luis obispo",
            "address": "Dinosaur Caves Park, 2701, Price Street, Pismo Beach, San Luis Obispo County, California, 93449, United States of America",
            "locType": "park",
            "blogLinks": [
                "http://highway1discoveryroute.com/blog/"
            ],
            "longitude": "-120.664611203543"
        },
        "burbank": {
            "latitude": "34.1816482",
            "closest_to": "san luis obispo",
            "address": "Burbank, Los Angeles County, California, United States of America",
            "locType": "city",
            "blogLinks": [
                "http://www.travbuddy.com/California-travel-guide-p85"
            ],
            "longitude": "-118.3258553"
        },
        "paso robles": {
            "latitude": "35.6267654",
            "closest_to": "san luis obispo",
            "address": "Paso Robles, San Luis Obispo County, California, United States of America",
            "locType": "city",
            "blogLinks": [
                "http://highway1discoveryroute.com/blog/",
                "http://wikitravel.org/en/San_Luis_Obispo",
                "http://www.calpoly.edu/visitors/visitors.html",
                "https://www.quora.com/What-are-some-of-the-best-wineries-to-visit-in-the-San-Luis-Obispo-area"
            ],
            "longitude": "-120.6912455"
        },
        "san luis creek lodge": {
            "latitude": "35.2895023",
            "closest_to": "san luis obispo",
            "address": "San Luis Creek Lodge, Monterey Street, San Luis Obispo, San Luis Obispo County, California, 93401, United States of America",
            "locType": "motel",
            "blogLinks": [
                "http://centralcoast.com/"
            ],
            "longitude": "-120.6501671"
        },
        "hazard canyon": {
            "latitude": "35.29245",
            "closest_to": "san luis obispo",
            "address": "Hazard Canyon Road, Cuesta-by-the-Sea, San Luis Obispo County, California, 93402, United States of America",
            "locType": "track",
            "blogLinks": [
                "http://highway1discoveryroute.com/blog/"
            ],
            "longitude": "-120.8543059"
        },
        "terrace hill": {
            "latitude": "35.2734557",
            "closest_to": "san luis obispo",
            "address": "Terrace Hill, San Luis Obispo, San Luis Obispo County, California, United States of America",
            "locType": "peak",
            "blogLinks": [
                "https://sanluisobispovacations.com/shareslo-blog/"
            ],
            "longitude": "-120.6508092"
        },
        "the edna valley": {
            "latitude": "33.8789058",
            "closest_to": "long beach",
            "address": "Mount Edna, Menifee, Riverside County, California, United States of America",
            "locType": "peak",
            "blogLinks": [
                "http://highway1discoveryroute.com/blog/"
            ],
            "longitude": "-116.8814105"
        },
        "big city": {
            "latitude": "34.267886",
            "closest_to": "long beach",
            "address": "Big Bear City, Anita Avenue, Big Bear City, San Bernardino County, California, 92314, United States of America",
            "locType": "administrative",
            "blogLinks": [
                "https://sanluisobispovacations.com/shareslo-blog/"
            ],
            "longitude": "-116.848597753191"
        },
        "morro rock": {
            "latitude": "35.369669",
            "closest_to": "san luis obispo",
            "address": "Morro Rock, Morro Bay, San Luis Obispo County, California, United States of America",
            "locType": "peak",
            "blogLinks": [
                "http://highway1discoveryroute.com/blog/"
            ],
            "longitude": "-120.8676993"
        },
        "san simeon": {
            "latitude": "35.6438587",
            "closest_to": "san luis obispo",
            "address": "San Simeon, San Luis Obispo County, California, United States of America",
            "locType": "hamlet",
            "blogLinks": [
                "http://highway1discoveryroute.com/blog/",
                "http://visitslo.com/things-to-do/signature-attractions/",
                "http://www.trippy.com/question/California-Where-to-stay-half-way-between-S-F--and-L-A",
                "https://www.gapyear.com/articles/216212/13-incredible-stops-on-the-pacific-coast-highway",
                "https://sanluisobispovacations.com/shareslo-blog/",
                "http://www.travbuddy.com/California-travel-guide-p85",
                "http://www.hopper.com/articles/291/five-great-stops-between-los-angeles-and-san-francisco-on-the-pacific-coast-highway"
            ],
            "longitude": "-121.1907532"
        },
        "madonna rd": {
            "latitude": "35.2681037",
            "closest_to": "san luis obispo",
            "address": "Madonna Road, San Luis Obispo, San Luis Obispo County, California, 93405, United States of America",
            "locType": "primary",
            "blogLinks": [
                "http://wikitravel.org/en/San_Luis_Obispo"
            ],
            "longitude": "-120.6707001"
        },
        "coastal san luis obispo county": {
            "latitude": "35.1273326",
            "closest_to": "san luis obispo",
            "address": "CIC Coastal Industrial Comercial, Grover Beach, San Luis Obispo County, California, 93433, United States of America",
            "locType": "industrial",
            "blogLinks": [
                "http://highway1discoveryroute.com/blog/"
            ],
            "longitude": "-120.630495433164"
        },
        "mediterranean": {
            "latitude": "33.7439509",
            "closest_to": "long beach",
            "address": "Mediterranean, Palm Desert, Riverside County, California, 92211, United States of America",
            "locType": "residential",
            "blogLinks": [
                "http://wikitravel.org/en/San_Luis_Obispo"
            ],
            "longitude": "-116.3534838"
        },
        "los osos baywood park": {
            "latitude": "35.3605294",
            "closest_to": "san luis obispo",
            "address": "KSTT-FM (Los Osos-Baywood Park), Tv Tower Road, San Luis Obispo County, California, United States of America",
            "locType": "tower",
            "blogLinks": [
                "http://highway1discoveryroute.com/blog/"
            ],
            "longitude": "-120.656837"
        },
        "south": {
            "latitude": "33.3054766",
            "closest_to": "long beach",
            "address": "South, Los Angeles County, California, United States of America",
            "locType": "peak",
            "blogLinks": [
                "http://californiathroughmylens.com/splash-cafe-pismo-beach-clam-chowder"
            ],
            "longitude": "-118.3432299"
        },
        "malibu": {
            "latitude": "33.7932142",
            "closest_to": "long beach",
            "address": "Malibu, Palm Springs, Riverside County, California, 92264, United States of America",
            "locType": "residential",
            "blogLinks": [
                "https://www.gapyear.com/articles/216212/13-incredible-stops-on-the-pacific-coast-highway",
                "http://www.travbuddy.com/California-travel-guide-p85"
            ],
            "longitude": "-116.5023561"
        },
        "coon creek": {
            "latitude": "37.212979",
            "closest_to": "san luis obispo",
            "address": "Coon Creek, Fresno County, California, United States of America",
            "locType": "stream",
            "blogLinks": [
                "http://wikitravel.org/en/San_Luis_Obispo"
            ],
            "longitude": "-119.159932"
        },
        "edna valley": {
            "latitude": "33.8789058",
            "closest_to": "long beach",
            "address": "Mount Edna, Menifee, Riverside County, California, United States of America",
            "locType": "peak",
            "blogLinks": [
                "http://highway1discoveryroute.com/blog/",
                "http://wikitravel.org/en/San_Luis_Obispo",
                "http://www.calpoly.edu/visitors/visitors.html",
                "https://sanluisobispovacations.com/shareslo-blog/",
                "https://www.virtualtourist.com/travel/North_America/United_States_of_America/California/San_Luis_Obispo-755495/Things_To_Do-San_Luis_Obispo-TG-C-1.html"
            ],
            "longitude": "-116.8814105"
        },
        "san fernando valley": {
            "latitude": "34.2819461",
            "closest_to": "san luis obispo",
            "address": "San Fernando, Los Angeles County, California, United States of America",
            "locType": "administrative",
            "blogLinks": [
                "https://www.gapyear.com/articles/216212/13-incredible-stops-on-the-pacific-coast-highway"
            ],
            "longitude": "-118.4389718"
        },
        "ventura": {
            "latitude": "34.4458248",
            "closest_to": "san luis obispo",
            "address": "Ventura County, California, United States of America",
            "locType": "administrative",
            "blogLinks": [
                "http://travelblog.viator.com/road-trip-san-francisco-los-angeles/",
                "https://www.gapyear.com/articles/216212/13-incredible-stops-on-the-pacific-coast-highway"
            ],
            "longitude": "-119.0779358"
        },
        "ventura beach": {
            "latitude": "32.772073",
            "closest_to": "long beach",
            "address": "Ventura Place, Pacific Beach, San Diego, San Diego County, California, 92109, United States of America",
            "locType": "unclassified",
            "blogLinks": [
                "https://www.gapyear.com/articles/216212/13-incredible-stops-on-the-pacific-coast-highway"
            ],
            "longitude": "-117.2514716"
        },
        "los osos": {
            "latitude": "35.3107214",
            "closest_to": "san luis obispo",
            "address": "Los Osos, San Luis Obispo County, California, United States of America",
            "locType": "village",
            "blogLinks": [
                "http://highway1discoveryroute.com/blog/",
                "https://www.tripadvisor.com/ShowTopic-g32894-i392-k4315982-Between_monterey_and_los_angeles-Pismo_Beach_San_Luis_Obispo_County_California.html"
            ],
            "longitude": "-120.8323486"
        },
        "orange county": {
            "latitude": "33.7500378",
            "closest_to": "long beach",
            "address": "Orange County, California, United States of America",
            "locType": "administrative",
            "blogLinks": [
                "http://www.travbuddy.com/California-travel-guide-p85"
            ],
            "longitude": "-117.870493"
        },
        "long beach": {
            "latitude": "33.78538945",
            "closest_to": "san luis obispo",
            "address": "Long Beach, Los Angeles County, California, United States of America",
            "locType": "city",
            "blogLinks": [
                "https://www.gapyear.com/articles/216212/13-incredible-stops-on-the-pacific-coast-highway",
                "http://www.travbuddy.com/California-travel-guide-p85"
            ],
            "longitude": "-118.158049215311"
        },
        "downtown ventura": {
            "latitude": "34.15184445",
            "closest_to": "san luis obispo",
            "address": "Downtown Johnny's, 14649, Ventura Boulevard, Sherman Oaks, LA, Los Angeles County, California, 91403, United States of America",
            "locType": "restaurant",
            "blogLinks": [
                "https://www.gapyear.com/articles/216212/13-incredible-stops-on-the-pacific-coast-highway"
            ],
            "longitude": "-118.452523182928"
        },
        "madonna inn": {
            "latitude": "35.2673282",
            "closest_to": "san luis obispo",
            "address": "Madonna Inn, 100, Madonna Road, San Luis Obispo, San Luis Obispo County, California, 93405, United States of America",
            "locType": "hotel",
            "blogLinks": [
                "https://sanluisobispovacations.com/shareslo-blog/"
            ],
            "longitude": "-120.674725246222"
        },
        "santa barbara botanic garden": {
            "latitude": "34.456953",
            "closest_to": "san luis obispo",
            "address": "Santa Barbara Botanic Gardens, Mission Canyon Road, Mission Canyon, Santa Barbara County, California, 93105, United States of America",
            "locType": "park",
            "blogLinks": [
                "https://www.gapyear.com/articles/216212/13-incredible-stops-on-the-pacific-coast-highway"
            ],
            "longitude": "-119.709585108231"
        },
        "central coast of california": {
            "latitude": "35.3611193",
            "closest_to": "san luis obispo",
            "address": "Central Coast Street, Bakersfield, Kern County, California, 93314, United States of America",
            "locType": "residential",
            "blogLinks": [
                "http://highway1discoveryroute.com/blog/",
                "http://centralcoast.com/"
            ],
            "longitude": "-119.1665989"
        },
        "san luis obispo railroad museum": {
            "latitude": "35.2732013",
            "closest_to": "san luis obispo",
            "address": "San Luis Obispo Railroad Museum, 1940, Santa Barbara Street, Railroad District, San Luis Obispo, San Luis Obispo County, California, 93401, United States of America",
            "locType": "museum",
            "blogLinks": [
                "https://www.tripadvisor.com/Tourism-g33026-San_Luis_Obispo_San_Luis_Obispo_County_California-Vacations.html"
            ],
            "longitude": "-120.655587426774"
        },
        "rattlesnake flats trail": {
            "latitude": "35.2695359",
            "closest_to": "san luis obispo",
            "address": "Rattlesnake Flats, San Luis Obispo County, California, United States of America",
            "locType": "path",
            "blogLinks": [
                "http://wikitravel.org/en/San_Luis_Obispo"
            ],
            "longitude": "-120.8880069"
        },
        "nipomo": {
            "latitude": "35.0358216",
            "closest_to": "san luis obispo",
            "address": "Nipomo, Crosby Way, Nipomo, San Luis Obispo County, California, 93444, United States of America",
            "locType": "administrative",
            "blogLinks": [
                "http://highway1discoveryroute.com/blog/"
            ],
            "longitude": "-120.496418815962"
        },
        "barstow": {
            "latitude": "34.8957684",
            "closest_to": "long beach",
            "address": "Barstow, San Bernardino County, California, United States of America",
            "locType": "administrative",
            "blogLinks": [
                "http://www.travbuddy.com/California-travel-guide-p85"
            ],
            "longitude": "-117.0172076"
        },
        "oxnard": {
            "latitude": "34.1976308",
            "closest_to": "san luis obispo",
            "address": "Oxnard, Ventura County, California, United States of America",
            "locType": "city",
            "blogLinks": [
                "https://www.gapyear.com/articles/216212/13-incredible-stops-on-the-pacific-coast-highway"
            ],
            "longitude": "-119.1803817"
        },
        "usa": {
            "latitude": "36.7014631",
            "closest_to": "san luis obispo",
            "address": "California, United States of America",
            "locType": "administrative",
            "blogLinks": [
                "https://sanluisobispovacations.com/shareslo-blog/"
            ],
            "longitude": "-118.7559973"
        },
        "santa rosa street": {
            "latitude": "34.1399806",
            "closest_to": "long beach",
            "address": "Santa Rosa Street, San Bernardino, San Bernardino County, California, 92346, United States of America",
            "locType": "residential",
            "blogLinks": [
                "http://wikitravel.org/en/San_Luis_Obispo"
            ],
            "longitude": "-117.1945227"
        },
        "monterey bay": {
            "latitude": "36.7999557",
            "closest_to": "san luis obispo",
            "address": "Monterey Bay, Monterey County, California, United States of America",
            "locType": "bay",
            "blogLinks": [
                "http://travelblog.viator.com/road-trip-san-francisco-los-angeles/",
                "https://www.gapyear.com/articles/216212/13-incredible-stops-on-the-pacific-coast-highway",
                "http://www.hopper.com/articles/291/five-great-stops-between-los-angeles-and-san-francisco-on-the-pacific-coast-highway",
                "http://www.travbuddy.com/California-travel-guide-p85"
            ],
            "longitude": "-121.9010667"
        },
        "pismo beach": {
            "latitude": "35.1427533",
            "closest_to": "san luis obispo",
            "address": "Pismo Beach, San Luis Obispo County, California, United States of America",
            "locType": "city",
            "blogLinks": [
                "http://highway1discoveryroute.com/blog/",
                "http://californiathroughmylens.com/splash-cafe-pismo-beach-clam-chowder",
                "https://www.gapyear.com/articles/216212/13-incredible-stops-on-the-pacific-coast-highway",
                "http://www.trippy.com/question/California-Where-to-stay-half-way-between-S-F--and-L-A",
                "http://centralcoast.com/",
                "http://wikitravel.org/en/San_Luis_Obispo",
                "https://www.tripadvisor.com/ShowTopic-g32894-i392-k4315982-Between_monterey_and_los_angeles-Pismo_Beach_San_Luis_Obispo_County_California.html",
                "https://www.quora.com/What-are-some-of-the-best-wineries-to-visit-in-the-San-Luis-Obispo-area",
                "https://www.tripadvisor.com/Tourism-g33026-San_Luis_Obispo_San_Luis_Obispo_County_California-Vacations.html",
                "http://www.hopper.com/articles/291/five-great-stops-between-los-angeles-and-san-francisco-on-the-pacific-coast-highway"
            ],
            "longitude": "-120.6412826"
        },
        "huntington beach": {
            "latitude": "33.6783336",
            "closest_to": "long beach",
            "address": "Huntington Beach, Orange County, California, United States of America",
            "locType": "city",
            "blogLinks": [
                "https://www.gapyear.com/articles/216212/13-incredible-stops-on-the-pacific-coast-highway"
            ],
            "longitude": "-118.0000165"
        },
        "disneyland": {
            "latitude": "33.8136367",
            "closest_to": "long beach",
            "address": "DL, 1313, South Harbor Boulevard, Anaheim Resort District, Anaheim, Orange County, California, 92805, United States of America",
            "locType": "theme_park",
            "blogLinks": [
                "http://www.travbuddy.com/California-travel-guide-p85"
            ],
            "longitude": "-117.91971186569"
        },
        "us": {
            "latitude": "36.7014631",
            "closest_to": "san luis obispo",
            "address": "California, United States of America",
            "locType": "administrative",
            "blogLinks": [
                "http://highway1discoveryroute.com/blog/",
                "https://sanluisobispovacations.com/shareslo-blog/",
                "http://www.travbuddy.com/California-travel-guide-p85"
            ],
            "longitude": "-118.7559973"
        },
        "lax": {
            "latitude": "33.94211345",
            "closest_to": "san luis obispo",
            "address": "Los Angeles International Airport, Gate 41, Westchester, Playa del Rey, LA, Los Angeles County, California, 90245, United States of America",
            "locType": "aerodrome",
            "blogLinks": [
                "https://sanluisobispovacations.com/shareslo-blog/"
            ],
            "longitude": "-118.407057290249"
        },
        "wilder ranch state park": {
            "latitude": "36.96021805",
            "closest_to": "san luis obispo",
            "address": "Wilder Ranch State Park, Coast Road, Westside, Santa Cruz County, California, 95060, United States of America",
            "locType": "park",
            "blogLinks": [
                "https://www.gapyear.com/articles/216212/13-incredible-stops-on-the-pacific-coast-highway"
            ],
            "longitude": "-122.079566815934"
        },
        "pico creek": {
            "latitude": "35.6212644",
            "closest_to": "san luis obispo",
            "address": "Pico Creek, Paso Robles, San Luis Obispo County, California, United States of America",
            "locType": "stream",
            "blogLinks": [
                "http://highway1discoveryroute.com/blog/"
            ],
            "longitude": "-121.1439082"
        },
        "southern california": {
            "latitude": "34.0224149",
            "closest_to": "san luis obispo",
            "address": "University of Southern California, Watt Way, Saint James Park, LA, Los Angeles County, California, 90089, United States of America",
            "locType": "university",
            "blogLinks": [
                "http://www.hopper.com/articles/291/five-great-stops-between-los-angeles-and-san-francisco-on-the-pacific-coast-highway"
            ],
            "longitude": "-118.286343973446"
        },
        "cal poly": {
            "latitude": "35.30440705",
            "closest_to": "san luis obispo",
            "address": "Cal Poly, Mount Bishop Road, Paso Robles, San Luis Obispo County, California, 93407, United States of America",
            "locType": "parking",
            "blogLinks": [
                "http://highway1discoveryroute.com/blog/",
                "http://wikitravel.org/en/San_Luis_Obispo",
                "http://www.calpoly.edu/visitors/visitors.html",
                "https://sanluisobispovacations.com/shareslo-blog/"
            ],
            "longitude": "-120.670126285884"
        },
        "cuesta ridge": {
            "latitude": "35.3290417",
            "closest_to": "san luis obispo",
            "address": "Cuesta College, Access Road, San Luis Obispo County, California, 93403, United States of America",
            "locType": "school",
            "blogLinks": [
                "http://wikitravel.org/en/San_Luis_Obispo"
            ],
            "longitude": "-120.740620331032"
        },
        "san luis obispo county": {
            "latitude": "35.3540209",
            "closest_to": "san luis obispo",
            "address": "San Luis Obispo County, California, United States of America",
            "locType": "administrative",
            "blogLinks": [
                "http://highway1discoveryroute.com/blog/",
                "http://visitslo.com/things-to-do/signature-attractions/",
                "https://sanluisobispovacations.com/shareslo-blog/",
                "http://www.travbuddy.com/California-travel-guide-p85",
                "http://wikitravel.org/en/San_Luis_Obispo",
                "https://www.quora.com/What-are-some-of-the-best-wineries-to-visit-in-the-San-Luis-Obispo-area",
                "https://www.tripadvisor.com/Tourism-g33026-San_Luis_Obispo_San_Luis_Obispo_County_California-Vacations.html",
                "http://www.hopper.com/articles/291/five-great-stops-between-los-angeles-and-san-francisco-on-the-pacific-coast-highway"
            ],
            "longitude": "-120.3757162"
        },
        "san luis obispo north": {
            "latitude": "35.2827525",
            "closest_to": "san luis obispo",
            "address": "San Luis Obispo, San Luis Obispo County, California, United States of America",
            "locType": "city",
            "blogLinks": [
                "http://wikitravel.org/en/San_Luis_Obispo"
            ],
            "longitude": "-120.6596155"
        },
        "mcway falls": {
            "latitude": "36.1578211",
            "closest_to": "san luis obispo",
            "address": "McWay Falls, Monterey County, California, United States of America",
            "locType": "waterfall",
            "blogLinks": [
                "https://www.gapyear.com/articles/216212/13-incredible-stops-on-the-pacific-coast-highway"
            ],
            "longitude": "-121.6723957"
        },
        "newport beach": {
            "latitude": "33.6170092",
            "closest_to": "long beach",
            "address": "Newport Beach, Orange County, California, United States of America",
            "locType": "city",
            "blogLinks": [
                "https://www.gapyear.com/articles/216212/13-incredible-stops-on-the-pacific-coast-highway",
                "http://www.travbuddy.com/California-travel-guide-p85"
            ],
            "longitude": "-117.92944"
        },
        "zinnia": {
            "latitude": "33.6646522",
            "closest_to": "long beach",
            "address": "Zinnia, Woodbridge, Irvine, Orange County, California, 92618, United States of America",
            "locType": "residential",
            "blogLinks": [
                "https://sanluisobispovacations.com/shareslo-blog/"
            ],
            "longitude": "-117.7805767"
        },
        "islay hill": {
            "latitude": "35.2455305",
            "closest_to": "san luis obispo",
            "address": "Islay Hill, San Luis Obispo, San Luis Obispo County, California, United States of America",
            "locType": "peak",
            "blogLinks": [
                "http://wikitravel.org/en/San_Luis_Obispo",
                "https://www.gapyear.com/articles/216212/13-incredible-stops-on-the-pacific-coast-highway"
            ],
            "longitude": "-120.622392"
        },
        "monterey bay aquarium": {
            "latitude": "36.61809095",
            "closest_to": "san luis obispo",
            "address": "MBA, 886, Cannery Row, Monterey, Monterey County, California, 93940, United States of America",
            "locType": "aquarium",
            "blogLinks": [
                "http://travelblog.viator.com/road-trip-san-francisco-los-angeles/",
                "http://www.trippy.com/question/California-Where-to-stay-half-way-between-S-F--and-L-A",
                "https://www.gapyear.com/articles/216212/13-incredible-stops-on-the-pacific-coast-highway",
                "http://www.hopper.com/articles/291/five-great-stops-between-los-angeles-and-san-francisco-on-the-pacific-coast-highway"
            ],
            "longitude": "-121.901680002002"
        },
        "salinas valley": {
            "latitude": "36.6744117",
            "closest_to": "san luis obispo",
            "address": "Salinas, Monterey County, California, United States of America",
            "locType": "city",
            "blogLinks": [
                "http://wikitravel.org/en/San_Luis_Obispo"
            ],
            "longitude": "-121.6550371"
        },
        "koberl": {
            "latitude": "35.2818069",
            "closest_to": "san luis obispo",
            "address": "Koberl at Blue, 987, Monterey Street, San Luis Obispo, San Luis Obispo County, California, 93401, United States of America",
            "locType": "bar",
            "blogLinks": [
                "http://wikitravel.org/en/San_Luis_Obispo"
            ],
            "longitude": "-120.6615515"
        },
        "calico": {
            "latitude": "35.6327332",
            "closest_to": "san luis obispo",
            "address": "Calico, Kern County, California, United States of America",
            "locType": "locality",
            "blogLinks": [
                "http://www.travbuddy.com/California-travel-guide-p85"
            ],
            "longitude": "-119.206496"
        },
        "hearst castle": {
            "latitude": "35.6853689",
            "closest_to": "san luis obispo",
            "address": "Hearst Castle, 750, Hearst Castle Road, San Simeon, San Luis Obispo County, California, 93452, United States of America",
            "locType": "museum",
            "blogLinks": [
                "https://sanluisobispovacations.com/things-to-do/beaches/",
                "http://highway1discoveryroute.com/blog/"
            ],
            "longitude": "-121.167587299509"
        },
        "central coast": {
            "latitude": "35.3611193",
            "closest_to": "san luis obispo",
            "address": "Central Coast Street, Bakersfield, Kern County, California, 93314, United States of America",
            "locType": "residential",
            "blogLinks": [
                "http://highway1discoveryroute.com/blog/",
                "https://www.yelp.com/topic/los-angeles-best-places-in-between-la-and-san-luis-obispo",
                "https://sanluisobispovacations.com/shareslo-blog/",
                "http://centralcoast.com/",
                "http://travelblog.viator.com/road-trip-san-francisco-los-angeles/",
                "http://wikitravel.org/en/San_Luis_Obispo",
                "https://www.tripadvisor.com/Tourism-g33026-San_Luis_Obispo_San_Luis_Obispo_County_California-Vacations.html"
            ],
            "longitude": "-119.1665989"
        },
        "cerro alto campground": {
            "latitude": "35.424488",
            "closest_to": "san luis obispo",
            "address": "Cerro Alto Campground, 13741, Cerro Alto Road, Morro Toro, San Luis Obispo County, California, 93422, United States of America",
            "locType": "camp_site",
            "blogLinks": [
                "http://wikitravel.org/en/San_Luis_Obispo"
            ],
            "longitude": "-120.740842768427"
        },
        "oceano": {
            "latitude": "35.0988648",
            "closest_to": "san luis obispo",
            "address": "Oceano, San Luis Obispo County, California, United States of America",
            "locType": "administrative",
            "blogLinks": [
                "http://highway1discoveryroute.com/blog/",
                "https://www.tripadvisor.com/ShowTopic-g32894-i392-k4315982-Between_monterey_and_los_angeles-Pismo_Beach_San_Luis_Obispo_County_California.html"
            ],
            "longitude": "-120.612393"
        },
        "monterey st": {
            "latitude": "34.097787",
            "closest_to": "san luis obispo",
            "address": "Monterey Street, Mount Washington, Highland Park, LA, Los Angeles County, California, 90065, United States of America",
            "locType": "residential",
            "blogLinks": [
                "http://wikitravel.org/en/San_Luis_Obispo"
            ],
            "longitude": "-118.2146689"
        },
        "black hill": {
            "latitude": "34.1788953",
            "closest_to": "long beach",
            "address": "Black Hill, San Bernardino County, California, United States of America",
            "locType": "peak",
            "blogLinks": [
                "https://www.gapyear.com/articles/216212/13-incredible-stops-on-the-pacific-coast-highway"
            ],
            "longitude": "-116.49196"
        },
        "state beach": {
            "latitude": "34.03385755",
            "closest_to": "san luis obispo",
            "address": "Malibu Lagoon State Beach, Pacific Coast Highway, Malibu, Los Angeles County, California, 90265, United States of America",
            "locType": "beach",
            "blogLinks": [
                "http://www.trippy.com/question/California-Where-to-stay-half-way-between-S-F--and-L-A"
            ],
            "longitude": "-118.679064060789"
        },
        "mission san luis obispo": {
            "latitude": "35.2807422",
            "closest_to": "san luis obispo",
            "address": "Mission San Luis Obispo de Tolosa, 782, Chorro Street, San Luis Obispo, San Luis Obispo County, California, 93405, United States of America",
            "locType": "place_of_worship",
            "blogLinks": [
                "https://www.tripadvisor.com/Tourism-g33026-San_Luis_Obispo_San_Luis_Obispo_County_California-Vacations.html",
                "http://wikitravel.org/en/San_Luis_Obispo",
                "http://www.calpoly.edu/visitors/visitors.html"
            ],
            "longitude": "-120.664098712263"
        },
        "bordeaux": {
            "latitude": "33.565885",
            "closest_to": "long beach",
            "address": "Bordeaux, Coto de Caza, Orange County, California, 92690, United States of America",
            "locType": "residential",
            "blogLinks": [
                "http://www.calpoly.edu/visitors/visitors.html"
            ],
            "longitude": "-117.5946383"
        },
        "los alamos": {
            "latitude": "34.7379311",
            "closest_to": "san luis obispo",
            "address": "Los Alamos, Bell Street, Los Alamos, Santa Barbara County, California, 93455, United States of America",
            "locType": "administrative",
            "blogLinks": [
                "http://travelblog.viator.com/road-trip-san-francisco-los-angeles/"
            ],
            "longitude": "-120.26591036241"
        },
        "el chorro regional park": {
            "latitude": "35.33872145",
            "closest_to": "san luis obispo",
            "address": "El Chorro Regional Park, Dairy Creek Road, San Luis Obispo County, California, 93405, United States of America",
            "locType": "park",
            "blogLinks": [
                "http://wikitravel.org/en/San_Luis_Obispo"
            ],
            "longitude": "-120.720212885641"
        },
        "grover beach": {
            "latitude": "35.1209452",
            "closest_to": "san luis obispo",
            "address": "Grover Beach, San Luis Obispo County, California, United States of America",
            "locType": "city",
            "blogLinks": [
                "https://www.tripadvisor.com/ShowTopic-g32894-i392-k4315982-Between_monterey_and_los_angeles-Pismo_Beach_San_Luis_Obispo_County_California.html"
            ],
            "longitude": "-120.6218375"
        },
        "oso flaco lake": {
            "latitude": "35.02945545",
            "closest_to": "san luis obispo",
            "address": "Oso Flaco Lake, Oso Flaco Lake Road, Callender, San Luis Obispo County, California, United States of America",
            "locType": "water",
            "blogLinks": [
                "http://highway1discoveryroute.com/blog/"
            ],
            "longitude": "-120.623450366216"
        },
        "chorro st.": {
            "latitude": "35.2781651",
            "closest_to": "san luis obispo",
            "address": "Chorro Street, San Luis Obispo, San Luis Obispo County, California, 93405, United States of America",
            "locType": "tertiary",
            "blogLinks": [
                "http://wikitravel.org/en/San_Luis_Obispo"
            ],
            "longitude": "-120.6613321"
        },
        "rio theatre": {
            "latitude": "36.9801486",
            "closest_to": "san luis obispo",
            "address": "Rio Theatre, Soquel Avenue, Soquel Avenue Commercial Corridor, Eastside, Santa Cruz, Santa Cruz County, California, 95062, United States of America",
            "locType": "theatre",
            "blogLinks": [
                "https://www.gapyear.com/articles/216212/13-incredible-stops-on-the-pacific-coast-highway"
            ],
            "longitude": "-122.0104295"
        },
        "alta colina": {
            "latitude": "33.7162728",
            "closest_to": "long beach",
            "address": "Alta Colina Way, Indian Wells, Riverside County, California, 92210, United States of America",
            "locType": "residential",
            "blogLinks": [
                "https://www.quora.com/What-are-some-of-the-best-wineries-to-visit-in-the-San-Luis-Obispo-area"
            ],
            "longitude": "-116.3427309"
        },
        "downtown san luis obispo": {
            "latitude": "35.2748845",
            "closest_to": "san luis obispo",
            "address": "Avenue Inn Downtown San Luis Obispo, 345, Pacific Street, San Luis Obispo, San Luis Obispo County, California, 93401, United States of America",
            "locType": "motel",
            "blogLinks": [
                "http://wikitravel.org/en/San_Luis_Obispo",
                "https://sanluisobispovacations.com/shareslo-blog/"
            ],
            "longitude": "-120.66819803545"
        },
        "epernay": {
            "latitude": "37.3763857",
            "closest_to": "san luis obispo",
            "address": "Epernay Court, Alum Rock, San Jos\u00e9, Santa Clara County, California, 95127, United States of America",
            "locType": "residential",
            "blogLinks": [
                "http://centralcoast.com/"
            ],
            "longitude": "-121.8271349"
        },
        "naval air station": {
            "latitude": "32.701613",
            "closest_to": "long beach",
            "address": "Naval Air Station North Island, F West Road, Coronado, San Diego County, California, 92135, United States of America",
            "locType": "military",
            "blogLinks": [
                "http://highway1discoveryroute.com/blog/"
            ],
            "longitude": "-117.2043364"
        },
        "moonstone drive": {
            "latitude": "34.078796",
            "closest_to": "san luis obispo",
            "address": "Moonstone Drive, Rose Hill, Highland Park, LA, Los Angeles County, California, 90032, United States of America",
            "locType": "residential",
            "blogLinks": [
                "http://highway1discoveryroute.com/blog/"
            ],
            "longitude": "-118.1949773"
        },
        "madonna road": {
            "latitude": "35.2681037",
            "closest_to": "san luis obispo",
            "address": "Madonna Road, San Luis Obispo, San Luis Obispo County, California, 93405, United States of America",
            "locType": "primary",
            "blogLinks": [
                "http://wikitravel.org/en/San_Luis_Obispo"
            ],
            "longitude": "-120.6707001"
        },
        "splash cafe": {
            "latitude": "35.2799521",
            "closest_to": "san luis obispo",
            "address": "Splash Cafe, 893, Higuera Street, San Luis Obispo, San Luis Obispo County, California, 93401, United States of America",
            "locType": "restaurant",
            "blogLinks": [
                "http://californiathroughmylens.com/splash-cafe-pismo-beach-clam-chowder"
            ],
            "longitude": "-120.6615862"
        },
        "santa lucia mountain": {
            "latitude": "34.4379129",
            "closest_to": "san luis obispo",
            "address": "Santa Lucia, Santa Barbara County, California, 93111, United States of America",
            "locType": "residential",
            "blogLinks": [
                "http://travelblog.viator.com/road-trip-san-francisco-los-angeles/"
            ],
            "longitude": "-119.8003246"
        },
        "la": {
            "latitude": "36.7014631",
            "closest_to": "san luis obispo",
            "address": "California, United States of America",
            "locType": "administrative",
            "blogLinks": [
                "https://www.yelp.com/topic/los-angeles-best-places-in-between-la-and-san-luis-obispo",
                "http://wikitravel.org/en/San_Luis_Obispo",
                "http://www.trippy.com/question/California-Where-to-stay-half-way-between-S-F--and-L-A",
                "https://www.tripadvisor.com/ShowTopic-g32894-i392-k4315982-Between_monterey_and_los_angeles-Pismo_Beach_San_Luis_Obispo_County_California.html",
                "http://www.travbuddy.com/California-travel-guide-p85"
            ],
            "longitude": "-118.7559973"
        },
        "monterey street": {
            "latitude": "34.097787",
            "closest_to": "san luis obispo",
            "address": "Monterey Street, Mount Washington, Highland Park, LA, Los Angeles County, California, 90065, United States of America",
            "locType": "residential",
            "blogLinks": [
                "http://wikitravel.org/en/San_Luis_Obispo"
            ],
            "longitude": "-118.2146689"
        },
        "avila valley barn": {
            "latitude": "35.1828049",
            "closest_to": "san luis obispo",
            "address": "Avila Valley Barn, Avila Beach Drive, Avila Beach, San Luis Obispo County, California, 93424, United States of America",
            "locType": "farm",
            "blogLinks": [
                "http://highway1discoveryroute.com/blog/"
            ],
            "longitude": "-120.7061067"
        },
        "san diego bay": {
            "latitude": "32.6500534",
            "closest_to": "long beach",
            "address": "San Diego Bay, Leyte Road, Crown Island, Coronado, San Diego County, California, 92118, United States of America",
            "locType": "bay",
            "blogLinks": [
                "https://www.gapyear.com/articles/216212/13-incredible-stops-on-the-pacific-coast-highway"
            ],
            "longitude": "-117.1341977"
        },
        "san luis obispo south": {
            "latitude": "35.2827525",
            "closest_to": "san luis obispo",
            "address": "San Luis Obispo, San Luis Obispo County, California, United States of America",
            "locType": "city",
            "blogLinks": [
                "http://wikitravel.org/en/San_Luis_Obispo"
            ],
            "longitude": "-120.6596155"
        },
        "oregon": {
            "latitude": "33.7123207",
            "closest_to": "long beach",
            "address": "Oregon, Walnut, Irvine, Orange County, California, 92606, United States of America",
            "locType": "residential",
            "blogLinks": [
                "https://www.gapyear.com/articles/216212/13-incredible-stops-on-the-pacific-coast-highway"
            ],
            "longitude": "-117.7911567"
        },
        "coronado bridge": {
            "latitude": "32.6904606",
            "closest_to": "long beach",
            "address": "San Diego-Coronado Bridge, San Diego, San Diego County, California, 92118, United States of America",
            "locType": "motorway",
            "blogLinks": [
                "https://www.gapyear.com/articles/216212/13-incredible-stops-on-the-pacific-coast-highway"
            ],
            "longitude": "-117.1524863"
        },
        "whale rock reservoir": {
            "latitude": "35.446447",
            "closest_to": "san luis obispo",
            "address": "Whale Rock Reservoir, San Luis Obispo County, California, United States of America",
            "locType": "service",
            "blogLinks": [
                "http://highway1discoveryroute.com/blog/"
            ],
            "longitude": "-120.0180599"
        },
        "santa maria": {
            "latitude": "34.9531295",
            "closest_to": "san luis obispo",
            "address": "Santa Maria, Santa Barbara County, California, United States of America",
            "locType": "city",
            "blogLinks": [
                "https://sanluisobispovacations.com/shareslo-blog/"
            ],
            "longitude": "-120.4358576"
        },
        "rockies": {
            "latitude": "33.9859411",
            "closest_to": "long beach",
            "address": "Rockies Avenue, Desert Hot Springs, Riverside County, California, 92240, United States of America",
            "locType": "residential",
            "blogLinks": [
                "http://wikitravel.org/en/San_Luis_Obispo"
            ],
            "longitude": "-116.5443644"
        },
        "monterey county": {
            "latitude": "36.2231079",
            "closest_to": "san luis obispo",
            "address": "Monterey County, California, United States of America",
            "locType": "administrative",
            "blogLinks": [
                "http://travelblog.viator.com/road-trip-san-francisco-los-angeles/"
            ],
            "longitude": "-121.3877427"
        },
        "long beach museum of art": {
            "latitude": "33.76347985",
            "closest_to": "long beach",
            "address": "Long Beach Museum of Art, East Ocean Boulevard, Belmont Shore, Long Beach, Los Angeles County, California, 90814, United States of America",
            "locType": "museum",
            "blogLinks": [
                "https://www.gapyear.com/articles/216212/13-incredible-stops-on-the-pacific-coast-highway"
            ],
            "longitude": "-118.164781543159"
        },
        "kelsey see canyon vineyards": {
            "latitude": "35.2081995",
            "closest_to": "san luis obispo",
            "address": "Kelsey See Canyon Vineyards, 1947, See Canyon Road, San Luis Obispo County, California, 93405, United States of America",
            "locType": "winery",
            "blogLinks": [
                "http://highway1discoveryroute.com/blog/"
            ],
            "longitude": "-120.718615347869"
        },
        "point san luis lighthouse": {
            "latitude": "35.16023",
            "closest_to": "san luis obispo",
            "address": "Point San Luis Lighthouse, Lighthouse Road, Port San Luis, San Luis Obispo County, California, 93424, United States of America",
            "locType": "lighthouse",
            "blogLinks": [
                "http://visitslo.com/things-to-do/signature-attractions/"
            ],
            "longitude": "-120.7604916"
        },
        "rodeo drive": {
            "latitude": "32.824444",
            "closest_to": "long beach",
            "address": "Rodeo Drive, La Jolla, San Diego, San Diego County, California, 92037, United States of America",
            "locType": "residential",
            "blogLinks": [
                "https://www.gapyear.com/articles/216212/13-incredible-stops-on-the-pacific-coast-highway"
            ],
            "longitude": "-117.2609329"
        },
        "cerro san luis": {
            "latitude": "35.4146957",
            "closest_to": "san luis obispo",
            "address": "Cerro Alto, San Luis Obispo County, California, United States of America",
            "locType": "peak",
            "blogLinks": [
                "http://wikitravel.org/en/San_Luis_Obispo",
                "https://sanluisobispovacations.com/shareslo-blog/"
            ],
            "longitude": "-120.7340622"
        },
        "baywood park": {
            "latitude": "35.3263634",
            "closest_to": "san luis obispo",
            "address": "Baywood Park, San Luis Obispo County, California, United States of America",
            "locType": "village",
            "blogLinks": [
                "http://highway1discoveryroute.com/blog/"
            ],
            "longitude": "-120.8351784"
        },
        "santa lucia range": {
            "latitude": "36.0520727",
            "closest_to": "san luis obispo",
            "address": "Santa Lucia Range, Cone Peak Road, Monterey County, California, United States of America",
            "locType": "range",
            "blogLinks": [
                "http://wikitravel.org/en/San_Luis_Obispo"
            ],
            "longitude": "-121.4723132"
        },
        "nepenthe": {
            "latitude": "36.2218116",
            "closest_to": "san luis obispo",
            "address": "Nepenthe, 48510, Cabrillo Highway, Posts, Monterey County, California, 93920-9549, United States of America",
            "locType": "restaurant",
            "blogLinks": [
                "http://travelblog.viator.com/road-trip-san-francisco-los-angeles/"
            ],
            "longitude": "-121.7596564"
        },
        "central california coast": {
            "latitude": "35.3611193",
            "closest_to": "san luis obispo",
            "address": "Central Coast Street, Bakersfield, Kern County, California, 93314, United States of America",
            "locType": "residential",
            "blogLinks": [
                "http://highway1discoveryroute.com/blog/"
            ],
            "longitude": "-119.1665989"
        },
        "laguna beach": {
            "latitude": "33.5420888",
            "closest_to": "long beach",
            "address": "Laguna Beach, Orange County, California, United States of America",
            "locType": "city",
            "blogLinks": [
                "https://www.gapyear.com/articles/216212/13-incredible-stops-on-the-pacific-coast-highway"
            ],
            "longitude": "-117.7834146"
        },
        "san diego": {
            "latitude": "32.7174209",
            "closest_to": "long beach",
            "address": "San Diego, San Diego County, California, United States of America",
            "locType": "city",
            "blogLinks": [
                "http://highway1discoveryroute.com/blog/",
                "http://wikitravel.org/en/San_Luis_Obispo",
                "https://www.gapyear.com/articles/216212/13-incredible-stops-on-the-pacific-coast-highway",
                "http://www.travbuddy.com/California-travel-guide-p85"
            ],
            "longitude": "-117.1627713"
        },
        "cambria": {
            "latitude": "35.5641381",
            "closest_to": "san luis obispo",
            "address": "Cambria, San Luis Obispo County, California, United States of America",
            "locType": "administrative",
            "blogLinks": [
                "http://highway1discoveryroute.com/blog/",
                "http://www.trippy.com/question/California-Where-to-stay-half-way-between-S-F--and-L-A"
            ],
            "longitude": "-121.0807467"
        },
        "america": {
            "latitude": "36.2573198",
            "closest_to": "san luis obispo",
            "address": "America, Kings County, California, 93246, United States of America",
            "locType": "residential",
            "blogLinks": [
                "http://highway1discoveryroute.com/blog/",
                "https://sanluisobispovacations.com/shareslo-blog/",
                "http://www.travbuddy.com/California-travel-guide-p85"
            ],
            "longitude": "-119.8948706"
        },
        "bixby creek bridge": {
            "latitude": "36.3710197",
            "closest_to": "san luis obispo",
            "address": "Bixby Creek Bridge, Notleys Landing, Monterey County, California, 93923, United States of America",
            "locType": "primary",
            "blogLinks": [
                "http://travelblog.viator.com/road-trip-san-francisco-los-angeles/"
            ],
            "longitude": "-121.9017572"
        },
        "avila beach": {
            "latitude": "35.1799752",
            "closest_to": "san luis obispo",
            "address": "Avila Beach, San Luis Obispo County, California, United States of America",
            "locType": "hamlet",
            "blogLinks": [
                "http://highway1discoveryroute.com/blog/",
                "https://sanluisobispovacations.com/shareslo-blog/",
                "http://visitslo.com/things-to-do/signature-attractions/",
                "https://www.tripadvisor.com/ShowTopic-g32894-i392-k4315982-Between_monterey_and_los_angeles-Pismo_Beach_San_Luis_Obispo_County_California.html"
            ],
            "longitude": "-120.7318417"
        },
        "big bear lake": {
            "latitude": "34.253293",
            "closest_to": "long beach",
            "address": "Big Bear Lake, Lagunita Lane, Big Bear Lake, San Bernardino County, California, 92315, United States of America",
            "locType": "water",
            "blogLinks": [
                "http://www.travbuddy.com/California-travel-guide-p85"
            ],
            "longitude": "-116.932209587315"
        },
        "silicon valley": {
            "latitude": "37.4105333",
            "closest_to": "san luis obispo",
            "address": "Carnegie Mellon Silicon Valley, South Akron Road, Santa Clara County, California, 94035-0016, United States of America",
            "locType": "school",
            "blogLinks": [
                "https://www.gapyear.com/articles/216212/13-incredible-stops-on-the-pacific-coast-highway",
                "http://www.travbuddy.com/California-travel-guide-p85"
            ],
            "longitude": "-122.0597491"
        },
        "avila": {
            "latitude": "34.151876",
            "closest_to": "long beach",
            "address": "Avila, Los Angeles County, California, 91750, United States of America",
            "locType": "residential",
            "blogLinks": [
                "http://highway1discoveryroute.com/blog/"
            ],
            "longitude": "-117.7559123"
        },
        "pacific beach": {
            "latitude": "32.7978268",
            "closest_to": "long beach",
            "address": "Pacific Beach, San Diego, San Diego County, California, United States of America",
            "locType": "suburb",
            "blogLinks": [
                "https://www.gapyear.com/articles/216212/13-incredible-stops-on-the-pacific-coast-highway"
            ],
            "longitude": "-117.2403182"
        },
        "pacific ocean": {
            "latitude": "36.16305775",
            "closest_to": "san luis obispo",
            "address": "Pacific Ocean, Cabrillo Highway, Monterey County, California, 93920, United States of America",
            "locType": "cliff",
            "blogLinks": [
                "http://highway1discoveryroute.com/blog/",
                "http://visitslo.com/things-to-do/signature-attractions/",
                "https://sanluisobispovacations.com/shareslo-blog/",
                "http://centralcoast.com/",
                "http://travelblog.viator.com/road-trip-san-francisco-los-angeles/",
                "http://www.travbuddy.com/California-travel-guide-p85",
                "http://wikitravel.org/en/San_Luis_Obispo",
                "http://www.hopper.com/articles/291/five-great-stops-between-los-angeles-and-san-francisco-on-the-pacific-coast-highway"
            ],
            "longitude": "-121.678715787326"
        },
        "arroyo grande valley": {
            "latitude": "35.1185869",
            "closest_to": "san luis obispo",
            "address": "Arroyo Grande, San Luis Obispo County, California, United States of America",
            "locType": "city",
            "blogLinks": [
                "http://highway1discoveryroute.com/blog/",
                "http://centralcoast.com/"
            ],
            "longitude": "-120.5907251"
        },
        "carlsbad": {
            "latitude": "33.1580933",
            "closest_to": "long beach",
            "address": "Carlsbad, San Diego County, California, United States of America",
            "locType": "city",
            "blogLinks": [
                "http://www.travbuddy.com/California-travel-guide-p85"
            ],
            "longitude": "-117.3505938"
        },
        "united states": {
            "latitude": "36.7014631",
            "closest_to": "san luis obispo",
            "address": "California, United States of America",
            "locType": "administrative",
            "blogLinks": [
                "https://www.tripadvisor.com/Tourism-g33026-San_Luis_Obispo_San_Luis_Obispo_County_California-Vacations.html",
                "http://highway1discoveryroute.com/blog/",
                "https://sanluisobispovacations.com/shareslo-blog/",
                "http://visitslo.com/things-to-do/signature-attractions/"
            ],
            "longitude": "-118.7559973"
        },
        "morro bay": {
            "latitude": "35.3658075",
            "closest_to": "san luis obispo",
            "address": "Morro Bay, San Luis Obispo County, California, United States of America",
            "locType": "city",
            "blogLinks": [
                "http://highway1discoveryroute.com/blog/",
                "http://visitslo.com/things-to-do/signature-attractions/",
                "http://www.trippy.com/question/California-Where-to-stay-half-way-between-S-F--and-L-A",
                "https://sanluisobispovacations.com/shareslo-blog/",
                "http://centralcoast.com/",
                "https://www.tripadvisor.com/ShowTopic-g32894-i392-k4315982-Between_monterey_and_los_angeles-Pismo_Beach_San_Luis_Obispo_County_California.html"
            ],
            "longitude": "-120.8499012"
        },
        "pacific dunes ranch": {
            "latitude": "35.0922567",
            "closest_to": "san luis obispo",
            "address": "Pacific Dunes Ranch RV Resort, 1205, Silver Spur Place, Halcyon, San Luis Obispo County, California, 93445, United States of America",
            "locType": "caravan_site",
            "blogLinks": [
                "https://www.tripadvisor.com/ShowTopic-g32894-i392-k4315982-Between_monterey_and_los_angeles-Pismo_Beach_San_Luis_Obispo_County_California.html"
            ],
            "longitude": "-120.615921859666"
        },
        "manhattan beach": {
            "latitude": "33.8950839",
            "closest_to": "san luis obispo",
            "address": "Manhattan Beach, Los Angeles County, California, United States of America",
            "locType": "city",
            "blogLinks": [
                "https://sanluisobispovacations.com/things-to-do/beaches/"
            ],
            "longitude": "-118.4000146"
        },