{
    "mentions": {
        "pacific coast highway": {
            "latitude": "33.6595127",
            "closest_to": "santa ana",
            "address": "Pacific Coast Highway, Huntington Beach, Orange County, California, 92648, United States of America",
            "locType": "primary",
            "blogLinks": [
                "http://www.hopper.com/articles/291/five-great-stops-between-los-angeles-and-san-francisco-on-the-pacific-coast-highway",
                "https://blog.virgin-atlantic.com/t5/Our-Places/mini-road-trips-los-angeles-to-santa-barbara/ba-p/1216"
            ],
            "longitude": "-118.0051687"
        },
        "compton": {
            "latitude": "33.8948824",
            "closest_to": "long beach",
            "address": "Compton, Los Angeles County, California, United States of America",
            "locType": "city",
            "blogLinks": [
                "https://en.wikipedia.org/wiki/California_State_Route_91"
            ],
            "longitude": "-118.2260433"
        },
        "gardena": {
            "latitude": "33.8883302",
            "closest_to": "long beach",
            "address": "Gardena, Los Angeles County, California, United States of America",
            "locType": "city",
            "blogLinks": [
                "https://en.wikipedia.org/wiki/California_State_Route_91"
            ],
            "longitude": "-118.3070891"
        },
        "bixby knolls": {
            "latitude": "33.8355676",
            "closest_to": "long beach",
            "address": "Bixby Knolls, Long Beach, Los Angeles County, California, United States of America",
            "locType": "suburb",
            "blogLinks": [
                "http://www.ocweekly.com/news/the-5-best-cities-in-orange-county-for-oc-newbies-to-move-to-6465447"
            ],
            "longitude": "-118.1767416"
        },
        "santa ana river trail": {
            "latitude": "33.8861041",
            "closest_to": "santa ana",
            "address": "Santa Ana River Trail, Eastvale, Riverside County, California, United States of America",
            "locType": "track",
            "blogLinks": [
                "http://californiathroughmylens.com/best-running-trails"
            ],
            "longitude": "-117.6444344"
        },
        "irvine-corona expressway": {
            "latitude": "33.5666906",
            "closest_to": "santa ana",
            "address": "Irvine Coast Marine Life Refuge, East Coast Highway, Corona del Mar, Newport Beach, Orange County, California, 92651, United States of America",
            "locType": "park",
            "blogLinks": [
                "https://en.wikipedia.org/wiki/California_State_Route_91"
            ],
            "longitude": "-117.8353335"
        },
        "orangethorpe": {
            "latitude": "33.8632511",
            "closest_to": "santa ana",
            "address": "Orangethorpe Avenue, Anaheim Hills, Anaheim, Orange County, California, 92807, United States of America",
            "locType": "primary",
            "blogLinks": [
                "http://www.ocweekly.com/news/the-5-best-cities-in-orange-county-for-oc-newbies-to-move-to-6465447"
            ],
            "longitude": "-117.7960034"
        },
        "carbon canyon": {
            "latitude": "33.8468831",
            "closest_to": "santa ana",
            "address": "Carbon Canyon Creek, Anaheim, Orange County, California, United States of America",
            "locType": "stream",
            "blogLinks": [
                "http://californiathroughmylens.com/best-running-trails"
            ],
            "longitude": "-117.8568081"
        },
        "firestone boulevard": {
            "latitude": "33.9601498",
            "closest_to": "long beach",
            "address": "Firestone Boulevard, Florence-Graham, Nadeau, Los Angeles County, California, 90001; 90650, United States of America",
            "locType": "primary",
            "blogLinks": [
                "https://en.wikipedia.org/wiki/California_State_Route_91"
            ],
            "longitude": "-118.2465978"
        },
        "octa": {
            "latitude": "33.8546846",
            "closest_to": "santa ana",
            "address": "OCTA, La Palma Avenue, Anaheim, Orange County, California, 92807, United States of America",
            "locType": "bus_stop",
            "blogLinks": [
                "https://en.wikipedia.org/wiki/California_State_Route_91"
            ],
            "longitude": "-117.8426734"
        },
        "huntington beach": {
            "latitude": "33.6783336",
            "closest_to": "santa ana",
            "address": "Huntington Beach, Orange County, California, United States of America",
            "locType": "city",
            "blogLinks": [
                "https://www.expedia.com/Costa-Mesa-Hotels.d7674.Travel-Guide-Hotels"
            ],
            "longitude": "-118.0000165"
        },
        "balboa bay resort": {
            "latitude": "33.6150415",
            "closest_to": "santa ana",
            "address": "The Balboa Bay Club & Resort, 1221, West Coast Highway, Balboa Island, Newport Beach, Orange County, California, 92663, United States of America",
            "locType": "hotel",
            "blogLinks": [
                "https://www.expedia.com/Costa-Mesa-Hotels.d7674.Travel-Guide-Hotels"
            ],
            "longitude": "-117.914041694256"
        },
        "lakewood": {
            "latitude": "33.8503463",
            "closest_to": "santa ana",
            "address": "Lakewood, Los Angeles County, California, United States of America",
            "locType": "city",
            "blogLinks": [
                "https://en.wikipedia.org/wiki/California_State_Route_91"
            ],
            "longitude": "-118.1171913"
        },
        "beach-fountain valley": {
            "latitude": "33.7173611",
            "closest_to": "santa ana",
            "address": "Days Inn & Suites Huntington Beach, 9125, Recreation Circle, Fountain Valley, Orange County, California, 92655, United States of America",
            "locType": "motel",
            "blogLinks": [
                "https://www.expedia.com/Costa-Mesa-Hotels.d7674.Travel-Guide-Hotels"
            ],
            "longitude": "-117.969428105623"
        },
        "torrance": {
            "latitude": "33.8358492",
            "closest_to": "long beach",
            "address": "Torrance, Los Angeles County, California, United States of America",
            "locType": "city",
            "blogLinks": [
                "https://en.wikipedia.org/wiki/California_State_Route_91"
            ],
            "longitude": "-118.3406287"
        },
        "floral park": {
            "latitude": "33.688295",
            "closest_to": "santa ana",
            "address": "Floral Park, Cherry Tree, Cypress Village, Irvine, Orange County, California, 92709, United States of America",
            "locType": "park",
            "blogLinks": [
                "http://www.ocweekly.com/news/the-5-best-cities-in-orange-county-for-oc-newbies-to-move-to-6465447"
            ],
            "longitude": "-117.755937348593"
        },
        "orange county": {
            "latitude": "33.7500378",
            "closest_to": "santa ana",
            "address": "Orange County, California, United States of America",
            "locType": "administrative",
            "blogLinks": [
                "https://blog.virgin-atlantic.com/t5/Our-Places/mini-road-trips-los-angeles-to-santa-barbara/ba-p/1216",
                "https://www.expedia.com/Costa-Mesa-Hotels.d7674.Travel-Guide-Hotels",
                "http://californiathroughmylens.com/best-running-trails",
                "http://www.ocweekly.com/news/the-5-best-cities-in-orange-county-for-oc-newbies-to-move-to-6465447",
                "https://en.wikipedia.org/wiki/California_State_Route_91"
            ],
            "longitude": "-117.870493"
        },
        "fairmont boulevard": {
            "latitude": "33.8653081",
            "closest_to": "santa ana",
            "address": "Fairmont Boulevard, Anaheim Hills, Anaheim, Orange County, California, 92886, United States of America",
            "locType": "secondary",
            "blogLinks": [
                "https://en.wikipedia.org/wiki/California_State_Route_91"
            ],
            "longitude": "-117.7769888"
        },
        "anaheim": {
            "latitude": "33.8347516",
            "closest_to": "santa ana",
            "address": "Anaheim, Orange County, California, United States of America",
            "locType": "city",
            "blogLinks": [
                "http://www.ocweekly.com/news/the-5-best-cities-in-orange-county-for-oc-newbies-to-move-to-6465447",
                "https://en.wikipedia.org/wiki/California_State_Route_91"
            ],
            "longitude": "-117.9117319"
        },
        "irvine": {
            "latitude": "33.6856969",
            "closest_to": "santa ana",
            "address": "Irvine, Orange County, California, United States of America",
            "locType": "city",
            "blogLinks": [
                "http://www.ocweekly.com/news/the-5-best-cities-in-orange-county-for-oc-newbies-to-move-to-6465447",
                "https://en.wikipedia.org/wiki/California_State_Route_91"
            ],
            "longitude": "-117.8259818"
        },
        "carpenteria": {
            "latitude": "33.7274726",
            "closest_to": "santa ana",
            "address": "Carpenteria, Lower Peters Canyon, Irvine, Orange County, California, 92602, United States of America",
            "locType": "residential",
            "blogLinks": [
                "https://blog.virgin-atlantic.com/t5/Our-Places/mini-road-trips-los-angeles-to-santa-barbara/ba-p/1216"
            ],
            "longitude": "-117.7681721"
        },
        "artesia boulevard": {
            "latitude": "33.8732041",
            "closest_to": "santa ana",
            "address": "Artesia Boulevard, Cerritos, Los Angeles County, California, 90701, United States of America",
            "locType": "secondary",
            "blogLinks": [
                "https://en.wikipedia.org/wiki/California_State_Route_91"
            ],
            "longitude": "-118.0425947"
        },
        "laguna beach": {
            "latitude": "33.5420888",
            "closest_to": "santa ana",
            "address": "Laguna Beach, Orange County, California, United States of America",
            "locType": "city",
            "blogLinks": [
                "http://www.ocweekly.com/news/the-5-best-cities-in-orange-county-for-oc-newbies-to-move-to-6465447"
            ],
            "longitude": "-117.7834146"
        },
        "orangethorpe avenue": {
            "latitude": "33.8651892",
            "closest_to": "santa ana",
            "address": "Orangethorpe Avenue, Anaheim Hills, Anaheim, Orange County, California, 92807, United States of America",
            "locType": "primary",
            "blogLinks": [
                "https://en.wikipedia.org/wiki/California_State_Route_91"
            ],
            "longitude": "-117.8070799"
        },
        "compton boulevard": {
            "latitude": "33.8948824",
            "closest_to": "long beach",
            "address": "Compton, Los Angeles County, California, United States of America",
            "locType": "city",
            "blogLinks": [
                "https://en.wikipedia.org/wiki/California_State_Route_91"
            ],
            "longitude": "-118.2260433"
        },
        "gypsum canyon road": {
            "latitude": "33.8665448",
            "closest_to": "santa ana",
            "address": "Gypsum Canyon Road, Anaheim, Orange County, California, 92808, United States of America",
            "locType": "secondary",
            "blogLinks": [
                "https://en.wikipedia.org/wiki/California_State_Route_91"
            ],
            "longitude": "-117.7113915"
        },
        "buena park": {
            "latitude": "33.870413",
            "closest_to": "santa ana",
            "address": "Buena Park, Orange County, California, United States of America",
            "locType": "city",
            "blogLinks": [
                "https://en.wikipedia.org/wiki/California_State_Route_91"
            ],
            "longitude": "-117.9962164"
        },
        "newport beach": {
            "latitude": "33.6170092",
            "closest_to": "santa ana",
            "address": "Newport Beach, Orange County, California, United States of America",
            "locType": "city",
            "blogLinks": [
                "https://www.expedia.com/Costa-Mesa-Hotels.d7674.Travel-Guide-Hotels",
                "http://www.ocweekly.com/news/the-5-best-cities-in-orange-county-for-oc-newbies-to-move-to-6465447",
                "https://en.wikipedia.org/wiki/California_State_Route_91"
            ],
            "longitude": "-117.92944"
        },
        "california freeway": {
            "latitude": "34.0029948",
            "closest_to": "long beach",
            "address": "California, San Gabriel River Freeway, Pico Rivera, Los Angeles County, California, 90601, United States of America",
            "locType": "abandoned",
            "blogLinks": [
                "https://en.wikipedia.org/wiki/California_State_Route_91"
            ],
            "longitude": "-118.067515"
        },
        "redondo beach": {
            "latitude": "33.8455911",
            "closest_to": "long beach",
            "address": "Redondo Beach, Los Angeles County, California, United States of America",
            "locType": "city",
            "blogLinks": [
                "https://en.wikipedia.org/wiki/California_State_Route_91"
            ],
            "longitude": "-118.3886765"
        },
        "artesia blvd": {
            "latitude": "33.8732041",
            "closest_to": "santa ana",
            "address": "Artesia Boulevard, Cerritos, Los Angeles County, California, 90701, United States of America",
            "locType": "secondary",
            "blogLinks": [
                "https://en.wikipedia.org/wiki/California_State_Route_91"
            ],
            "longitude": "-118.0425947"
        },
        "artesia avenue": {
            "latitude": "33.8720675",
            "closest_to": "santa ana",
            "address": "Artesia Avenue, Downtown Fullerton, Fullerton, Orange County, California, 92833, United States of America",
            "locType": "tertiary",
            "blogLinks": [
                "https://en.wikipedia.org/wiki/California_State_Route_91"
            ],
            "longitude": "-117.9681987"
        },
        "olive": {
            "latitude": "33.8361304",
            "closest_to": "santa ana",
            "address": "Olive, Orange County, California, United States of America",
            "locType": "hamlet",
            "blogLinks": [
                "https://en.wikipedia.org/wiki/California_State_Route_91"
            ],
            "longitude": "-117.8462779"
        },
        "costa mesa freeway": {
            "latitude": "33.8423894",
            "closest_to": "santa ana",
            "address": "Costa Mesa Freeway, Anaheim, Orange County, California, 92865, United States of America",
            "locType": "motorway",
            "blogLinks": [
                "https://en.wikipedia.org/wiki/California_State_Route_91"
            ],
            "longitude": "-117.830154"
        },
        "cerritos avenue": {
            "latitude": "33.8105768",
            "closest_to": "santa ana",
            "address": "Cerritos Avenue, West Anaheim, Anaheim, Orange County, California, 92804, United States of America",
            "locType": "secondary",
            "blogLinks": [
                "https://en.wikipedia.org/wiki/California_State_Route_91"
            ],
            "longitude": "-117.9412528"
        },
        "lake forest": {
            "latitude": "33.6469261",
            "closest_to": "santa ana",
            "address": "Lake Forest, Orange County, California, United States of America",
            "locType": "city",
            "blogLinks": [
                "http://www.ocweekly.com/news/the-5-best-cities-in-orange-county-for-oc-newbies-to-move-to-6465447"
            ],
            "longitude": "-117.6859212"
        },
        "lawndale": {
            "latitude": "33.88711",
            "closest_to": "long beach",
            "address": "Lawndale, Los Angeles County, California, United States of America",
            "locType": "administrative",
            "blogLinks": [
                "https://en.wikipedia.org/wiki/California_State_Route_91"
            ],
            "longitude": "-118.353148"
        },
        "fullerton": {
            "latitude": "33.8708215",
            "closest_to": "santa ana",
            "address": "Fullerton, Orange County, California, United States of America",
            "locType": "city",
            "blogLinks": [
                "http://www.ocweekly.com/news/the-5-best-cities-in-orange-county-for-oc-newbies-to-move-to-6465447"
            ],
            "longitude": "-117.9294164"
        },
        "costa mesa": {
            "latitude": "33.6633386",
            "closest_to": "santa ana",
            "address": "Costa Mesa, Orange County, California, United States of America",
            "locType": "city",
            "blogLinks": [
                "https://www.expedia.com/Costa-Mesa-Hotels.d7674.Travel-Guide-Hotels",
                "http://www.bestplaces.net/city/california/costa_mesa",
                "http://www.hopper.com/articles/291/five-great-stops-between-los-angeles-and-san-francisco-on-the-pacific-coast-highway",
                "https://en.wikipedia.org/wiki/California_State_Route_91"
            ],
            "longitude": "-117.9033169"
        },
        "waterman canyon": {
            "latitude": "33.7313373",
            "closest_to": "santa ana",
            "address": "Waterman, Lower Peters Canyon, Irvine, Orange County, California, 92602, United States of America",
            "locType": "residential",
            "blogLinks": [
                "https://en.wikipedia.org/wiki/California_State_Route_91"
            ],
            "longitude": "-117.7777064"
        },
        "vermont avenue": {
            "latitude": "33.9890027",
            "closest_to": "long beach",
            "address": "Vermont Avenue, Wildasin, Florence, LA, Los Angeles County, California, 90044, United States of America",
            "locType": "secondary",
            "blogLinks": [
                "https://en.wikipedia.org/wiki/California_State_Route_91"
            ],
            "longitude": "-118.2914818"
        },
        "manhattan beach": {
            "latitude": "33.8950839",
            "closest_to": "long beach",
            "address": "Manhattan Beach, Los Angeles County, California, United States of America",
            "locType": "city",
            "blogLinks": [
                "https://en.wikipedia.org/wiki/California_State_Route_91"
            ],
            "longitude": "-118.4000146"
        },
        "redondo beach boulevard": {
            "latitude": "33.8746486",
            "closest_to": "long beach",
            "address": "Redondo Beach Boulevard, La Fresa, Torrance, Los Angeles County, California, 90278, United States of America",
            "locType": "primary",
            "blogLinks": [
                "https://en.wikipedia.org/wiki/California_State_Route_91"
            ],
            "longitude": "-118.351964"
        },
        "santa ana freeway": {
            "latitude": "33.8512853",
            "closest_to": "santa ana",
            "address": "Santa Ana Freeway, West Anaheim, Anaheim, Orange County, California, 92801, United States of America",
            "locType": "motorway",
            "blogLinks": [
                "https://en.wikipedia.org/wiki/California_State_Route_91"
            ],
            "longitude": "-117.9707394"
        },
        "greater los angeles": {
            "latitude": "33.9864031",
            "closest_to": "long beach",
            "address": "Greater Cornerstone Baptist Church, Figueroa Street, Wildasin, Florence, LA, Los Angeles County, California, 90044, United States of America",
            "locType": "place_of_worship",
            "blogLinks": [
                "https://en.wikipedia.org/wiki/California_State_Route_91"
            ],
            "longitude": "-118.2822963"
        },
        "santa ana canyon": {
            "latitude": "33.8677202",
            "closest_to": "santa ana",
            "address": "Santa Ana Canyon Road, Anaheim Hills, Anaheim, Orange County, California, 92808, United States of America",
            "locType": "primary",
            "blogLinks": [
                "https://en.wikipedia.org/wiki/California_State_Route_91"
            ],
            "longitude": "-117.7467605"
        },
        "fountain valley": {
            "latitude": "33.7038145",
            "closest_to": "santa ana",
            "address": "Fountain Valley, Orange County, California, United States of America",
            "locType": "city",
            "blogLinks": [
                "https://www.expedia.com/Costa-Mesa-Hotels.d7674.Travel-Guide-Hotels",
                "http://www.bestplaces.net/city/california/costa_mesa"
            ],
            "longitude": "-117.9627348"
        },
        "atlantic avenue": {
            "latitude": "33.8071837",
            "closest_to": "long beach",
            "address": "Atlantic Avenue, Willowville, Long Beach, Los Angeles County, California, 90806, United States of America",
            "locType": "primary",
            "blogLinks": [
                "https://en.wikipedia.org/wiki/California_State_Route_91"
            ],
            "longitude": "-118.185101"
        },
        "santa ana": {
            "latitude": "33.7494951",
            "closest_to": "santa ana",
            "address": "Santa Ana, Orange County, California, United States of America",
            "locType": "city",
            "blogLinks": [
                "https://en.wikipedia.org/wiki/California_State_Route_91"
            ],
            "longitude": "-117.8732212"
        },
        "hermosa beach": {
            "latitude": "33.86428",
            "closest_to": "long beach",
            "address": "Hermosa Beach, Los Angeles County, California, United States of America",
            "locType": "city",
            "blogLinks": [
                "https://en.wikipedia.org/wiki/California_State_Route_91"
            ],
            "longitude": "-118.3959099"
        },
        "huntington harbour": {
            "latitude": "33.71663125",
            "closest_to": "santa ana",
            "address": "Huntington Harbour Mall, Huntington Beach, Orange County, California, 92649, United States of America",
            "locType": "retail",
            "blogLinks": [
                "http://www.ocweekly.com/news/the-5-best-cities-in-orange-county-for-oc-newbies-to-move-to-6465447"
            ],
            "longitude": "-118.051304967067"
        },
        "long beach": {
            "latitude": "33.78538945",
            "closest_to": "long beach",
            "address": "Long Beach, Los Angeles County, California, United States of America",
            "locType": "city",
            "blogLinks": [
                "http://www.bestplaces.net/city/california/costa_mesa",
                "http://www.bestplaces.net/city/california/long_beach",
                "http://www.ocweekly.com/news/the-5-best-cities-in-orange-county-for-oc-newbies-to-move-to-6465447",
                "https://en.wikipedia.org/wiki/California_State_Route_91"
            ],
            "longitude": "-118.158049215311"
        },
        "fashion island": {
            "latitude": "33.61476865",
            "closest_to": "santa ana",
            "address": "Fashion Island, Newport Center, Newport Beach, Orange County, California, 62660, United States of America",
            "locType": "retail;commercial;residential",
            "blogLinks": [
                "https://www.expedia.com/Costa-Mesa-Hotels.d7674.Travel-Guide-Hotels"
            ],
            "longitude": "-117.872907649816"
        },
        "weir canyon road": {
            "latitude": "33.8693857",
            "closest_to": "santa ana",
            "address": "Weir Canyon Road, Anaheim Hills, Anaheim, Orange County, California, 92808, United States of America",
            "locType": "primary",
            "blogLinks": [
                "https://en.wikipedia.org/wiki/California_State_Route_91"
            ],
            "longitude": "-117.743974"
        },
        "irvine corona expressway": {
            "latitude": "33.5666906",
            "closest_to": "santa ana",
            "address": "Irvine Coast Marine Life Refuge, East Coast Highway, Corona del Mar, Newport Beach, Orange County, California, 92651, United States of America",
            "locType": "park",
            "blogLinks": [
                "https://en.wikipedia.org/wiki/California_State_Route_91"
            ],
            "longitude": "-117.8353335"
        },
        "gardena freeway": {
            "latitude": "33.8726406",
            "closest_to": "long beach",
            "address": "Gardena Freeway, LA, Los Angeles County, California, 90248, United States of America",
            "locType": "motorway",
            "blogLinks": [
                "https://en.wikipedia.org/wiki/California_State_Route_91"
            ],
            "longitude": "-118.2821231"
        },
        "villa park": {
            "latitude": "33.8147541",
            "closest_to": "santa ana",
            "address": "Villa Park, Orange County, California, United States of America",
            "locType": "city",
            "blogLinks": [
                "http://www.ocweekly.com/news/the-5-best-cities-in-orange-county-for-oc-newbies-to-move-to-6465447"
            ],
            "longitude": "-117.8206234"
        },
        "sunny hills": {
            "latitude": "33.8992488",
            "closest_to": "santa ana",
            "address": "Sunny Hills, Orange County, California, United States of America",
            "locType": "hamlet",
            "blogLinks": [
                "http://www.ocweekly.com/news/the-5-best-cities-in-orange-county-for-oc-newbies-to-move-to-6465447"
            ],
            "longitude": "-117.936588"
        },
        "artesia freeway": {
            "latitude": "33.8562322",
            "closest_to": "santa ana",
            "address": "Artesia Freeway, West Anaheim, Anaheim, Orange County, California, 90621, United States of America",
            "locType": "motorway",
            "blogLinks": [
                "https://en.wikipedia.org/wiki/California_State_Route_91"
            ],
            "longitude": "-117.9841536"
        },
        "compton creek": {
            "latitude": "33.8948824",
            "closest_to": "long beach",
            "address": "Compton, Los Angeles County, California, United States of America",
            "locType": "city",
            "blogLinks": [
                "https://en.wikipedia.org/wiki/California_State_Route_91"
            ],
            "longitude": "-118.2260433"
        }
    },
    "long beach": {
        "type": "city",
        "osm_id": "112100",
        "class": "place",
        "importance": 0.87291598958998,
        "lat": "33.78538945",
        "lon": "-118.158049215311",
        "boundingbox": [
            "33.6905847",
            "33.8855951",
            "-118.2489659",
            "-118.0632824"
        ],
        "display_name": "Long Beach, Los Angeles County, California, United States of America",
        "licence": "Data \u00a9 OpenStreetMap contributors, ODbL 1.0. http://www.openstreetmap.org/copyright",
        "icon": "https://nominatim.openstreetmap.org/images/mapicons/poi_place_city.p.20.png",
        "place_id": "158641779",
        "osm_type": "relation"
    },
    "santa ana": {
        "type": "city",
        "osm_id": "2311446",
        "class": "place",
        "importance": 0.80067109924196,
        "lat": "33.7494951",
        "lon": "-117.8732212",
        "boundingbox": [
            "33.6916541",
            "33.7840133",
            "-117.9439458",
            "-117.8303494"
        ],
        "display_name": "Santa Ana, Orange County, California, United States of America",
        "licence": "Data \u00a9 OpenStreetMap contributors, ODbL 1.0. http://www.openstreetmap.org/copyright",
        "icon": "https://nominatim.openstreetmap.org/images/mapicons/poi_place_city.p.20.png",
        "place_id": "159122957",
        "osm_type": "relation"
    }
}