{
    "san diego": {
        "type": "city",
        "osm_id": "253832",
        "class": "place",
        "importance": 0.93342309681118,
        "lat": "32.7174209",
        "lon": "-117.1627713",
        "boundingbox": [
            "32.5347839",
            "33.114249",
            "-117.3098052",
            "-116.9057225"
        ],
        "display_name": "San Diego, San Diego County, California, United States of America",
        "licence": "Data \u00a9 OpenStreetMap contributors, ODbL 1.0. http://www.openstreetmap.org/copyright",
        "icon": "https://nominatim.openstreetmap.org/images/mapicons/poi_place_city.p.20.png",
        "place_id": "157988328",
        "osm_type": "relation"
    },
    "long beach": {
        "type": "city",
        "osm_id": "112100",
        "class": "place",
        "importance": 0.87291598958998,
        "lat": "33.78538945",
        "lon": "-118.158049215311",
        "boundingbox": [
            "33.6905847",
            "33.8855951",
            "-118.2489659",
            "-118.0632824"
        ],
        "display_name": "Long Beach, Los Angeles County, California, United States of America",
        "licence": "Data \u00a9 OpenStreetMap contributors, ODbL 1.0. http://www.openstreetmap.org/copyright",
        "icon": "https://nominatim.openstreetmap.org/images/mapicons/poi_place_city.p.20.png",
        "place_id": "158641779",
        "osm_type": "relation"
    },
    "mentions": {
        "california coast": {
            "latitude": "32.7586361",
            "closest_to": "san diego",
            "address": "California Coast Credit Union, Park Boulevard, Hillcrest, San Diego, San Diego County, California, 92116, United States of America",
            "locType": "bank",
            "blogLinks": [
                "https://www.tripadvisor.com/Travel-g28926-c174834/California:United-States:Coast.Highway.Route.From.La.To.San.Diego.html"
            ],
            "longitude": "-117.1464145"
        },
        "pacific coast highway": {
            "latitude": "33.6595127",
            "closest_to": "san diego",
            "address": "Pacific Coast Highway, Huntington Beach, Orange County, California, 92648, United States of America",
            "locType": "primary",
            "blogLinks": [
                "http://moon.com/2011/02/fun-road-trip-ideas-road-trip-the-california-coast/",
                "https://www.tripadvisor.com/Travel-g28926-c174834/California:United-States:Coast.Highway.Route.From.La.To.San.Diego.html",
                "https://www.gapyear.com/articles/216212/13-incredible-stops-on-the-pacific-coast-highway"
            ],
            "longitude": "-118.0051687"
        },
        "windansea": {
            "latitude": "33.2139664",
            "closest_to": "san diego",
            "address": "Windansea Street, Oceanside, San Diego County, California, 92056, United States of America",
            "locType": "residential",
            "blogLinks": [
                "http://www.sandiego.org/what-to-do/beaches/la-jolla.aspx"
            ],
            "longitude": "-117.2939696"
        },
        "la jolla parkway": {
            "latitude": "32.8390806",
            "closest_to": "san diego",
            "address": "La Jolla Parkway, La Jolla, San Diego, San Diego County, California, 92037, United States of America",
            "locType": "motorway",
            "blogLinks": [
                "http://www.sandiego.org/what-to-do/beaches/la-jolla.aspx"
            ],
            "longitude": "-117.2361388"
        },
        "camino capistrano": {
            "latitude": "33.5045525",
            "closest_to": "san diego",
            "address": "Camino Capistrano, San Juan Capistrano, Orange County, California, 92675, United States of America",
            "locType": "secondary",
            "blogLinks": [
                "http://www.parks.ca.gov/?page_id=22722"
            ],
            "longitude": "-117.6641659"
        },
        "highway 101": {
            "latitude": "32.9967358",
            "closest_to": "san diego",
            "address": "Highway 101, Solana Beach, San Diego County, California, 92075, United States of America",
            "locType": "primary",
            "blogLinks": [
                "http://travelblog.viator.com/road-trip-san-francisco-los-angeles/",
                "http://moon.com/2011/02/fun-road-trip-ideas-road-trip-the-california-coast/",
                "http://www.parks.ca.gov/?page_id=22722"
            ],
            "longitude": "-117.2731974"
        },
        "arizona": {
            "latitude": "34.4631398",
            "closest_to": "long beach",
            "address": "Arizona, San Bernardino County, California, 92371, United States of America",
            "locType": "track",
            "blogLinks": [
                "http://moon.com/2011/02/fun-road-trip-ideas-road-trip-the-california-coast/"
            ],
            "longitude": "-117.5060679"
        },
        "vancouver": {
            "latitude": "34.824773",
            "closest_to": "long beach",
            "address": "Vancouver, San Bernardino County, California, United States of America",
            "locType": "residential",
            "blogLinks": [
                "http://moon.com/2011/02/fun-road-trip-ideas-road-trip-the-california-coast/"
            ],
            "longitude": "-117.4634669"
        },
        "phoenix": {
            "latitude": "33.6988015",
            "closest_to": "san diego",
            "address": "Phoenix, Heritage Park Apartments, El Camino Real, Irvine, Orange County, California, 92604, United States of America",
            "locType": "residential",
            "blogLinks": [
                "http://moon.com/2011/02/fun-road-trip-ideas-road-trip-the-california-coast/"
            ],
            "longitude": "-117.7764481"
        },
        "malibu": {
            "latitude": "33.7932142",
            "closest_to": "san diego",
            "address": "Malibu, Palm Springs, Riverside County, California, 92264, United States of America",
            "locType": "residential",
            "blogLinks": [
                "http://moon.com/2011/02/fun-road-trip-ideas-road-trip-the-california-coast/",
                "https://www.tripadvisor.com/Travel-g28926-c174834/California:United-States:Coast.Highway.Route.From.La.To.San.Diego.html",
                "https://www.gapyear.com/articles/216212/13-incredible-stops-on-the-pacific-coast-highway"
            ],
            "longitude": "-116.5023561"
        },
        "huntington beach": {
            "latitude": "33.6783336",
            "closest_to": "san diego",
            "address": "Huntington Beach, Orange County, California, United States of America",
            "locType": "city",
            "blogLinks": [
                "http://moon.com/2011/02/fun-road-trip-ideas-road-trip-the-california-coast/",
                "https://www.tripadvisor.com/Travel-g28926-c174834/California:United-States:Coast.Highway.Route.From.La.To.San.Diego.html",
                "https://www.gapyear.com/articles/216212/13-incredible-stops-on-the-pacific-coast-highway"
            ],
            "longitude": "-118.0000165"
        },
        "venice": {
            "latitude": "33.995044",
            "closest_to": "long beach",
            "address": "Venice, LA, Los Angeles County, California, United States of America",
            "locType": "suburb",
            "blogLinks": [
                "http://moon.com/2011/02/fun-road-trip-ideas-road-trip-the-california-coast/",
                "https://www.tripadvisor.com/Travel-g28926-c174834/California:United-States:Coast.Highway.Route.From.La.To.San.Diego.html"
            ],
            "longitude": "-118.4668874"
        },
        "catalina island": {
            "latitude": "33.3890232",
            "closest_to": "san diego",
            "address": "Santa Catalina Island, Los Angeles County, California, United States of America",
            "locType": "island",
            "blogLinks": [
                "https://www.tripadvisor.com/ShowTopic-g32648-i340-k6249649-Road_trip_between_Long_Beach_and_San_Diego-Long_Beach_California.html"
            ],
            "longitude": "-118.424154004558"
        },
        "disneyland": {
            "latitude": "33.8136367",
            "closest_to": "san diego",
            "address": "DL, 1313, South Harbor Boulevard, Anaheim Resort District, Anaheim, Orange County, California, 92805, United States of America",
            "locType": "theme_park",
            "blogLinks": [
                "https://www.tripadvisor.com/ShowTopic-g32648-i340-k6249649-Road_trip_between_Long_Beach_and_San_Diego-Long_Beach_California.html"
            ],
            "longitude": "-117.91971186569"
        },
        "belmont shore": {
            "latitude": "33.7572435",
            "closest_to": "san diego",
            "address": "Belmont Shore, Long Beach, Los Angeles County, California, United States of America",
            "locType": "suburb",
            "blogLinks": [
                "https://www.tripadvisor.com/Travel-g28926-c174834/California:United-States:Coast.Highway.Route.From.La.To.San.Diego.html"
            ],
            "longitude": "-118.1370106"
        },
        "la quinta resort": {
            "latitude": "33.80437845",
            "closest_to": "san diego",
            "address": "La Quinta Inn & Suites Anaheim Disneyland, South Clementine Street, Anaheim Resort District, Anaheim, Orange County, California, 92802, United States of America",
            "locType": "hotel",
            "blogLinks": [
                "https://www.tripadvisor.com/ShowTopic-g32648-i340-k6249649-Road_trip_between_Long_Beach_and_San_Diego-Long_Beach_California.html"
            ],
            "longitude": "-117.909469676972"
        },
        "redondo beach pier": {
            "latitude": "33.8397546",
            "closest_to": "long beach",
            "address": "Redondo Pier Inn, South Pacific Coast Highway, Redondo Beach, Los Angeles County, California, 90277, United States of America",
            "locType": "motel",
            "blogLinks": [
                "https://www.tripadvisor.com/Travel-g28926-c174834/California:United-States:Coast.Highway.Route.From.La.To.San.Diego.html"
            ],
            "longitude": "-118.3853455"
        },
        "oxnard": {
            "latitude": "34.1976308",
            "closest_to": "long beach",
            "address": "Oxnard, Ventura County, California, United States of America",
            "locType": "city",
            "blogLinks": [
                "http://moon.com/2011/02/fun-road-trip-ideas-road-trip-the-california-coast/",
                "https://www.gapyear.com/articles/216212/13-incredible-stops-on-the-pacific-coast-highway"
            ],
            "longitude": "-119.1803817"
        },
        "southern california": {
            "latitude": "34.0224149",
            "closest_to": "long beach",
            "address": "University of Southern California, Watt Way, Saint James Park, LA, Los Angeles County, California, 90089, United States of America",
            "locType": "university",
            "blogLinks": [
                "http://californiathroughmylens.com/five-interesting-places-san-diego"
            ],
            "longitude": "-118.286343973446"
        },
        "mission beach": {
            "latitude": "32.7827144",
            "closest_to": "san diego",
            "address": "Mission Beach, San Diego County, California, United States of America",
            "locType": "hamlet",
            "blogLinks": [
                "http://www.sandiego.org/what-to-do/beaches.aspx",
                "http://www.sandiego.com/attractions",
                "https://www.gapyear.com/articles/216212/13-incredible-stops-on-the-pacific-coast-highway"
            ],
            "longitude": "-117.2525056"
        },
        "la jolla shores drive": {
            "latitude": "32.8509595",
            "closest_to": "san diego",
            "address": "La Jolla Shores Drive, La Jolla, San Diego, San Diego County, California, 92037, United States of America",
            "locType": "tertiary",
            "blogLinks": [
                "http://www.sandiego.org/what-to-do/beaches/la-jolla.aspx"
            ],
            "longitude": "-117.2542622"
        },
        "seaport village san diego": {
            "latitude": "32.7089976",
            "closest_to": "san diego",
            "address": "Seaport Village, Hillcrest, San Diego, San Diego County, California, 92101, United States of America",
            "locType": "retail",
            "blogLinks": [
                "http://www.sandiego.com/seaport-village",
                "http://www.sandiego.com/attractions"
            ],
            "longitude": "-117.170488716601"
        },
        "la jolla": {
            "latitude": "32.8472711",
            "closest_to": "san diego",
            "address": "La Jolla, San Diego, San Diego County, California, United States of America",
            "locType": "suburb",
            "blogLinks": [
                "http://www.sandiego.org/what-to-do/beaches.aspx",
                "https://www.tripadvisor.com/ShowTopic-g32648-i340-k6249649-Road_trip_between_Long_Beach_and_San_Diego-Long_Beach_California.html",
                "http://www.sandiego.org/what-to-do/beaches/la-jolla.aspx",
                "http://californiathroughmylens.com/five-interesting-places-san-diego"
            ],
            "longitude": "-117.2742085"
        },
        "naples island": {
            "latitude": "33.7559024",
            "closest_to": "san diego",
            "address": "Naples Islands, Long Beach, Los Angeles County, California, United States of America",
            "locType": "island",
            "blogLinks": [
                "https://www.tripadvisor.com/Travel-g28926-c174834/California:United-States:Coast.Highway.Route.From.La.To.San.Diego.html"
            ],
            "longitude": "-118.1232477"
        },
        "encinitas": {
            "latitude": "33.0369867",
            "closest_to": "san diego",
            "address": "Encinitas, San Diego County, California, United States of America",
            "locType": "city",
            "blogLinks": [
                "http://www.sandiego.org/what-to-do/beaches.aspx",
                "https://www.tripadvisor.com/Travel-g28926-c174834/California:United-States:Coast.Highway.Route.From.La.To.San.Diego.html",
                "http://californiathroughmylens.com/five-interesting-places-san-diego"
            ],
            "longitude": "-117.2919817"
        },
        "pacific beach": {
            "latitude": "32.7978268",
            "closest_to": "san diego",
            "address": "Pacific Beach, San Diego, San Diego County, California, United States of America",
            "locType": "suburb",
            "blogLinks": [
                "http://www.sandiego.org/what-to-do/beaches.aspx",
                "https://www.gapyear.com/articles/216212/13-incredible-stops-on-the-pacific-coast-highway"
            ],
            "longitude": "-117.2403182"
        },
        "santa monica": {
            "latitude": "34.0195598",
            "closest_to": "long beach",
            "address": "Santa Monica, Los Angeles County, California, United States of America",
            "locType": "city",
            "blogLinks": [
                "http://travelblog.viator.com/road-trip-san-francisco-los-angeles/",
                "http://moon.com/2011/02/fun-road-trip-ideas-road-trip-the-california-coast/",
                "https://www.tripadvisor.com/Travel-g28926-c174834/California:United-States:Coast.Highway.Route.From.La.To.San.Diego.html",
                "http://visitcarlsbad.com/"
            ],
            "longitude": "-118.4869738"
        },
        "long beach airport": {
            "latitude": "33.81682825",
            "closest_to": "long beach",
            "address": "Long Beach Airport (LGB), Globemaster Avenue, California Heights, Long Beach, Los Angeles County, California, 90712:90807, United States of America",
            "locType": "aerodrome",
            "blogLinks": [
                "http://moon.com/2011/02/fun-road-trip-ideas-road-trip-the-california-coast/"
            ],
            "longitude": "-118.153407224598"
        },
        "newport beach": {
            "latitude": "33.6170092",
            "closest_to": "san diego",
            "address": "Newport Beach, Orange County, California, United States of America",
            "locType": "city",
            "blogLinks": [
                "https://www.tripadvisor.com/Travel-g28926-c174834/California:United-States:Coast.Highway.Route.From.La.To.San.Diego.html",
                "https://www.gapyear.com/articles/216212/13-incredible-stops-on-the-pacific-coast-highway"
            ],
            "longitude": "-117.92944"
        },
        "old town san diego": {
            "latitude": "32.7542167",
            "closest_to": "san diego",
            "address": "Old Town San Diego, San Diego County, California, United States of America",
            "locType": "hamlet",
            "blogLinks": [
                "http://www.sandiego.com/attractions",
                "http://californiathroughmylens.com/five-interesting-places-san-diego"
            ],
            "longitude": "-117.1969792"
        },
        "malibu pier": {
            "latitude": "34.0364323",
            "closest_to": "long beach",
            "address": "Malibu Pier, Pacific Coast Highway, Malibu, Los Angeles County, California, 90265, United States of America",
            "locType": "pier",
            "blogLinks": [
                "http://moon.com/2011/02/fun-road-trip-ideas-road-trip-the-california-coast/"
            ],
            "longitude": "-118.676144945982"
        },
        "san diego zoo safari park": {
            "latitude": "33.096694",
            "closest_to": "san diego",
            "address": "San Diego Zoo Safari Park, 15500, San Pasqual Valley Road, San Diego, San Diego County, California, 92025, United States of America",
            "locType": "zoo",
            "blogLinks": [
                "http://www.sandiego.com/attractions",
                "http://www.smartdestinations.com/blog/things-to-do-in-san-diego/"
            ],
            "longitude": "-116.995039439834"
        },
        "oceanside": {
            "latitude": "33.1958696",
            "closest_to": "san diego",
            "address": "Oceanside, San Diego County, California, United States of America",
            "locType": "city",
            "blogLinks": [
                "https://www.tripadvisor.com/ShowTopic-g32648-i340-k6249649-Road_trip_between_Long_Beach_and_San_Diego-Long_Beach_California.html",
                "https://www.tripadvisor.com/Travel-g28926-c174834/California:United-States:Coast.Highway.Route.From.La.To.San.Diego.html",
                "http://www.parks.ca.gov/?page_id=22722"
            ],
            "longitude": "-117.3794833"
        },
        "carpinteria": {
            "latitude": "34.3988838",
            "closest_to": "long beach",
            "address": "Carpinteria, Santa Barbara County, California, United States of America",
            "locType": "city",
            "blogLinks": [
                "http://www.minitime.com/trip-tips/Iconic-California-Coastal-Road-Trip-from-LA-to-San-Francisco-article"
            ],
            "longitude": "-119.5184563"
        },
        "ocean beach": {
            "latitude": "32.7477784",
            "closest_to": "san diego",
            "address": "Ocean Beach, San Diego, San Diego County, California, United States of America",
            "locType": "region",
            "blogLinks": [
                "http://travelblog.viator.com/road-trip-san-francisco-los-angeles/",
                "http://moon.com/2011/02/fun-road-trip-ideas-road-trip-the-california-coast/"
            ],
            "longitude": "-117.249321"
        },
        "northern california": {
            "latitude": "32.7349196",
            "closest_to": "san diego",
            "address": "Northern Frontier, San Diego, San Diego County, California, United States of America",
            "locType": "locality",
            "blogLinks": [
                "http://www.minitime.com/trip-tips/Iconic-California-Coastal-Road-Trip-from-LA-to-San-Francisco-article"
            ],
            "longitude": "-117.1545973"
        },
        "hollywood": {
            "latitude": "34.1028268",
            "closest_to": "long beach",
            "address": "Hollywood, LA, Los Angeles County, California, United States of America",
            "locType": "suburb",
            "blogLinks": [
                "https://www.gapyear.com/articles/216212/13-incredible-stops-on-the-pacific-coast-highway"
            ],
            "longitude": "-118.3299898"
        },
        "torrey pines": {
            "latitude": "33.6004207",
            "closest_to": "san diego",
            "address": "Torrey Pines, Coto de Caza, Orange County, California, 92679, United States of America",
            "locType": "residential",
            "blogLinks": [
                "http://californiathroughmylens.com/five-interesting-places-san-diego"
            ],
            "longitude": "-117.5806448"
        },
        "san pedro": {
            "latitude": "33.7358518",
            "closest_to": "long beach",
            "address": "San Pedro, LA, Los Angeles County, California, United States of America",
            "locType": "suburb",
            "blogLinks": [
                "https://www.tripadvisor.com/Travel-g28926-c174834/California:United-States:Coast.Highway.Route.From.La.To.San.Diego.html"
            ],
            "longitude": "-118.2922933"
        },
        "ellen browning scripps park": {
            "latitude": "32.84931585",
            "closest_to": "san diego",
            "address": "Ellen Browning Scripps Park, Coast Boulevard, La Jolla, San Diego, San Diego County, California, 92037, United States of America",
            "locType": "park",
            "blogLinks": [
                "http://www.sandiego.org/what-to-do/beaches.aspx"
            ],
            "longitude": "-117.275224864594"
        },
        "state beach": {
            "latitude": "34.03385755",
            "closest_to": "long beach",
            "address": "Malibu Lagoon State Beach, Pacific Coast Highway, Malibu, Los Angeles County, California, 90265, United States of America",
            "locType": "beach",
            "blogLinks": [
                "http://www.trippy.com/question/California-Where-to-stay-half-way-between-S-F--and-L-A"
            ],
            "longitude": "-118.679064060789"
        },
        "lake dolores": {
            "latitude": "33.8330727",
            "closest_to": "long beach",
            "address": "Dolores, Los Angeles County, California, United States of America",
            "locType": "hamlet",
            "blogLinks": [
                "http://www.parks.ca.gov/?page_id=22722"
            ],
            "longitude": "-118.2264594"
        },
        "alaska": {
            "latitude": "33.7147833",
            "closest_to": "san diego",
            "address": "Alaska, Walnut, Irvine, Orange County, California, 92606, United States of America",
            "locType": "residential",
            "blogLinks": [
                "https://www.tripadvisor.com/ShowTopic-g32648-i340-k6249649-Road_trip_between_Long_Beach_and_San_Diego-Long_Beach_California.html"
            ],
            "longitude": "-117.7917164"
        },
        "village san diego": {
            "latitude": "32.86856685",
            "closest_to": "san diego",
            "address": "The Shops at La Jolla Village, La Jolla, San Diego, San Diego County, California, 92037, United States of America",
            "locType": "retail",
            "blogLinks": [
                "http://www.sandiego.com/seaport-village"
            ],
            "longitude": "-117.231789731553"
        },
        "avenida de la playa": {
            "latitude": "32.853756",
            "closest_to": "san diego",
            "address": "Avenida de la Playa, La Jolla, San Diego, San Diego County, California, 92037, United States of America",
            "locType": "residential",
            "blogLinks": [
                "http://www.sandiego.org/what-to-do/beaches/la-jolla.aspx"
            ],
            "longitude": "-117.2537379"
        },
        "west coast": {
            "latitude": "34.0222263",
            "closest_to": "long beach",
            "address": "West Coast, Motor Avenue, Palms, LA, Los Angeles County, California, 90034-5702, United States of America",
            "locType": "plumber",
            "blogLinks": [
                "https://www.gapyear.com/articles/216212/13-incredible-stops-on-the-pacific-coast-highway"
            ],
            "longitude": "-118.4051087"
        },
        "solana beach": {
            "latitude": "32.9905597",
            "closest_to": "san diego",
            "address": "Solana Beach, San Diego County, California, United States of America",
            "locType": "city",
            "blogLinks": [
                "https://www.tripadvisor.com/Travel-g28926-c174834/California:United-States:Coast.Highway.Route.From.La.To.San.Diego.html"
            ],
            "longitude": "-117.2691315"
        },
        "legoland california": {
            "latitude": "33.1278683",
            "closest_to": "san diego",
            "address": "Legoland California, 1, LEGOLAND drive, Carlsbad, San Diego County, California, 92008, United States of America",
            "locType": "theme_park",
            "blogLinks": [
                "http://www.sandiego.com/attractions"
            ],
            "longitude": "-117.311664211922"
        },
        "hermosa beach": {
            "latitude": "33.86428",
            "closest_to": "long beach",
            "address": "Hermosa Beach, Los Angeles County, California, United States of America",
            "locType": "city",
            "blogLinks": [
                "https://www.tripadvisor.com/Travel-g28926-c174834/California:United-States:Coast.Highway.Route.From.La.To.San.Diego.html"
            ],
            "longitude": "-118.3959099"
        },
        "indio": {
            "latitude": "33.7192808",
            "closest_to": "san diego",
            "address": "Indio, Riverside County, California, United States of America",
            "locType": "city",
            "blogLinks": [
                "https://www.tripadvisor.com/ShowTopic-g32648-i340-k6249649-Road_trip_between_Long_Beach_and_San_Diego-Long_Beach_California.html"
            ],
            "longitude": "-116.2188053"
        },
        "malibu lagoon state beach": {
            "latitude": "34.03385755",
            "closest_to": "long beach",
            "address": "Malibu Lagoon State Beach, Pacific Coast Highway, Malibu, Los Angeles County, California, 90265, United States of America",
            "locType": "beach",
            "blogLinks": [
                "http://moon.com/2011/02/fun-road-trip-ideas-road-trip-the-california-coast/"
            ],
            "longitude": "-118.679064060789"
        },
        "san diego river": {
            "latitude": "32.7686163",
            "closest_to": "san diego",
            "address": "San Diego River, San Diego, San Diego County, California, United States of America",
            "locType": "river",
            "blogLinks": [
                "http://www.parks.ca.gov/?page_id=22722"
            ],
            "longitude": "-117.1585474"
        },
        "redondo beach": {
            "latitude": "33.8455911",
            "closest_to": "long beach",
            "address": "Redondo Beach, Los Angeles County, California, United States of America",
            "locType": "city",
            "blogLinks": [
                "http://moon.com/2011/02/fun-road-trip-ideas-road-trip-the-california-coast/",
                "https://www.tripadvisor.com/Travel-g28926-c174834/California:United-States:Coast.Highway.Route.From.La.To.San.Diego.html"
            ],
            "longitude": "-118.3886765"
        },
        "mission creek rd.": {
            "latitude": "33.329445",
            "closest_to": "san diego",
            "address": "Mission Creek Road, Winterwarm, San Diego County, California, 92028, United States of America",
            "locType": "residential",
            "blogLinks": [
                "http://www.parks.ca.gov/?page_id=22722"
            ],
            "longitude": "-117.2382279"
        },
        "san diego mission rd.": {
            "latitude": "32.784578",
            "closest_to": "san diego",
            "address": "San Diego Mission Road, City Heights, San Diego, San Diego County, California, 92108, United States of America",
            "locType": "tertiary",
            "blogLinks": [
                "http://www.parks.ca.gov/?page_id=22722"
            ],
            "longitude": "-117.1091279"
        },
        "leucadia": {
            "latitude": "33.0692223",
            "closest_to": "san diego",
            "address": "Leucadia, San Diego County, California, United States of America",
            "locType": "hamlet",
            "blogLinks": [
                "https://www.tripadvisor.com/Travel-g28926-c174834/California:United-States:Coast.Highway.Route.From.La.To.San.Diego.html"
            ],
            "longitude": "-117.3026809"
        },
        "seaport village": {
            "latitude": "32.7089976",
            "closest_to": "san diego",
            "address": "Seaport Village, Hillcrest, San Diego, San Diego County, California, 92101, United States of America",
            "locType": "retail",
            "blogLinks": [
                "http://www.sandiego.com/seaport-village",
                "http://www.sandiego.com/attractions"
            ],
            "longitude": "-117.170488716601"
        },
        "hyatt regency la jolla": {
            "latitude": "32.8708103",
            "closest_to": "san diego",
            "address": "Hyatt Regency La Jolla, University Center Lane, La Jolla Colony, San Diego, San Diego County, California, 92122, United States of America",
            "locType": "hotel",
            "blogLinks": [
                "http://www.sandiego.org/what-to-do/beaches/la-jolla.aspx"
            ],
            "longitude": "-117.225452671476"
        },
        "torrey pines state beach": {
            "latitude": "32.91754945",
            "closest_to": "san diego",
            "address": "Torrey Pines State Beach, Yucca Point Trail, Del Mar, San Diego, San Diego County, California, 92121, United States of America",
            "locType": "beach",
            "blogLinks": [
                "http://www.sandiego.org/what-to-do/beaches.aspx"
            ],
            "longitude": "-117.259044437013"
        },
        "pierpont bay": {
            "latitude": "34.2597255",
            "closest_to": "long beach",
            "address": "Pierpont Bay, Ventura County, California, United States of America",
            "locType": "hamlet",
            "blogLinks": [
                "http://moon.com/2011/02/fun-road-trip-ideas-road-trip-the-california-coast/"
            ],
            "longitude": "-119.2692775"
        },
        "torrey pines city beach": {
            "latitude": "32.877269",
            "closest_to": "san diego",
            "address": "Torrey Pines City Beach, Scripps Coastal Reserve Biodiversity Trail, La Jolla, San Diego, San Diego County, California, 92093, United States of America",
            "locType": "beach",
            "blogLinks": [
                "http://www.sandiego.org/what-to-do/beaches/la-jolla.aspx"
            ],
            "longitude": "-117.2511477"
        },
        "aventine": {
            "latitude": "33.6763875",
            "closest_to": "san diego",
            "address": "Aventine, Coachella, Riverside County, California, 92236, United States of America",
            "locType": "residential",
            "blogLinks": [
                "http://www.sandiego.org/what-to-do/beaches/la-jolla.aspx"
            ],
            "longitude": "-116.1946774"
        },
        "downtown ventura": {
            "latitude": "34.15184445",
            "closest_to": "long beach",
            "address": "Downtown Johnny's, 14649, Ventura Boulevard, Sherman Oaks, LA, Los Angeles County, California, 91403, United States of America",
            "locType": "restaurant",
            "blogLinks": [
                "https://www.gapyear.com/articles/216212/13-incredible-stops-on-the-pacific-coast-highway"
            ],
            "longitude": "-118.452523182928"
        },
        "coronado": {
            "latitude": "32.6858854",
            "closest_to": "san diego",
            "address": "Coronado, San Diego County, California, United States of America",
            "locType": "city",
            "blogLinks": [
                "http://www.sandiego.org/what-to-do/beaches.aspx"
            ],
            "longitude": "-117.183089"
        },
        "los angeles": {
            "latitude": "34.0543942",
            "closest_to": "long beach",
            "address": "LA, Los Angeles County, California, United States of America",
            "locType": "city",
            "blogLinks": [
                "http://www.losangeleslogue.com/getting-from-los-angeles-to-san-diego.html",
                "http://www.parks.ca.gov/?page_id=22722",
                "http://www.trippy.com/question/California-Where-to-stay-half-way-between-S-F--and-L-A",
                "https://www.gapyear.com/articles/216212/13-incredible-stops-on-the-pacific-coast-highway",
                "http://travelblog.viator.com/road-trip-san-francisco-los-angeles/",
                "https://www.tripadvisor.com/Travel-g28926-c174834/California:United-States:Coast.Highway.Route.From.La.To.San.Diego.html",
                "http://www.minitime.com/trip-tips/Iconic-California-Coastal-Road-Trip-from-LA-to-San-Francisco-article"
            ],
            "longitude": "-118.2439408"
        },
        "south orange county": {
            "latitude": "33.6589297",
            "closest_to": "san diego",
            "address": "S, Bellecour Way, Bellecour Way Apartments, Foothill Ranch, Lake Forest, Orange County, California, 92630, United States of America",
            "locType": "yes",
            "blogLinks": [
                "https://www.tripadvisor.com/Travel-g28926-c174834/California:United-States:Coast.Highway.Route.From.La.To.San.Diego.html"
            ],
            "longitude": "-117.667997530973"
        },
        "france": {
            "latitude": "34.2013715",
            "closest_to": "long beach",
            "address": "France, Sherman Way, Canoga Park, LA, Los Angeles County, California, 91307, United States of America",
            "locType": "cafe",
            "blogLinks": [
                "http://www.parks.ca.gov/?page_id=22722"
            ],
            "longitude": "-118.5935353"
        },
        "pacific avenue": {
            "latitude": "34.1571445",
            "closest_to": "long beach",
            "address": "Pacific Avenue, Glendale, Los Angeles County, California, 91203, United States of America",
            "locType": "secondary",
            "blogLinks": [
                "https://www.gapyear.com/articles/216212/13-incredible-stops-on-the-pacific-coast-highway"
            ],
            "longitude": "-118.2641839"
        },
        "moon california": {
            "latitude": "33.7967376",
            "closest_to": "san diego",
            "address": "Moon, Palm Springs, Riverside County, California, 92264, United States of America",
            "locType": "residential",
            "blogLinks": [
                "http://moon.com/2011/02/fun-road-trip-ideas-road-trip-the-california-coast/"
            ],
            "longitude": "-116.5099829"
        },
        "coronado bridge": {
            "latitude": "32.6904606",
            "closest_to": "san diego",
            "address": "San Diego-Coronado Bridge, San Diego, San Diego County, California, 92118, United States of America",
            "locType": "motorway",
            "blogLinks": [
                "http://www.parks.ca.gov/?page_id=22722",
                "https://www.gapyear.com/articles/216212/13-incredible-stops-on-the-pacific-coast-highway"
            ],
            "longitude": "-117.1524863"
        },
        "long beach": {
            "latitude": "33.78538945",
            "closest_to": "san diego",
            "address": "Long Beach, Los Angeles County, California, United States of America",
            "locType": "city",
            "blogLinks": [
                "https://www.tripadvisor.com/ShowTopic-g32648-i340-k6249649-Road_trip_between_Long_Beach_and_San_Diego-Long_Beach_California.html",
                "https://www.tripadvisor.com/Travel-g28926-c174834/California:United-States:Coast.Highway.Route.From.La.To.San.Diego.html",
                "http://moon.com/2011/02/fun-road-trip-ideas-road-trip-the-california-coast/",
                "https://www.gapyear.com/articles/216212/13-incredible-stops-on-the-pacific-coast-highway"
            ],
            "longitude": "-118.158049215311"
        },
        "santa monica freeway": {
            "latitude": "34.0323355",
            "closest_to": "long beach",
            "address": "Santa Monica Freeway, Palms, LA, Los Angeles County, California, CA 90034, United States of America",
            "locType": "motorway",
            "blogLinks": [
                "https://www.tripadvisor.com/Travel-g28926-c174834/California:United-States:Coast.Highway.Route.From.La.To.San.Diego.html"
            ],
            "longitude": "-118.3886136"
        },
        "san juan capistrano": {
            "latitude": "33.5016932",
            "closest_to": "san diego",
            "address": "San Juan Capistrano, Orange County, California, United States of America",
            "locType": "city",
            "blogLinks": [
                "http://moon.com/2011/02/fun-road-trip-ideas-road-trip-the-california-coast/",
                "http://www.parks.ca.gov/?page_id=22722"
            ],
            "longitude": "-117.6625508"
        },
        "oregon": {
            "latitude": "33.7123207",
            "closest_to": "san diego",
            "address": "Oregon, Walnut, Irvine, Orange County, California, 92606, United States of America",
            "locType": "residential",
            "blogLinks": [
                "https://www.gapyear.com/articles/216212/13-incredible-stops-on-the-pacific-coast-highway"
            ],
            "longitude": "-117.7911567"
        },
        "balboa peninsula": {
            "latitude": "33.5975",
            "closest_to": "san diego",
            "address": "Balboa Peninsula, Newport Beach, Orange County, California, United States of America",
            "locType": "suburb",
            "blogLinks": [
                "https://www.tripadvisor.com/Travel-g28926-c174834/California:United-States:Coast.Highway.Route.From.La.To.San.Diego.html"
            ],
            "longitude": "-117.8860521"
        },
        "downtown san diego": {
            "latitude": "33.1253528",
            "closest_to": "san diego",
            "address": "Palomar Health Downtown Campus, East Grand Avenue, Escondido, San Diego County, California, 92027, United States of America",
            "locType": "hospital",
            "blogLinks": [
                "http://www.sandiego.com/seaport-village",
                "http://www.sandiego.com/attractions"
            ],
            "longitude": "-117.075213351358"
        },
        "santa monica pier": {
            "latitude": "34.0104809",
            "closest_to": "long beach",
            "address": "Santa Monica Pier, Santa Monica, Los Angeles County, California, CA 90401, United States of America",
            "locType": "service",
            "blogLinks": [
                "https://www.gapyear.com/articles/216212/13-incredible-stops-on-the-pacific-coast-highway"
            ],
            "longitude": "-118.4960541"
        },
        "sea world": {
            "latitude": "32.7637665",
            "closest_to": "san diego",
            "address": "Sea World Drive, Old Town, San Diego, San Diego County, California, 92109, United States of America",
            "locType": "secondary",
            "blogLinks": [
                "http://www.losangeleslogue.com/getting-from-los-angeles-to-san-diego.html"
            ],
            "longitude": "-117.2095187"
        },
        "hotel del coronado": {
            "latitude": "32.6803508",
            "closest_to": "san diego",
            "address": "Hotel Del Coronado, 1500, Orange Avenue, Coronado, San Diego County, California, 92118, United States of America",
            "locType": "memorial",
            "blogLinks": [
                "http://californiathroughmylens.com/five-interesting-places-san-diego"
            ],
            "longitude": "-117.1778919"
        },
        "manhattan beach": {
            "latitude": "33.8950839",
            "closest_to": "long beach",
            "address": "Manhattan Beach, Los Angeles County, California, United States of America",
            "locType": "city",
            "blogLinks": [
                "https://www.tripadvisor.com/Travel-g28926-c174834/California:United-States:Coast.Highway.Route.From.La.To.San.Diego.html",
                "http://www.sandiego.com/attractions"
            ],
            "longitude": "-118.4000146"
        },
        "long beach museum of art": {
            "latitude": "33.76347985",
            "closest_to": "san diego",
            "address": "Long Beach Museum of Art, East Ocean Boulevard, Belmont Shore, Long Beach, Los Angeles County, California, 90814, United States of America",
            "locType": "museum",
            "blogLinks": [
                "https://www.gapyear.com/articles/216212/13-incredible-stops-on-the-pacific-coast-highway"
            ],
            "longitude": "-118.164781543159"
        },
        "rodeo drive": {
            "latitude": "32.824444",
            "closest_to": "san diego",
            "address": "Rodeo Drive, La Jolla, San Diego, San Diego County, California, 92037, United States of America",
            "locType": "residential",
            "blogLinks": [
                "https://www.gapyear.com/articles/216212/13-incredible-stops-on-the-pacific-coast-highway"
            ],
            "longitude": "-117.2609329"
        },
        "la jolla village drive west": {
            "latitude": "32.8751708",
            "closest_to": "san diego",
            "address": "La Jolla Village Drive, San Diego, San Diego County, California, 92122, United States of America",
            "locType": "primary",
            "blogLinks": [
                "http://www.sandiego.org/what-to-do/beaches/la-jolla.aspx"
            ],
            "longitude": "-117.1999578"
        },
        "coronado beach": {
            "latitude": "32.6834758",
            "closest_to": "san diego",
            "address": "Coronado Beach, Ocean Boulevard, Coronado, San Diego County, California, 92118, United States of America",
            "locType": "beach",
            "blogLinks": [
                "http://www.sandiego.org/what-to-do/beaches.aspx"
            ],
            "longitude": "-117.185742084956"
        },
        "gaslamp quarter": {
            "latitude": "32.7109444",
            "closest_to": "san diego",
            "address": "Gaslamp Quarter, San Diego County, California, United States of America",
            "locType": "hamlet",
            "blogLinks": [
                "http://www.sandiego.com/attractions"
            ],
            "longitude": "-117.1597028"
        },
        "manhattan": {
            "latitude": "33.8109789",
            "closest_to": "san diego",
            "address": "Manhattan, Anaheim Resort District, Anaheim, Orange County, California, 217, United States of America",
            "locType": "forest",
            "blogLinks": [
                "http://moon.com/2011/02/fun-road-trip-ideas-road-trip-the-california-coast/"
            ],
            "longitude": "-117.919744373725"
        },
        "marine base camp pendleton": {
            "latitude": "33.35453425",
            "closest_to": "san diego",
            "address": "Marine Corps Base Camp Pendleton, San Diego County, California, United States of America",
            "locType": "town",
            "blogLinks": [
                "http://www.losangeleslogue.com/getting-from-los-angeles-to-san-diego.html"
            ],
            "longitude": "-117.424172662604"
        },
        "san fernando mission blvd.": {
            "latitude": "34.2721749",
            "closest_to": "long beach",
            "address": "San Fernando Mission Boulevard, Mission Hills, Sylmar, LA, Los Angeles County, California, 91326, United States of America",
            "locType": "secondary",
            "blogLinks": [
                "http://www.parks.ca.gov/?page_id=22722"
            ],
            "longitude": "-118.4668798"
        },
        "monterey st.": {
            "latitude": "34.097787",
            "closest_to": "long beach",
            "address": "Monterey Street, Mount Washington, Highland Park, LA, Los Angeles County, California, 90065, United States of America",
            "locType": "residential",
            "blogLinks": [
                "http://www.parks.ca.gov/?page_id=22722"
            ],
            "longitude": "-118.2146689"
        },
        "vincent thomas bridge": {
            "latitude": "33.7494878",
            "closest_to": "long beach",
            "address": "Vincent Thomas Bridge, San Pedro, LA, Los Angeles County, California, 90731, United States of America",
            "locType": "motorway",
            "blogLinks": [
                "https://www.tripadvisor.com/Travel-g28926-c174834/California:United-States:Coast.Highway.Route.From.La.To.San.Diego.html"
            ],
            "longitude": "-118.2716112"
        },
        "san diego": {
            "latitude": "32.7174209",
            "closest_to": "san diego",
            "address": "San Diego, San Diego County, California, United States of America",
            "locType": "city",
            "blogLinks": [
                "http://www.sandiego.com/seaport-village",
                "http://www.losangeleslogue.com/getting-from-los-angeles-to-san-diego.html",
                "http://www.parks.ca.gov/?page_id=22722",
                "http://www.trippy.com/question/California-Where-to-stay-half-way-between-S-F--and-L-A",
                "https://www.gapyear.com/articles/216212/13-incredible-stops-on-the-pacific-coast-highway",
                "http://californiathroughmylens.com/five-interesting-places-san-diego",
                "http://moon.com/2011/02/fun-road-trip-ideas-road-trip-the-california-coast/",
                "http://travelblog.viator.com/road-trip-san-francisco-los-angeles/",
                "https://www.tripadvisor.com/ShowTopic-g32648-i340-k6249649-Road_trip_between_Long_Beach_and_San_Diego-Long_Beach_California.html",
                "http://www.sandiego.com/attractions",
                "http://www.sandiego.org/what-to-do/beaches.aspx",
                "http://www.sandiego.org/what-to-do/beaches/la-jolla.aspx",
                "https://www.tripadvisor.com/Travel-g28926-c174834/California:United-States:Coast.Highway.Route.From.La.To.San.Diego.html",
                "http://www.smartdestinations.com/blog/things-to-do-in-san-diego/"
            ],
            "longitude": "-117.1627713"
        },
        "santa clara de asis": {
            "latitude": "33.8802979",
            "closest_to": "san diego",
            "address": "Santa Clara de Asis, 22005, Avenida de la Paz, Yorba Linda, Orange County, California, 92887, United States of America",
            "locType": "place_of_worship",
            "blogLinks": [
                "http://www.parks.ca.gov/?page_id=22722"
            ],
            "longitude": "-117.746951586583"
        },
        "la jolla shores": {
            "latitude": "32.8556028",
            "closest_to": "san diego",
            "address": "La Jolla Shores, San Diego County, California, United States of America",
            "locType": "hamlet",
            "blogLinks": [
                "http://www.sandiego.org/what-to-do/beaches.aspx",
                "http://www.sandiego.org/what-to-do/beaches/la-jolla.aspx"
            ],
            "longitude": "-117.2536478"
        },
        "catalina avenue": {
            "latitude": "34.1340069",
            "closest_to": "long beach",
            "address": "Catalina Avenue, Pasadena, Los Angeles County, California, 91106, United States of America",
            "locType": "residential",
            "blogLinks": [
                "https://www.tripadvisor.com/Travel-g28926-c174834/California:United-States:Coast.Highway.Route.From.La.To.San.Diego.html"
            ],
            "longitude": "-118.1292997"
        },
        "southern orange county beach": {
            "latitude": "33.6301901",
            "closest_to": "san diego",
            "address": "Southern Hills Drive, Newport Center, Newport Beach, Orange County, California, 92660, United States of America",
            "locType": "residential",
            "blogLinks": [
                "https://www.tripadvisor.com/Travel-g28926-c174834/California:United-States:Coast.Highway.Route.From.La.To.San.Diego.html"
            ],
            "longitude": "-117.8689039"
        },
        "state street": {
            "latitude": "34.1572853",
            "closest_to": "long beach",
            "address": "State Street, San Bernardino, San Bernardino County, California, 92407, United States of America",
            "locType": "secondary",
            "blogLinks": [
                "http://www.minitime.com/trip-tips/Iconic-California-Coastal-Road-Trip-from-LA-to-San-Francisco-article"
            ],
            "longitude": "-117.3347322"
        },
        "kellogg park": {
            "latitude": "32.8576255",
            "closest_to": "san diego",
            "address": "Kellogg Park, Camino del Oro, La Jolla, San Diego, San Diego County, California, 92037, United States of America",
            "locType": "park",
            "blogLinks": [
                "http://www.sandiego.org/what-to-do/beaches/la-jolla.aspx"
            ],
            "longitude": "-117.256379451174"
        },
        "rio rd.": {
            "latitude": "34.4960263",
            "closest_to": "long beach",
            "address": "El Rio Road, Victorville, San Bernardino County, California, 92392, United States of America",
            "locType": "residential",
            "blogLinks": [
                "http://www.parks.ca.gov/?page_id=22722"
            ],
            "longitude": "-117.3317399"
        },
        "torrey pines road": {
            "latitude": "32.8491824",
            "closest_to": "san diego",
            "address": "Torrey Pines Road, La Jolla, San Diego, San Diego County, California, 92037, United States of America",
            "locType": "secondary",
            "blogLinks": [
                "http://www.sandiego.org/what-to-do/beaches/la-jolla.aspx"
            ],
            "longitude": "-117.2620194"
        },
        "carlsbad": {
            "latitude": "33.1580933",
            "closest_to": "san diego",
            "address": "Carlsbad, San Diego County, California, United States of America",
            "locType": "city",
            "blogLinks": [
                "https://www.tripadvisor.com/ShowTopic-g32648-i340-k6249649-Road_trip_between_Long_Beach_and_San_Diego-Long_Beach_California.html",
                "https://www.tripadvisor.com/Travel-g28926-c174834/California:United-States:Coast.Highway.Route.From.La.To.San.Diego.html",
                "http://www.sandiego.com/attractions",
                "http://visitcarlsbad.com/",
                "http://www.minitime.com/trip-tips/Iconic-California-Coastal-Road-Trip-from-LA-to-San-Francisco-article"
            ],
            "longitude": "-117.3505938"
        },
        "mission blvd.": {
            "latitude": "32.799358",
            "closest_to": "san diego",
            "address": "Mission Boulevard, Pacific Beach, San Diego, San Diego County, California, 92109, United States of America",
            "locType": "secondary",
            "blogLinks": [
                "http://www.parks.ca.gov/?page_id=22722"
            ],
            "longitude": "-117.2563629"
        },
        "harbor boulevard": {
            "latitude": "33.8172821",
            "closest_to": "san diego",
            "address": "Harbor Boulevard, Anaheim Resort District, Anaheim, Orange County, California, 217, United States of America",
            "locType": "primary",
            "blogLinks": [
                "http://moon.com/2011/02/fun-road-trip-ideas-road-trip-the-california-coast/"
            ],
            "longitude": "-117.9152933"
        },
        "ocean": {
            "latitude": "33.9157306",
            "closest_to": "long beach",
            "address": "Ocean, Hawthorne, Los Angeles County, California, 90261, United States of America",
            "locType": "residential",
            "blogLinks": [
                "http://www.losangeleslogue.com/getting-from-los-angeles-to-san-diego.html"
            ],
            "longitude": "-118.3763704"
        },
        "mission hills": {
            "latitude": "32.7528279",
            "closest_to": "san diego",
            "address": "Mission Hills, San Diego County, California, United States of America",
            "locType": "hamlet",
            "blogLinks": [
                "http://www.parks.ca.gov/?page_id=22722"
            ],
            "longitude": "-117.1869788"
        },
        "la jolla cove": {
            "latitude": "32.85051835",
            "closest_to": "san diego",
            "address": "La Jolla Cove, Coast Boulevard, La Jolla, San Diego, San Diego County, California, 92037, United States of America",
            "locType": "beach",
            "blogLinks": [
                "http://www.sandiego.org/what-to-do/beaches/la-jolla.aspx"
            ],
            "longitude": "-117.273024234204"
        },
        "ventura beach": {
            "latitude": "32.772073",
            "closest_to": "san diego",
            "address": "Ventura Place, Pacific Beach, San Diego, San Diego County, California, 92109, United States of America",
            "locType": "unclassified",
            "blogLinks": [
                "https://www.gapyear.com/articles/216212/13-incredible-stops-on-the-pacific-coast-highway"
            ],
            "longitude": "-117.2514716"
        },
        "legoland san diego": {
            "latitude": "33.1334161",
            "closest_to": "san diego",
            "address": "Legoland Drive, Carlsbad, San Diego County, California, 92009, United States of America",
            "locType": "tertiary",
            "blogLinks": [
                "http://www.sandiego.com/attractions"
            ],
            "longitude": "-117.3171628"
        },
        "south": {
            "latitude": "33.3054766",
            "closest_to": "san diego",
            "address": "South, Los Angeles County, California, United States of America",
            "locType": "peak",
            "blogLinks": [
                "http://www.losangeleslogue.com/getting-from-los-angeles-to-san-diego.html"
            ],
            "longitude": "-118.3432299"
        },
        "san diego freeway": {
            "latitude": "32.7285162",
            "closest_to": "san diego",
            "address": "San Diego Freeway, Hillcrest, San Diego, San Diego County, California, 92101, United States of America",
            "locType": "motorway",
            "blogLinks": [
                "https://www.tripadvisor.com/Travel-g28926-c174834/California:United-States:Coast.Highway.Route.From.La.To.San.Diego.html"
            ],
            "longitude": "-117.1690377"
        },
        "san luis rey": {
            "latitude": "33.2319797",
            "closest_to": "san diego",
            "address": "San Luis Rey, San Diego County, California, United States of America",
            "locType": "hamlet",
            "blogLinks": [
                "http://www.parks.ca.gov/?page_id=22722"
            ],
            "longitude": "-117.3236484"
        },
        "interstate freeway": {
            "latitude": "33.7269731",
            "closest_to": "san diego",
            "address": "Interstate 10, Indio, Riverside County, California, 92201, United States of America",
            "locType": "motorway",
            "blogLinks": [
                "https://www.tripadvisor.com/Travel-g28926-c174834/California:United-States:Coast.Highway.Route.From.La.To.San.Diego.html"
            ],
            "longitude": "-116.2024855"
        },
        "san gabriel": {
            "latitude": "34.0991325",
            "closest_to": "long beach",
            "address": "San Gabriel, Los Angeles County, California, United States of America",
            "locType": "city",
            "blogLinks": [
                "http://www.parks.ca.gov/?page_id=22722"
            ],
            "longitude": "-118.108604"
        },
        "santa ana": {
            "latitude": "33.7494951",
            "closest_to": "san diego",
            "address": "Santa Ana, Orange County, California, United States of America",
            "locType": "city",
            "blogLinks": [
                "https://www.tripadvisor.com/ShowTopic-g32648-i340-k6249649-Road_trip_between_Long_Beach_and_San_Diego-Long_Beach_California.html"
            ],
            "longitude": "-117.8732212"
        },
        "republic of california": {
            "latitude": "34.0562192",
            "closest_to": "long beach",
            "address": "Republic Street, El Pueblo, Little Tokyo Historic District, LA, Los Angeles County, California, 90012, United States of America",
            "locType": "residential",
            "blogLinks": [
                "http://www.parks.ca.gov/?page_id=22722"
            ],
            "longitude": "-118.2397302"
        },
        "san fernando valley": {
            "latitude": "34.2819461",
            "closest_to": "long beach",
            "address": "San Fernando, Los Angeles County, California, United States of America",
            "locType": "administrative",
            "blogLinks": [
                "http://www.parks.ca.gov/?page_id=22722",
                "https://www.gapyear.com/articles/216212/13-incredible-stops-on-the-pacific-coast-highway"
            ],
            "longitude": "-118.4389718"
        },
        "ventana": {
            "latitude": "33.4767484",
            "closest_to": "san diego",
            "address": "Ventana, Morgan Hill, Riverside County, California, 92592, United States of America",
            "locType": "residential",
            "blogLinks": [
                "http://moon.com/2011/02/fun-road-trip-ideas-road-trip-the-california-coast/"
            ],
            "longitude": "-117.0594043"
        },
        "ventura": {
            "latitude": "34.4458248",
            "closest_to": "long beach",
            "address": "Ventura County, California, United States of America",
            "locType": "administrative",
            "blogLinks": [
                "http://travelblog.viator.com/road-trip-san-francisco-los-angeles/",
                "http://moon.com/2011/02/fun-road-trip-ideas-road-trip-the-california-coast/",
                "http://www.parks.ca.gov/?page_id=22722",
                "https://www.gapyear.com/articles/216212/13-incredible-stops-on-the-pacific-coast-highway"
            ],
            "longitude": "-119.0779358"
        },
        "sunset boulevard": {
            "latitude": "34.0759222",
            "closest_to": "long beach",
            "address": "Sunset Boulevard, Echo Park, Angelino Heights, LA, Los Angeles County, California, 90026, United States of America",
            "locType": "primary",
            "blogLinks": [
                "https://www.gapyear.com/articles/216212/13-incredible-stops-on-the-pacific-coast-highway"
            ],
            "longitude": "-118.2554183"
        },
        "temecula": {
            "latitude": "33.4946353",
            "closest_to": "san diego",
            "address": "Temecula, Riverside County, California, United States of America",
            "locType": "city",
            "blogLinks": [
                "http://www.sandiego.com/attractions"
            ],
            "longitude": "-117.147366"
        },
        "whaley house": {
            "latitude": "32.7527886",
            "closest_to": "san diego",
            "address": "Whaley House Museum, San Diego Avenue, Old Town, San Diego, San Diego County, California, 92110, United States of America",
            "locType": "museum",
            "blogLinks": [
                "http://californiathroughmylens.com/five-interesting-places-san-diego"
            ],
            "longitude": "-117.1945865"
        },
        "catalina": {
            "latitude": "33.810513",
            "closest_to": "san diego",
            "address": "Catalina, Anaheim Resort District, Anaheim, Orange County, California, 217, United States of America",
            "locType": "forest",
            "blogLinks": [
                "https://www.tripadvisor.com/Travel-g28926-c174834/California:United-States:Coast.Highway.Route.From.La.To.San.Diego.html"
            ],
            "longitude": "-117.920102663284"
        },
        "belmont park": {
            "latitude": "32.7709175",
            "closest_to": "san diego",
            "address": "Belmont Park, Ocean Front Walk, Pacific Beach, San Diego, San Diego County, California, 92109, United States of America",
            "locType": "theme_park",
            "blogLinks": [
                "http://www.sandiego.org/what-to-do/beaches.aspx",
                "http://www.sandiego.com/attractions"
            ],
            "longitude": "-117.252157006201"
        },
        "bay": {
            "latitude": "33.6899249",
            "closest_to": "san diego",
            "address": "Bay, Meadows Mobile Home Park, El Camino Real, Irvine, Orange County, California, 92406, United States of America",
            "locType": "service",
            "blogLinks": [
                "http://travelblog.viator.com/road-trip-san-francisco-los-angeles/"
            ],
            "longitude": "-117.7729354"
        },
        "balboa island": {
            "latitude": "33.6064778",
            "closest_to": "san diego",
            "address": "Balboa Island, Newport Beach, Orange County, California, United States of America",
            "locType": "suburb",
            "blogLinks": [
                "https://www.tripadvisor.com/Travel-g28926-c174834/California:United-States:Coast.Highway.Route.From.La.To.San.Diego.html"
            ],
            "longitude": "-117.8920818"
        },
        "laguna beach": {
            "latitude": "33.5420888",
            "closest_to": "san diego",
            "address": "Laguna Beach, Orange County, California, United States of America",
            "locType": "city",
            "blogLinks": [
                "https://www.tripadvisor.com/Travel-g28926-c174834/California:United-States:Coast.Highway.Route.From.La.To.San.Diego.html",
                "https://www.gapyear.com/articles/216212/13-incredible-stops-on-the-pacific-coast-highway"
            ],
            "longitude": "-117.7834146"
        },
        "palm springs": {
            "latitude": "33.8246269",
            "closest_to": "san diego",
            "address": "Palm Springs, Riverside County, California, United States of America",
            "locType": "city",
            "blogLinks": [
                "https://www.tripadvisor.com/ShowTopic-g32648-i340-k6249649-Road_trip_between_Long_Beach_and_San_Diego-Long_Beach_California.html"
            ],
            "longitude": "-116.5403029"
        },
        "south mission drive": {
            "latitude": "34.0857762",
            "closest_to": "long beach",
            "address": "South Mission Drive, San Bernardino, San Bernardino County, California, 92410, United States of America",
            "locType": "residential",
            "blogLinks": [
                "http://www.parks.ca.gov/?page_id=22722"
            ],
            "longitude": "-117.3098581"
        },
        "san diego county": {
            "latitude": "32.9637838",
            "closest_to": "san diego",
            "address": "San Diego County, California, United States of America",
            "locType": "administrative",
            "blogLinks": [
                "https://www.tripadvisor.com/Travel-g28926-c174834/California:United-States:Coast.Highway.Route.From.La.To.San.Diego.html",
                "https://www.gapyear.com/articles/216212/13-incredible-stops-on-the-pacific-coast-highway"
            ],
            "longitude": "-116.7706276"
        },
        "san diego bay": {
            "latitude": "32.6500534",
            "closest_to": "san diego",
            "address": "San Diego Bay, Leyte Road, Crown Island, Coronado, San Diego County, California, 92118, United States of America",
            "locType": "bay",
            "blogLinks": [
                "https://www.gapyear.com/articles/216212/13-incredible-stops-on-the-pacific-coast-highway"
            ],
            "longitude": "-117.1341977"
        },
        "san buenaventura": {
            "latitude": "34.2783355",
            "closest_to": "long beach",
            "address": "Ventura, Ventura County, California, United States of America",
            "locType": "city",
            "blogLinks": [
                "http://www.parks.ca.gov/?page_id=22722"
            ],
            "longitude": "-119.2931742"
        },
        "torrey": {
            "latitude": "32.9573985",
            "closest_to": "san diego",
            "address": "Torrey Pines High School, Del Mar Heights Road, Del Mar, San Diego, San Diego County, California, 92130, United States of America",
            "locType": "school",
            "blogLinks": [
                "http://www.sandiego.org/what-to-do/beaches/la-jolla.aspx"
            ],
            "longitude": "-117.224896678294"
        },
        "st. anthony": {
            "latitude": "33.8449442",
            "closest_to": "long beach",
            "address": "Saints (St Anthony) Stadium, Clark Avenue, Bixby Knolls, Long Beach, Los Angeles County, California, 90712, United States of America",
            "locType": "pitch",
            "blogLinks": [
                "http://www.parks.ca.gov/?page_id=22722"
            ],
            "longitude": "-118.132889673818"
        },
        "dana point": {
            "latitude": "33.4669721",
            "closest_to": "san diego",
            "address": "Dana Point, Orange County, California, United States of America",
            "locType": "city",
            "blogLinks": [
                "http://moon.com/2011/02/fun-road-trip-ideas-road-trip-the-california-coast/"
            ],
            "longitude": "-117.6981074"
        }
    }
}