{
    "san bernardino": {
        "type": "city",
        "osm_id": "253639",
        "class": "place",
        "importance": 0.81183700771795,
        "lat": "34.1083449",
        "lon": "-117.2897651",
        "boundingbox": [
            "34.050346",
            "34.230706",
            "-117.4024519",
            "-117.1649719"
        ],
        "display_name": "San Bernardino, San Bernardino County, California, United States of America",
        "licence": "Data \u00a9 OpenStreetMap contributors, ODbL 1.0. http://www.openstreetmap.org/copyright",
        "icon": "https://nominatim.openstreetmap.org/images/mapicons/poi_place_city.p.20.png",
        "place_id": "159293643",
        "osm_type": "relation"
    },
    "mentions": {
        "hollywood boulevard": {
            "latitude": "34.1016312",
            "closest_to": "long beach",
            "address": "Hollywood Boulevard, Hollywood, LA, Los Angeles County, California, 90028, United States of America",
            "locType": "secondary",
            "blogLinks": [
                "http://wikitravel.org/en/Los_Angeles"
            ],
            "longitude": "-118.32684"
        },
        "pacific coast highway": {
            "latitude": "33.6595127",
            "closest_to": "san bernardino",
            "address": "Pacific Coast Highway, Huntington Beach, Orange County, California, 92648, United States of America",
            "locType": "primary",
            "blogLinks": [
                "http://wikitravel.org/en/San_Diego",
                "http://www.hopper.com/articles/291/five-great-stops-between-los-angeles-and-san-francisco-on-the-pacific-coast-highway",
                "http://wikitravel.org/en/Los_Angeles"
            ],
            "longitude": "-118.0051687"
        },
        "lake dolores": {
            "latitude": "33.8330727",
            "closest_to": "long beach",
            "address": "Dolores, Los Angeles County, California, United States of America",
            "locType": "hamlet",
            "blogLinks": [
                "http://www.parks.ca.gov/?page_id=22722"
            ],
            "longitude": "-118.2264594"
        },
        "camino capistrano": {
            "latitude": "33.5045525",
            "closest_to": "san bernardino",
            "address": "Camino Capistrano, San Juan Capistrano, Orange County, California, 92675, United States of America",
            "locType": "secondary",
            "blogLinks": [
                "http://www.parks.ca.gov/?page_id=22722"
            ],
            "longitude": "-117.6641659"
        },
        "japanese garden": {
            "latitude": "34.1832291",
            "closest_to": "long beach",
            "address": "The Japanese Garden, Woodley Avenue, Encino, LA, Los Angeles County, California, 91344, United States of America",
            "locType": "attraction",
            "blogLinks": [
                "http://wikitravel.org/en/Los_Angeles"
            ],
            "longitude": "-118.480944037598"
        },
        "prado regional park": {
            "latitude": "33.9419585",
            "closest_to": "san bernardino",
            "address": "El Prado Regional Park, Euclid Avenue, Chino, San Bernardino County, California, 92878, United States of America",
            "locType": "park",
            "blogLinks": [
                "http://cms.sbcounty.gov/parks/Activities/Camping.aspx"
            ],
            "longitude": "-117.6594976"
        },
        "alvarado street": {
            "latitude": "34.0565614",
            "closest_to": "long beach",
            "address": "Alvarado Street, Bunker Hill, LA, Los Angeles County, California, 90057-4101, United States of America",
            "locType": "secondary",
            "blogLinks": [
                "http://wikitravel.org/en/Los_Angeles"
            ],
            "longitude": "-118.2767489"
        },
        "irvine": {
            "latitude": "33.6856969",
            "closest_to": "san bernardino",
            "address": "Irvine, Orange County, California, United States of America",
            "locType": "city",
            "blogLinks": [
                "https://www.yelp.com/biz/oceanside-metrolink-train-station-oceanside"
            ],
            "longitude": "-117.8259818"
        },
        "canoga park": {
            "latitude": "34.2010776",
            "closest_to": "long beach",
            "address": "Canoga Park, LA, Los Angeles County, California, United States of America",
            "locType": "suburb",
            "blogLinks": [
                "http://wikitravel.org/en/Los_Angeles"
            ],
            "longitude": "-118.5978258"
        },
        "la cienega boulevard": {
            "latitude": "34.0459813",
            "closest_to": "long beach",
            "address": "La Cienega Boulevard, South Carthay, The Village Green, LA, Los Angeles County, California, 90035, United States of America",
            "locType": "primary",
            "blogLinks": [
                "http://wikitravel.org/en/Los_Angeles"
            ],
            "longitude": "-118.376447"
        },
        "phoenix": {
            "latitude": "33.6988015",
            "closest_to": "san bernardino",
            "address": "Phoenix, Heritage Park Apartments, El Camino Real, Irvine, Orange County, California, 92604, United States of America",
            "locType": "residential",
            "blogLinks": [
                "http://wikitravel.org/en/San_Diego"
            ],
            "longitude": "-117.7764481"
        },
        "irvine park railroad": {
            "latitude": "33.7962496",
            "closest_to": "san bernardino",
            "address": "Irvine Park Railroad, 1, Irvine Regional Park, Cowan Heights, Orange Park Acres, Orange County, California, 92869, United States of America",
            "locType": "yes",
            "blogLinks": [
                "https://blog.trekaroo.com/top-ten-holiday-events-to-enjoy-with-kids-in-southern-california/"
            ],
            "longitude": "-117.754123588843"
        },
        "bel-air": {
            "latitude": "34.0827278",
            "closest_to": "long beach",
            "address": "Bel Air, Westwood, LA, Los Angeles County, California, 90095, United States of America",
            "locType": "neighbourhood",
            "blogLinks": [
                "http://wikitravel.org/en/Los_Angeles"
            ],
            "longitude": "-118.4479801"
        },
        "n. orange county": {
            "latitude": "33.6876849",
            "closest_to": "san bernardino",
            "address": "N, Portola Parkway, Foothill Ranch, Lake Forest, Orange County, California, 92610, United States of America",
            "locType": "yes",
            "blogLinks": [
                "http://www.bestplaces.net/city/california/brea"
            ],
            "longitude": "-117.67368765"
        },
        "wrightwood": {
            "latitude": "34.3583535",
            "closest_to": "san bernardino",
            "address": "Wrightwood, Ross Street, Wrightwood, San Bernardino County, California, 92397, United States of America",
            "locType": "administrative",
            "blogLinks": [
                "http://cms.sbcounty.gov/parks/Activities/Camping.aspx"
            ],
            "longitude": "-117.627599739034"
        },
        "south korea": {
            "latitude": "34.0621061",
            "closest_to": "long beach",
            "address": "Consulate of the ROK (South Korea) in Los Angeles, South New Hampshire Avenue, Koreatown, Saint James Park, LA, Los Angeles County, California, 90005, United States of America",
            "locType": "embassy",
            "blogLinks": [
                "http://wikitravel.org/en/Los_Angeles"
            ],
            "longitude": "-118.29270769528"
        },
        "san sevaine": {
            "latitude": "34.0292684",
            "closest_to": "san bernardino",
            "address": "San Sevaine Channel, Jurupa Valley, Riverside County, California, United States of America",
            "locType": "drain",
            "blogLinks": [
                "https://en.wikipedia.org/wiki/Rancho_Cucamonga,_California"
            ],
            "longitude": "-117.5059045"
        },
        "california adventure park": {
            "latitude": "33.80638705",
            "closest_to": "san bernardino",
            "address": "DCA, 1620, South Disneyland Drive, Anaheim Resort District, Anaheim, Orange County, California, 92802, United States of America",
            "locType": "theme_park",
            "blogLinks": [
                "http://wikitravel.org/en/Los_Angeles"
            ],
            "longitude": "-117.919940244086"
        },
        "malibu canyon": {
            "latitude": "33.7311196",
            "closest_to": "san bernardino",
            "address": "Malibu, Lower Peters Canyon, Irvine, Orange County, California, 92602, United States of America",
            "locType": "residential",
            "blogLinks": [
                "http://wikitravel.org/en/Los_Angeles"
            ],
            "longitude": "-117.7645118"
        },
        "buena park": {
            "latitude": "33.870413",
            "closest_to": "san bernardino",
            "address": "Buena Park, Orange County, California, United States of America",
            "locType": "city",
            "blogLinks": [
                "http://wikitravel.org/en/Los_Angeles"
            ],
            "longitude": "-117.9962164"
        },
        "disney california": {
            "latitude": "33.8136367",
            "closest_to": "san bernardino",
            "address": "DL, 1313, South Harbor Boulevard, Anaheim Resort District, Anaheim, Orange County, California, 92805, United States of America",
            "locType": "theme_park",
            "blogLinks": [
                "http://wikitravel.org/en/Los_Angeles"
            ],
            "longitude": "-117.91971186569"
        },
        "victoria groves park": {
            "latitude": "34.13003995",
            "closest_to": "san bernardino",
            "address": "Victoria Groves Park, Fairmont Way, Alta Loma, Rancho Cucamonga, San Bernardino County, California, 91701, United States of America",
            "locType": "park",
            "blogLinks": [
                "https://en.wikipedia.org/wiki/Rancho_Cucamonga,_California"
            ],
            "longitude": "-117.562796150285"
        },
        "venice beach": {
            "latitude": "33.9862012",
            "closest_to": "long beach",
            "address": "Venice Beach, Venice Beach Bike Path, Venice, LA, Los Angeles County, California, 90405, United States of America",
            "locType": "police",
            "blogLinks": [
                "http://wikitravel.org/en/Los_Angeles"
            ],
            "longitude": "-118.4739815"
        },
        "los angeles pueblo": {
            "latitude": "34.0543942",
            "closest_to": "long beach",
            "address": "LA, Los Angeles County, California, United States of America",
            "locType": "city",
            "blogLinks": [
                "http://wikitravel.org/en/Los_Angeles"
            ],
            "longitude": "-118.2439408"
        },
        "heritage hill": {
            "latitude": "33.5171757",
            "closest_to": "san bernardino",
            "address": "Heritage, Temeku Hills, Temecula, Riverside County, California, 92591, United States of America",
            "locType": "residential",
            "blogLinks": [
                "https://blog.trekaroo.com/top-ten-holiday-events-to-enjoy-with-kids-in-southern-california/"
            ],
            "longitude": "-117.118322"
        },
        "milliken avenue": {
            "latitude": "34.0717558",
            "closest_to": "san bernardino",
            "address": "Milliken Avenue, Ontario, San Bernardino County, California, 91761, United States of America",
            "locType": "primary",
            "blogLinks": [
                "https://en.wikipedia.org/wiki/Rancho_Cucamonga,_California"
            ],
            "longitude": "-117.5581282"
        },
        "san gabriel valley": {
            "latitude": "34.0991325",
            "closest_to": "san bernardino",
            "address": "San Gabriel, Los Angeles County, California, United States of America",
            "locType": "city",
            "blogLinks": [
                "https://blog.trekaroo.com/top-ten-holiday-events-to-enjoy-with-kids-in-southern-california/",
                "http://wikitravel.org/en/Los_Angeles"
            ],
            "longitude": "-118.108604"
        },
        "ballast point": {
            "latitude": "33.4306128",
            "closest_to": "long beach",
            "address": "Ballast Point, Two Harbors, Los Angeles County, California, United States of America",
            "locType": "locality",
            "blogLinks": [
                "http://wikitravel.org/en/San_Diego"
            ],
            "longitude": "-118.5054834"
        },
        "genesee avenue": {
            "latitude": "34.0376458",
            "closest_to": "long beach",
            "address": "Genesee Avenue, South Carthay, The Village Green, LA, Los Angeles County, California, 90016, United States of America",
            "locType": "residential",
            "blogLinks": [
                "http://wikitravel.org/en/San_Diego"
            ],
            "longitude": "-118.3685811"
        },
        "santa monica": {
            "latitude": "34.0195598",
            "closest_to": "long beach",
            "address": "Santa Monica, Los Angeles County, California, United States of America",
            "locType": "city",
            "blogLinks": [
                "https://blog.trekaroo.com/top-ten-holiday-events-to-enjoy-with-kids-in-southern-california/",
                "http://www.bestplaces.net/city/california/long_beach",
                "http://wikitravel.org/en/Los_Angeles",
                "http://www.bestplaces.net/city/california/brea"
            ],
            "longitude": "-118.4869738"
        },
        "long beach airport": {
            "latitude": "33.81682825",
            "closest_to": "san bernardino",
            "address": "Long Beach Airport (LGB), Globemaster Avenue, California Heights, Long Beach, Los Angeles County, California, 90712:90807, United States of America",
            "locType": "aerodrome",
            "blogLinks": [
                "http://wikitravel.org/en/Los_Angeles"
            ],
            "longitude": "-118.153407224598"
        },
        "los angeles county": {
            "latitude": "34.3155072",
            "closest_to": "san bernardino",
            "address": "Los Angeles County, California, United States of America",
            "locType": "administrative",
            "blogLinks": [
                "http://wikitravel.org/en/Los_Angeles"
            ],
            "longitude": "-118.2096813"
        },
        "los angeles": {
            "latitude": "34.0543942",
            "closest_to": "long beach",
            "address": "LA, Los Angeles County, California, United States of America",
            "locType": "city",
            "blogLinks": [
                "http://www.parks.ca.gov/?page_id=22722",
                "http://cms.sbcounty.gov/parks/Activities/Camping.aspx",
                "https://en.wikipedia.org/wiki/Rancho_Cucamonga,_California",
                "http://www.bestplaces.net/city/california/long_beach",
                "http://wikitravel.org/en/San_Diego",
                "http://wikitravel.org/en/Los_Angeles",
                "https://blog.trekaroo.com/top-ten-holiday-events-to-enjoy-with-kids-in-southern-california/",
                "http://www.hopper.com/articles/291/five-great-stops-between-los-angeles-and-san-francisco-on-the-pacific-coast-highway",
                "http://www.bestplaces.net/city/california/brea"
            ],
            "longitude": "-118.2439408"
        },
        "victoria gardens": {
            "latitude": "34.1109434",
            "closest_to": "san bernardino",
            "address": "Victoria Gardens, South Mainstreet, Rancho Cucamonga, San Bernardino County, California, 91739, United States of America",
            "locType": "mall",
            "blogLinks": [
                "https://en.wikipedia.org/wiki/Rancho_Cucamonga,_California"
            ],
            "longitude": "-117.532065718501"
        },
        "san clemente": {
            "latitude": "33.4270275",
            "closest_to": "san bernardino",
            "address": "San Clemente, Orange County, California, United States of America",
            "locType": "city",
            "blogLinks": [
                "http://wikitravel.org/en/San_Diego",
                "https://www.yelp.com/biz/oceanside-metrolink-train-station-oceanside"
            ],
            "longitude": "-117.6124178"
        },
        "arizona": {
            "latitude": "34.4631398",
            "closest_to": "san bernardino",
            "address": "Arizona, San Bernardino County, California, 92371, United States of America",
            "locType": "track",
            "blogLinks": [
                "http://wikitravel.org/en/San_Diego",
                "http://wikitravel.org/en/Los_Angeles"
            ],
            "longitude": "-117.5060679"
        },
        "grand ave.": {
            "latitude": "34.10718",
            "closest_to": "san bernardino",
            "address": "Grand Avenue, Yucca Valley, San Bernardino County, California, 92284, United States of America",
            "locType": "residential",
            "blogLinks": [
                "http://wikitravel.org/en/Los_Angeles"
            ],
            "longitude": "-116.4257794"
        },
        "hollywood bowl": {
            "latitude": "34.1121836",
            "closest_to": "long beach",
            "address": "Hollywood Bowl, Los Tilos Road, Whitley Heights, LA, Los Angeles County, California, 90068, United States of America",
            "locType": "theatre",
            "blogLinks": [
                "http://wikitravel.org/en/Los_Angeles"
            ],
            "longitude": "-118.339277261641"
        },
        "culver city": {
            "latitude": "34.0211224",
            "closest_to": "long beach",
            "address": "Culver City, Los Angeles County, California, United States of America",
            "locType": "administrative",
            "blogLinks": [
                "http://wikitravel.org/en/Los_Angeles"
            ],
            "longitude": "-118.3964664"
        },
        "laguna niguel": {
            "latitude": "33.5225261",
            "closest_to": "san bernardino",
            "address": "Laguna Niguel, Orange County, California, United States of America",
            "locType": "city",
            "blogLinks": [
                "https://blog.trekaroo.com/top-ten-holiday-events-to-enjoy-with-kids-in-southern-california/"
            ],
            "longitude": "-117.7075525"
        },
        "rose bowl": {
            "latitude": "34.1613231",
            "closest_to": "san bernardino",
            "address": "Rose Bowl, Rose Bowl Drive, Pasadena, Los Angeles County, California, 91103, United States of America",
            "locType": "stadium",
            "blogLinks": [
                "http://wikitravel.org/en/Los_Angeles"
            ],
            "longitude": "-118.167655462606"
        },
        "nokia theatre": {
            "latitude": "34.0444711",
            "closest_to": "long beach",
            "address": "Club Nokia, Chick Hearn Court, South Park, Bunker Hill, LA, Los Angeles County, California, 90015, United States of America",
            "locType": "theatre",
            "blogLinks": [
                "http://wikitravel.org/en/Los_Angeles"
            ],
            "longitude": "-118.2655019"
        },
        "vermont ave.": {
            "latitude": "33.9890027",
            "closest_to": "long beach",
            "address": "Vermont Avenue, Wildasin, Florence, LA, Los Angeles County, California, 90044, United States of America",
            "locType": "secondary",
            "blogLinks": [
                "http://wikitravel.org/en/Los_Angeles"
            ],
            "longitude": "-118.2914818"
        },
        "hollywood": {
            "latitude": "34.1028268",
            "closest_to": "long beach",
            "address": "Hollywood, LA, Los Angeles County, California, United States of America",
            "locType": "suburb",
            "blogLinks": [
                "http://wikitravel.org/en/Los_Angeles"
            ],
            "longitude": "-118.3299898"
        },
        "metro": {
            "latitude": "33.9880063",
            "closest_to": "long beach",
            "address": "Metro, Windward Circle, Venice, LA, Los Angeles County, California, 90291, United States of America",
            "locType": "bus_station",
            "blogLinks": [
                "http://wikitravel.org/en/Los_Angeles"
            ],
            "longitude": "-118.4710141"
        },
        "san dimas": {
            "latitude": "34.1066756",
            "closest_to": "san bernardino",
            "address": "San Dimas, Los Angeles County, California, United States of America",
            "locType": "town",
            "blogLinks": [
                "http://wikitravel.org/en/Los_Angeles"
            ],
            "longitude": "-117.8067256"
        },
        "palm springs": {
            "latitude": "33.8246269",
            "closest_to": "san bernardino",
            "address": "Palm Springs, Riverside County, California, United States of America",
            "locType": "city",
            "blogLinks": [
                "http://wikitravel.org/en/Los_Angeles"
            ],
            "longitude": "-116.5403029"
        },
        "costa mesa": {
            "latitude": "33.6633386",
            "closest_to": "san bernardino",
            "address": "Costa Mesa, Orange County, California, United States of America",
            "locType": "city",
            "blogLinks": [
                "https://blog.trekaroo.com/top-ten-holiday-events-to-enjoy-with-kids-in-southern-california/"
            ],
            "longitude": "-117.9033169"
        },
        "vermont avenue": {
            "latitude": "33.9890027",
            "closest_to": "long beach",
            "address": "Vermont Avenue, Wildasin, Florence, LA, Los Angeles County, California, 90044, United States of America",
            "locType": "secondary",
            "blogLinks": [
                "http://wikitravel.org/en/Los_Angeles"
            ],
            "longitude": "-118.2914818"
        },
        "malaysia": {
            "latitude": "34.07669",
            "closest_to": "san bernardino",
            "address": "Little Malaysia, 3944, Peck Road, El Monte, Los Angeles County, California, 91732, United States of America",
            "locType": "restaurant",
            "blogLinks": [
                "https://www.tripadvisor.com/ShowTopic-g28926-i29-k6275007-Between_Morro_Bay_and_Solvang_things_to_do-California.html"
            ],
            "longitude": "-118.0203359"
        },
        "kodak theater": {
            "latitude": "34.1026902",
            "closest_to": "long beach",
            "address": "Dolby Theatre, 6801, Hollywood Boulevard, Whitley Heights, LA, Los Angeles County, California, 90028, United States of America",
            "locType": "theatre",
            "blogLinks": [
                "http://wikitravel.org/en/Los_Angeles"
            ],
            "longitude": "-118.340468559893"
        },
        "west": {
            "latitude": "33.9492548",
            "closest_to": "long beach",
            "address": "W, Service road S, Westchester, Playa del Rey, LA, Los Angeles County, California, 90245, United States of America",
            "locType": "taxiway",
            "blogLinks": [
                "https://en.wikipedia.org/wiki/Rancho_Cucamonga,_California"
            ],
            "longitude": "-118.4108078"
        },
        "esmeralda": {
            "latitude": "34.0829329",
            "closest_to": "san bernardino",
            "address": "Esmeralda Street, Rose Hill, Highland Park, LA, Los Angeles County, California, 90032, United States of America",
            "locType": "residential",
            "blogLinks": [
                "http://wikitravel.org/en/San_Diego"
            ],
            "longitude": "-118.1939061"
        },
        "getty center drive": {
            "latitude": "34.0886759",
            "closest_to": "long beach",
            "address": "Getty Center Drive, Brentwood, LA, Los Angeles County, California, 90049, United States of America",
            "locType": "residential",
            "blogLinks": [
                "http://wikitravel.org/en/Los_Angeles"
            ],
            "longitude": "-118.4749678"
        },
        "greater los angeles": {
            "latitude": "33.9864031",
            "closest_to": "long beach",
            "address": "Greater Cornerstone Baptist Church, Figueroa Street, Wildasin, Florence, LA, Los Angeles County, California, 90044, United States of America",
            "locType": "place_of_worship",
            "blogLinks": [
                "http://wikitravel.org/en/Los_Angeles"
            ],
            "longitude": "-118.2822963"
        },
        "redlands": {
            "latitude": "34.069909",
            "closest_to": "san bernardino",
            "address": "Redlands, San Bernardino County, California, United States of America",
            "locType": "city",
            "blogLinks": [
                "https://www.pinterest.com/pin/492510909221178685/"
            ],
            "longitude": "-117.248983896912"
        },
        "los angeles international": {
            "latitude": "33.94211345",
            "closest_to": "long beach",
            "address": "Los Angeles International Airport, Gate 41, Westchester, Playa del Rey, LA, Los Angeles County, California, 90245, United States of America",
            "locType": "aerodrome",
            "blogLinks": [
                "http://www.bestplaces.net/city/california/long_beach",
                "http://www.bestplaces.net/city/california/brea"
            ],
            "longitude": "-118.407057290249"
        },
        "los feliz": {
            "latitude": "34.10815355",
            "closest_to": "long beach",
            "address": "Los Feliz, Little Armenia, LA, Los Angeles County, California, 90027, United States of America",
            "locType": "neighbourhood",
            "blogLinks": [
                "http://wikitravel.org/en/Los_Angeles"
            ],
            "longitude": "-118.289935811004"
        },
        "metro gold line": {
            "latitude": "34.0559711",
            "closest_to": "san bernardino",
            "address": "Metro Gold Line, LA Union Station Underground Walkway, Naud Junction, Little Tokyo Historic District, LA, Los Angeles County, California, 90012, United States of America",
            "locType": "platform",
            "blogLinks": [
                "http://wikitravel.org/en/Los_Angeles"
            ],
            "longitude": "-118.2347778235"
        },
        "san bernardino": {
            "latitude": "34.1083449",
            "closest_to": "san bernardino",
            "address": "San Bernardino, San Bernardino County, California, United States of America",
            "locType": "city",
            "blogLinks": [
                "http://www.bestplaces.net/city/california/long_beach",
                "https://www.yelp.com/biz/oceanside-metrolink-train-station-oceanside",
                "http://blog.elmonterv.com/index.php/2011/03/top-ten-list-of-places-to-see-in-san-bernardino/",
                "http://wikitravel.org/en/San_Diego",
                "http://wikitravel.org/en/Los_Angeles",
                "https://www.pinterest.com/pin/270075308874996476/",
                "http://www.bestplaces.net/city/california/brea"
            ],
            "longitude": "-117.2897651"
        },
        "artesia": {
            "latitude": "33.8690197",
            "closest_to": "san bernardino",
            "address": "Artesia, Los Angeles County, California, United States of America",
            "locType": "city",
            "blogLinks": [
                "http://wikitravel.org/en/Los_Angeles"
            ],
            "longitude": "-118.0796194"
        },
        "hermosa beach": {
            "latitude": "33.86428",
            "closest_to": "long beach",
            "address": "Hermosa Beach, Los Angeles County, California, United States of America",
            "locType": "city",
            "blogLinks": [
                "http://wikitravel.org/en/Los_Angeles"
            ],
            "longitude": "-118.3959099"
        },
        "east hollywood": {
            "latitude": "34.1028268",
            "closest_to": "long beach",
            "address": "Hollywood, LA, Los Angeles County, California, United States of America",
            "locType": "suburb",
            "blogLinks": [
                "http://wikitravel.org/en/Los_Angeles"
            ],
            "longitude": "-118.3299898"
        },
        "mojave river forks": {
            "latitude": "34.3304324",
            "closest_to": "san bernardino",
            "address": "Mojave River Forks Regional Park, CA 173, Hesperia, San Bernardino County, California, 92345, United States of America",
            "locType": "camp_site",
            "blogLinks": [
                "http://cms.sbcounty.gov/parks/Activities/Camping.aspx"
            ],
            "longitude": "-117.2659348"
        },
        "arrowhead credit union park": {
            "latitude": "34.0649487",
            "closest_to": "san bernardino",
            "address": "Arrowhead Credit Union, Industrial Park Avenue, Redlands, San Bernardino County, California, 92374, United States of America",
            "locType": "bank",
            "blogLinks": [
                "http://blog.elmonterv.com/index.php/2011/03/top-ten-list-of-places-to-see-in-san-bernardino/"
            ],
            "longitude": "-117.2074187"
        },
        "huntington beach": {
            "latitude": "33.6783336",
            "closest_to": "san bernardino",
            "address": "Huntington Beach, Orange County, California, United States of America",
            "locType": "city",
            "blogLinks": [
                "http://wikitravel.org/en/Los_Angeles"
            ],
            "longitude": "-118.0000165"
        },
        "azusa": {
            "latitude": "34.1338751",
            "closest_to": "san bernardino",
            "address": "Azusa, Los Angeles County, California, United States of America",
            "locType": "city",
            "blogLinks": [
                "https://en.wikipedia.org/wiki/Rancho_Cucamonga,_California"
            ],
            "longitude": "-117.9056045"
        },
        "los angeles river": {
            "latitude": "34.1557816",
            "closest_to": "long beach",
            "address": "Los Angeles River, LA, Los Angeles County, California, United States of America",
            "locType": "river",
            "blogLinks": [
                "http://wikitravel.org/en/Los_Angeles"
            ],
            "longitude": "-118.4421904"
        },
        "encino": {
            "latitude": "34.1591324",
            "closest_to": "long beach",
            "address": "Encino, LA, Los Angeles County, California, United States of America",
            "locType": "suburb",
            "blogLinks": [
                "http://wikitravel.org/en/Los_Angeles"
            ],
            "longitude": "-118.5016165"
        },
        "ontario mills": {
            "latitude": "34.07298725",
            "closest_to": "san bernardino",
            "address": "Ontario Mills, 1, Mills Circle, Ontario, San Bernardino County, California, 91764, United States of America",
            "locType": "mall",
            "blogLinks": [
                "https://en.wikipedia.org/wiki/Rancho_Cucamonga,_California"
            ],
            "longitude": "-117.551522311875"
        },
        "dana point": {
            "latitude": "33.4669721",
            "closest_to": "san bernardino",
            "address": "Dana Point, Orange County, California, United States of America",
            "locType": "city",
            "blogLinks": [
                "http://wikitravel.org/en/San_Diego"
            ],
            "longitude": "-117.6981074"
        },
        "valencia": {
            "latitude": "34.1466768",
            "closest_to": "san bernardino",
            "address": "Valencia, San Bernardino County, California, United States of America",
            "locType": "hamlet",
            "blogLinks": [
                "http://wikitravel.org/en/Los_Angeles"
            ],
            "longitude": "-117.2725426"
        },
        "irvine spectrum center": {
            "latitude": "33.65023015",
            "closest_to": "san bernardino",
            "address": "The Irvine Spectrum Center, Irvine, Orange County, California, 92618, United States of America",
            "locType": "retail",
            "blogLinks": [
                "https://blog.trekaroo.com/top-ten-holiday-events-to-enjoy-with-kids-in-southern-california/"
            ],
            "longitude": "-117.743290013547"
        },
        "harbor drive": {
            "latitude": "34.5013497",
            "closest_to": "san bernardino",
            "address": "Harbor Drive, San Bernardino County, California, 92392, United States of America",
            "locType": "residential",
            "blogLinks": [
                "http://wikitravel.org/en/San_Diego"
            ],
            "longitude": "-117.2654027"
        },
        "kenya": {
            "latitude": "34.2713528",
            "closest_to": "long beach",
            "address": "Kenya Street, Granada Hills, Northridge, LA, Los Angeles County, California, 91326, United States of America",
            "locType": "tertiary",
            "blogLinks": [
                "http://wikitravel.org/en/Los_Angeles"
            ],
            "longitude": "-118.5402675"
        },
        "glendale": {
            "latitude": "34.1423455",
            "closest_to": "long beach",
            "address": "Glendale, Los Angeles County, California, United States of America",
            "locType": "city",
            "blogLinks": [
                "https://blog.trekaroo.com/top-ten-holiday-events-to-enjoy-with-kids-in-southern-california/",
                "http://www.bestplaces.net/city/california/long_beach",
                "http://www.bestplaces.net/city/california/brea"
            ],
            "longitude": "-118.248367"
        },
        "figueroa street": {
            "latitude": "34.0006694",
            "closest_to": "long beach",
            "address": "Figueroa Street, Jefferson, LA, Los Angeles County, California, 90037, United States of America",
            "locType": "primary",
            "blogLinks": [
                "http://wikitravel.org/en/Los_Angeles"
            ],
            "longitude": "-118.2827087"
        },
        "france": {
            "latitude": "34.2013715",
            "closest_to": "long beach",
            "address": "France, Sherman Way, Canoga Park, LA, Los Angeles County, California, 91307, United States of America",
            "locType": "cafe",
            "blogLinks": [
                "http://wikitravel.org/en/San_Diego",
                "http://www.parks.ca.gov/?page_id=22722",
                "http://wikitravel.org/en/Los_Angeles"
            ],
            "longitude": "-118.5935353"
        },
        "panorama city": {
            "latitude": "34.224726",
            "closest_to": "long beach",
            "address": "Panorama City, Sepulveda, LA, Los Angeles County, California, 91402, United States of America",
            "locType": "neighbourhood",
            "blogLinks": [
                "http://wikitravel.org/en/Los_Angeles"
            ],
            "longitude": "-118.4498051"
        },
        "san fernando": {
            "latitude": "34.2819461",
            "closest_to": "long beach",
            "address": "San Fernando, Los Angeles County, California, United States of America",
            "locType": "administrative",
            "blogLinks": [
                "http://wikitravel.org/en/Los_Angeles"
            ],
            "longitude": "-118.4389718"
        },
        "los angeles california temple": {
            "latitude": "34.0525886",
            "closest_to": "long beach",
            "address": "Los Angeles California Temple, North Temple Way, Westwood, LA, Los Angeles County, California, 90024, United States of America",
            "locType": "place_of_worship",
            "blogLinks": [
                "http://wikitravel.org/en/Los_Angeles"
            ],
            "longitude": "-118.434179759967"
        },
        "san juan capistrano": {
            "latitude": "33.5016932",
            "closest_to": "san bernardino",
            "address": "San Juan Capistrano, Orange County, California, United States of America",
            "locType": "city",
            "blogLinks": [
                "http://www.parks.ca.gov/?page_id=22722"
            ],
            "longitude": "-117.6625508"
        },
        "grand hope park": {
            "latitude": "34.04431655",
            "closest_to": "long beach",
            "address": "Grand Hope Park, South Hope Street, South Park, Bunker Hill, LA, Los Angeles County, California, 90015, United States of America",
            "locType": "park",
            "blogLinks": [
                "http://wikitravel.org/en/Los_Angeles"
            ],
            "longitude": "-118.260558925633"
        },
        "canada": {
            "latitude": "33.7298842",
            "closest_to": "san bernardino",
            "address": "La Canada, Lower Peters Canyon, Irvine, Orange County, California, 92602, United States of America",
            "locType": "residential",
            "blogLinks": [
                "http://wikitravel.org/en/San_Diego",
                "http://wikitravel.org/en/Los_Angeles"
            ],
            "longitude": "-117.7641381"
        },
        "claremont": {
            "latitude": "34.0966764",
            "closest_to": "san bernardino",
            "address": "Claremont, Los Angeles County, California, United States of America",
            "locType": "city",
            "blogLinks": [
                "http://wikitravel.org/en/Los_Angeles"
            ],
            "longitude": "-117.7197784"
        },
        "port of los angeles": {
            "latitude": "33.7291858",
            "closest_to": "long beach",
            "address": "Port of Los Angeles, LA, Los Angeles County, California, United States of America",
            "locType": "dock",
            "blogLinks": [
                "http://wikitravel.org/en/Los_Angeles"
            ],
            "longitude": "-118.2620149"
        },
        "torrance": {
            "latitude": "33.8358492",
            "closest_to": "long beach",
            "address": "Torrance, Los Angeles County, California, United States of America",
            "locType": "city",
            "blogLinks": [
                "http://wikitravel.org/en/Los_Angeles"
            ],
            "longitude": "-118.3406287"
        },
        "lummis home": {
            "latitude": "34.09317445",
            "closest_to": "san bernardino",
            "address": "Lummis Home, Carlota Boulevard, Rose Hill, Highland Park, LA, Los Angeles County, California, 90031, United States of America",
            "locType": "yes",
            "blogLinks": [
                "http://wikitravel.org/en/Los_Angeles"
            ],
            "longitude": "-118.206958254434"
        },
        "east los angeles": {
            "latitude": "34.0239015",
            "closest_to": "san bernardino",
            "address": "East Los Angeles, Belvedere Gardens, Los Angeles County, California, United States of America",
            "locType": "suburb",
            "blogLinks": [
                "http://wikitravel.org/en/Los_Angeles"
            ],
            "longitude": "-118.1720156"
        },
        "upland": {
            "latitude": "34.09751",
            "closest_to": "san bernardino",
            "address": "Upland, San Bernardino County, California, United States of America",
            "locType": "city",
            "blogLinks": [
                "https://en.wikipedia.org/wiki/Rancho_Cucamonga,_California"
            ],
            "longitude": "-117.6483875"
        },
        "wilmington": {
            "latitude": "33.780018",
            "closest_to": "long beach",
            "address": "Wilmington, LA, Los Angeles County, California, United States of America",
            "locType": "suburb",
            "blogLinks": [
                "http://wikitravel.org/en/Los_Angeles"
            ],
            "longitude": "-118.262571"
        },
        "burbank airport": {
            "latitude": "34.1944171",
            "closest_to": "long beach",
            "address": "Burbank Airport, Burbank, Los Angeles County, California, 91504, United States of America",
            "locType": "service",
            "blogLinks": [
                "http://wikitravel.org/en/Los_Angeles"
            ],
            "longitude": "-118.353019743886"
        },
        "gabrielino": {
            "latitude": "34.08326295",
            "closest_to": "san bernardino",
            "address": "Gabrielino High School, San Gabriel Boulevard, San Gabriel, Los Angeles County, California, 91776, United States of America",
            "locType": "school",
            "blogLinks": [
                "https://en.wikipedia.org/wiki/Rancho_Cucamonga,_California"
            ],
            "longitude": "-118.091938245439"
        },
        "tongva park": {
            "latitude": "34.0111636",
            "closest_to": "long beach",
            "address": "Tongva Park, Pacific Coast Highway, Santa Monica, Los Angeles County, California, CA 90401, United States of America",
            "locType": "park",
            "blogLinks": [
                "http://wikitravel.org/en/Los_Angeles"
            ],
            "longitude": "-118.493136498643"
        },
        "simi valley": {
            "latitude": "34.2694474",
            "closest_to": "long beach",
            "address": "Simi Valley, Ventura County, California, United States of America",
            "locType": "city",
            "blogLinks": [
                "http://wikitravel.org/en/Los_Angeles"
            ],
            "longitude": "-118.7814819"
        },
        "anaheim": {
            "latitude": "33.8347516",
            "closest_to": "san bernardino",
            "address": "Anaheim, Orange County, California, United States of America",
            "locType": "city",
            "blogLinks": [
                "http://wikitravel.org/en/San_Diego",
                "https://en.wikipedia.org/wiki/Rancho_Cucamonga,_California",
                "http://wikitravel.org/en/Los_Angeles",
                "https://www.yelp.com/biz/oceanside-metrolink-train-station-oceanside"
            ],
            "longitude": "-117.9117319"
        },
        "echo park": {
            "latitude": "34.074",
            "closest_to": "long beach",
            "address": "Echo Park, Angelino Heights, LA, Los Angeles County, California, 90026, United States of America",
            "locType": "neighbourhood",
            "blogLinks": [
                "http://wikitravel.org/en/Los_Angeles"
            ],
            "longitude": "-118.2608734"
        },
        "san bernardino/ontario": {
            "latitude": "34.05055885",
            "closest_to": "san bernardino",
            "address": "California Commerce Center, Ontario, San Bernardino County, California, 91761, United States of America",
            "locType": "commercial;light_industrial;retail",
            "blogLinks": [
                "http://wikitravel.org/en/Los_Angeles"
            ],
            "longitude": "-117.562830625981"
        },
        "gaslamp": {
            "latitude": "33.76711105",
            "closest_to": "san bernardino",
            "address": "Gaslamp, Loynes Drive, Marina Pacifica, Naples, Long Beach, Los Angeles County, California, 90803, United States of America",
            "locType": "hotel",
            "blogLinks": [
                "http://wikitravel.org/en/San_Diego"
            ],
            "longitude": "-118.116345466191"
        },
        "boston": {
            "latitude": "33.696779",
            "closest_to": "san bernardino",
            "address": "Boston, Heritage Park Apartments, El Camino Real, Irvine, Orange County, California, 92604, United States of America",
            "locType": "residential",
            "blogLinks": [
                "https://answers.yahoo.com/question/index?qid=20080328184800AA3D7Fs"
            ],
            "longitude": "-117.7757132"
        },
        "highland center": {
            "latitude": "34.1283442",
            "closest_to": "san bernardino",
            "address": "Highland, San Bernardino County, California, United States of America",
            "locType": "city",
            "blogLinks": [
                "http://wikitravel.org/en/Los_Angeles"
            ],
            "longitude": "-117.2086512"
        },
        "monterey st.": {
            "latitude": "34.097787",
            "closest_to": "san bernardino",
            "address": "Monterey Street, Mount Washington, Highland Park, LA, Los Angeles County, California, 90065, United States of America",
            "locType": "residential",
            "blogLinks": [
                "http://www.parks.ca.gov/?page_id=22722"
            ],
            "longitude": "-118.2146689"
        },
        "south alameda street": {
            "latitude": "34.0391306",
            "closest_to": "san bernardino",
            "address": "South Alameda Street, Arts District, Little Tokyo Historic District, LA, Los Angeles County, California, 90013, United States of America",
            "locType": "primary",
            "blogLinks": [
                "http://wikitravel.org/en/Los_Angeles"
            ],
            "longitude": "-118.2383577"
        },
        "langham huntington": {
            "latitude": "34.1202821",
            "closest_to": "san bernardino",
            "address": "The Langham Huntington, 1401, Huntington Circle, Pasadena, Los Angeles County, California, 91106, United States of America",
            "locType": "hotel",
            "blogLinks": [
                "https://blog.trekaroo.com/top-ten-holiday-events-to-enjoy-with-kids-in-southern-california/"
            ],
            "longitude": "-118.1333115"
        },
        "larchmont blvd": {
            "latitude": "34.0820671",
            "closest_to": "long beach",
            "address": "North Larchmont Boulevard, Hancock Park, Hollywood, LA, Los Angeles County, California, 90038, United States of America",
            "locType": "tertiary",
            "blogLinks": [
                "http://wikitravel.org/en/Los_Angeles"
            ],
            "longitude": "-118.3237279"
        },
        "decatur": {
            "latitude": "34.0339996",
            "closest_to": "san bernardino",
            "address": "Decatur Street, Arts District, Little Tokyo Historic District, LA, Los Angeles County, California, 90021, United States of America",
            "locType": "residential",
            "blogLinks": [
                "http://wikitravel.org/en/Los_Angeles"
            ],
            "longitude": "-118.2350699"
        },
        "san bernardino ca": {
            "latitude": "34.1083449",
            "closest_to": "san bernardino",
            "address": "San Bernardino, San Bernardino County, California, United States of America",
            "locType": "city",
            "blogLinks": [
                "https://blog.trekaroo.com/top-ten-holiday-events-to-enjoy-with-kids-in-southern-california/"
            ],
            "longitude": "-117.2897651"
        },
        "silver lake": {
            "latitude": "34.0896518",
            "closest_to": "long beach",
            "address": "Silver Lake, Angelino Heights, LA, Los Angeles County, California, 90026, United States of America",
            "locType": "neighbourhood",
            "blogLinks": [
                "http://wikitravel.org/en/Los_Angeles"
            ],
            "longitude": "-118.2693734"
        },
        "north tamarind ave.": {
            "latitude": "33.9055756",
            "closest_to": "long beach",
            "address": "North Tamarind Avenue, Compton, Los Angeles County, California, 90222, United States of America",
            "locType": "residential",
            "blogLinks": [
                "http://wikitravel.org/en/Los_Angeles"
            ],
            "longitude": "-118.222759"
        },
        "n. highland ave.": {
            "latitude": "34.088909",
            "closest_to": "long beach",
            "address": "North Highland Avenue, Hollywood, LA, Los Angeles County, California, 90068, United States of America",
            "locType": "primary",
            "blogLinks": [
                "http://wikitravel.org/en/Los_Angeles"
            ],
            "longitude": "-118.3386099"
        },
        "state street": {
            "latitude": "34.1572853",
            "closest_to": "san bernardino",
            "address": "State Street, San Bernardino, San Bernardino County, California, 92407, United States of America",
            "locType": "secondary",
            "blogLinks": [
                "https://blog.trekaroo.com/top-ten-holiday-events-to-enjoy-with-kids-in-southern-california/"
            ],
            "longitude": "-117.3347322"
        },
        "west hollywood": {
            "latitude": "34.0900091",
            "closest_to": "long beach",
            "address": "West Hollywood, Los Angeles County, California, United States of America",
            "locType": "city",
            "blogLinks": [
                "http://wikitravel.org/en/Los_Angeles"
            ],
            "longitude": "-118.3617442"
        },
        "rio rd.": {
            "latitude": "34.4960263",
            "closest_to": "san bernardino",
            "address": "El Rio Road, Victorville, San Bernardino County, California, 92392, United States of America",
            "locType": "residential",
            "blogLinks": [
                "http://www.parks.ca.gov/?page_id=22722"
            ],
            "longitude": "-117.3317399"
        },
        "ontario airport": {
            "latitude": "34.0417312",
            "closest_to": "san bernardino",
            "address": "Prologis Park Ontario Airport, Ontario, San Bernardino County, California, 91761, United States of America",
            "locType": "commercial",
            "blogLinks": [
                "http://wikitravel.org/en/Los_Angeles"
            ],
            "longitude": "-117.566879247477"
        },
        "etiwanda": {
            "latitude": "34.1261209",
            "closest_to": "san bernardino",
            "address": "Etiwanda, San Bernardino County, California, United States of America",
            "locType": "hamlet",
            "blogLinks": [
                "https://en.wikipedia.org/wiki/Rancho_Cucamonga,_California"
            ],
            "longitude": "-117.5236621"
        },
        "pasadena": {
            "latitude": "34.1476452",
            "closest_to": "san bernardino",
            "address": "Pasadena, Los Angeles County, California, United States of America",
            "locType": "city",
            "blogLinks": [
                "https://blog.trekaroo.com/top-ten-holiday-events-to-enjoy-with-kids-in-southern-california/",
                "http://www.bestplaces.net/city/california/long_beach",
                "http://wikitravel.org/en/Los_Angeles",
                "http://www.bestplaces.net/city/california/brea"
            ],
            "longitude": "-118.1444778"
        },
        "hollywood blvd": {
            "latitude": "34.1016312",
            "closest_to": "long beach",
            "address": "Hollywood Boulevard, Hollywood, LA, Los Angeles County, California, 90028, United States of America",
            "locType": "secondary",
            "blogLinks": [
                "http://wikitravel.org/en/Los_Angeles"
            ],
            "longitude": "-118.32684"
        },
        "colorado blvd.": {
            "latitude": "34.1394485",
            "closest_to": "san bernardino",
            "address": "Colorado Boulevard, Eagle Rock, Highland Park, LA, Los Angeles County, California, 90041, United States of America",
            "locType": "primary",
            "blogLinks": [
                "http://wikitravel.org/en/Los_Angeles"
            ],
            "longitude": "-118.2001327"
        },
        "santa monica mountains": {
            "latitude": "34.11008435",
            "closest_to": "long beach",
            "address": "Santa Monica Mountains National Recreation Area, Simes Lane, Seminole Hot Springs, Los Angeles County, California, 91301, United States of America",
            "locType": "protected_area",
            "blogLinks": [
                "http://wikitravel.org/en/Los_Angeles"
            ],
            "longitude": "-118.789983284662"
        },
        "levitt pavilion": {
            "latitude": "34.0601582",
            "closest_to": "long beach",
            "address": "Levitt Pavilion, West 6th Street, Angelino Heights, LA, Los Angeles County, California, 90057, United States of America",
            "locType": "theatre",
            "blogLinks": [
                "http://wikitravel.org/en/Los_Angeles"
            ],
            "longitude": "-118.278055367959"
        },
        "wilshire blvd": {
            "latitude": "34.0617231",
            "closest_to": "long beach",
            "address": "Wilshire Boulevard, Koreatown, Saint James Park, LA, Los Angeles County, California, 90005, United States of America",
            "locType": "primary",
            "blogLinks": [
                "http://wikitravel.org/en/Los_Angeles"
            ],
            "longitude": "-118.3036614"
        },
        "wilshire": {
            "latitude": "33.7805094",
            "closest_to": "san bernardino",
            "address": "Wilshire, Garden Grove, Orange County, California, 92868, United States of America",
            "locType": "service",
            "blogLinks": [
                "http://wikitravel.org/en/Los_Angeles"
            ],
            "longitude": "-117.9034923"
        },
        "malibu": {
            "latitude": "33.7932142",
            "closest_to": "san bernardino",
            "address": "Malibu, Palm Springs, Riverside County, California, 92264, United States of America",
            "locType": "residential",
            "blogLinks": [
                "http://www.bestplaces.net/city/california/long_beach",
                "http://wikitravel.org/en/Los_Angeles",
                "http://www.bestplaces.net/city/california/brea"
            ],
            "longitude": "-116.5023561"
        },
        "illinois": {
            "latitude": "34.4646044",
            "closest_to": "long beach",
            "address": "Illinois, Paris, Los Angeles County, California, 93510, United States of America",
            "locType": "residential",
            "blogLinks": [
                "http://wikitravel.org/en/San_Diego"
            ],
            "longitude": "-118.1758901"
        },
        "grapeland": {
            "latitude": "34.1250096",
            "closest_to": "san bernardino",
            "address": "Grapeland, San Bernardino County, California, United States of America",
            "locType": "hamlet",
            "blogLinks": [
                "https://en.wikipedia.org/wiki/Rancho_Cucamonga,_California"
            ],
            "longitude": "-117.562552"
        },
        "city of los angeles": {
            "latitude": "34.0543942",
            "closest_to": "long beach",
            "address": "LA, Los Angeles County, California, United States of America",
            "locType": "city",
            "blogLinks": [
                "http://wikitravel.org/en/Los_Angeles"
            ],
            "longitude": "-118.2439408"
        },
        "highland ave": {
            "latitude": "34.135757",
            "closest_to": "san bernardino",
            "address": "Highland Avenue, San Bernardino, San Bernardino County, California, 92346, United States of America",
            "locType": "primary",
            "blogLinks": [
                "http://wikitravel.org/en/Los_Angeles"
            ],
            "longitude": "-117.1953088"
        },
        "rancho cucamonga": {
            "latitude": "34.1033192",
            "closest_to": "san bernardino",
            "address": "Rancho Cucamonga, San Bernardino County, California, United States of America",
            "locType": "city",
            "blogLinks": [
                "https://en.wikipedia.org/wiki/Rancho_Cucamonga,_California"
            ],
            "longitude": "-117.5751734"
        },
        "santa ana": {
            "latitude": "33.7494951",
            "closest_to": "san bernardino",
            "address": "Santa Ana, Orange County, California, United States of America",
            "locType": "city",
            "blogLinks": [
                "http://wikitravel.org/en/San_Diego",
                "http://wikitravel.org/en/Los_Angeles",
                "https://www.yelp.com/biz/oceanside-metrolink-train-station-oceanside"
            ],
            "longitude": "-117.8732212"
        },
        "san fernando valley": {
            "latitude": "34.2819461",
            "closest_to": "long beach",
            "address": "San Fernando, Los Angeles County, California, United States of America",
            "locType": "administrative",
            "blogLinks": [
                "http://www.parks.ca.gov/?page_id=22722",
                "http://www.bestplaces.net/city/california/long_beach",
                "http://wikitravel.org/en/Los_Angeles",
                "http://www.bestplaces.net/city/california/brea"
            ],
            "longitude": "-118.4389718"
        },
        "covina": {
            "latitude": "34.0877926",
            "closest_to": "san bernardino",
            "address": "Covina, Los Angeles County, California, United States of America",
            "locType": "city",
            "blogLinks": [
                "http://wikitravel.org/en/Los_Angeles"
            ],
            "longitude": "-117.8891163"
        },
        "north cahuenga boulevard": {
            "latitude": "34.1055777",
            "closest_to": "long beach",
            "address": "North Cahuenga Boulevard, Hollywood, LA, Los Angeles County, California, 90028, United States of America",
            "locType": "primary",
            "blogLinks": [
                "http://wikitravel.org/en/Los_Angeles"
            ],
            "longitude": "-118.3305981"
        },
        "west covina": {
            "latitude": "34.0686208",
            "closest_to": "san bernardino",
            "address": "West Covina, Los Angeles County, California, United States of America",
            "locType": "city",
            "blogLinks": [
                "http://wikitravel.org/en/Los_Angeles"
            ],
            "longitude": "-117.9389525"
        },
        "long beach": {
            "latitude": "33.78538945",
            "closest_to": "san bernardino",
            "address": "Long Beach, Los Angeles County, California, United States of America",
            "locType": "city",
            "blogLinks": [
                "https://answers.yahoo.com/question/index?qid=20080328184800AA3D7Fs",
                "http://www.bestplaces.net/city/california/long_beach",
                "http://wikitravel.org/en/Los_Angeles",
                "http://www.bestplaces.net/city/california/brea"
            ],
            "longitude": "-118.158049215311"
        },
        "los angeles state historic park": {
            "latitude": "34.06847185",
            "closest_to": "san bernardino",
            "address": "Los Angeles State Historic Park, North Spring Street, Naud Junction, Little Tokyo Historic District, LA, Los Angeles County, California, 90012, United States of America",
            "locType": "park",
            "blogLinks": [
                "http://wikitravel.org/en/Los_Angeles"
            ],
            "longitude": "-118.231707087605"
        },
        "valley": {
            "latitude": "34.0148403",
            "closest_to": "san bernardino",
            "address": "Valley, South Stimson Avenue, Industry, Los Angeles County, California, 91745, United States of America",
            "locType": "yes",
            "blogLinks": [
                "https://blog.trekaroo.com/top-ten-holiday-events-to-enjoy-with-kids-in-southern-california/"
            ],
            "longitude": "-117.955234675878"
        },
        "sylmar": {
            "latitude": "34.3076252",
            "closest_to": "long beach",
            "address": "Sylmar, LA, Los Angeles County, California, United States of America",
            "locType": "suburb",
            "blogLinks": [
                "http://wikitravel.org/en/Los_Angeles"
            ],
            "longitude": "-118.4492147"
        },
        "alhambra": {
            "latitude": "34.0927361",
            "closest_to": "san bernardino",
            "address": "Alhambra, Los Angeles County, California, United States of America",
            "locType": "city",
            "blogLinks": [
                "http://wikitravel.org/en/Los_Angeles"
            ],
            "longitude": "-118.1268241"
        },
        "laguna beach": {
            "latitude": "33.5420888",
            "closest_to": "san bernardino",
            "address": "Laguna Beach, Orange County, California, United States of America",
            "locType": "city",
            "blogLinks": [
                "https://blog.trekaroo.com/top-ten-holiday-events-to-enjoy-with-kids-in-southern-california/"
            ],
            "longitude": "-117.7834146"
        },
        "north hollywood": {
            "latitude": "34.1729044",
            "closest_to": "long beach",
            "address": "North Hollywood, LA, Los Angeles County, California, United States of America",
            "locType": "suburb",
            "blogLinks": [
                "http://wikitravel.org/en/Los_Angeles"
            ],
            "longitude": "-118.374037"
        },
        "day creek boulevard": {
            "latitude": "34.1064263",
            "closest_to": "san bernardino",
            "address": "Day Creek Boulevard, Rancho Cucamonga, San Bernardino County, California, 91730, United States of America",
            "locType": "secondary",
            "blogLinks": [
                "https://en.wikipedia.org/wiki/Rancho_Cucamonga,_California"
            ],
            "longitude": "-117.5370772"
        },
        "gardena": {
            "latitude": "33.8883302",
            "closest_to": "long beach",
            "address": "Gardena, Los Angeles County, California, United States of America",
            "locType": "city",
            "blogLinks": [
                "http://wikitravel.org/en/Los_Angeles"
            ],
            "longitude": "-118.3070891"
        },
        "california pizza kitchen": {
            "latitude": "34.0622772",
            "closest_to": "long beach",
            "address": "California Pizza Kitchen, 10956, Weyburn Avenue, Westwood Village, Westwood, LA, Los Angeles County, California, 90024, United States of America",
            "locType": "restaurant",
            "blogLinks": [
                "https://en.wikipedia.org/wiki/Rancho_Cucamonga,_California"
            ],
            "longitude": "-118.4471444"
        },
        "pomona": {
            "latitude": "34.0553813",
            "closest_to": "san bernardino",
            "address": "Pomona, Los Angeles County, California, United States of America",
            "locType": "city",
            "blogLinks": [
                "http://wikitravel.org/en/Los_Angeles"
            ],
            "longitude": "-117.7517495"
        },
        "olvera street": {
            "latitude": "34.0581578",
            "closest_to": "san bernardino",
            "address": "Olvera Street, Naud Junction, Little Tokyo Historic District, LA, Los Angeles County, California, 90012, United States of America",
            "locType": "pedestrian",
            "blogLinks": [
                "https://blog.trekaroo.com/top-ten-holiday-events-to-enjoy-with-kids-in-southern-california/",
                "http://wikitravel.org/en/Los_Angeles"
            ],
            "longitude": "-118.2373201"
        },
        "baldwin hills": {
            "latitude": "34.01164725",
            "closest_to": "long beach",
            "address": "Baldwin Hills Mall, Leimert Park, LA, Los Angeles County, California, 90008, United States of America",
            "locType": "retail",
            "blogLinks": [
                "http://wikitravel.org/en/Los_Angeles"
            ],
            "longitude": "-118.3367947541"
        },
        "exposition boulevard": {
            "latitude": "34.0181607",
            "closest_to": "long beach",
            "address": "Exposition Boulevard, Jefferson, LA, Los Angeles County, California, 90089-0374, United States of America",
            "locType": "secondary",
            "blogLinks": [
                "http://wikitravel.org/en/Los_Angeles"
            ],
            "longitude": "-118.2828118"
        },
        "macarthur park": {
            "latitude": "34.058874",
            "closest_to": "long beach",
            "address": "MacArthur Park, Wilshire Boulevard, Angelino Heights, LA, Los Angeles County, California, 90057, United States of America",
            "locType": "park",
            "blogLinks": [
                "http://wikitravel.org/en/Los_Angeles"
            ],
            "longitude": "-118.27767170166"
        },
        "etiwanda avenue": {
            "latitude": "34.114091",
            "closest_to": "san bernardino",
            "address": "Etiwanda Avenue, San Bernardino, San Bernardino County, California, 92376, United States of America",
            "locType": "residential",
            "blogLinks": [
                "https://en.wikipedia.org/wiki/Rancho_Cucamonga,_California"
            ],
            "longitude": "-117.3485602"
        },
        "mission creek rd.": {
            "latitude": "33.329445",
            "closest_to": "san bernardino",
            "address": "Mission Creek Road, Winterwarm, San Diego County, California, 92028, United States of America",
            "locType": "residential",
            "blogLinks": [
                "http://www.parks.ca.gov/?page_id=22722"
            ],
            "longitude": "-117.2382279"
        },
        "west pico blvd": {
            "latitude": "34.0472003",
            "closest_to": "long beach",
            "address": "West Pico Boulevard, Saint James Park, LA, Los Angeles County, California, 90006, United States of America",
            "locType": "primary",
            "blogLinks": [
                "http://wikitravel.org/en/Los_Angeles"
            ],
            "longitude": "-118.2825284"
        },
        "disneyland": {
            "latitude": "33.8136367",
            "closest_to": "san bernardino",
            "address": "DL, 1313, South Harbor Boulevard, Anaheim Resort District, Anaheim, Orange County, California, 92805, United States of America",
            "locType": "theme_park",
            "blogLinks": [
                "http://wikitravel.org/en/Los_Angeles"
            ],
            "longitude": "-117.91971186569"
        },
        "hollywood east": {
            "latitude": "34.1028268",
            "closest_to": "long beach",
            "address": "Hollywood, LA, Los Angeles County, California, United States of America",
            "locType": "suburb",
            "blogLinks": [
                "https://en.wikipedia.org/wiki/Rancho_Cucamonga,_California"
            ],
            "longitude": "-118.3299898"
        },
        "wilshire boulevard": {
            "latitude": "34.0617231",
            "closest_to": "long beach",
            "address": "Wilshire Boulevard, Koreatown, Saint James Park, LA, Los Angeles County, California, 90005, United States of America",
            "locType": "primary",
            "blogLinks": [
                "http://wikitravel.org/en/Los_Angeles"
            ],
            "longitude": "-118.3036614"
        },
        "fourth street": {
            "latitude": "34.0456752",
            "closest_to": "san bernardino",
            "address": "Fourth Street, Walnut Hills Mobile Home Park, Pomona, Los Angeles County, California, 91765, United States of America",
            "locType": "residential",
            "blogLinks": [
                "https://en.wikipedia.org/wiki/Rancho_Cucamonga,_California"
            ],
            "longitude": "-117.819163"
        },
        "lax": {
            "latitude": "33.94211345",
            "closest_to": "long beach",
            "address": "Los Angeles International Airport, Gate 41, Westchester, Playa del Rey, LA, Los Angeles County, California, 90245, United States of America",
            "locType": "aerodrome",
            "blogLinks": [
                "http://wikitravel.org/en/Los_Angeles"
            ],
            "longitude": "-118.407057290249"
        },
        "los angeles airport": {
            "latitude": "33.95203015",
            "closest_to": "long beach",
            "address": "Super 8 Motel, 9250, Airport Boulevard, Westchester, Playa Vista, LA, Los Angeles County, California, 90045, United States of America",
            "locType": "motel",
            "blogLinks": [
                "http://wikitravel.org/en/Los_Angeles"
            ],
            "longitude": "-118.385011876892"
        },
        "wilshire blvd.": {
            "latitude": "34.0617231",
            "closest_to": "long beach",
            "address": "Wilshire Boulevard, Koreatown, Saint James Park, LA, Los Angeles County, California, 90005, United States of America",
            "locType": "primary",
            "blogLinks": [
                "http://wikitravel.org/en/Los_Angeles"
            ],
            "longitude": "-118.3036614"
        },
        "hancock park": {
            "latitude": "34.06372875",
            "closest_to": "long beach",
            "address": "Hancock Park, West 6th Street, Park La Brea, The Village Green, LA, Los Angeles County, California, 90036, United States of America",
            "locType": "park",
            "blogLinks": [
                "http://wikitravel.org/en/Los_Angeles"
            ],
            "longitude": "-118.356103459582"
        },
        "disneyland resort": {
            "latitude": "33.81193845",
            "closest_to": "san bernardino",
            "address": "DLR, Mill View Lane, Anaheim Resort District, Anaheim, Orange County, California, 217, United States of America",
            "locType": "administrative",
            "blogLinks": [
                "https://blog.trekaroo.com/top-ten-holiday-events-to-enjoy-with-kids-in-southern-california/"
            ],
            "longitude": "-117.921900616601"
        },
        "east 7th street": {
            "latitude": "34.0433328",
            "closest_to": "long beach",
            "address": "East 7th Street, Skid Row, Bunker Hill, LA, Los Angeles County, California, 90014, United States of America",
            "locType": "primary",
            "blogLinks": [
                "http://wikitravel.org/en/Los_Angeles"
            ],
            "longitude": "-118.2505375"
        },
        "el monte": {
            "latitude": "34.0751571",
            "closest_to": "san bernardino",
            "address": "El Monte, Los Angeles County, California, United States of America",
            "locType": "city",
            "blogLinks": [
                "http://wikitravel.org/en/Los_Angeles"
            ],
            "longitude": "-118.0368489"
        },
        "lake arrowhead": {
            "latitude": "34.2592869",
            "closest_to": "san bernardino",
            "address": "Lake Arrowhead, Shelter Cove Lane, North Shore, San Bernardino County, California, 92407, United States of America",
            "locType": "water",
            "blogLinks": [
                "http://blog.elmonterv.com/index.php/2011/03/top-ten-list-of-places-to-see-in-san-bernardino/"
            ],
            "longitude": "-117.185753981831"
        },
        "california eureka": {
            "latitude": "33.8070091",
            "closest_to": "san bernardino",
            "address": "Pixar Play Parade, 1620, South Disneyland Drive, Anaheim Resort District, Anaheim, Orange County, California, 92802, United States of America",
            "locType": "theatre",
            "blogLinks": [
                "https://blog.trekaroo.com/top-ten-holiday-events-to-enjoy-with-kids-in-southern-california/"
            ],
            "longitude": "-117.9194387"
        },
        "pico boulevard": {
            "latitude": "34.0551848",
            "closest_to": "long beach",
            "address": "Pico Boulevard, South Carthay, The Village Green, LA, Los Angeles County, California, 90035, United States of America",
            "locType": "primary",
            "blogLinks": [
                "http://wikitravel.org/en/Los_Angeles"
            ],
            "longitude": "-118.3859303"
        },
        "ontario international airport": {
            "latitude": "34.05414245",
            "closest_to": "san bernardino",
            "address": "LA/Ontario International Airport, Service Road 2, Ontario, San Bernardino County, California, 91743, United States of America",
            "locType": "aerodrome",
            "blogLinks": [
                "https://en.wikipedia.org/wiki/Rancho_Cucamonga,_California"
            ],
            "longitude": "-117.59915759373"
        },
        "newport beach": {
            "latitude": "33.6170092",
            "closest_to": "san bernardino",
            "address": "Newport Beach, Orange County, California, United States of America",
            "locType": "city",
            "blogLinks": [
                "https://blog.trekaroo.com/top-ten-holiday-events-to-enjoy-with-kids-in-southern-california/",
                "http://wikitravel.org/en/Los_Angeles"
            ],
            "longitude": "-117.92944"
        },
        "rancho cucamonga city": {
            "latitude": "34.1033521",
            "closest_to": "san bernardino",
            "address": "Rancho Cucamonga City Hall, Civic Center Drive, Alta Loma, Rancho Cucamonga, San Bernardino County, California, 91730, United States of America",
            "locType": "townhall",
            "blogLinks": [
                "https://en.wikipedia.org/wiki/Rancho_Cucamonga,_California"
            ],
            "longitude": "-117.575210108592"
        },
        "temecula wine country": {
            "latitude": "33.5334975",
            "closest_to": "san bernardino",
            "address": "Temecula Valley Wine Country, Valle de los Caballos, Riverside County, California, United States of America",
            "locType": "suburb",
            "blogLinks": [
                "http://wikitravel.org/en/San_Diego"
            ],
            "longitude": "-117.0334856"
        },
        "tokyo": {
            "latitude": "34.0431787",
            "closest_to": "san bernardino",
            "address": "Southern California Institute of Architecture, 960, East 3rd Street, Arts District, Little Tokyo Historic District, LA, Los Angeles County, California, 90013, United States of America",
            "locType": "school",
            "blogLinks": [
                "http://wikitravel.org/en/San_Diego",
                "http://wikitravel.org/en/Los_Angeles"
            ],
            "longitude": "-118.2328066"
        },
        "new orleans": {
            "latitude": "33.8116219",
            "closest_to": "san bernardino",
            "address": "New Orleans Square, Anaheim, Orange County, California, United States of America",
            "locType": "locality",
            "blogLinks": [
                "http://wikitravel.org/en/Los_Angeles"
            ],
            "longitude": "-117.9206364"
        },
        "san bernardino county courthouse": {
            "latitude": "34.105507",
            "closest_to": "san bernardino",
            "address": "San Bernardino County Courthouse, North Arrowhead Avenue, San Bernardino, San Bernardino County, California, 92410, United States of America",
            "locType": "courthouse",
            "blogLinks": [
                "https://en.wikipedia.org/wiki/Rancho_Cucamonga,_California"
            ],
            "longitude": "-117.28907949984"
        },
        "torrey pines": {
            "latitude": "33.6004207",
            "closest_to": "san bernardino",
            "address": "Torrey Pines, Coto de Caza, Orange County, California, 92679, United States of America",
            "locType": "residential",
            "blogLinks": [
                "http://wikitravel.org/en/San_Diego"
            ],
            "longitude": "-117.5806448"
        },
        "santa barbera": {
            "latitude": "33.6166897",
            "closest_to": "san bernardino",
            "address": "Santa Vittoria Park, Barbera, Laguna Hills, Orange County, California, 92653, United States of America",
            "locType": "park",
            "blogLinks": [
                "https://answers.yahoo.com/question/index?qid=20080328184800AA3D7Fs"
            ],
            "longitude": "-117.7417198"
        },
        "fullerton": {
            "latitude": "33.8708215",
            "closest_to": "san bernardino",
            "address": "Fullerton, Orange County, California, United States of America",
            "locType": "city",
            "blogLinks": [
                "https://www.yelp.com/biz/oceanside-metrolink-train-station-oceanside"
            ],
            "longitude": "-117.9294164"
        },
        "hollywood hills": {
            "latitude": "34.1311792",
            "closest_to": "long beach",
            "address": "Hollywood Hills, LA, Los Angeles County, California, United States of America",
            "locType": "suburb",
            "blogLinks": [
                "http://wikitravel.org/en/Los_Angeles"
            ],
            "longitude": "-118.3355473"
        },
        "west coast": {
            "latitude": "34.0222263",
            "closest_to": "long beach",
            "address": "West Coast, Motor Avenue, Palms, LA, Los Angeles County, California, 90034-5702, United States of America",
            "locType": "plumber",
            "blogLinks": [
                "https://en.wikipedia.org/wiki/Rancho_Cucamonga,_California"
            ],
            "longitude": "-118.4051087"
        },
        "los angeles county museum of art": {
            "latitude": "34.0634357",
            "closest_to": "long beach",
            "address": "Los Angeles County Museum of Art, Wilshire Boulevard, Park La Brea, The Village Green, LA, Los Angeles County, California, 90036, United States of America",
            "locType": "museum",
            "blogLinks": [
                "http://wikitravel.org/en/Los_Angeles"
            ],
            "longitude": "-118.357997654056"
        },
        "los angeles philharmonic": {
            "latitude": "34.0548526",
            "closest_to": "long beach",
            "address": "Alfred E. Mann Los Angeles Philharmonic Center, West 2nd Street, Bunker Hill, LA, Los Angeles County, California, 90012, United States of America",
            "locType": "museum",
            "blogLinks": [
                "http://wikitravel.org/en/Los_Angeles"
            ],
            "longitude": "-118.2501672"
        },
        "southern california": {
            "latitude": "34.0224149",
            "closest_to": "long beach",
            "address": "University of Southern California, Watt Way, Saint James Park, LA, Los Angeles County, California, 90089, United States of America",
            "locType": "university",
            "blogLinks": [
                "https://www.pinterest.com/pin/492510909221178685/",
                "https://en.wikipedia.org/wiki/Rancho_Cucamonga,_California",
                "http://www.bestplaces.net/city/california/long_beach",
                "http://wikitravel.org/en/San_Diego",
                "http://wikitravel.org/en/Los_Angeles",
                "https://blog.trekaroo.com/top-ten-holiday-events-to-enjoy-with-kids-in-southern-california/",
                "https://www.tripadvisor.com/ShowTopic-g28926-i29-k6275007-Between_Morro_Bay_and_Solvang_things_to_do-California.html",
                "http://www.hopper.com/articles/291/five-great-stops-between-los-angeles-and-san-francisco-on-the-pacific-coast-highway",
                "http://www.bestplaces.net/city/california/brea"
            ],
            "longitude": "-118.286343973446"
        },
        "union station": {
            "latitude": "34.0560576",
            "closest_to": "san bernardino",
            "address": "Union Station, 800, Alameda Street, Naud Junction, Little Tokyo Historic District, LA, Los Angeles County, California, 90012, United States of America",
            "locType": "yes",
            "blogLinks": [
                "http://wikitravel.org/en/Los_Angeles"
            ],
            "longitude": "-118.235796451972"
        },
        "brea": {
            "latitude": "33.9170444",
            "closest_to": "san bernardino",
            "address": "Brea, Orange County, California, United States of America",
            "locType": "city",
            "blogLinks": [
                "http://www.bestplaces.net/city/california/brea"
            ],
            "longitude": "-117.8888556"
        },
        "santa clarita": {
            "latitude": "34.3916641",
            "closest_to": "long beach",
            "address": "Santa Clarita, Los Angeles County, California, United States of America",
            "locType": "city",
            "blogLinks": [
                "https://blog.trekaroo.com/top-ten-holiday-events-to-enjoy-with-kids-in-southern-california/",
                "http://wikitravel.org/en/Los_Angeles"
            ],
            "longitude": "-118.5425859"
        },
        "milwaukee": {
            "latitude": "34.1201085",
            "closest_to": "san bernardino",
            "address": "Milwaukee Avenue, Highland Park, LA, Los Angeles County, California, 90042, United States of America",
            "locType": "residential",
            "blogLinks": [
                "https://www.pinterest.com/pin/270075308874996476/"
            ],
            "longitude": "-118.1918619"
        },
        "rancho cucamonga city hall": {
            "latitude": "34.1033521",
            "closest_to": "san bernardino",
            "address": "Rancho Cucamonga City Hall, Civic Center Drive, Alta Loma, Rancho Cucamonga, San Bernardino County, California, 91730, United States of America",
            "locType": "townhall",
            "blogLinks": [
                "https://en.wikipedia.org/wiki/Rancho_Cucamonga,_California"
            ],
            "longitude": "-117.575210108592"
        },
        "staples center": {
            "latitude": "34.0430046",
            "closest_to": "long beach",
            "address": "Staples Center, Figueroa Street, South Park, Saint James Park, LA, Los Angeles County, California, 90015, United States of America",
            "locType": "stadium",
            "blogLinks": [
                "http://wikitravel.org/en/Los_Angeles"
            ],
            "longitude": "-118.267052502794"
        },
        "santa monica pier": {
            "latitude": "34.0104809",
            "closest_to": "long beach",
            "address": "Santa Monica Pier, Santa Monica, Los Angeles County, California, CA 90401, United States of America",
            "locType": "service",
            "blogLinks": [
                "http://wikitravel.org/en/Los_Angeles"
            ],
            "longitude": "-118.4960541"
        },
        "republic of california": {
            "latitude": "34.0562192",
            "closest_to": "san bernardino",
            "address": "Republic Street, El Pueblo, Little Tokyo Historic District, LA, Los Angeles County, California, 90012, United States of America",
            "locType": "residential",
            "blogLinks": [
                "http://www.parks.ca.gov/?page_id=22722"
            ],
            "longitude": "-118.2397302"
        },
        "el monte station": {
            "latitude": "34.0751571",
            "closest_to": "san bernardino",
            "address": "El Monte, Los Angeles County, California, United States of America",
            "locType": "city",
            "blogLinks": [
                "http://wikitravel.org/en/Los_Angeles"
            ],
            "longitude": "-118.0368489"
        },
        "mulholland drive": {
            "latitude": "34.1315268",
            "closest_to": "long beach",
            "address": "Mulholland Drive, Sherman Oaks, LA, Los Angeles County, California, 90210-1054, United States of America",
            "locType": "secondary",
            "blogLinks": [
                "http://wikitravel.org/en/Los_Angeles"
            ],
            "longitude": "-118.4396261"
        },
        "redondo beach": {
            "latitude": "33.8455911",
            "closest_to": "long beach",
            "address": "Redondo Beach, Los Angeles County, California, United States of America",
            "locType": "city",
            "blogLinks": [
                "http://wikitravel.org/en/Los_Angeles"
            ],
            "longitude": "-118.3886765"
        },
        "grand avenue": {
            "latitude": "34.10718",
            "closest_to": "san bernardino",
            "address": "Grand Avenue, Yucca Valley, San Bernardino County, California, 92284, United States of America",
            "locType": "residential",
            "blogLinks": [
                "http://wikitravel.org/en/Los_Angeles"
            ],
            "longitude": "-116.4257794"
        },
        "inland empire": {
            "latitude": "33.73849885",
            "closest_to": "san bernardino",
            "address": "Inland Empire Energy Center, Romoland, Riverside County, California, 92585, United States of America",
            "locType": "industrial",
            "blogLinks": [
                "https://en.wikipedia.org/wiki/Rancho_Cucamonga,_California",
                "http://wikitravel.org/en/Los_Angeles"
            ],
            "longitude": "-117.16947092864"
        },
        "los angeles metropolitan": {
            "latitude": "34.0498841",
            "closest_to": "san bernardino",
            "address": "Metropolitan Fire Communications, 500, East Temple Street, Skid Row, Little Tokyo Historic District, LA, Los Angeles County, California, 90012, United States of America",
            "locType": "dispatch_center",
            "blogLinks": [
                "http://wikitravel.org/en/Los_Angeles"
            ],
            "longitude": "-118.235200794058"
        },
        "neptune": {
            "latitude": "33.7953668",
            "closest_to": "san bernardino",
            "address": "Neptune, Palm Springs, Riverside County, California, 92264, United States of America",
            "locType": "residential",
            "blogLinks": [
                "http://wikitravel.org/en/Los_Angeles"
            ],
            "longitude": "-116.5067839"
        },
        "exposition park": {
            "latitude": "34.01496305",
            "closest_to": "long beach",
            "address": "Exposition Park, Exposition Park Drive, Jefferson, LA, Los Angeles County, California, 90037, United States of America",
            "locType": "park",
            "blogLinks": [
                "http://wikitravel.org/en/Los_Angeles"
            ],
            "longitude": "-118.287178776841"
        },
        "metro rail": {
            "latitude": "34.0474747",
            "closest_to": "san bernardino",
            "address": "Metro Rail Maintenance of Way Building, 284, Santa Fe Avenue, Arts District, Little Tokyo Historic District, LA, Los Angeles County, California, 90013, United States of America",
            "locType": "yes",
            "blogLinks": [
                "http://wikitravel.org/en/Los_Angeles"
            ],
            "longitude": "-118.232247773529"
        },
        "south los angeles": {
            "latitude": "33.9275152",
            "closest_to": "long beach",
            "address": "South Los Angeles, LA, Los Angeles County, California, United States of America",
            "locType": "suburb",
            "blogLinks": [
                "http://wikitravel.org/en/Los_Angeles"
            ],
            "longitude": "-118.2781287"
        },
        "walt disney concert hall": {
            "latitude": "34.0554391",
            "closest_to": "long beach",
            "address": "Walt Disney Concert Hall, South Hope Street, Bunker Hill, LA, Los Angeles County, California, 90012, United States of America",
            "locType": "theatre",
            "blogLinks": [
                "http://wikitravel.org/en/Los_Angeles"
            ],
            "longitude": "-118.249902463308"
        },
        "main street u.s.a.": {
            "latitude": "33.8112564",
            "closest_to": "san bernardino",
            "address": "MS, Anaheim, Orange County, California, United States of America",
            "locType": "locality",
            "blogLinks": [
                "http://wikitravel.org/en/Los_Angeles"
            ],
            "longitude": "-117.918860079647"
        },
        "grand park": {
            "latitude": "34.05545105",
            "closest_to": "long beach",
            "address": "Grand Park, North Hill Street, Civic Center, Bunker Hill, LA, Los Angeles County, California, 90012, United States of America",
            "locType": "park",
            "blogLinks": [
                "http://wikitravel.org/en/Los_Angeles"
            ],
            "longitude": "-118.245571530652"
        },
        "haven avenue": {
            "latitude": "34.0286666",
            "closest_to": "san bernardino",
            "address": "Haven Avenue, Ontario, San Bernardino County, California, 91764, United States of America",
            "locType": "primary",
            "blogLinks": [
                "https://en.wikipedia.org/wiki/Rancho_Cucamonga,_California"
            ],
            "longitude": "-117.5758293"
        },
        "argyle avenue": {
            "latitude": "34.1037188",
            "closest_to": "long beach",
            "address": "Argyle Avenue, Hollywood, LA, Los Angeles County, California, 90068, United States of America",
            "locType": "secondary",
            "blogLinks": [
                "http://wikitravel.org/en/Los_Angeles"
            ],
            "longitude": "-118.3252194"
        },
        "oregon": {
            "latitude": "33.7123207",
            "closest_to": "san bernardino",
            "address": "Oregon, Walnut, Irvine, Orange County, California, 92606, United States of America",
            "locType": "residential",
            "blogLinks": [
                "http://wikitravel.org/en/San_Diego"
            ],
            "longitude": "-117.7911567"
        },
        "compton station": {
            "latitude": "33.8948824",
            "closest_to": "long beach",
            "address": "Compton, Los Angeles County, California, United States of America",
            "locType": "city",
            "blogLinks": [
                "http://wikitravel.org/en/Los_Angeles"
            ],
            "longitude": "-118.2260433"
        },
        "arleta": {
            "latitude": "34.2558348",
            "closest_to": "long beach",
            "address": "Arleta Avenue, Pacoima, LA, Los Angeles County, California, 91331, United States of America",
            "locType": "primary",
            "blogLinks": [
                "http://wikitravel.org/en/Los_Angeles"
            ],
            "longitude": "-118.4406399"
        },
        "downtown los angeles": {
            "latitude": "34.1789188",
            "closest_to": "long beach",
            "address": "Downtown Burbank, Front Street, Burbank, Los Angeles County, California, 91502, United States of America",
            "locType": "station",
            "blogLinks": [
                "https://en.wikipedia.org/wiki/Rancho_Cucamonga,_California",
                "http://wikitravel.org/en/Los_Angeles"
            ],
            "longitude": "-118.312628"
        },
        "dodger stadium": {
            "latitude": "34.0736255",
            "closest_to": "san bernardino",
            "address": "Dodger Stadium, 1000, Vin Scully Avenue, New Chinatown, Angelino Heights, LA, Los Angeles County, California, 90012, United States of America",
            "locType": "stadium",
            "blogLinks": [
                "http://wikitravel.org/en/Los_Angeles"
            ],
            "longitude": "-118.238969292435"
        },
        "sweden": {
            "latitude": "34.1997222",
            "closest_to": "long beach",
            "address": "Saint Bridget of Sweden Church, Whitaker Avenue, Reseda, LA, Los Angeles County, California, 91406, United States of America",
            "locType": "place_of_worship",
            "blogLinks": [
                "http://wikitravel.org/en/Los_Angeles"
            ],
            "longitude": "-118.4974999"
        },
        "san gorgonio mountain": {
            "latitude": "34.0992456",
            "closest_to": "san bernardino",
            "address": "San Gorgonio Mountain, San Bernardino County, California, United States of America",
            "locType": "peak",
            "blogLinks": [
                "http://blog.elmonterv.com/index.php/2011/03/top-ten-list-of-places-to-see-in-san-bernardino/"
            ],
            "longitude": "-116.8248435"
        },
        "japan": {
            "latitude": "34.0833889",
            "closest_to": "long beach",
            "address": "Japan LA, Melrose Avenue, Park La Brea, Hollywood, LA, Los Angeles County, California, 90069, United States of America",
            "locType": "clothes",
            "blogLinks": [
                "http://wikitravel.org/en/Los_Angeles"
            ],
            "longitude": "-118.3494693"
        },
        "cucamonga": {
            "latitude": "34.1033192",
            "closest_to": "san bernardino",
            "address": "Rancho Cucamonga, San Bernardino County, California, United States of America",
            "locType": "city",
            "blogLinks": [
                "https://en.wikipedia.org/wiki/Rancho_Cucamonga,_California"
            ],
            "longitude": "-117.5751734"
        },
        "orange county": {
            "latitude": "33.7500378",
            "closest_to": "san bernardino",
            "address": "Orange County, California, United States of America",
            "locType": "administrative",
            "blogLinks": [
                "http://wikitravel.org/en/San_Diego",
                "https://www.yelp.com/biz/oceanside-metrolink-train-station-oceanside",
                "https://blog.trekaroo.com/top-ten-holiday-events-to-enjoy-with-kids-in-southern-california/",
                "http://wikitravel.org/en/Los_Angeles",
                "http://www.bestplaces.net/city/california/brea"
            ],
            "longitude": "-117.870493"
        },
        "los angeles union station": {
            "latitude": "34.0558624",
            "closest_to": "san bernardino",
            "address": "Los Angeles Union Station, LA Union Station Underground Walkway, Naud Junction, Little Tokyo Historic District, LA, Los Angeles County, California, 90012, United States of America",
            "locType": "station",
            "blogLinks": [
                "http://wikitravel.org/en/San_Diego",
                "http://www.bestplaces.net/city/california/long_beach"
            ],
            "longitude": "-118.2342858"
        },
        "pacific palisades": {
            "latitude": "34.0480643",
            "closest_to": "long beach",
            "address": "Pacific Palisades, LA, Los Angeles County, California, 90272, United States of America",
            "locType": "neighbourhood",
            "blogLinks": [
                "http://wikitravel.org/en/Los_Angeles"
            ],
            "longitude": "-118.5264705"
        },
        "bus bay": {
            "latitude": "33.88803365",
            "closest_to": "long beach",
            "address": "2601-2641, West Bay Business Park, Redondo Beach, Los Angeles County, California, 90260, United States of America",
            "locType": "commercial",
            "blogLinks": [
                "http://wikitravel.org/en/Los_Angeles"
            ],
            "longitude": "-118.364393154677"
        },
        "san fernando mission blvd.": {
            "latitude": "34.2721749",
            "closest_to": "long beach",
            "address": "San Fernando Mission Boulevard, Mission Hills, Sylmar, LA, Los Angeles County, California, 91326, United States of America",
            "locType": "secondary",
            "blogLinks": [
                "http://www.parks.ca.gov/?page_id=22722"
            ],
            "longitude": "-118.4668798"
        },
        "north santa anita ave.": {
            "latitude": "34.161979",
            "closest_to": "san bernardino",
            "address": "North Santa Anita Avenue, Arcadia, Los Angeles County, California, 91024, United States of America",
            "locType": "tertiary",
            "blogLinks": [
                "http://wikitravel.org/en/Los_Angeles"
            ],
            "longitude": "-118.0317757"
        },
        "mexico city": {
            "latitude": "34.1106298",
            "closest_to": "long beach",
            "address": "Mexico City, Avocado Street, Los Feliz, Atwater, LA, Los Angeles County, California, 90027, United States of America",
            "locType": "restaurant",
            "blogLinks": [
                "http://wikitravel.org/en/Los_Angeles"
            ],
            "longitude": "-118.2876599"
        },
        "santa clara de asis": {
            "latitude": "33.8802979",
            "closest_to": "san bernardino",
            "address": "Santa Clara de Asis, 22005, Avenida de la Paz, Yorba Linda, Orange County, California, 92887, United States of America",
            "locType": "place_of_worship",
            "blogLinks": [
                "http://www.parks.ca.gov/?page_id=22722"
            ],
            "longitude": "-117.746951586583"
        },
        "scottsdale": {
            "latitude": "33.81271835",
            "closest_to": "long beach",
            "address": "Scottsdale Townhouse Association Maintenance Storage Area, Keystone, Carson, Los Angeles County, California, 90745, United States of America",
            "locType": "residential",
            "blogLinks": [
                "http://wikitravel.org/en/San_Diego"
            ],
            "longitude": "-118.262579480198"
        },