{
    "mentions": {
        "highway 101": {
            "latitude": "32.9967358",
            "closest_to": "los angeles",
            "address": "Highway 101, Solana Beach, San Diego County, California, 92075, United States of America",
            "locType": "primary",
            "blogLinks": [
                "http://travelblog.viator.com/road-trip-san-francisco-los-angeles/",
                "https://blog.trekaroo.com/california-dreaming-road-trip-from-san-francisco-to-los-angeles/"
            ],
            "longitude": "-117.2731974"
        },
        "florence": {
            "latitude": "33.9752173",
            "closest_to": "los angeles",
            "address": "Florence, LA, Los Angeles County, California, United States of America",
            "locType": "suburb",
            "blogLinks": [
                "http://www.travelandleisure.com/articles/insiders-guide-to-napa-valley"
            ],
            "longitude": "-118.2659105"
        },
        "san luis obispo museum of art": {
            "latitude": "35.2795773",
            "closest_to": "napa",
            "address": "San Luis Obispo Museum of Art, 1010, Broad Street, San Luis Obispo, San Luis Obispo County, California, 93401, United States of America",
            "locType": "museum",
            "blogLinks": [
                "http://travelblog.viator.com/road-trip-san-francisco-los-angeles/"
            ],
            "longitude": "-120.6649345"
        },
        "creek valley": {
            "latitude": "39.3751013",
            "closest_to": "napa",
            "address": "Creek, Mendocino County, California, United States of America",
            "locType": "stream",
            "blogLinks": [
                "http://www.wineinstitute.org/consumerstories"
            ],
            "longitude": "-123.0482197"
        },
        "rutherford": {
            "latitude": "38.458521",
            "closest_to": "napa",
            "address": "Rutherford, Napa County, California, United States of America",
            "locType": "hamlet",
            "blogLinks": [
                "http://www.frommers.com/destinations/napa-valley/666221",
                "http://www.travelandleisure.com/articles/insiders-guide-to-napa-valley"
            ],
            "longitude": "-122.4224789"
        },
        "pacific coast highway": {
            "latitude": "33.6595127",
            "closest_to": "los angeles",
            "address": "Pacific Coast Highway, Huntington Beach, Orange County, California, 92648, United States of America",
            "locType": "primary",
            "blogLinks": [
                "https://www.tripadvisor.com/ShowTopic-g28926-i29-k6490812-Napa_to_LA_where_to_stop-California.html",
                "http://www.hopper.com/articles/291/five-great-stops-between-los-angeles-and-san-francisco-on-the-pacific-coast-highway"
            ],
            "longitude": "-118.0051687"
        },
        "carmel-by-the-sea": {
            "latitude": "36.5552387",
            "closest_to": "napa",
            "address": "Carmel-by-the-Sea, Monterey County, California, United States of America",
            "locType": "city",
            "blogLinks": [
                "http://travelblog.viator.com/road-trip-san-francisco-los-angeles/",
                "http://www.hopper.com/articles/291/five-great-stops-between-los-angeles-and-san-francisco-on-the-pacific-coast-highway"
            ],
            "longitude": "-121.9232878"
        },
        "napa valley wine": {
            "latitude": "38.3354299",
            "closest_to": "napa",
            "address": "BEST WESTERN PREMIER Ivy Hotel Napa, Wine Country Avenue, Napa, Napa County, California, 94558, United States of America",
            "locType": "motel",
            "blogLinks": [
                "http://www.usatourist.com/english/destinations/california/california-driving-tour.html"
            ],
            "longitude": "-122.3232132"
        },
        "napa valley vine": {
            "latitude": "38.2714335",
            "closest_to": "napa",
            "address": "Napa Road, Vineburg, Sonoma County, California, 95476, United States of America",
            "locType": "secondary",
            "blogLinks": [
                "http://gocalifornia.about.com/od/topcalifornia/qt/San-Francisco-to-Napa-Valley.htm"
            ],
            "longitude": "-122.4236571"
        },
        "shell beach": {
            "latitude": "35.1552532",
            "closest_to": "napa",
            "address": "Shell Beach, San Luis Obispo County, California, United States of America",
            "locType": "village",
            "blogLinks": [
                "https://www.tripadvisor.com/ShowTopic-g28926-i29-k6490812-Napa_to_LA_where_to_stop-California.html"
            ],
            "longitude": "-120.6723948"
        },
        "santa cruz": {
            "latitude": "36.9735903",
            "closest_to": "napa",
            "address": "Santa Cruz, Santa Cruz County, California, United States of America",
            "locType": "city",
            "blogLinks": [
                "http://www.usatourist.com/english/destinations/california/california-driving-tour.html",
                "http://usatravel.about.com/od/USALodging/tp/Favorite-Accommodations-Between-Los-Angeles-And-San-Francisco.htm"
            ],
            "longitude": "-122.0260569"
        },
        "us hwy 101": {
            "latitude": "32.9967358",
            "closest_to": "los angeles",
            "address": "Highway 101, Solana Beach, San Diego County, California, 92075, United States of America",
            "locType": "primary",
            "blogLinks": [
                "http://gocalifornia.about.com/od/topcalifornia/qt/San-Francisco-to-Napa-Valley.htm"
            ],
            "longitude": "-117.2731974"
        },
        "america": {
            "latitude": "36.2573198",
            "closest_to": "napa",
            "address": "America, Kings County, California, 93246, United States of America",
            "locType": "residential",
            "blogLinks": [
                "https://www.timeout.com/los-angeles/things-to-do/great-things-to-do-in-los-angeles"
            ],
            "longitude": "-119.8948706"
        },
        "westwood hills park": {
            "latitude": "34.0685157",
            "closest_to": "napa",
            "address": "Southern California Reproductive Center, South Santa Monica Boulevard, Beverly Hills, Los Angeles County, California, 90025, United States of America",
            "locType": "hospital",
            "blogLinks": [
                "http://www.travelandleisure.com/articles/insiders-guide-to-napa-valley"
            ],
            "longitude": "-118.4068325"
        },
        "vail": {
            "latitude": "33.4955976",
            "closest_to": "los angeles",
            "address": "Vail 2028 Dam, Riverside County, California, United States of America",
            "locType": "dam",
            "blogLinks": [
                "https://www.tripadvisor.com/ShowTopic-g32655-i61-k4545109-Drive_from_LAX_to_Napa_Valley_which_route-Los_Angeles_California.html"
            ],
            "longitude": "-116.9770033"
        },
        "napa river": {
            "latitude": "38.5753593",
            "closest_to": "napa",
            "address": "Napa River, Calistoga, Napa County, California, United States of America",
            "locType": "river",
            "blogLinks": [
                "http://www.frommers.com/destinations/napa-valley/666221",
                "http://www.travelandleisure.com/articles/insiders-guide-to-napa-valley"
            ],
            "longitude": "-122.5730327"
        },
        "venice beach": {
            "latitude": "33.9862012",
            "closest_to": "napa",
            "address": "Venice Beach, Venice Beach Bike Path, Venice, LA, Los Angeles County, California, 90405, United States of America",
            "locType": "police",
            "blogLinks": [
                "https://www.tripadvisor.com/ShowTopic-g28926-i29-k6490812-Napa_to_LA_where_to_stop-California.html",
                "https://www.timeout.com/los-angeles/things-to-do/great-things-to-do-in-los-angeles"
            ],
            "longitude": "-118.4739815"
        },
        "pacific coast": {
            "latitude": "33.8047323",
            "closest_to": "los angeles",
            "address": "Pacific Coast, Florista Street, Los Alamitos, Orange County, California, 90720, United States of America",
            "locType": "yes",
            "blogLinks": [
                "http://www.usatourist.com/english/destinations/california/california-driving-tour.html"
            ],
            "longitude": "-118.063517668143"
        },
        "swanson vineyards": {
            "latitude": "38.44456285",
            "closest_to": "napa",
            "address": "Swanson, Oakville, Napa County, California, 94562, United States of America",
            "locType": "vineyard",
            "blogLinks": [
                "http://www.travelandleisure.com/articles/insiders-guide-to-napa-valley"
            ],
            "longitude": "-122.38904552113"
        },
        "california science center": {
            "latitude": "34.0159757",
            "closest_to": "los angeles",
            "address": "California Science Center, 700, Exposition Park Drive, Jefferson, LA, Los Angeles County, California, 90037, United States of America",
            "locType": "museum",
            "blogLinks": [
                "https://www.timeout.com/los-angeles/things-to-do/great-things-to-do-in-los-angeles"
            ],
            "longitude": "-118.286286870567"
        },
        "colorado river": {
            "latitude": "33.58648635",
            "closest_to": "los angeles",
            "address": "Colorado River, Riviera Drive, East Blythe, Riverside County, California, 92225, United States of America",
            "locType": "water",
            "blogLinks": [
                "http://www.usatourist.com/english/destinations/california/california-driving-tour.html"
            ],
            "longitude": "-114.542164096234"
        },
        "main street usa": {
            "latitude": "34.1619793",
            "closest_to": "napa",
            "address": "Main Street, Burbank, Los Angeles County, California, 91502, United States of America",
            "locType": "secondary",
            "blogLinks": [
                "https://www.timeout.com/los-angeles/things-to-do/great-things-to-do-in-los-angeles"
            ],
            "longitude": "-118.3108771"
        },
        "mcway falls trail": {
            "latitude": "36.1578211",
            "closest_to": "napa",
            "address": "McWay Falls, Monterey County, California, United States of America",
            "locType": "waterfall",
            "blogLinks": [
                "http://travelblog.viator.com/road-trip-san-francisco-los-angeles/"
            ],
            "longitude": "-121.6723957"
        },
        "fourth street": {
            "latitude": "34.0456752",
            "closest_to": "los angeles",
            "address": "Fourth Street, Walnut Hills Mobile Home Park, Pomona, Los Angeles County, California, 91765, United States of America",
            "locType": "residential",
            "blogLinks": [
                "http://www.wineinstitute.org/consumerstories"
            ],
            "longitude": "-117.819163"
        },
        "santa monica": {
            "latitude": "34.0195598",
            "closest_to": "napa",
            "address": "Santa Monica, Los Angeles County, California, United States of America",
            "locType": "city",
            "blogLinks": [
                "http://travelblog.viator.com/road-trip-san-francisco-los-angeles/",
                "https://www.tripadvisor.com/ShowTopic-g28926-i29-k6490812-Napa_to_LA_where_to_stop-California.html",
                "https://www.timeout.com/los-angeles/things-to-do/great-things-to-do-in-los-angeles"
            ],
            "longitude": "-118.4869738"
        },
        "griffith park": {
            "latitude": "38.68813",
            "closest_to": "napa",
            "address": "Griffith Park, Citrus Heights, Sacramento County, California, 95621, United States of America",
            "locType": "service",
            "blogLinks": [
                "https://www.timeout.com/los-angeles/things-to-do/great-things-to-do-in-los-angeles"
            ],
            "longitude": "-121.3121659"
        },
        "pacific grove": {
            "latitude": "36.6174432",
            "closest_to": "napa",
            "address": "Pacific Grove, Monterey County, California, United States of America",
            "locType": "city",
            "blogLinks": [
                "https://blog.trekaroo.com/california-dreaming-road-trip-from-san-francisco-to-los-angeles/"
            ],
            "longitude": "-121.9155905"
        },
        "hollywood bowl": {
            "latitude": "34.1121836",
            "closest_to": "napa",
            "address": "Hollywood Bowl, Los Tilos Road, Whitley Heights, LA, Los Angeles County, California, 90068, United States of America",
            "locType": "theatre",
            "blogLinks": [
                "https://www.timeout.com/los-angeles/things-to-do/great-things-to-do-in-los-angeles"
            ],
            "longitude": "-118.339277261641"
        },
        "sonoma valley": {
            "latitude": "38.29331315",
            "closest_to": "napa",
            "address": "Sonoma Valley Chevron, 540, West Napa Street, Sonoma, Sonoma County, California, 95476, United States of America",
            "locType": "fuel",
            "blogLinks": [
                "http://www.wineinstitute.org/consumerstories"
            ],
            "longitude": "-122.469385770353"
        },
        "san jose": {
            "latitude": "37.3361905",
            "closest_to": "napa",
            "address": "San Jos\u00e9, Santa Clara County, California, United States of America",
            "locType": "city",
            "blogLinks": [
                "http://www.wineinstitute.org/consumerstories",
                "https://www.tripadvisor.com/ShowTopic-g28926-i29-k6490812-Napa_to_LA_where_to_stop-California.html",
                "http://www.usatourist.com/english/destinations/california/california-driving-tour.html"
            ],
            "longitude": "-121.8905832"
        },
        "ocean beach": {
            "latitude": "32.7477784",
            "closest_to": "los angeles",
            "address": "Ocean Beach, San Diego, San Diego County, California, United States of America",
            "locType": "region",
            "blogLinks": [
                "http://travelblog.viator.com/road-trip-san-francisco-los-angeles/"
            ],
            "longitude": "-117.249321"
        },
        "santa cruz beach boardwalk": {
            "latitude": "36.96446855",
            "closest_to": "napa",
            "address": "Santa Cruz Beach Boardwalk, Boardwalk, Beach & Boardwalk District (Commercial), Seabright, Santa Cruz, Santa Cruz County, California, 1982, United States of America",
            "locType": "attraction",
            "blogLinks": [
                "http://travelblog.viator.com/road-trip-san-francisco-los-angeles/"
            ],
            "longitude": "-122.016027247326"
        },
        "san francisco international airport": {
            "latitude": "37.622452",
            "closest_to": "napa",
            "address": "San Francisco Airport, North Access Road, Lomita Park, San Mateo County, California, 94128, United States of America",
            "locType": "aerodrome",
            "blogLinks": [
                "https://www.tripadvisor.com/ShowTopic-g32655-i61-k4545109-Drive_from_LAX_to_Napa_Valley_which_route-Los_Angeles_California.html",
                "http://www.travelandleisure.com/articles/insiders-guide-to-napa-valley"
            ],
            "longitude": "-122.384071507814"
        },
        "bothe-napa valley state park": {
            "latitude": "38.5414577",
            "closest_to": "napa",
            "address": "Bothe-Napa Valley State Park, Saint Helena Highway, Larkmead, Napa County, California, 94574; 94515, United States of America",
            "locType": "park",
            "blogLinks": [
                "http://www.wineinstitute.org/consumerstories"
            ],
            "longitude": "-122.50808612741"
        },
        "san francisco bay": {
            "latitude": "37.708264",
            "closest_to": "napa",
            "address": "San Francisco Bay, Ferry Landing, Alameda, Alameda County, California, 94502, United States of America",
            "locType": "bay",
            "blogLinks": [
                "http://www.frommers.com/destinations/napa-valley/666221",
                "http://gocalifornia.about.com/od/topcalifornia/qt/San-Francisco-to-Napa-Valley.htm",
                "http://www.usatourist.com/english/destinations/california/california-driving-tour.html"
            ],
            "longitude": "-122.2802469"
        },
        "silverado trail": {
            "latitude": "38.3077505",
            "closest_to": "napa",
            "address": "Silverado Trail, Napa, Napa County, California, 94558, United States of America",
            "locType": "primary",
            "blogLinks": [
                "http://www.frommers.com/destinations/napa-valley/666221",
                "http://www.travelandleisure.com/articles/insiders-guide-to-napa-valley"
            ],
            "longitude": "-122.2775328"
        },
        "india": {
            "latitude": "32.72025735",
            "closest_to": "los angeles",
            "address": "Star of India, North Harbor Drive, Hillcrest, San Diego, San Diego County, California, 92106, United States of America",
            "locType": "attraction",
            "blogLinks": [
                "http://www.travelandleisure.com/articles/insiders-guide-to-napa-valley"
            ],
            "longitude": "-117.173543004762"
        },
        "alcatraz island": {
            "latitude": "37.8267283",
            "closest_to": "napa",
            "address": "Alcatraz Island, SF, California, United States of America",
            "locType": "island",
            "blogLinks": [
                "http://www.usatourist.com/english/destinations/california/california-driving-tour.html"
            ],
            "longitude": "-122.422746492409"
        },
        "west": {
            "latitude": "33.9492548",
            "closest_to": "los angeles",
            "address": "W, Service road S, Westchester, Playa del Rey, LA, Los Angeles County, California, 90245, United States of America",
            "locType": "taxiway",
            "blogLinks": [
                "https://www.timeout.com/los-angeles/things-to-do/great-things-to-do-in-los-angeles"
            ],
            "longitude": "-118.4108078"
        },
        "ca": {
            "latitude": "37.8242285466918",
            "closest_to": "napa",
            "address": "Piedmont, Alameda County, California, ca, United States of America",
            "locType": "postcode",
            "blogLinks": [
                "https://blog.trekaroo.com/california-dreaming-road-trip-from-san-francisco-to-los-angeles/"
            ],
            "longitude": "-122.232613735941"
        },
        "berkeley": {
            "latitude": "37.8708393",
            "closest_to": "napa",
            "address": "Berkeley, Alameda County, California, United States of America",
            "locType": "city",
            "blogLinks": [
                "http://www.travelandleisure.com/articles/insiders-guide-to-napa-valley"
            ],
            "longitude": "-122.2728638"
        },
        "west coast": {
            "latitude": "34.0222263",
            "closest_to": "napa",
            "address": "West Coast, Motor Avenue, Palms, LA, Los Angeles County, California, 90034-5702, United States of America",
            "locType": "plumber",
            "blogLinks": [
                "http://usatravel.about.com/od/USALodging/tp/Favorite-Accommodations-Between-Los-Angeles-And-San-Francisco.htm"
            ],
            "longitude": "-118.4051087"
        },
        "san luis obispo": {
            "latitude": "35.2827525",
            "closest_to": "napa",
            "address": "San Luis Obispo, San Luis Obispo County, California, United States of America",
            "locType": "city",
            "blogLinks": [
                "http://travelblog.viator.com/road-trip-san-francisco-los-angeles/",
                "https://www.tripadvisor.com/ShowTopic-g28926-i29-k6490812-Napa_to_LA_where_to_stop-California.html",
                "http://www.usatourist.com/english/destinations/california/california-driving-tour.html",
                "http://usatravel.about.com/od/USALodging/tp/Favorite-Accommodations-Between-Los-Angeles-And-San-Francisco.htm"
            ],
            "longitude": "-120.6596155"
        },
        "healdsburg": {
            "latitude": "38.6106812",
            "closest_to": "napa",
            "address": "Healdsburg, Sonoma County, California, United States of America",
            "locType": "city",
            "blogLinks": [
                "http://www.wineinstitute.org/consumerstories",
                "http://www.travelandleisure.com/articles/insiders-guide-to-napa-valley"
            ],
            "longitude": "-122.8701379"
        },
        "hermosa beach": {
            "latitude": "33.86428",
            "closest_to": "los angeles",
            "address": "Hermosa Beach, Los Angeles County, California, United States of America",
            "locType": "city",
            "blogLinks": [
                "https://www.tripadvisor.com/ShowTopic-g28926-i29-k6490812-Napa_to_LA_where_to_stop-California.html"
            ],
            "longitude": "-118.3959099"
        },
        "st. helena": {
            "latitude": "38.5052288",
            "closest_to": "napa",
            "address": "St. Helena, Napa County, California, United States of America",
            "locType": "city",
            "blogLinks": [
                "http://www.frommers.com/destinations/napa-valley/666221",
                "http://www.travelandleisure.com/articles/insiders-guide-to-napa-valley"
            ],
            "longitude": "-122.4700423"
        },
        "spring mountain": {
            "latitude": "38.7793481",
            "closest_to": "napa",
            "address": "Spring Valley, El Dorado County, California, United States of America",
            "locType": "hamlet",
            "blogLinks": [
                "http://www.travelandleisure.com/articles/insiders-guide-to-napa-valley"
            ],
            "longitude": "-120.5277023"
        },
        "mount st. helena": {
            "latitude": "38.6691683",
            "closest_to": "napa",
            "address": "Mount Saint Helena, Sonoma County, California, United States of America",
            "locType": "peak",
            "blogLinks": [
                "http://www.travelandleisure.com/articles/insiders-guide-to-napa-valley"
            ],
            "longitude": "-122.6333987"
        },
        "old town": {
            "latitude": "35.142943",
            "closest_to": "napa",
            "address": "Old Town, Golden Hills, Kern County, California, United States of America",
            "locType": "locality",
            "blogLinks": [
                "http://www.wineinstitute.org/consumerstories"
            ],
            "longitude": "-118.4954422"
        },
        "frontierland": {
            "latitude": "33.81314275",
            "closest_to": "los angeles",
            "address": "Frontierland, Anaheim, Orange County, California, United States of America",
            "locType": "locality",
            "blogLinks": [
                "https://www.timeout.com/los-angeles/things-to-do/great-things-to-do-in-los-angeles"
            ],
            "longitude": "-117.921339068848"
        },
        "sacramento river.san francisco": {
            "latitude": "37.7917547",
            "closest_to": "napa",
            "address": "1 California OB (Sacramento/Larkin), Sacramento Street, Nob Hill, SF, California, 94118, United States of America",
            "locType": "bus_stop",
            "blogLinks": [
                "http://gocalifornia.about.com/od/topcalifornia/qt/San-Francisco-to-Napa-Valley.htm"
            ],
            "longitude": "-122.4194373"
        },
        "pfeiffer big sur state park": {
            "latitude": "36.25330545",
            "closest_to": "napa",
            "address": "Pfeiffer Big Sur State Park, Valley View Trail, Big Sur, Monterey County, California, United States of America",
            "locType": "park",
            "blogLinks": [
                "https://blog.trekaroo.com/california-dreaming-road-trip-from-san-francisco-to-los-angeles/"
            ],
            "longitude": "-121.783295208903"
        },
        "american riviera": {
            "latitude": "38.576666",
            "closest_to": "napa",
            "address": "American River Drive, La Riviera, Sacramento County, California, 95608, United States of America",
            "locType": "tertiary",
            "blogLinks": [
                "http://travelblog.viator.com/road-trip-san-francisco-los-angeles/",
                "http://www.hopper.com/articles/291/five-great-stops-between-los-angeles-and-san-francisco-on-the-pacific-coast-highway"
            ],
            "longitude": "-121.3602199"
        },
        "hollywood walk of fame": {
            "latitude": "34.1018331",
            "closest_to": "napa",
            "address": "Old Hollywood Bookshop, Walk of Fame, Whitley Heights, LA, Los Angeles County, California, 90028, United States of America",
            "locType": "attraction",
            "blogLinks": [
                "https://www.timeout.com/los-angeles/things-to-do/great-things-to-do-in-los-angeles"
            ],
            "longitude": "-118.3385158"
        },
        "montana de oro state park": {
            "latitude": "35.2714109",
            "closest_to": "napa",
            "address": "Montana de Oro State Park, San Luis Obispo County, California, United States of America",
            "locType": "track",
            "blogLinks": [
                "https://blog.trekaroo.com/california-dreaming-road-trip-from-san-francisco-to-los-angeles/"
            ],
            "longitude": "-120.8888312"
        },
        "france": {
            "latitude": "34.2013715",
            "closest_to": "napa",
            "address": "France, Sherman Way, Canoga Park, LA, Los Angeles County, California, 91307, United States of America",
            "locType": "cafe",
            "blogLinks": [
                "http://www.10best.com/destinations/california/napa-valley/"
            ],
            "longitude": "-118.5935353"
        },
        "santa barbara county": {
            "latitude": "34.7136533",
            "closest_to": "napa",
            "address": "Santa Barbara County, California, United States of America",
            "locType": "administrative",
            "blogLinks": [
                "https://www.tripadvisor.com/ShowTopic-g32655-i61-k4545109-Drive_from_LAX_to_Napa_Valley_which_route-Los_Angeles_California.html"
            ],
            "longitude": "-119.9858231"
        },
        "santa barbara": {
            "latitude": "34.4221319",
            "closest_to": "napa",
            "address": "Santa Barbara, Santa Barbara County, California, United States of America",
            "locType": "city",
            "blogLinks": [
                "http://travelblog.viator.com/road-trip-san-francisco-los-angeles/",
                "https://www.pinterest.com/pin/17381148540667096/",
                "http://www.usatourist.com/english/destinations/california/california-driving-tour.html",
                "https://blog.trekaroo.com/california-dreaming-road-trip-from-san-francisco-to-los-angeles/",
                "http://www.wineinstitute.org/consumerstories",
                "http://www.hopper.com/articles/291/five-great-stops-between-los-angeles-and-san-francisco-on-the-pacific-coast-highway"
            ],
            "longitude": "-119.7026672"
        },
        "napa california": {
            "latitude": "38.2971367",
            "closest_to": "napa",
            "address": "Napa, Napa County, California, United States of America",
            "locType": "city",
            "blogLinks": [
                "https://www.pinterest.com/pin/17381148540667096/"
            ],
            "longitude": "-122.2855292"
        },
        "ripplewood resort": {
            "latitude": "36.2647082",
            "closest_to": "napa",
            "address": "Ripplewood Resort, 47047, Cabrillo Highway, Big Sur, Monterey County, California, 93923, United States of America",
            "locType": "motel",
            "blogLinks": [
                "http://usatravel.about.com/od/USALodging/tp/Favorite-Accommodations-Between-Los-Angeles-And-San-Francisco.htm"
            ],
            "longitude": "-121.8011621"
        },
        "canada": {
            "latitude": "33.7298842",
            "closest_to": "los angeles",
            "address": "La Canada, Lower Peters Canyon, Irvine, Orange County, California, 92602, United States of America",
            "locType": "residential",
            "blogLinks": [
                "https://www.pinterest.com/pin/17381148540667096/"
            ],
            "longitude": "-117.7641381"
        },
        "santa monica pier": {
            "latitude": "34.0104809",
            "closest_to": "napa",
            "address": "Santa Monica Pier, Santa Monica, Los Angeles County, California, CA 90401, United States of America",
            "locType": "service",
            "blogLinks": [
                "http://www.wineinstitute.org/consumerstories"
            ],
            "longitude": "-118.4960541"
        },
        "placerville": {
            "latitude": "38.7296252",
            "closest_to": "napa",
            "address": "Placerville, El Dorado County, California, United States of America",
            "locType": "city",
            "blogLinks": [
                "http://www.wineinstitute.org/consumerstories"
            ],
            "longitude": "-120.7985459"
        },
        "hawaii": {
            "latitude": "36.8347819",
            "closest_to": "napa",
            "address": "Hawaii, Fresno County, California, 93650, United States of America",
            "locType": "service",
            "blogLinks": [
                "https://blog.trekaroo.com/california-dreaming-road-trip-from-san-francisco-to-los-angeles/"
            ],
            "longitude": "-119.7966952"
        },
        "meadowood": {
            "latitude": "37.4081117",
            "closest_to": "napa",
            "address": "1555, Meadowood, Mountain View, Santa Clara County, California, 94043, United States of America",
            "locType": "residential",
            "blogLinks": [
                "http://www.10best.com/destinations/california/napa-valley/",
                "http://www.travelandleisure.com/articles/insiders-guide-to-napa-valley"
            ],
            "longitude": "-122.083170197233"
        },
        "bay bridge": {
            "latitude": "37.8193514",
            "closest_to": "napa",
            "address": "San Francisco \u2013 Oakland Bay Bridge, Oakland, Alameda County, California, 94625, United States of America",
            "locType": "abandoned",
            "blogLinks": [
                "http://gocalifornia.about.com/od/topcalifornia/qt/San-Francisco-to-Napa-Valley.htm"
            ],
            "longitude": "-122.342234"
        },
        "los angeles": {
            "latitude": "34.0543942",
            "closest_to": "los angeles",
            "address": "LA, Los Angeles County, California, United States of America",
            "locType": "city",
            "blogLinks": [
                "http://travelblog.viator.com/road-trip-san-francisco-los-angeles/",
                "http://www.usatourist.com/english/destinations/california/california-driving-tour.html",
                "http://usatravel.about.com/od/USALodging/tp/Favorite-Accommodations-Between-Los-Angeles-And-San-Francisco.htm",
                "https://www.timeout.com/los-angeles/things-to-do/great-things-to-do-in-los-angeles",
                "https://blog.trekaroo.com/california-dreaming-road-trip-from-san-francisco-to-los-angeles/",
                "http://www.wineinstitute.org/consumerstories",
                "http://www.hopper.com/articles/291/five-great-stops-between-los-angeles-and-san-francisco-on-the-pacific-coast-highway"
            ],
            "longitude": "-118.2439408"
        },
        "sonoma county": {
            "latitude": "38.5110803",
            "closest_to": "napa",
            "address": "Sonoma County, California, United States of America",
            "locType": "administrative",
            "blogLinks": [
                "http://gocalifornia.about.com/od/topcalifornia/qt/San-Francisco-to-Napa-Valley.htm"
            ],
            "longitude": "-122.8473387"
        },
        "monterey": {
            "latitude": "36.5844165",
            "closest_to": "napa",
            "address": "Monterey, Monterey County, California, United States of America",
            "locType": "city",
            "blogLinks": [
                "http://travelblog.viator.com/road-trip-san-francisco-los-angeles/",
                "https://blog.trekaroo.com/california-dreaming-road-trip-from-san-francisco-to-los-angeles/",
                "http://www.wineinstitute.org/consumerstories",
                "https://www.tripadvisor.com/ShowTopic-g28926-i29-k6490812-Napa_to_LA_where_to_stop-California.html",
                "http://www.usatourist.com/english/destinations/california/california-driving-tour.html"
            ],
            "longitude": "-121.866792846206"
        },
        "marin county": {
            "latitude": "38.0409144",
            "closest_to": "napa",
            "address": "Marin County, California, United States of America",
            "locType": "administrative",
            "blogLinks": [
                "http://www.wineinstitute.org/consumerstories"
            ],
            "longitude": "-122.6199637"
        },
        "zazu kitchen": {
            "latitude": "38.4039657",
            "closest_to": "napa",
            "address": "Zazu Kitchen and Farm, 6770, McKinley Avenue, The Barlow, Sebastopol, Sonoma County, California, 95472, United States of America",
            "locType": "restaurant",
            "blogLinks": [
                "http://www.travelandleisure.com/articles/insiders-guide-to-napa-valley"
            ],
            "longitude": "-122.820914"
        },
        "marin": {
            "latitude": "38.0409144",
            "closest_to": "napa",
            "address": "Marin County, California, United States of America",
            "locType": "administrative",
            "blogLinks": [
                "http://www.wineinstitute.org/consumerstories"
            ],
            "longitude": "-122.6199637"
        },
        "las vegas": {
            "latitude": "36.17310935",
            "closest_to": "los angeles",
            "address": "California Hotel, Sky Walk(Connection from Main Street to California, Cultural Corridor, Vegas Heights, Las Vegas, Clark County, Nevada, 89101, United States of America",
            "locType": "hotel",
            "blogLinks": [
                "http://www.usatourist.com/english/destinations/california/california-driving-tour.html"
            ],
            "longitude": "-115.144667930325"
        },
        "needles": {
            "latitude": "34.8480597",
            "closest_to": "los angeles",
            "address": "Needles, San Bernardino County, California, United States of America",
            "locType": "city",
            "blogLinks": [
                "http://www.usatourist.com/english/destinations/california/california-driving-tour.html"
            ],
            "longitude": "-114.6141315"
        },
        "big sur": {
            "latitude": "36.270241",
            "closest_to": "napa",
            "address": "Big Sur, Monterey County, California, United States of America",
            "locType": "village",
            "blogLinks": [
                "https://www.tripadvisor.com/ShowTopic-g32655-i61-k4545109-Drive_from_LAX_to_Napa_Valley_which_route-Los_Angeles_California.html",
                "http://usatravel.about.com/od/USALodging/tp/Favorite-Accommodations-Between-Los-Angeles-And-San-Francisco.htm"
            ],
            "longitude": "-121.8074544"
        },
        "sacramento": {
            "latitude": "38.5815719",
            "closest_to": "napa",
            "address": "Sacramento, Sacramento County, California, United States of America",
            "locType": "city",
            "blogLinks": [
                "https://www.tripadvisor.com/ShowTopic-g32655-i61-k4545109-Drive_from_LAX_to_Napa_Valley_which_route-Los_Angeles_California.html",
                "http://www.wineinstitute.org/consumerstories"
            ],
            "longitude": "-121.4943995"
        },
        "monterey county": {
            "latitude": "36.2231079",
            "closest_to": "napa",
            "address": "Monterey County, California, United States of America",
            "locType": "administrative",
            "blogLinks": [
                "http://travelblog.viator.com/road-trip-san-francisco-los-angeles/"
            ],
            "longitude": "-121.3877427"
        },
        "south rim": {
            "latitude": "39.0214541",
            "closest_to": "napa",
            "address": "Rim, Plumas Lake, Yuba County, California, United States of America",
            "locType": "residential",
            "blogLinks": [
                "http://www.usatourist.com/english/destinations/california/california-driving-tour.html"
            ],
            "longitude": "-121.5548741"
        },
        "st. helena hwy": {
            "latitude": "38.3441575",
            "closest_to": "napa",
            "address": "Saint Helena Highway, Napa, Napa County, California, 94558, United States of America",
            "locType": "trunk",
            "blogLinks": [
                "http://www.frommers.com/destinations/napa-valley/666221"
            ],
            "longitude": "-122.3268832"
        },
        "san simeon": {
            "latitude": "35.6438587",
            "closest_to": "napa",
            "address": "San Simeon, San Luis Obispo County, California, United States of America",
            "locType": "hamlet",
            "blogLinks": [
                "http://www.wineinstitute.org/consumerstories",
                "http://www.hopper.com/articles/291/five-great-stops-between-los-angeles-and-san-francisco-on-the-pacific-coast-highway"
            ],
            "longitude": "-121.1907532"
        },
        "mir": {
            "latitude": "37.3823701",
            "closest_to": "napa",
            "address": "Mir Mirou Drive, Los Altos Hills, Santa Clara County, California, 94022, United States of America",
            "locType": "residential",
            "blogLinks": [
                "https://www.timeout.com/los-angeles/things-to-do/great-things-to-do-in-los-angeles"
            ],
            "longitude": "-122.1700025"
        },
        "montecito": {
            "latitude": "34.4364435",
            "closest_to": "napa",
            "address": "Montecito, East Valley Lane, Montecito, Santa Barbara County, California, 93108, United States of America",
            "locType": "administrative",
            "blogLinks": [
                "https://www.pinterest.com/pin/17381148540667096/"
            ],
            "longitude": "-119.622205630583"
        },
        "carlsbad": {
            "latitude": "33.1580933",
            "closest_to": "los angeles",
            "address": "Carlsbad, San Diego County, California, United States of America",
            "locType": "city",
            "blogLinks": [
                "https://blog.trekaroo.com/california-dreaming-road-trip-from-san-francisco-to-los-angeles/"
            ],
            "longitude": "-117.3505938"
        },
        "mediterranean": {
            "latitude": "33.7439509",
            "closest_to": "los angeles",
            "address": "Mediterranean, Palm Desert, Riverside County, California, 92211, United States of America",
            "locType": "residential",
            "blogLinks": [
                "http://www.10best.com/destinations/california/napa-valley/"
            ],
            "longitude": "-116.3534838"
        },
        "malibu": {
            "latitude": "33.7932142",
            "closest_to": "los angeles",
            "address": "Malibu, Palm Springs, Riverside County, California, 92264, United States of America",
            "locType": "residential",
            "blogLinks": [
                "https://www.tripadvisor.com/ShowTopic-g28926-i29-k6490812-Napa_to_LA_where_to_stop-California.html"
            ],
            "longitude": "-116.5023561"
        },
        "silver lake": {
            "latitude": "34.0896518",
            "closest_to": "napa",
            "address": "Silver Lake, Angelino Heights, LA, Los Angeles County, California, 90026, United States of America",
            "locType": "neighbourhood",
            "blogLinks": [
                "https://www.timeout.com/los-angeles/things-to-do/great-things-to-do-in-los-angeles"
            ],
            "longitude": "-118.2693734"
        },
        "yosemite valley": {
            "latitude": "37.734435",
            "closest_to": "napa",
            "address": "Yosemite Valley, Mariposa County, California, United States of America",
            "locType": "town",
            "blogLinks": [
                "https://www.tripadvisor.com/ShowTopic-g28926-i29-k6490812-Napa_to_LA_where_to_stop-California.html"
            ],
            "longitude": "-119.6064673"
        },
        "kings canyon national park": {
            "latitude": "36.91527845",
            "closest_to": "napa",
            "address": "Kings Canyon National Park, Coopet Creek Trail, Fresno County, California, United States of America",
            "locType": "national_park",
            "blogLinks": [
                "https://www.pinterest.com/pin/17381148540667096/"
            ],
            "longitude": "-118.607655759626"
        },
        "chase palm park": {
            "latitude": "34.41527625",
            "closest_to": "napa",
            "address": "Chase Palm Park, East Cabrillo Boulevard, Santa Barbara, Santa Barbara County, California, 93103, United States of America",
            "locType": "park",
            "blogLinks": [
                "https://blog.trekaroo.com/california-dreaming-road-trip-from-san-francisco-to-los-angeles/"
            ],
            "longitude": "-119.679267670006"
        },
        "carneros": {
            "latitude": "35.414448",
            "closest_to": "napa",
            "address": "Carneros Creek, San Luis Obispo County, California, United States of America",
            "locType": "stream",
            "blogLinks": [
                "http://gocalifornia.about.com/od/topcalifornia/qt/San-Francisco-to-Napa-Valley.htm"
            ],
            "longitude": "-119.8882131"
        },
        "sebastopol": {
            "latitude": "38.4021359",
            "closest_to": "napa",
            "address": "Sebastopol, Sonoma County, California, United States of America",
            "locType": "city",
            "blogLinks": [
                "http://www.travelandleisure.com/articles/insiders-guide-to-napa-valley"
            ],
            "longitude": "-122.8238805"
        },
        "esalen": {
            "latitude": "36.1248106",
            "closest_to": "napa",
            "address": "Esalen Institute, Cabrillo Highway, Slates Hot Springs, Monterey County, California, 93920, United States of America",
            "locType": "school",
            "blogLinks": [
                "http://usatravel.about.com/od/USALodging/tp/Favorite-Accommodations-Between-Los-Angeles-And-San-Francisco.htm"
            ],
            "longitude": "-121.6377439"
        },
        "lakehouse": {
            "latitude": "37.3290857",
            "closest_to": "napa",
            "address": "Lakehouse Avenue, Little Italy, Buena Vista, San Jos\u00e9, Santa Clara County, California, 95110, United States of America",
            "locType": "residential",
            "blogLinks": [
                "http://www.travelandleisure.com/articles/insiders-guide-to-napa-valley"
            ],
            "longitude": "-121.8981158"
        },
        "oakville": {
            "latitude": "38.4368549",
            "closest_to": "napa",
            "address": "Oakville, Napa County, California, United States of America",
            "locType": "hamlet",
            "blogLinks": [
                "http://www.frommers.com/destinations/napa-valley/666221"
            ],
            "longitude": "-122.4022006"
        },
        "ventura": {
            "latitude": "34.4458248",
            "closest_to": "napa",
            "address": "Ventura County, California, United States of America",
            "locType": "administrative",
            "blogLinks": [
                "http://travelblog.viator.com/road-trip-san-francisco-los-angeles/",
                "https://www.tripadvisor.com/ShowTopic-g28926-i29-k6490812-Napa_to_LA_where_to_stop-California.html"
            ],
            "longitude": "-119.0779358"
        },
        "denver": {
            "latitude": "33.6996403",
            "closest_to": "los angeles",
            "address": "Denver, Heritage Park Apartments, El Camino Real, Irvine, Orange County, California, 92604, United States of America",
            "locType": "residential",
            "blogLinks": [
                "https://www.tripadvisor.com/ShowTopic-g32655-i61-k4545109-Drive_from_LAX_to_Napa_Valley_which_route-Los_Angeles_California.html"
            ],
            "longitude": "-117.7762651"
        },
        "calistoga ranch calistoga": {
            "latitude": "38.58016795",
            "closest_to": "napa",
            "address": "Calistoga Ranch, 580, Lommel Road, Larkmead, Napa County, California, 94515, United States of America",
            "locType": "hotel",
            "blogLinks": [
                "http://www.travelandleisure.com/articles/insiders-guide-to-napa-valley"
            ],
            "longitude": "-122.51196302191"
        },
        "valley": {
            "latitude": "34.0148403",
            "closest_to": "los angeles",
            "address": "Valley, South Stimson Avenue, Industry, Los Angeles County, California, 91745, United States of America",
            "locType": "yes",
            "blogLinks": [
                "http://www.10best.com/destinations/california/napa-valley/"
            ],
            "longitude": "-117.955234675878"
        },
        "sierra foothills": {
            "latitude": "37.3933656",
            "closest_to": "napa",
            "address": "Sierra Road, Berryessa, San Jos\u00e9, Santa Clara County, California, 95132, United States of America",
            "locType": "secondary",
            "blogLinks": [
                "http://www.wineinstitute.org/consumerstories"
            ],
            "longitude": "-121.8609818"
        },
        "madonna inn": {
            "latitude": "35.2673282",
            "closest_to": "napa",
            "address": "Madonna Inn, 100, Madonna Road, San Luis Obispo, San Luis Obispo County, California, 93405, United States of America",
            "locType": "hotel",
            "blogLinks": [
                "http://usatravel.about.com/od/USALodging/tp/Favorite-Accommodations-Between-Los-Angeles-And-San-Francisco.htm"
            ],
            "longitude": "-120.674725246222"
        },
        "forestville": {
            "latitude": "38.4833405",
            "closest_to": "napa",
            "address": "Forestville, Trenton Road, Trenton, Sonoma County, California, 95436, United States of America",
            "locType": "administrative",
            "blogLinks": [
                "http://www.travelandleisure.com/articles/insiders-guide-to-napa-valley"
            ],
            "longitude": "-122.861584174866"
        },
        "pebble beach golf course": {
            "latitude": "36.56413635",
            "closest_to": "napa",
            "address": "Pebble Beach Golf Course, Live Oak Meadow Road, Del Monte Forest, Monterey County, California, 93953, United States of America",
            "locType": "golf_course",
            "blogLinks": [
                "http://www.usatourist.com/english/destinations/california/california-driving-tour.html"
            ],
            "longitude": "-121.937790801787"
        },
        "space mountain": {
            "latitude": "33.810975",
            "closest_to": "los angeles",
            "address": "Hyperspace Mountain, 1313, South Harbor Boulevard, Anaheim Resort District, Anaheim, Orange County, California, 217, United States of America",
            "locType": "attraction",
            "blogLinks": [
                "https://www.timeout.com/los-angeles/things-to-do/great-things-to-do-in-los-angeles"
            ],
            "longitude": "-117.9174943"
        },
        "dakota": {
            "latitude": "33.6136924",
            "closest_to": "los angeles",
            "address": "Dakota, French Valley, Country Road Estates, Riverside County, California, 92596, United States of America",
            "locType": "residential",
            "blogLinks": [
                "http://www.travelandleisure.com/articles/insiders-guide-to-napa-valley"
            ],
            "longitude": "-117.102995421508"
        },
        "california hwy": {
            "latitude": "36.7014631",
            "closest_to": "napa",
            "address": "California, United States of America",
            "locType": "administrative",
            "blogLinks": [
                "http://www.frommers.com/destinations/napa-valley/666221"
            ],
            "longitude": "-118.7559973"
        },
        "golden gate bridge": {
            "latitude": "37.8302809",
            "closest_to": "napa",
            "address": "Golden Gate Bridge, Waldo, Marin County, California, 94965, United States of America",
            "locType": "motorway",
            "blogLinks": [
                "http://www.frommers.com/destinations/napa-valley/666221",
                "https://www.tripadvisor.com/ShowTopic-g32655-i61-k4545109-Drive_from_LAX_to_Napa_Valley_which_route-Los_Angeles_California.html",
                "http://gocalifornia.about.com/od/topcalifornia/qt/San-Francisco-to-Napa-Valley.htm",
                "http://www.usatourist.com/english/destinations/california/california-driving-tour.html"
            ],
            "longitude": "-122.4798473"
        },
        "alcatraz": {
            "latitude": "37.8267283",
            "closest_to": "napa",
            "address": "Alcatraz Island, SF, California, United States of America",
            "locType": "island",
            "blogLinks": [
                "http://www.wineinstitute.org/consumerstories"
            ],
            "longitude": "-122.422746492409"
        },
        "usa": {
            "latitude": "36.7014631",
            "closest_to": "napa",
            "address": "California, United States of America",
            "locType": "administrative",
            "blogLinks": [
                "http://www.usatourist.com/english/destinations/california/california-driving-tour.html"
            ],
            "longitude": "-118.7559973"
        },
        "arizona": {
            "latitude": "34.4631398",
            "closest_to": "los angeles",
            "address": "Arizona, San Bernardino County, California, 92371, United States of America",
            "locType": "track",
            "blogLinks": [
                "http://www.usatourist.com/english/destinations/california/california-driving-tour.html"
            ],
            "longitude": "-117.5060679"
        },
        "beverly hills": {
            "latitude": "34.0736204",
            "closest_to": "napa",
            "address": "Beverly Hills, Los Angeles County, California, United States of America",
            "locType": "city",
            "blogLinks": [
                "http://www.usatourist.com/english/destinations/california/california-driving-tour.html"
            ],
            "longitude": "-118.4003562"
        },
        "monterey bay": {
            "latitude": "36.7999557",
            "closest_to": "napa",
            "address": "Monterey Bay, Monterey County, California, United States of America",
            "locType": "bay",
            "blogLinks": [
                "http://travelblog.viator.com/road-trip-san-francisco-los-angeles/",
                "https://blog.trekaroo.com/california-dreaming-road-trip-from-san-francisco-to-los-angeles/",
                "http://www.wineinstitute.org/consumerstories",
                "http://www.hopper.com/articles/291/five-great-stops-between-los-angeles-and-san-francisco-on-the-pacific-coast-highway",
                "http://usatravel.about.com/od/USALodging/tp/Favorite-Accommodations-Between-Los-Angeles-And-San-Francisco.htm"
            ],
            "longitude": "-121.9010667"
        },
        "pismo beach": {
            "latitude": "35.1427533",
            "closest_to": "napa",
            "address": "Pismo Beach, San Luis Obispo County, California, United States of America",
            "locType": "city",
            "blogLinks": [
                "https://blog.trekaroo.com/california-dreaming-road-trip-from-san-francisco-to-los-angeles/",
                "https://www.tripadvisor.com/ShowTopic-g32655-i61-k4545109-Drive_from_LAX_to_Napa_Valley_which_route-Los_Angeles_California.html",
                "https://www.tripadvisor.com/ShowTopic-g28926-i29-k6490812-Napa_to_LA_where_to_stop-California.html",
                "http://www.hopper.com/articles/291/five-great-stops-between-los-angeles-and-san-francisco-on-the-pacific-coast-highway"
            ],
            "longitude": "-120.6412826"
        },
        "huntington beach": {
            "latitude": "33.6783336",
            "closest_to": "los angeles",
            "address": "Huntington Beach, Orange County, California, United States of America",
            "locType": "city",
            "blogLinks": [
                "https://www.tripadvisor.com/ShowTopic-g28926-i29-k6490812-Napa_to_LA_where_to_stop-California.html"
            ],
            "longitude": "-118.0000165"
        },
        "san luis obispo county": {
            "latitude": "35.3540209",
            "closest_to": "napa",
            "address": "San Luis Obispo County, California, United States of America",
            "locType": "administrative",
            "blogLinks": [
                "http://www.hopper.com/articles/291/five-great-stops-between-los-angeles-and-san-francisco-on-the-pacific-coast-highway"
            ],
            "longitude": "-120.3757162"
        },
        "us": {
            "latitude": "36.7014631",
            "closest_to": "napa",
            "address": "California, United States of America",
            "locType": "administrative",
            "blogLinks": [
                "https://www.tripadvisor.com/ShowTopic-g32655-i61-k4545109-Drive_from_LAX_to_Napa_Valley_which_route-Los_Angeles_California.html",
                "http://www.usatourist.com/english/destinations/california/california-driving-tour.html"
            ],
            "longitude": "-118.7559973"
        },
        "washington st.": {
            "latitude": "32.7415883",
            "closest_to": "los angeles",
            "address": "Washington Street, Kurtz Street, Hillcrest, San Diego, San Diego County, California, 92103, United States of America",
            "locType": "station",
            "blogLinks": [
                "http://www.travelandleisure.com/articles/insiders-guide-to-napa-valley"
            ],
            "longitude": "-117.1842757"
        },
        "st.": {
            "latitude": "33.4639537",
            "closest_to": "los angeles",
            "address": "The Strand, Dana Point, Orange County, California, 92629, United States of America",
            "locType": "residential",
            "blogLinks": [
                "http://www.travelandleisure.com/articles/insiders-guide-to-napa-valley"
            ],
            "longitude": "-117.711314322259"
        },
        "southern california": {
            "latitude": "34.0224149",
            "closest_to": "los angeles",
            "address": "University of Southern California, Watt Way, Saint James Park, LA, Los Angeles County, California, 90089, United States of America",
            "locType": "university",
            "blogLinks": [
                "https://blog.trekaroo.com/california-dreaming-road-trip-from-san-francisco-to-los-angeles/",
                "http://www.wineinstitute.org/consumerstories",
                "http://www.hopper.com/articles/291/five-great-stops-between-los-angeles-and-san-francisco-on-the-pacific-coast-highway",
                "http://www.usatourist.com/english/destinations/california/california-driving-tour.html"
            ],
            "longitude": "-118.286343973446"
        },
        "mayacamas": {
            "latitude": "35.4182628",
            "closest_to": "napa",
            "address": "Mayacamas Drive, Bakersfield, Kern County, California, 93312, United States of America",
            "locType": "residential",
            "blogLinks": [
                "http://www.travelandleisure.com/articles/insiders-guide-to-napa-valley"
            ],
            "longitude": "-119.1251777"
        },
        "sears point": {
            "latitude": "38.1510295",
            "closest_to": "napa",
            "address": "Sears Point, Sonoma County, California, United States of America",
            "locType": "hamlet",
            "blogLinks": [
                "http://gocalifornia.about.com/od/topcalifornia/qt/San-Francisco-to-Napa-Valley.htm"
            ],
            "longitude": "-122.447755"
        },
        "central valley": {
            "latitude": "40.5626504",
            "closest_to": "napa",
            "address": "KNNN-FM (Central Valley), Rattlesnake Drive, Shasta County, California, 96001, United States of America",
            "locType": "tower",
            "blogLinks": [
                "https://www.tripadvisor.com/ShowTopic-g28926-i29-k6490812-Napa_to_LA_where_to_stop-California.html"
            ],
            "longitude": "-122.4530663"
        },
        "las vegas strip": {
            "latitude": "36.12050715",
            "closest_to": "los angeles",
            "address": "California Pizza Kitchen, South Las Vegas Boulevard, Hughes Center, Paradise, Clark County, Nevada, 89123, United States of America",
            "locType": "restaurant",
            "blogLinks": [
                "http://www.usatourist.com/english/destinations/california/california-driving-tour.html"
            ],
            "longitude": "-115.173775796208"
        },
        "pacific": {
            "latitude": "38.7601815",
            "closest_to": "napa",
            "address": "Pacific, El Dorado County, California, United States of America",
            "locType": "hamlet",
            "blogLinks": [
                "http://travelblog.viator.com/road-trip-san-francisco-los-angeles/",
                "http://www.usatourist.com/english/destinations/california/california-driving-tour.html",
                "https://www.timeout.com/los-angeles/things-to-do/great-things-to-do-in-los-angeles"
            ],
            "longitude": "-120.507146"
        },
        "sonoma": {
            "latitude": "38.5110803",
            "closest_to": "napa",
            "address": "Sonoma County, California, United States of America",
            "locType": "administrative",
            "blogLinks": [
                "https://www.tripadvisor.com/ShowTopic-g32655-i61-k4545109-Drive_from_LAX_to_Napa_Valley_which_route-Los_Angeles_California.html",
                "http://www.wineinstitute.org/consumerstories"
            ],
            "longitude": "-122.8473387"
        },
        "calistoga ranch": {
            "latitude": "38.58016795",
            "closest_to": "napa",
            "address": "Calistoga Ranch, 580, Lommel Road, Larkmead, Napa County, California, 94515, United States of America",
            "locType": "hotel",
            "blogLinks": [
                "http://www.10best.com/destinations/california/napa-valley/",
                "http://www.travelandleisure.com/articles/insiders-guide-to-napa-valley"
            ],
            "longitude": "-122.51196302191"
        },
        "central coast": {
            "latitude": "35.3611193",
            "closest_to": "napa",
            "address": "Central Coast Street, Bakersfield, Kern County, California, 93314, United States of America",
            "locType": "residential",
            "blogLinks": [
                "http://travelblog.viator.com/road-trip-san-francisco-los-angeles/",
                "https://blog.trekaroo.com/california-dreaming-road-trip-from-san-francisco-to-los-angeles/",
                "https://www.tripadvisor.com/ShowTopic-g28926-i29-k6490812-Napa_to_LA_where_to_stop-California.html",
                "http://usatravel.about.com/od/USALodging/tp/Favorite-Accommodations-Between-Los-Angeles-And-San-Francisco.htm"
            ],
            "longitude": "-119.1665989"
        },
        "yosemite": {
            "latitude": "37.7488554",
            "closest_to": "napa",
            "address": "Yosemite, Village Drive, Yosemite Village, Yosemite Valley, Mariposa County, California, United States of America",
            "locType": "attraction",
            "blogLinks": [
                "http://www.usatourist.com/english/destinations/california/california-driving-tour.html"
            ],
            "longitude": "-119.5893389"
        },
        "monterey bay aquarium": {
            "latitude": "36.61809095",
            "closest_to": "napa",
            "address": "MBA, 886, Cannery Row, Monterey, Monterey County, California, 93940, United States of America",
            "locType": "aquarium",
            "blogLinks": [
                "http://travelblog.viator.com/road-trip-san-francisco-los-angeles/",
                "https://blog.trekaroo.com/california-dreaming-road-trip-from-san-francisco-to-los-angeles/",
                "http://www.hopper.com/articles/291/five-great-stops-between-los-angeles-and-san-francisco-on-the-pacific-coast-highway"
            ],
            "longitude": "-121.901680002002"
        },
        "nevada": {
            "latitude": "39.3540335",
            "closest_to": "napa",
            "address": "Nevada County, California, United States of America",
            "locType": "administrative",
            "blogLinks": [
                "http://www.usatourist.com/english/destinations/california/california-driving-tour.html"
            ],
            "longitude": "-120.8089842"
        },
        "vallejo valley": {
            "latitude": "38.1040864",
            "closest_to": "napa",
            "address": "Vallejo, Solano County, California, United States of America",
            "locType": "city",
            "blogLinks": [
                "http://www.travelandleisure.com/articles/insiders-guide-to-napa-valley"
            ],
            "longitude": "-122.2566366"
        },
        "new orleans": {
            "latitude": "33.8116219",
            "closest_to": "los angeles",
            "address": "New Orleans Square, Anaheim, Orange County, California, United States of America",
            "locType": "locality",
            "blogLinks": [
                "https://www.timeout.com/los-angeles/things-to-do/great-things-to-do-in-los-angeles"
            ],
            "longitude": "-117.9206364"
        },
        "third street promenade": {
            "latitude": "34.01632465",
            "closest_to": "napa",
            "address": "Third Street Promenade, Santa Monica, Los Angeles County, California, 90401, United States of America",
            "locType": "pedestrian",
            "blogLinks": [
                "http://www.wineinstitute.org/consumerstories"
            ],
            "longitude": "-118.496879184169"
        },
        "virgin america": {
            "latitude": "37.5887164",
            "closest_to": "napa",
            "address": "Virgin America Parkway, Burlingame, San Mateo County, California, 94101, United States of America",
            "locType": "residential",
            "blogLinks": [
                "https://www.tripadvisor.com/ShowTopic-g32655-i61-k4545109-Drive_from_LAX_to_Napa_Valley_which_route-Los_Angeles_California.html"
            ],
            "longitude": "-122.339995"
        },
        "california state railroad museum": {
            "latitude": "38.5846424",
            "closest_to": "napa",
            "address": "California State Railroad Museum, 125, I Street, Sacramento, Sacramento County, California, 95814, United States of America",
            "locType": "museum",
            "blogLinks": [
                "http://www.wineinstitute.org/consumerstories"
            ],
            "longitude": "-121.5038909"
        },
        "meadowood lane": {
            "latitude": "38.30496",
            "closest_to": "napa",
            "address": "Meadowood Lane, El Verano, Sonoma County, California, 95476, United States of America",
            "locType": "residential",
            "blogLinks": [
                "http://www.travelandleisure.com/articles/insiders-guide-to-napa-valley"
            ],
            "longitude": "-122.4855739"
        },
        "monterey peninsula": {
            "latitude": "36.5878734",
            "closest_to": "napa",
            "address": "Monterey Regional Airport, Airport Road, Seaside, Del Monte Heights, Monterey County, California, 93940, United States of America",
            "locType": "aerodrome",
            "blogLinks": [
                "https://blog.trekaroo.com/california-dreaming-road-trip-from-san-francisco-to-los-angeles/"
            ],
            "longitude": "-121.843618374407"
        },
        "napa": {
            "latitude": "38.2971367",
            "closest_to": "napa",
            "address": "Napa, Napa County, California, United States of America",
            "locType": "city",
            "blogLinks": [
                "https://www.tripadvisor.com/ShowTopic-g32655-i61-k4545109-Drive_from_LAX_to_Napa_Valley_which_route-Los_Angeles_California.html",
                "http://www.travelandleisure.com/articles/insiders-guide-to-napa-valley",
                "http://gocalifornia.about.com/od/topcalifornia/qt/San-Francisco-to-Napa-Valley.htm",
                "http://www.10best.com/destinations/california/napa-valley/",
                "http://www.frommers.com/destinations/napa-valley/666221",
                "http://www.wineinstitute.org/consumerstories",
                "https://www.tripadvisor.com/ShowTopic-g28926-i29-k6490812-Napa_to_LA_where_to_stop-California.html"
            ],
            "longitude": "-122.2855292"
        },
        "los alamos": {
            "latitude": "34.7379311",
            "closest_to": "napa",
            "address": "Los Alamos, Bell Street, Los Alamos, Santa Barbara County, California, 93455, United States of America",
            "locType": "administrative",
            "blogLinks": [
                "http://travelblog.viator.com/road-trip-san-francisco-los-angeles/"
            ],
            "longitude": "-120.26591036241"
        },
        "american canyon rd": {
            "latitude": "38.1689843",
            "closest_to": "napa",
            "address": "American Canyon Road, Vallejo, Solano County, California, 94591, United States of America",
            "locType": "secondary",
            "blogLinks": [
                "http://gocalifornia.about.com/od/topcalifornia/qt/San-Francisco-to-Napa-Valley.htm"
            ],
            "longitude": "-122.1994723"
        },
        "gaslamp quarter": {
            "latitude": "32.7109444",
            "closest_to": "los angeles",
            "address": "Gaslamp Quarter, San Diego County, California, United States of America",
            "locType": "hamlet",
            "blogLinks": [
                "http://www.wineinstitute.org/consumerstories"
            ],
            "longitude": "-117.1597028"
        },
        "mojave desert": {
            "latitude": "35.1456319",
            "closest_to": "los angeles",
            "address": "Mojave Desert, Utility Road, San Bernardino County, California, United States of America",
            "locType": "desert",
            "blogLinks": [
                "http://www.usatourist.com/english/destinations/california/california-driving-tour.html"
            ],
            "longitude": "-115.548963686646"
        },
        "101 freeway": {
            "latitude": "32.8749469",
            "closest_to": "los angeles",
            "address": "Jacob Dekema Freeway, San Diego, San Diego County, California, 92122, United States of America",
            "locType": "motorway",
            "blogLinks": [
                "https://www.tripadvisor.com/ShowTopic-g28926-i29-k6490812-Napa_to_LA_where_to_stop-California.html"
            ],
            "longitude": "-117.1993642"
        },
        "lake berryessa": {
            "latitude": "35.376803",
            "closest_to": "napa",
            "address": "Lake Berryessa, Rosedale, Kern County, California, 93314, United States of America",
            "locType": "residential",
            "blogLinks": [
                "http://www.wineinstitute.org/consumerstories"
            ],
            "longitude": "-119.1745059"
        },
        "boulder city": {
            "latitude": "35.974186",
            "closest_to": "los angeles",
            "address": "California Avenue, Boulder City, Clark County, Nevada, 89005, United States of America",
            "locType": "residential",
            "blogLinks": [
                "http://www.usatourist.com/english/destinations/california/california-driving-tour.html"
            ],
            "longitude": "-114.8341879"
        },
        "santa lucia mountain": {
            "latitude": "34.4379129",
            "closest_to": "napa",
            "address": "Santa Lucia, Santa Barbara County, California, 93111, United States of America",
            "locType": "residential",
            "blogLinks": [
                "http://travelblog.viator.com/road-trip-san-francisco-los-angeles/"
            ],
            "longitude": "-119.8003246"
        },
        "kingman": {
            "latitude": "33.3508348",
            "closest_to": "los angeles",
            "address": "Kingman, 31422, Borrego Palm Canyon Road, San Diego County, California, United States of America",
            "locType": "camp_site",
            "blogLinks": [
                "http://www.usatourist.com/english/destinations/california/california-driving-tour.html"
            ],
            "longitude": "-116.5745266"
        },
        "la": {
            "latitude": "36.7014631",
            "closest_to": "napa",
            "address": "California, United States of America",
            "locType": "administrative",
            "blogLinks": [
                "https://blog.trekaroo.com/california-dreaming-road-trip-from-san-francisco-to-los-angeles/",
                "https://www.tripadvisor.com/ShowTopic-g32655-i61-k4545109-Drive_from_LAX_to_Napa_Valley_which_route-Los_Angeles_California.html",
                "https://www.tripadvisor.com/ShowTopic-g28926-i29-k6490812-Napa_to_LA_where_to_stop-California.html",
                "https://www.timeout.com/los-angeles/things-to-do/great-things-to-do-in-los-angeles"
            ],
            "longitude": "-118.7559973"
        },
        "sedona": {
            "latitude": "33.6916439",
            "closest_to": "los angeles",
            "address": "Sedona, Foothill Ranch, Lake Forest, Orange County, California, 92610, United States of America",
            "locType": "residential",
            "blogLinks": [
                "http://www.usatourist.com/english/destinations/california/california-driving-tour.html"
            ],
            "longitude": "-117.6689202"
        },
        "provence": {
            "latitude": "38.6513942",
            "closest_to": "napa",
            "address": "Provence, Sacramento, Sacramento County, California, 85834, United States of America",
            "locType": "residential",
            "blogLinks": [
                "http://www.travelandleisure.com/articles/insiders-guide-to-napa-valley"
            ],
            "longitude": "-121.527106611304"
        },
        "grand canyon": {
            "latitude": "33.9332326",
            "closest_to": "los angeles",
            "address": "Grand Canyon, Downtown Brea, Brea, Orange County, California, 92821, United States of America",
            "locType": "residential",
            "blogLinks": [
                "http://www.usatourist.com/english/destinations/california/california-driving-tour.html"
            ],
            "longitude": "-117.8915409"
        },
        "napa valley vine trail": {
            "latitude": "38.4022123",
            "closest_to": "napa",
            "address": "Napa Valley Vine Trail, Yountville, Napa County, California, 94599, United States of America",
            "locType": "cycleway",
            "blogLinks": [
                "http://www.travelandleisure.com/articles/insiders-guide-to-napa-valley"
            ],
            "longitude": "-122.3640246"
        },
        "maria california": {
            "latitude": "32.6291626",
            "closest_to": "los angeles",
            "address": "Mar\u00eda, Colonia Carbajal, Fracc. Reforma, Mexicali, Baja California, 21370, M\u00e9xico",
            "locType": "residential",
            "blogLinks": [
                "https://www.pinterest.com/pin/17381148540667096/"
            ],
            "longitude": "-115.4455164"
        },
        "chinatown": {
            "latitude": "37.7999301",
            "closest_to": "napa",
            "address": "Chinatown, Oakland, Alameda County, California, ca, United States of America",
            "locType": "neighbourhood",
            "blogLinks": [
                "http://www.usatourist.com/english/destinations/california/california-driving-tour.html",
                "https://www.timeout.com/los-angeles/things-to-do/great-things-to-do-in-los-angeles"
            ],
            "longitude": "-122.2702385"
        },
        "northern california": {
            "latitude": "32.7349196",
            "closest_to": "los angeles",
            "address": "Northern Frontier, San Diego, San Diego County, California, United States of America",
            "locType": "locality",
            "blogLinks": [
                "https://blog.trekaroo.com/california-dreaming-road-trip-from-san-francisco-to-los-angeles/"
            ],
            "longitude": "-117.1545973"
        },
        "norway": {
            "latitude": "38.8246295",
            "closest_to": "napa",
            "address": "Little Norway, El Dorado County, California, United States of America",
            "locType": "hamlet",
            "blogLinks": [
                "https://blog.trekaroo.com/california-dreaming-road-trip-from-san-francisco-to-los-angeles/"
            ],
            "longitude": "-120.0365723"
        },
        "los angeles county museum of art": {
            "latitude": "34.0634357",
            "closest_to": "napa",
            "address": "Los Angeles County Museum of Art, Wilshire Boulevard, Park La Brea, The Village Green, LA, Los Angeles County, California, 90036, United States of America",
            "locType": "museum",
            "blogLinks": [
                "https://www.timeout.com/los-angeles/things-to-do/great-things-to-do-in-los-angeles"
            ],
            "longitude": "-118.357997654056"
        },
        "inglenook": {
            "latitude": "39.529608",
            "closest_to": "napa",
            "address": "Inglenook, Mendocino County, California, United States of America",
            "locType": "hamlet",
            "blogLinks": [
                "http://www.travelandleisure.com/articles/insiders-guide-to-napa-valley"
            ],
            "longitude": "-123.7589042"
        },
        "santa maria": {
            "latitude": "34.9531295",
            "closest_to": "napa",
            "address": "Santa Maria, Santa Barbara County, California, United States of America",
            "locType": "city",
            "blogLinks": [
                "https://www.pinterest.com/pin/17381148540667096/"
            ],
            "longitude": "-120.4358576"
        },
        "san luis obispo bay": {
            "latitude": "35.1660863",
            "closest_to": "napa",
            "address": "San Luis Obispo Bay, Unocal, Avila Beach, San Luis Obispo County, California, 39424, United States of America",
            "locType": "bay",
            "blogLinks": [
                "http://usatravel.about.com/od/USALodging/tp/Favorite-Accommodations-Between-Los-Angeles-And-San-Francisco.htm"
            ],
            "longitude": "-120.7265639"
        },
        "mendocino": {
            "latitude": "39.3176491",
            "closest_to": "napa",
            "address": "Mendocino County, California, United States of America",
            "locType": "administrative",
            "blogLinks": [
                "http://www.wineinstitute.org/consumerstories"
            ],
            "longitude": "-123.4126398"
        },
        "alexander valley": {
            "latitude": "34.5991586",
            "closest_to": "napa",
            "address": "Alexander Peak, Santa Barbara County, California, United States of America",
            "locType": "peak",
            "blogLinks": [
                "http://www.wineinstitute.org/consumerstories",
                "http://www.travelandleisure.com/articles/insiders-guide-to-napa-valley"
            ],
            "longitude": "-119.7631938"
        },
        "downtown los angeles": {
            "latitude": "34.1789188",
            "closest_to": "napa",
            "address": "Downtown Burbank, Front Street, Burbank, Los Angeles County, California, 91502, United States of America",
            "locType": "station",
            "blogLinks": [
                "https://www.timeout.com/los-angeles/things-to-do/great-things-to-do-in-los-angeles"
            ],
            "longitude": "-118.312628"
        },
        "orange county": {
            "latitude": "33.7500378",
            "closest_to": "los angeles",
            "address": "Orange County, California, United States of America",
            "locType": "administrative",
            "blogLinks": [
                "https://blog.trekaroo.com/california-dreaming-road-trip-from-san-francisco-to-los-angeles/"
            ],
            "longitude": "-117.870493"
        },
        "lake hennessey": {
            "latitude": "38.49185755",
            "closest_to": "napa",
            "address": "Lake Hennessey, Shoreline Trail, Napa County, California, 94573, United States of America",
            "locType": "water",
            "blogLinks": [
                "http://www.travelandleisure.com/articles/insiders-guide-to-napa-valley"
            ],
            "longitude": "-122.376986862262"
        },
        "hollywood": {
            "latitude": "34.1028268",
            "closest_to": "napa",
            "address": "Hollywood, LA, Los Angeles County, California, United States of America",
            "locType": "suburb",
            "blogLinks": [
                "http://www.travelandleisure.com/articles/insiders-guide-to-napa-valley",
                "http://www.usatourist.com/english/destinations/california/california-driving-tour.html",
                "https://www.timeout.com/los-angeles/things-to-do/great-things-to-do-in-los-angeles",
                "https://blog.trekaroo.com/california-dreaming-road-trip-from-san-francisco-to-los-angeles/",
                "http://www.wineinstitute.org/consumerstories",
                "https://www.tripadvisor.com/ShowTopic-g28926-i29-k6490812-Napa_to_LA_where_to_stop-California.html"
            ],
            "longitude": "-118.3299898"
        },
        "napa town center": {
            "latitude": "38.2985743",
            "closest_to": "napa",
            "address": "Napa Town Center, Napa, Napa County, California, 94559, United States of America",
            "locType": "pedestrian",
            "blogLinks": [
                "http://www.frommers.com/destinations/napa-valley/666221"
            ],
            "longitude": "-122.2881765"
        },
        "pacific palisades": {
            "latitude": "34.0480643",
            "closest_to": "napa",
            "address": "Pacific Palisades, LA, Los Angeles County, California, 90272, United States of America",
            "locType": "neighbourhood",
            "blogLinks": [
                "https://www.timeout.com/los-angeles/things-to-do/great-things-to-do-in-los-angeles"
            ],
            "longitude": "-118.5264705"
        },
        "yountville": {
            "latitude": "38.4015781",
            "closest_to": "napa",
            "address": "Yountville, Napa County, California, United States of America",
            "locType": "administrative",
            "blogLinks": [
                "http://www.frommers.com/destinations/napa-valley/666221",
                "https://www.tripadvisor.com/ShowTopic-g32655-i61-k4545109-Drive_from_LAX_to_Napa_Valley_which_route-Los_Angeles_California.html",
                "https://www.tripadvisor.com/ShowTopic-g28926-i29-k6490812-Napa_to_LA_where_to_stop-California.html",
                "http://www.10best.com/destinations/california/napa-valley/",
                "http://www.travelandleisure.com/articles/insiders-guide-to-napa-valley"
            ],
            "longitude": "-122.3608104"
        },
        "san diego": {
            "latitude": "32.7174209",
            "closest_to": "los angeles",
            "address": "San Diego, San Diego County, California, United States of America",
            "locType": "city",
            "blogLinks": [
                "http://gocalifornia.about.com/od/caplaceslist/",
                "http://gocalifornia.about.com/od/topcalifornia/qt/San-Francisco-to-Napa-Valley.htm",
                "http://www.hopper.com/articles/291/five-great-stops-between-los-angeles-and-san-francisco-on-the-pacific-coast-highway",
                "http://www.usatourist.com/english/destinations/california/california-driving-tour.html"
            ],
            "longitude": "-117.1627713"
        },
        "cambria": {
            "latitude": "35.5641381",
            "closest_to": "napa",
            "address": "Cambria, San Luis Obispo County, California, United States of America",
            "locType": "administrative",
            "blogLinks": [
                "https://blog.trekaroo.com/california-dreaming-road-trip-from-san-francisco-to-los-angeles/",
                "http://www.wineinstitute.org/consumerstories",
                "https://www.tripadvisor.com/ShowTopic-g28926-i29-k6490812-Napa_to_LA_where_to_stop-California.html",
                "http://usatravel.about.com/od/USALodging/tp/Favorite-Accommodations-Between-Los-Angeles-And-San-Francisco.htm"
            ],
            "longitude": "-121.0807467"
        },
        "palm springs": {
            "latitude": "33.8246269",
            "closest_to": "los angeles",
            "address": "Palm Springs, Riverside County, California, United States of America",
            "locType": "city",
            "blogLinks": [
                "http://www.usatourist.com/english/destinations/california/california-driving-tour.html"
            ],
            "longitude": "-116.5403029"
        },
        "california coast": {
            "latitude": "32.7586361",
            "closest_to": "los angeles",
            "address": "California Coast Credit Union, Park Boulevard, Hillcrest, San Diego, San Diego County, California, 92116, United States of America",
            "locType": "bank",
            "blogLinks": [
                "https://blog.trekaroo.com/california-dreaming-road-trip-from-san-francisco-to-los-angeles/",
                "https://www.tripadvisor.com/ShowTopic-g28926-i29-k6490812-Napa_to_LA_where_to_stop-California.html"
            ],
            "longitude": "-117.1464145"
        },
        "bixby creek bridge": {
            "latitude": "36.3710197",
            "closest_to": "napa",
            "address": "Bixby Creek Bridge, Notleys Landing, Monterey County, California, 93923, United States of America",
            "locType": "primary",
            "blogLinks": [
                "http://travelblog.viator.com/road-trip-san-francisco-los-angeles/"
            ],
            "longitude": "-121.9017572"
        },
        "avila beach": {
            "latitude": "35.1799752",
            "closest_to": "napa",
            "address": "Avila Beach, San Luis Obispo County, California, United States of America",
            "locType": "hamlet",
            "blogLinks": [
                "http://usatravel.about.com/od/USALodging/tp/Favorite-Accommodations-Between-Los-Angeles-And-San-Francisco.htm"
            ],
            "longitude": "-120.7318417"
        },
        "western united states": {
            "latitude": "36.615671",
            "closest_to": "napa",
            "address": "Western, San Benito County, California, United States of America",
            "locType": "residential",
            "blogLinks": [
                "https://blog.trekaroo.com/california-dreaming-road-trip-from-san-francisco-to-los-angeles/"
            ],
            "longitude": "-121.0670829"
        },
        "silicon valley": {
            "latitude": "37.4105333",
            "closest_to": "napa",
            "address": "Carnegie Mellon Silicon Valley, South Akron Road, Santa Clara County, California, 94035-0016, United States of America",
            "locType": "school",
            "blogLinks": [
                "http://www.usatourist.com/english/destinations/california/california-driving-tour.html"
            ],
            "longitude": "-122.0597491"
        },
        "ontario": {
            "latitude": "34.065846",
            "closest_to": "los angeles",
            "address": "Ontario, San Bernardino County, California, United States of America",
            "locType": "city",
            "blogLinks": [
                "https://www.pinterest.com/pin/17381148540667096/"
            ],
            "longitude": "-117.6484303"
        },
        "pacific ocean": {
            "latitude": "36.16305775",
            "closest_to": "napa",
            "address": "Pacific Ocean, Cabrillo Highway, Monterey County, California, 93920, United States of America",
            "locType": "cliff",
            "blogLinks": [
                "http://travelblog.viator.com/road-trip-san-francisco-los-angeles/",
                "http://www.hopper.com/articles/291/five-great-stops-between-los-angeles-and-san-francisco-on-the-pacific-coast-highway",
                "http://usatravel.about.com/od/USALodging/tp/Favorite-Accommodations-Between-Los-Angeles-And-San-Francisco.htm"
            ],
            "longitude": "-121.678715787326"
        },
        "san francisco": {
            "latitude": "37.7792808",
            "closest_to": "napa",
            "address": "SF, California, United States of America",
            "locType": "city",
            "blogLinks": [
                "http://www.travelandleisure.com/articles/insiders-guide-to-napa-valley",
                "http://gocalifornia.about.com/od/topcalifornia/qt/San-Francisco-to-Napa-Valley.htm",
                "http://www.10best.com/destinations/california/napa-valley/",
                "http://travelblog.viator.com/road-trip-san-francisco-los-angeles/",
                "http://www.frommers.com/destinations/napa-valley/666221",
                "https://www.pinterest.com/pin/17381148540667096/",
                "http://www.usatourist.com/english/destinations/california/california-driving-tour.html",
                "http://usatravel.about.com/od/USALodging/tp/Favorite-Accommodations-Between-Los-Angeles-And-San-Francisco.htm",
                "https://blog.trekaroo.com/california-dreaming-road-trip-from-san-francisco-to-los-angeles/",
                "http://www.wineinstitute.org/consumerstories",
                "https://www.tripadvisor.com/ShowTopic-g28926-i29-k6490812-Napa_to_LA_where_to_stop-California.html",
                "http://www.hopper.com/articles/291/five-great-stops-between-los-angeles-and-san-francisco-on-the-pacific-coast-highway"
            ],
            "longitude": "-122.4192362"
        },
        "las vegas nevada": {
            "latitude": "36.17310935",
            "closest_to": "los angeles",
            "address": "California Hotel, Sky Walk(Connection from Main Street to California, Cultural Corridor, Vegas Heights, Las Vegas, Clark County, Nevada, 89101, United States of America",
            "locType": "hotel",
            "blogLinks": [
                "http://www.usatourist.com/english/destinations/california/california-driving-tour.html"
            ],
            "longitude": "-115.144667930325"
        },
        "bay area": {
            "latitude": "37.7884969",
            "closest_to": "napa",
            "address": "San Francisco Bay Area, SF, California, United States of America",
            "locType": "region",
            "blogLinks": [
                "https://www.tripadvisor.com/ShowTopic-g32655-i61-k4545109-Drive_from_LAX_to_Napa_Valley_which_route-Los_Angeles_California.html",
                "http://www.travelandleisure.com/articles/insiders-guide-to-napa-valley"
            ],
            "longitude": "-122.3558472"
        },
        "united states": {
            "latitude": "36.7014631",
            "closest_to": "napa",
            "address": "California, United States of America",
            "locType": "administrative",
            "blogLinks": [
                "https://blog.trekaroo.com/california-dreaming-road-trip-from-san-francisco-to-los-angeles/",
                "http://www.frommers.com/destinations/napa-valley/666221",
                "http://www.10best.com/destinations/california/napa-valley/"
            ],
            "longitude": "-118.7559973"
        },
        "morro bay": {
            "latitude": "35.3658075",
            "closest_to": "napa",
            "address": "Morro Bay, San Luis Obispo County, California, United States of America",
            "locType": "city",
            "blogLinks": [
                "http://usatravel.about.com/od/USALodging/tp/Favorite-Accommodations-Between-Los-Angeles-And-San-Francisco.htm"
            ],
            "longitude": "-120.8499012"
        },
        "calistoga": {
            "latitude": "38.582615",
            "closest_to": "napa",
            "address": "Calistoga, Napa County, California, United States of America",
            "locType": "city",
            "blogLinks": [
                "http://www.frommers.com/destinations/napa-valley/666221",
                "http://www.wineinstitute.org/consumerstories",
                "https://www.tripadvisor.com/ShowTopic-g28926-i29-k6490812-Napa_to_LA_where_to_stop-California.html",
                "http://gocalifornia.about.com/od/topcalifornia/qt/San-Francisco-to-Napa-Valley.htm",
                "http://www.travelandleisure.com/articles/insiders-guide-to-napa-valley"
            ],
            "longitude": "-122.583325948608"
        },
        "manhattan beach": {
            "latitude": "33.8950839",
            "closest_to": "los angeles",
            "address": "Manhattan Beach, Los Angeles County, California, United States of America",
            "locType": "city",
            "blogLinks": [
                "https://www.tripadvisor.com/ShowTopic-g28926-i29-k6490812-Napa_to_LA_where_to_stop-California.html"
            ],
            "longitude": "-118.4000146"
        },
        "north beach": {
            "latitude": "37.8011749",
            "closest_to": "napa",
            "address": "North Beach, SF, California, 94133, United States of America",
            "locType": "neighbourhood",
            "blogLinks": [
                "http://www.wineinstitute.org/consumerstories"
            ],
            "longitude": "-122.409002"
        },
        "barstow": {
            "latitude": "34.8957684",
            "closest_to": "los angeles",
            "address": "Barstow, San Bernardino County, California, United States of America",
            "locType": "administrative",
            "blogLinks": [
                "http://www.usatourist.com/english/destinations/california/california-driving-tour.html"
            ],
            "longitude": "-117.0172076"
        },
        "big sur bakery": {
            "latitude": "36.2359105",
            "closest_to": "napa",
            "address": "Big Sur Bakery, 47540, Cabrillo Highway, Posts, Monterey County, California, 93920, United States of America",
            "locType": "bakery",
            "blogLinks": [
                "http://travelblog.viator.com/road-trip-san-francisco-los-angeles/"
            ],
            "longitude": "-121.7693642"
        },
        "san rafael": {
            "latitude": "37.9735346",
            "closest_to": "napa",
            "address": "San Rafael, Marin County, California, United States of America",
            "locType": "city",
            "blogLinks": [
                "http://www.wineinstitute.org/consumerstories"
            ],
            "longitude": "-122.5310873"
        },
        "nepenthe": {
            "latitude": "36.2218116",
            "closest_to": "napa",
            "address": "Nepenthe, 48510, Cabrillo Highway, Posts, Monterey County, California, 93920-9549, United States of America",
            "locType": "restaurant",
            "blogLinks": [
                "http://travelblog.viator.com/road-trip-san-francisco-los-angeles/"
            ],
            "longitude": "-121.7596564"
        },
        "solvang": {
            "latitude": "34.5958572",
            "closest_to": "napa",
            "address": "Solvang, Santa Barbara County, California, United States of America",
            "locType": "city",
            "blogLinks": [
                "https://blog.trekaroo.com/california-dreaming-road-trip-from-san-francisco-to-los-angeles/",
                "http://www.wineinstitute.org/consumerstories",
                "http://www.usatourist.com/english/destinations/california/california-driving-tour.html"
            ],
            "longitude": "-120.1390893"
        },
        "williams": {
            "latitude": "39.1546137",
            "closest_to": "napa",
            "address": "Williams, Colusa County, California, United States of America",
            "locType": "city",
            "blogLinks": [
                "http://www.usatourist.com/english/destinations/california/california-driving-tour.html"
            ],
            "longitude": "-122.1494186"
        },
        "davenport roadhouse": {
            "latitude": "37.01090745",
            "closest_to": "napa",
            "address": "Davenport Roadhouse Restaurant & Inn, 1, Davenport Avenue, Davenport, Santa Cruz County, California, 95017, United States of America",
            "locType": "hotel",
            "blogLinks": [
                "https://www.timeout.com/los-angeles/things-to-do/great-things-to-do-in-los-angeles"
            ],
            "longitude": "-122.193893992321"
        },
        "palo alto": {
            "latitude": "37.442156",
            "closest_to": "napa",
            "address": "Palo Alto, Santa Clara County, California, United States of America",
            "locType": "city",
            "blogLinks": [
                "http://gocalifornia.about.com/od/caplaceslist/"
            ],
            "longitude": "-122.1634471"
        },
        "bay": {
            "latitude": "33.6899249",
            "closest_to": "los angeles",
            "address": "Bay, Meadows Mobile Home Park, El Camino Real, Irvine, Orange County, California, 92406, United States of America",
            "locType": "service",
            "blogLinks": [
                "http://travelblog.viator.com/road-trip-san-francisco-los-angeles/"
            ],
            "longitude": "-117.7729354"
        },
        "treebones resort": {
            "latitude": "35.8842713",
            "closest_to": "napa",
            "address": "Treebones Resort, Cabrillo Highway, Gorda, Monterey County, California, 93920, United States of America",
            "locType": "hotel",
            "blogLinks": [
                "http://usatravel.about.com/od/USALodging/tp/Favorite-Accommodations-Between-Los-Angeles-And-San-Francisco.htm"
            ],
            "longitude": "-121.4552883"
        },
        "muir woods": {
            "latitude": "38.049581",
            "closest_to": "napa",
            "address": "Muir Woods Avenue, Stockton, San Joaquin County, California, 95209, United States of America",
            "locType": "residential",
            "blogLinks": [
                "https://www.tripadvisor.com/ShowTopic-g32655-i61-k4545109-Drive_from_LAX_to_Napa_Valley_which_route-Los_Angeles_California.html"
            ],
            "longitude": "-121.3457819"
        },
        "carmel": {
            "latitude": "38.75511285",
            "closest_to": "napa",
            "address": "Carmel, Roseville, Placer County, California, 95747, United States of America",
            "locType": "residential",
            "blogLinks": [
                "http://travelblog.viator.com/road-trip-san-francisco-los-angeles/",
                "https://www.tripadvisor.com/ShowTopic-g28926-i29-k6490812-Napa_to_LA_where_to_stop-California.html",
                "http://www.hopper.com/articles/291/five-great-stops-between-los-angeles-and-san-francisco-on-the-pacific-coast-highway",
                "http://www.usatourist.com/english/destinations/california/california-driving-tour.html"
            ],
            "longitude": "-121.353308848273"
        },
        "sacramento airport": {
            "latitude": "38.68722345",
            "closest_to": "napa",
            "address": "Sacramento International Airport, Airport Boulevard, Sacramento County, California, 95837, United States of America",
            "locType": "aerodrome",
            "blogLinks": [
                "https://www.tripadvisor.com/ShowTopic-g32655-i61-k4545109-Drive_from_LAX_to_Napa_Valley_which_route-Los_Angeles_California.html"
            ],
            "longitude": "-121.590370180632"
        }
    },