{
    "pasadena": {
        "type": "city",
        "osm_id": "3529725",
        "class": "place",
        "importance": 0.7778961552687,
        "lat": "34.1476452",
        "lon": "-118.1444778",
        "boundingbox": [
            "34.1172023",
            "34.251905",
            "-118.1981389",
            "-118.0654789"
        ],
        "display_name": "Pasadena, Los Angeles County, California, United States of America",
        "licence": "Data \u00a9 OpenStreetMap contributors, ODbL 1.0. http://www.openstreetmap.org/copyright",
        "icon": "https://nominatim.openstreetmap.org/images/mapicons/poi_place_city.p.20.png",
        "place_id": "159486921",
        "osm_type": "relation"
    },
    "mentions": {
        "highway 101": {
            "latitude": "32.9967358",
            "closest_to": "pasadena",
            "address": "Highway 101, Solana Beach, San Diego County, California, 92075, United States of America",
            "locType": "primary",
            "blogLinks": [
                "https://blog.trekaroo.com/california-dreaming-road-trip-from-san-francisco-to-los-angeles/"
            ],
            "longitude": "-117.2731974"
        },
        "san diego": {
            "latitude": "32.7174209",
            "closest_to": "pasadena",
            "address": "San Diego, San Diego County, California, United States of America",
            "locType": "city",
            "blogLinks": [
                "http://www.travbuddy.com/California-travel-guide-p85"
            ],
            "longitude": "-117.1627713"
        },
        "golden gate bridge": {
            "latitude": "37.8302809",
            "closest_to": "pasadena",
            "address": "Golden Gate Bridge, Waldo, Marin County, California, 94965, United States of America",
            "locType": "motorway",
            "blogLinks": [
                "http://www.10best.com/interests/tours-itineraries/10best-day-trip-scenic-route-from-san-francisco-to-napa/"
            ],
            "longitude": "-122.4798473"
        },
        "pacific coast highway": {
            "latitude": "33.6595127",
            "closest_to": "pasadena",
            "address": "Pacific Coast Highway, Huntington Beach, Orange County, California, 92648, United States of America",
            "locType": "primary",
            "blogLinks": [
                "http://www.travbuddy.com/California-travel-guide-p85",
                "http://www.frommers.com/slideshows/820910-10-best-california-wineries-with-a-view"
            ],
            "longitude": "-118.0051687"
        },
        "st. helena": {
            "latitude": "38.5052288",
            "closest_to": "napa",
            "address": "St. Helena, Napa County, California, United States of America",
            "locType": "city",
            "blogLinks": [
                "https://www.winecountryinn.com/blog/napa-valley-bike-tour/",
                "http://thisismyhappiness.com/2012/07/16/30-things-to-do-in-napa-valley/"
            ],
            "longitude": "-122.4700423"
        },
        "beverly hills": {
            "latitude": "34.0736204",
            "closest_to": "pasadena",
            "address": "Beverly Hills, Los Angeles County, California, United States of America",
            "locType": "city",
            "blogLinks": [
                "http://www.travbuddy.com/California-travel-guide-p85"
            ],
            "longitude": "-118.4003562"
        },
        "montana de oro state park": {
            "latitude": "35.2714109",
            "closest_to": "pasadena",
            "address": "Montana de Oro State Park, San Luis Obispo County, California, United States of America",
            "locType": "track",
            "blogLinks": [
                "https://blog.trekaroo.com/california-dreaming-road-trip-from-san-francisco-to-los-angeles/"
            ],
            "longitude": "-120.8888312"
        },
        "humboldt county": {
            "latitude": "40.5997415",
            "closest_to": "napa",
            "address": "Humboldt County, California, United States of America",
            "locType": "administrative",
            "blogLinks": [
                "http://www.travbuddy.com/California-travel-guide-p85"
            ],
            "longitude": "-123.8997733"
        },
        "monterey bay": {
            "latitude": "36.7999557",
            "closest_to": "pasadena",
            "address": "Monterey Bay, Monterey County, California, United States of America",
            "locType": "bay",
            "blogLinks": [
                "http://www.travbuddy.com/California-travel-guide-p85",
                "https://blog.trekaroo.com/california-dreaming-road-trip-from-san-francisco-to-los-angeles/"
            ],
            "longitude": "-121.9010667"
        },
        "pismo beach": {
            "latitude": "35.1427533",
            "closest_to": "pasadena",
            "address": "Pismo Beach, San Luis Obispo County, California, United States of America",
            "locType": "city",
            "blogLinks": [
                "https://blog.trekaroo.com/california-dreaming-road-trip-from-san-francisco-to-los-angeles/"
            ],
            "longitude": "-120.6412826"
        },
        "santa cruz": {
            "latitude": "36.9735903",
            "closest_to": "pasadena",
            "address": "Santa Cruz, Santa Cruz County, California, United States of America",
            "locType": "city",
            "blogLinks": [
                "http://www.travbuddy.com/California-travel-guide-p85"
            ],
            "longitude": "-122.0260569"
        },
        "meritage resort": {
            "latitude": "38.2460173",
            "closest_to": "pasadena",
            "address": "The Meritage Resort and Spa, Trefethen Way, Napa, Napa County, California, 94558, United States of America",
            "locType": "hotel",
            "blogLinks": [
                "http://thisismyhappiness.com/2012/07/16/30-things-to-do-in-napa-valley/"
            ],
            "longitude": "-122.2740595"
        },
        "europe": {
            "latitude": "37.3491727",
            "closest_to": "pasadena",
            "address": "Europe Court, Santa Clara, Santa Clara County, California, 95051, United States of America",
            "locType": "residential",
            "blogLinks": [
                "http://www.frommers.com/slideshows/820910-10-best-california-wineries-with-a-view"
            ],
            "longitude": "-121.9980641"
        },
        "us": {
            "latitude": "36.7014631",
            "closest_to": "pasadena",
            "address": "California, United States of America",
            "locType": "administrative",
            "blogLinks": [
                "http://www.travbuddy.com/California-travel-guide-p85"
            ],
            "longitude": "-118.7559973"
        },
        "las angeles": {
            "latitude": "33.9995929",
            "closest_to": "pasadena",
            "address": "California, Obregon Street, West Whittier, Rosemead, Los Angeles County, California, 90606, United States of America",
            "locType": "abandoned",
            "blogLinks": [
                "http://www.travbuddy.com/California-travel-guide-p85"
            ],
            "longitude": "-118.0668337"
        },
        "santa ynez valley": {
            "latitude": "34.608637",
            "closest_to": "pasadena",
            "address": "Santa Ynez, Stadium Place, Santa Ynez, Santa Barbara County, California, 93463, United States of America",
            "locType": "administrative",
            "blogLinks": [
                "http://www.frommers.com/slideshows/820910-10-best-california-wineries-with-a-view"
            ],
            "longitude": "-120.104677321497"
        },
        "creek road": {
            "latitude": "33.236256",
            "closest_to": "pasadena",
            "address": "Creek Road, Oceanside, San Diego County, California, 92054, United States of America",
            "locType": "residential",
            "blogLinks": [
                "http://www.frommers.com/slideshows/820910-10-best-california-wineries-with-a-view"
            ],
            "longitude": "-117.3282469"
        },
        "st. helena cyclery": {
            "latitude": "38.5037668",
            "closest_to": "napa",
            "address": "St. Helena Cyclery, Main Street, St. Helena, Napa County, California, 94574, United States of America",
            "locType": "bicycle",
            "blogLinks": [
                "https://www.winecountryinn.com/blog/napa-valley-bike-tour/"
            ],
            "longitude": "-122.4674768"
        },
        "santa monica": {
            "latitude": "34.0195598",
            "closest_to": "pasadena",
            "address": "Santa Monica, Los Angeles County, California, United States of America",
            "locType": "city",
            "blogLinks": [
                "http://www.frommers.com/slideshows/820910-10-best-california-wineries-with-a-view"
            ],
            "longitude": "-118.4869738"
        },
        "santa monica mountains": {
            "latitude": "34.11008435",
            "closest_to": "pasadena",
            "address": "Santa Monica Mountains National Recreation Area, Simes Lane, Seminole Hot Springs, Los Angeles County, California, 91301, United States of America",
            "locType": "protected_area",
            "blogLinks": [
                "http://www.frommers.com/slideshows/820910-10-best-california-wineries-with-a-view"
            ],
            "longitude": "-118.789983284662"
        },
        "oakville": {
            "latitude": "38.4368549",
            "closest_to": "napa",
            "address": "Oakville, Napa County, California, United States of America",
            "locType": "hamlet",
            "blogLinks": [
                "http://www.frommers.com/slideshows/820910-10-best-california-wineries-with-a-view"
            ],
            "longitude": "-122.4022006"
        },
        "v. sattui": {
            "latitude": "33.4703583",
            "closest_to": "pasadena",
            "address": "Sattui Street, Sommerset, Morgan Hill, Riverside County, California, 92592, United States of America",
            "locType": "residential",
            "blogLinks": [
                "http://thisismyhappiness.com/2012/07/16/30-things-to-do-in-napa-valley/"
            ],
            "longitude": "-117.0703796"
        },
        "crete": {
            "latitude": "34.1744168",
            "closest_to": "pasadena",
            "address": "Chalk Hills, Rhoda Street, Warner Center, LA, Los Angeles County, California, 91367, United States of America",
            "locType": "ridge",
            "blogLinks": [
                "http://www.frommers.com/slideshows/820910-10-best-california-wineries-with-a-view"
            ],
            "longitude": "-118.582702"
        },
        "tahoe south": {
            "latitude": "39.0888982",
            "closest_to": "pasadena",
            "address": "Lake Tahoe, Placer County, California, United States of America",
            "locType": "water",
            "blogLinks": [
                "http://tahoesouth.com/"
            ],
            "longitude": "-120.050511752934"
        },
        "pacific": {
            "latitude": "38.7601815",
            "closest_to": "pasadena",
            "address": "Pacific, El Dorado County, California, United States of America",
            "locType": "hamlet",
            "blogLinks": [
                "http://www.travbuddy.com/California-travel-guide-p85"
            ],
            "longitude": "-120.507146"
        },
        "los angeles county": {
            "latitude": "34.3155072",
            "closest_to": "pasadena",
            "address": "Los Angeles County, California, United States of America",
            "locType": "administrative",
            "blogLinks": [
                "http://www.travbuddy.com/California-travel-guide-p85"
            ],
            "longitude": "-118.2096813"
        },
        "sonoma": {
            "latitude": "38.5110803",
            "closest_to": "napa",
            "address": "Sonoma County, California, United States of America",
            "locType": "administrative",
            "blogLinks": [
                "http://thisismyhappiness.com/2012/07/16/30-things-to-do-in-napa-valley/"
            ],
            "longitude": "-122.8473387"
        },
        "tuscany": {
            "latitude": "33.5416438",
            "closest_to": "pasadena",
            "address": "Tuscany, Las Flores, Ladera Ranch, Orange County, California, 92675, United States of America",
            "locType": "residential",
            "blogLinks": [
                "http://www.travelandleisure.com/travel-guide/napa-and-sonoma"
            ],
            "longitude": "-117.6391537"
        },
        "san rafael": {
            "latitude": "37.9735346",
            "closest_to": "pasadena",
            "address": "San Rafael, Marin County, California, United States of America",
            "locType": "city",
            "blogLinks": [
                "http://www.10best.com/interests/tours-itineraries/10best-day-trip-scenic-route-from-san-francisco-to-napa/"
            ],
            "longitude": "-122.5310873"
        },
        "usa": {
            "latitude": "36.7014631",
            "closest_to": "pasadena",
            "address": "California, United States of America",
            "locType": "administrative",
            "blogLinks": [
                "http://www.distancesfrom.com/us/flight-distance-from-Pasadena-to-Napa-Valley/FlightHistory/20954603.aspx",
                "http://www.distancesfrom.com/us/how-far-is-Napa-Valley-from-Pasadena/HowFarHistory/20954603.aspx"
            ],
            "longitude": "-118.7559973"
        },
        "dry creek valley": {
            "latitude": "36.3187663",
            "closest_to": "pasadena",
            "address": "Dry Creek, Tulare County, California, United States of America",
            "locType": "stream",
            "blogLinks": [
                "http://www.frommers.com/slideshows/820910-10-best-california-wineries-with-a-view"
            ],
            "longitude": "-118.184367"
        },
        "newport beach": {
            "latitude": "33.6170092",
            "closest_to": "pasadena",
            "address": "Newport Beach, Orange County, California, United States of America",
            "locType": "city",
            "blogLinks": [
                "http://www.travbuddy.com/California-travel-guide-p85"
            ],
            "longitude": "-117.92944"
        },
        "central coast": {
            "latitude": "35.3611193",
            "closest_to": "pasadena",
            "address": "Central Coast Street, Bakersfield, Kern County, California, 93314, United States of America",
            "locType": "residential",
            "blogLinks": [
                "https://blog.trekaroo.com/california-dreaming-road-trip-from-san-francisco-to-los-angeles/"
            ],
            "longitude": "-119.1665989"
        },
        "california-nevada": {
            "latitude": "36.17310935",
            "closest_to": "pasadena",
            "address": "California Hotel, Sky Walk(Connection from Main Street to California, Cultural Corridor, Vegas Heights, Las Vegas, Clark County, Nevada, 89101, United States of America",
            "locType": "hotel",
            "blogLinks": [
                "http://www.travbuddy.com/California-travel-guide-p85"
            ],
            "longitude": "-115.144667930325"
        },
        "south lake tahoe": {
            "latitude": "38.929125",
            "closest_to": "pasadena",
            "address": "South Lake Tahoe, El Dorado County, California, United States of America",
            "locType": "city",
            "blogLinks": [
                "http://www.travbuddy.com/California-travel-guide-p85",
                "https://www.thrillist.com/"
            ],
            "longitude": "-119.987846390157"
        },
        "monterey bay aquarium": {
            "latitude": "36.61809095",
            "closest_to": "pasadena",
            "address": "MBA, 886, Cannery Row, Monterey, Monterey County, California, 93940, United States of America",
            "locType": "aquarium",
            "blogLinks": [
                "https://blog.trekaroo.com/california-dreaming-road-trip-from-san-francisco-to-los-angeles/"
            ],
            "longitude": "-121.901680002002"
        },
        "san jose": {
            "latitude": "37.3361905",
            "closest_to": "pasadena",
            "address": "San Jos\u00e9, Santa Clara County, California, United States of America",
            "locType": "city",
            "blogLinks": [
                "http://www.travbuddy.com/California-travel-guide-p85"
            ],
            "longitude": "-121.8905832"
        },
        "korea": {
            "latitude": "32.742474",
            "closest_to": "pasadena",
            "address": "Korea Road, Old Town, San Diego, San Diego County, California, 92140, United States of America",
            "locType": "residential",
            "blogLinks": [
                "http://thisismyhappiness.com/2012/07/16/30-things-to-do-in-napa-valley/"
            ],
            "longitude": "-117.2033459"
        },
        "lompoc": {
            "latitude": "34.6391501",
            "closest_to": "pasadena",
            "address": "Lompoc, Santa Barbara County, California, United States of America",
            "locType": "city",
            "blogLinks": [
                "http://www.frommers.com/slideshows/820910-10-best-california-wineries-with-a-view"
            ],
            "longitude": "-120.4579408"
        },
        "hollywood": {
            "latitude": "34.1028268",
            "closest_to": "pasadena",
            "address": "Hollywood, LA, Los Angeles County, California, United States of America",
            "locType": "suburb",
            "blogLinks": [
                "http://www.travbuddy.com/California-travel-guide-p85"
            ],
            "longitude": "-118.3299898"
        },
        "san francisco bay": {
            "latitude": "37.708264",
            "closest_to": "pasadena",
            "address": "San Francisco Bay, Ferry Landing, Alameda, Alameda County, California, 94502, United States of America",
            "locType": "bay",
            "blogLinks": [
                "http://www.travbuddy.com/California-travel-guide-p85"
            ],
            "longitude": "-122.2802469"
        },
        "silverado trail": {
            "latitude": "38.3077505",
            "closest_to": "napa",
            "address": "Silverado Trail, Napa, Napa County, California, 94558, United States of America",
            "locType": "primary",
            "blogLinks": [
                "http://thisismyhappiness.com/2012/07/16/30-things-to-do-in-napa-valley/"
            ],
            "longitude": "-122.2775328"
        },
        "monterey peninsula": {
            "latitude": "36.5878734",
            "closest_to": "pasadena",
            "address": "Monterey Regional Airport, Airport Road, Seaside, Del Monte Heights, Monterey County, California, 93940, United States of America",
            "locType": "aerodrome",
            "blogLinks": [
                "https://blog.trekaroo.com/california-dreaming-road-trip-from-san-francisco-to-los-angeles/",
                "http://www.10best.com/interests/tours-itineraries/10best-day-trip-scenic-route-from-san-francisco-to-napa/"
            ],
            "longitude": "-121.843618374407"
        },
        "rutherford": {
            "latitude": "38.458521",
            "closest_to": "napa",
            "address": "Rutherford, Napa County, California, United States of America",
            "locType": "hamlet",
            "blogLinks": [
                "http://www.frommers.com/slideshows/820910-10-best-california-wineries-with-a-view"
            ],
            "longitude": "-122.4224789"
        },
        "russian river valley": {
            "latitude": "38.4825985",
            "closest_to": "napa",
            "address": "Russian River, Sonoma County, California, United States of America",
            "locType": "river",
            "blogLinks": [
                "http://www.frommers.com/slideshows/820910-10-best-california-wineries-with-a-view"
            ],
            "longitude": "-123.0082118"
        },
        "ca": {
            "latitude": "37.8242285466918",
            "closest_to": "pasadena",
            "address": "Piedmont, Alameda County, California, ca, United States of America",
            "locType": "postcode",
            "blogLinks": [
                "http://www.distancesfrom.com/us/flight-distance-from-Pasadena-to-Napa-Valley/FlightHistory/20954603.aspx",
                "https://blog.trekaroo.com/california-dreaming-road-trip-from-san-francisco-to-los-angeles/",
                "http://www.distancesfrom.com/us/how-far-is-Napa-Valley-from-Pasadena/HowFarHistory/20954603.aspx"
            ],
            "longitude": "-122.232613735941"
        },
        "eureka": {
            "latitude": "40.8020712",
            "closest_to": "napa",
            "address": "Eureka, Humboldt County, California, United States of America",
            "locType": "city",
            "blogLinks": [
                "http://www.travbuddy.com/California-travel-guide-p85"
            ],
            "longitude": "-124.1636728"
        },
        "berkeley": {
            "latitude": "37.8708393",
            "closest_to": "pasadena",
            "address": "Berkeley, Alameda County, California, United States of America",
            "locType": "city",
            "blogLinks": [
                "http://www.travbuddy.com/California-travel-guide-p85"
            ],
            "longitude": "-122.2728638"
        },
        "pacific grove": {
            "latitude": "36.6174432",
            "closest_to": "pasadena",
            "address": "Pacific Grove, Monterey County, California, United States of America",
            "locType": "city",
            "blogLinks": [
                "https://blog.trekaroo.com/california-dreaming-road-trip-from-san-francisco-to-los-angeles/",
                "http://thisismyhappiness.com/2012/07/16/30-things-to-do-in-napa-valley/"
            ],
            "longitude": "-121.9155905"
        },
        "healdsburg": {
            "latitude": "38.6106812",
            "closest_to": "napa",
            "address": "Healdsburg, Sonoma County, California, United States of America",
            "locType": "city",
            "blogLinks": [
                "http://www.frommers.com/slideshows/820910-10-best-california-wineries-with-a-view"
            ],
            "longitude": "-122.8701379"
        },
        "spring mountain": {
            "latitude": "38.7793481",
            "closest_to": "pasadena",
            "address": "Spring Valley, El Dorado County, California, United States of America",
            "locType": "hamlet",
            "blogLinks": [
                "http://thisismyhappiness.com/2012/07/16/30-things-to-do-in-napa-valley/"
            ],
            "longitude": "-120.5277023"
        },
        "sonoma coast": {
            "latitude": "38.41699",
            "closest_to": "napa",
            "address": "Sonoma Coast State Park, Coast Highway, Carmet, Sonoma County, California, United States of America",
            "locType": "park",
            "blogLinks": [
                "http://www.frommers.com/slideshows/820910-10-best-california-wineries-with-a-view"
            ],
            "longitude": "-123.099028545174"
        },
        "el dorado county": {
            "latitude": "38.7574137",
            "closest_to": "pasadena",
            "address": "El Dorado County, California, United States of America",
            "locType": "administrative",
            "blogLinks": [
                "http://www.travbuddy.com/California-travel-guide-p85"
            ],
            "longitude": "-120.5276128"
        },
        "frisco": {
            "latitude": "35.0714062",
            "closest_to": "pasadena",
            "address": "Frisco Way, Los Berros, San Luis Obispo County, California, 93420, United States of America",
            "locType": "residential",
            "blogLinks": [
                "http://thisismyhappiness.com/2012/07/16/30-things-to-do-in-napa-valley/"
            ],
            "longitude": "-120.5207138"
        },
        "la": {
            "latitude": "36.7014631",
            "closest_to": "pasadena",
            "address": "California, United States of America",
            "locType": "administrative",
            "blogLinks": [
                "http://www.travbuddy.com/California-travel-guide-p85",
                "https://blog.trekaroo.com/california-dreaming-road-trip-from-san-francisco-to-los-angeles/",
                "http://www.travelandleisure.com/travel-guide/napa-and-sonoma"
            ],
            "longitude": "-118.7559973"
        },
        "pfeiffer big sur state park": {
            "latitude": "36.25330545",
            "closest_to": "pasadena",
            "address": "Pfeiffer Big Sur State Park, Valley View Trail, Big Sur, Monterey County, California, United States of America",
            "locType": "park",
            "blogLinks": [
                "https://blog.trekaroo.com/california-dreaming-road-trip-from-san-francisco-to-los-angeles/"
            ],
            "longitude": "-121.783295208903"
        },
        "san fran": {
            "latitude": "35.142465",
            "closest_to": "pasadena",
            "address": "Golden Hills, Kern County, California, United States of America",
            "locType": "village",
            "blogLinks": [
                "http://thisismyhappiness.com/2012/07/16/30-things-to-do-in-napa-valley/"
            ],
            "longitude": "-118.4903642"
        },
        "mendocino county": {
            "latitude": "39.3176491",
            "closest_to": "napa",
            "address": "Mendocino County, California, United States of America",
            "locType": "administrative",
            "blogLinks": [
                "http://www.frommers.com/slideshows/820910-10-best-california-wineries-with-a-view"
            ],
            "longitude": "-123.4126398"
        },
        "france": {
            "latitude": "34.2013715",
            "closest_to": "pasadena",
            "address": "France, Sherman Way, Canoga Park, LA, Los Angeles County, California, 91307, United States of America",
            "locType": "cafe",
            "blogLinks": [
                "http://www.frommers.com/slideshows/820910-10-best-california-wineries-with-a-view"
            ],
            "longitude": "-118.5935353"
        },
        "solvang": {
            "latitude": "34.5958572",
            "closest_to": "pasadena",
            "address": "Solvang, Santa Barbara County, California, United States of America",
            "locType": "city",
            "blogLinks": [
                "https://blog.trekaroo.com/california-dreaming-road-trip-from-san-francisco-to-los-angeles/"
            ],
            "longitude": "-120.1390893"
        },
        "howell mountain": {
            "latitude": "38.5802188",
            "closest_to": "napa",
            "address": "Howell Mountain, Napa County, California, United States of America",
            "locType": "peak",
            "blogLinks": [
                "http://thisismyhappiness.com/2012/07/16/30-things-to-do-in-napa-valley/"
            ],
            "longitude": "-122.4313835"
        },
        "santa barbara": {
            "latitude": "34.4221319",
            "closest_to": "pasadena",
            "address": "Santa Barbara, Santa Barbara County, California, United States of America",
            "locType": "city",
            "blogLinks": [
                "https://blog.trekaroo.com/california-dreaming-road-trip-from-san-francisco-to-los-angeles/",
                "http://www.frommers.com/slideshows/820910-10-best-california-wineries-with-a-view"
            ],
            "longitude": "-119.7026672"
        },
        "northern california": {
            "latitude": "32.7349196",
            "closest_to": "pasadena",
            "address": "Northern Frontier, San Diego, San Diego County, California, United States of America",
            "locType": "locality",
            "blogLinks": [
                "https://blog.trekaroo.com/california-dreaming-road-trip-from-san-francisco-to-los-angeles/",
                "http://www.frommers.com/slideshows/820910-10-best-california-wineries-with-a-view",
                "http://thisismyhappiness.com/2012/07/16/30-things-to-do-in-napa-valley/"
            ],
            "longitude": "-117.1545973"
        },
        "norway": {
            "latitude": "38.8246295",
            "closest_to": "pasadena",
            "address": "Little Norway, El Dorado County, California, United States of America",
            "locType": "hamlet",
            "blogLinks": [
                "https://blog.trekaroo.com/california-dreaming-road-trip-from-san-francisco-to-los-angeles/"
            ],
            "longitude": "-120.0365723"
        },
        "buellton": {
            "latitude": "34.6134727",
            "closest_to": "pasadena",
            "address": "Buellton, Santa Barbara County, California, United States of America",
            "locType": "city",
            "blogLinks": [
                "http://www.frommers.com/slideshows/820910-10-best-california-wineries-with-a-view"
            ],
            "longitude": "-120.1936691"
        },
        "lake sonoma": {
            "latitude": "38.740379",
            "closest_to": "napa",
            "address": "Lake Sonoma, Huff n' Puff Trail, Sonoma County, California, United States of America",
            "locType": "park",
            "blogLinks": [
                "http://www.frommers.com/slideshows/820910-10-best-california-wineries-with-a-view"
            ],
            "longitude": "-123.042393146491"
        },
        "hawaii": {
            "latitude": "36.8347819",
            "closest_to": "pasadena",
            "address": "Hawaii, Fresno County, California, 93650, United States of America",
            "locType": "service",
            "blogLinks": [
                "https://blog.trekaroo.com/california-dreaming-road-trip-from-san-francisco-to-los-angeles/"
            ],
            "longitude": "-119.7966952"
        },
        "mendocino": {
            "latitude": "39.3176491",
            "closest_to": "napa",
            "address": "Mendocino County, California, United States of America",
            "locType": "administrative",
            "blogLinks": [
                "http://www.frommers.com/slideshows/820910-10-best-california-wineries-with-a-view",
                "http://thisismyhappiness.com/2012/07/16/30-things-to-do-in-napa-valley/"
            ],
            "longitude": "-123.4126398"
        },
        "alexander valley": {
            "latitude": "34.5991586",
            "closest_to": "pasadena",
            "address": "Alexander Peak, Santa Barbara County, California, United States of America",
            "locType": "peak",
            "blogLinks": [
                "http://www.frommers.com/slideshows/820910-10-best-california-wineries-with-a-view"
            ],
            "longitude": "-119.7631938"
        },
        "southern california": {
            "latitude": "34.0224149",
            "closest_to": "pasadena",
            "address": "University of Southern California, Watt Way, Saint James Park, LA, Los Angeles County, California, 90089, United States of America",
            "locType": "university",
            "blogLinks": [
                "https://blog.trekaroo.com/california-dreaming-road-trip-from-san-francisco-to-los-angeles/",
                "http://www.frommers.com/slideshows/820910-10-best-california-wineries-with-a-view"
            ],
            "longitude": "-118.286343973446"
        },
        "lodi": {
            "latitude": "38.097198",
            "closest_to": "pasadena",
            "address": "Lodi, San Joaquin County, California, United States of America",
            "locType": "city",
            "blogLinks": [
                "http://www.napavalley.com/restaurants/",
                "http://thisismyhappiness.com/2012/07/16/30-things-to-do-in-napa-valley/"
            ],
            "longitude": "-121.387849546574"
        },
        "orange county": {
            "latitude": "33.7500378",
            "closest_to": "pasadena",
            "address": "Orange County, California, United States of America",
            "locType": "administrative",
            "blogLinks": [
                "http://www.travbuddy.com/California-travel-guide-p85",
                "https://blog.trekaroo.com/california-dreaming-road-trip-from-san-francisco-to-los-angeles/"
            ],
            "longitude": "-117.870493"
        },
        "los angeles": {
            "latitude": "34.0543942",
            "closest_to": "pasadena",
            "address": "LA, Los Angeles County, California, United States of America",
            "locType": "city",
            "blogLinks": [
                "http://www.travbuddy.com/California-travel-guide-p85",
                "https://blog.trekaroo.com/california-dreaming-road-trip-from-san-francisco-to-los-angeles/",
                "http://www.frommers.com/slideshows/820910-10-best-california-wineries-with-a-view"
            ],
            "longitude": "-118.2439408"
        },
        "monterey": {
            "latitude": "36.5844165",
            "closest_to": "pasadena",
            "address": "Monterey, Monterey County, California, United States of America",
            "locType": "city",
            "blogLinks": [
                "http://www.travbuddy.com/California-travel-guide-p85",
                "https://blog.trekaroo.com/california-dreaming-road-trip-from-san-francisco-to-los-angeles/"
            ],
            "longitude": "-121.866792846206"
        },
        "oakland bay bridge": {
            "latitude": "37.8193514",
            "closest_to": "pasadena",
            "address": "San Francisco \u2013 Oakland Bay Bridge, Oakland, Alameda County, California, 94625, United States of America",
            "locType": "abandoned",
            "blogLinks": [
                "http://thisismyhappiness.com/2012/07/16/30-things-to-do-in-napa-valley/"
            ],
            "longitude": "-122.342234"
        },
        "tamalpais state park": {
            "latitude": "37.8969524",
            "closest_to": "pasadena",
            "address": "Mount Tamalpais State Park, Panoramic Highway, Stinson Beach, Marin County, California, 94970, United States of America",
            "locType": "park",
            "blogLinks": [
                "http://www.10best.com/interests/tours-itineraries/10best-day-trip-scenic-route-from-san-francisco-to-napa/"
            ],
            "longitude": "-122.613750526021"
        },
        "yountville": {
            "latitude": "38.4015781",
            "closest_to": "napa",
            "address": "Yountville, Napa County, California, United States of America",
            "locType": "administrative",
            "blogLinks": [
                "https://blog.trekaroo.com/california-dreaming-road-trip-from-san-francisco-to-los-angeles/",
                "http://thisismyhappiness.com/2012/07/16/30-things-to-do-in-napa-valley/"
            ],
            "longitude": "-122.3608104"
        },
        "oakland": {
            "latitude": "37.8044557",
            "closest_to": "pasadena",
            "address": "Oakland, Alameda County, California, United States of America",
            "locType": "city",
            "blogLinks": [
                "http://www.travbuddy.com/California-travel-guide-p85"
            ],
            "longitude": "-122.2713562"
        },
        "new york": {
            "latitude": "34.0143928",
            "closest_to": "pasadena",
            "address": "New York, West Covina, Los Angeles County, California, 91792, United States of America",
            "locType": "service",
            "blogLinks": [
                "http://www.travelandleisure.com/travel-guide/napa-and-sonoma"
            ],
            "longitude": "-117.8984509"
        },
        "mill valley": {
            "latitude": "37.9060368",
            "closest_to": "pasadena",
            "address": "Mill Valley, Marin County, California, United States of America",
            "locType": "administrative",
            "blogLinks": [
                "http://www.10best.com/interests/tours-itineraries/10best-day-trip-scenic-route-from-san-francisco-to-napa/"
            ],
            "longitude": "-122.5449762"
        },
        "cambria": {
            "latitude": "35.5641381",
            "closest_to": "pasadena",
            "address": "Cambria, San Luis Obispo County, California, United States of America",
            "locType": "administrative",
            "blogLinks": [
                "https://blog.trekaroo.com/california-dreaming-road-trip-from-san-francisco-to-los-angeles/"
            ],
            "longitude": "-121.0807467"
        },
        "mulholland highway": {
            "latitude": "34.1306145",
            "closest_to": "pasadena",
            "address": "Mulholland Highway, Hollywood Hills, LA, Los Angeles County, California, 90068, United States of America",
            "locType": "residential",
            "blogLinks": [
                "http://www.frommers.com/slideshows/820910-10-best-california-wineries-with-a-view"
            ],
            "longitude": "-118.3191905"
        },
        "california coast": {
            "latitude": "32.7586361",
            "closest_to": "pasadena",
            "address": "California Coast Credit Union, Park Boulevard, Hillcrest, San Diego, San Diego County, California, 92116, United States of America",
            "locType": "bank",
            "blogLinks": [
                "https://blog.trekaroo.com/california-dreaming-road-trip-from-san-francisco-to-los-angeles/"
            ],
            "longitude": "-117.1464145"
        },
        "auberge road": {
            "latitude": "38.496382",
            "closest_to": "napa",
            "address": "Auberge Road, Zinfandel, Napa County, California, 94573, United States of America",
            "locType": "residential",
            "blogLinks": [
                "http://www.frommers.com/slideshows/820910-10-best-california-wineries-with-a-view"
            ],
            "longitude": "-122.4071939"
        },
        "lake": {
            "latitude": "39.0505411",
            "closest_to": "napa",
            "address": "Lake County, California, United States of America",
            "locType": "administrative",
            "blogLinks": [
                "http://tahoesouth.com/"
            ],
            "longitude": "-122.7776555"
        },
        "napa": {
            "latitude": "38.2971367",
            "closest_to": "pasadena",
            "address": "Napa, Napa County, California, United States of America",
            "locType": "city",
            "blogLinks": [
                "http://www.frommers.com/slideshows/820910-10-best-california-wineries-with-a-view",
                "https://www.tripadvisor.com/Attractions-g32859-Activities-Pasadena_California.html",
                "http://www.10best.com/interests/tours-itineraries/10best-day-trip-scenic-route-from-san-francisco-to-napa/",
                "http://thisismyhappiness.com/2012/07/16/30-things-to-do-in-napa-valley/"
            ],
            "longitude": "-122.2855292"
        },
        "western united states": {
            "latitude": "36.615671",
            "closest_to": "pasadena",
            "address": "Western, San Benito County, California, United States of America",
            "locType": "residential",
            "blogLinks": [
                "https://blog.trekaroo.com/california-dreaming-road-trip-from-san-francisco-to-los-angeles/"
            ],
            "longitude": "-121.0670829"
        },
        "big bear lake": {
            "latitude": "34.253293",
            "closest_to": "pasadena",
            "address": "Big Bear Lake, Lagunita Lane, Big Bear Lake, San Bernardino County, California, 92315, United States of America",
            "locType": "water",
            "blogLinks": [
                "http://www.travbuddy.com/California-travel-guide-p85"
            ],
            "longitude": "-116.932209587315"
        },
        "silicon valley": {
            "latitude": "37.4105333",
            "closest_to": "pasadena",
            "address": "Carnegie Mellon Silicon Valley, South Akron Road, Santa Clara County, California, 94035-0016, United States of America",
            "locType": "school",
            "blogLinks": [
                "http://www.travbuddy.com/California-travel-guide-p85"
            ],
            "longitude": "-122.0597491"
        },
        "san simeon": {
            "latitude": "35.6438587",
            "closest_to": "pasadena",
            "address": "San Simeon, San Luis Obispo County, California, United States of America",
            "locType": "hamlet",
            "blogLinks": [
                "http://www.travbuddy.com/California-travel-guide-p85"
            ],
            "longitude": "-121.1907532"
        },
        "yorkville": {
            "latitude": "38.8979586",
            "closest_to": "napa",
            "address": "Yorkville, Mendocino County, California, United States of America",
            "locType": "hamlet",
            "blogLinks": [
                "http://www.frommers.com/slideshows/820910-10-best-california-wineries-with-a-view"
            ],
            "longitude": "-123.2144506"
        },
        "pacific ocean": {
            "latitude": "36.16305775",
            "closest_to": "pasadena",
            "address": "Pacific Ocean, Cabrillo Highway, Monterey County, California, 93920, United States of America",
            "locType": "cliff",
            "blogLinks": [
                "http://www.travbuddy.com/California-travel-guide-p85",
                "http://www.frommers.com/slideshows/820910-10-best-california-wineries-with-a-view"
            ],
            "longitude": "-121.678715787326"
        },
        "san francisco": {
            "latitude": "37.7792808",
            "closest_to": "pasadena",
            "address": "SF, California, United States of America",
            "locType": "city",
            "blogLinks": [
                "http://www.travbuddy.com/California-travel-guide-p85",
                "https://blog.trekaroo.com/california-dreaming-road-trip-from-san-francisco-to-los-angeles/",
                "http://www.travelandleisure.com/travel-guide/napa-and-sonoma",
                "http://www.10best.com/interests/tours-itineraries/10best-day-trip-scenic-route-from-san-francisco-to-napa/",
                "http://thisismyhappiness.com/2012/07/16/30-things-to-do-in-napa-valley/"
            ],
            "longitude": "-122.4192362"
        },
        "sacramento": {
            "latitude": "38.5815719",
            "closest_to": "pasadena",
            "address": "Sacramento, Sacramento County, California, United States of America",
            "locType": "city",
            "blogLinks": [
                "http://www.travbuddy.com/California-travel-guide-p85"
            ],
            "longitude": "-121.4943995"
        },
        "carlsbad": {
            "latitude": "33.1580933",
            "closest_to": "pasadena",
            "address": "Carlsbad, San Diego County, California, United States of America",
            "locType": "city",
            "blogLinks": [
                "http://www.travbuddy.com/California-travel-guide-p85",
                "https://blog.trekaroo.com/california-dreaming-road-trip-from-san-francisco-to-los-angeles/"
            ],
            "longitude": "-117.3505938"
        },
        "united states": {
            "latitude": "36.7014631",
            "closest_to": "pasadena",
            "address": "California, United States of America",
            "locType": "administrative",
            "blogLinks": [
                "https://www.tripadvisor.com/Attractions-g580460-Activities-Napa_Valley_California.html",
                "https://blog.trekaroo.com/california-dreaming-road-trip-from-san-francisco-to-los-angeles/",
                "http://www.distancesfrom.com/us/flight-distance-from-Pasadena-to-Napa-Valley/FlightHistory/20954603.aspx",
                "https://www.tripadvisor.com/Attractions-g32859-Activities-Pasadena_California.html"
            ],
            "longitude": "-118.7559973"
        },
        "pasadena": {
            "latitude": "34.1476452",
            "closest_to": "pasadena",
            "address": "Pasadena, Los Angeles County, California, United States of America",
            "locType": "city",
            "blogLinks": [
                "http://www.distancesfrom.com/us/flight-distance-from-Pasadena-to-Napa-Valley/FlightHistory/20954603.aspx",
                "http://www.distancesfrom.com/us/how-far-is-Napa-Valley-from-Pasadena/HowFarHistory/20954603.aspx"
            ],
            "longitude": "-118.1444778"
        },
        "carmel": {
            "latitude": "38.75511285",
            "closest_to": "pasadena",
            "address": "Carmel, Roseville, Placer County, California, 95747, United States of America",
            "locType": "residential",
            "blogLinks": [
                "http://www.travbuddy.com/California-travel-guide-p85"
            ],
            "longitude": "-121.353308848273"
        },
        "marin headlands": {
            "latitude": "37.856162",
            "closest_to": "pasadena",
            "address": "Marin Headlands (GGNRA), Old Springs Trail, Marin City, Marin County, California, 94941, United States of America",
            "locType": "park",
            "blogLinks": [
                "http://www.10best.com/interests/tours-itineraries/10best-day-trip-scenic-route-from-san-francisco-to-napa/"
            ],
            "longitude": "-122.534327312107"
        },
        "mediterranean": {
            "latitude": "33.7439509",
            "closest_to": "pasadena",
            "address": "Mediterranean, Palm Desert, Riverside County, California, 92211, United States of America",
            "locType": "residential",
            "blogLinks": [
                "http://thisismyhappiness.com/2012/07/16/30-things-to-do-in-napa-valley/"
            ],
            "longitude": "-116.3534838"
        },
        "barstow": {
            "latitude": "34.8957684",
            "closest_to": "pasadena",
            "address": "Barstow, San Bernardino County, California, United States of America",
            "locType": "administrative",
            "blogLinks": [
                "http://www.travbuddy.com/California-travel-guide-p85"
            ],
            "longitude": "-117.0172076"
        },
        "yosemite national park": {
            "latitude": "37.84054795",
            "closest_to": "pasadena",
            "address": "Yosemite National Park, Mt. Hoffmann Trail, Mariposa County, California, United States of America",
            "locType": "national_park",
            "blogLinks": [
                "http://www.travbuddy.com/California-travel-guide-p85"
            ],
            "longitude": "-119.516587698025"
        },
        "lake tahoe": {
            "latitude": "39.0888982",
            "closest_to": "pasadena",
            "address": "Lake Tahoe, Placer County, California, United States of America",
            "locType": "water",
            "blogLinks": [
                "http://www.travbuddy.com/California-travel-guide-p85",
                "http://tahoesouth.com/"
            ],
            "longitude": "-120.050511752934"
        },
        "malibu": {
            "latitude": "33.7932142",
            "closest_to": "pasadena",
            "address": "Malibu, Palm Springs, Riverside County, California, 92264, United States of America",
            "locType": "residential",
            "blogLinks": [
                "http://www.travbuddy.com/California-travel-guide-p85",
                "http://www.frommers.com/slideshows/820910-10-best-california-wineries-with-a-view"
            ],
            "longitude": "-116.5023561"
        },
        "silverado": {
            "latitude": "33.7461295",
            "closest_to": "pasadena",
            "address": "Silverado, Orange County, California, United States of America",
            "locType": "hamlet",
            "blogLinks": [
                "https://www.winecountryinn.com/blog/napa-valley-bike-tour/"
            ],
            "longitude": "-117.6369938"
        },
        "chase palm park": {
            "latitude": "34.41527625",
            "closest_to": "pasadena",
            "address": "Chase Palm Park, East Cabrillo Boulevard, Santa Barbara, Santa Barbara County, California, 93103, United States of America",
            "locType": "park",
            "blogLinks": [
                "https://blog.trekaroo.com/california-dreaming-road-trip-from-san-francisco-to-los-angeles/"
            ],
            "longitude": "-119.679267670006"
        },
        "burbank": {
            "latitude": "34.1816482",
            "closest_to": "pasadena",
            "address": "Burbank, Los Angeles County, California, United States of America",
            "locType": "city",
            "blogLinks": [
                "http://www.travbuddy.com/California-travel-guide-p85"
            ],
            "longitude": "-118.3258553"
        },
        "carneros": {
            "latitude": "35.414448",
            "closest_to": "pasadena",
            "address": "Carneros Creek, San Luis Obispo County, California, United States of America",
            "locType": "stream",
            "blogLinks": [
                "http://www.frommers.com/slideshows/820910-10-best-california-wineries-with-a-view",
                "http://thisismyhappiness.com/2012/07/16/30-things-to-do-in-napa-valley/"
            ],
            "longitude": "-119.8882131"
        },
        "san luis obispo county": {
            "latitude": "35.3540209",
            "closest_to": "pasadena",
            "address": "San Luis Obispo County, California, United States of America",
            "locType": "administrative",
            "blogLinks": [
                "http://www.travbuddy.com/California-travel-guide-p85"
            ],
            "longitude": "-120.3757162"
        },
        "long beach": {
            "latitude": "33.78538945",
            "closest_to": "pasadena",
            "address": "Long Beach, Los Angeles County, California, United States of America",
            "locType": "city",
            "blogLinks": [
                "http://www.travbuddy.com/California-travel-guide-p85"
            ],
            "longitude": "-118.158049215311"
        },
        "calico": {
            "latitude": "35.6327332",
            "closest_to": "pasadena",
            "address": "Calico, Kern County, California, United States of America",
            "locType": "locality",
            "blogLinks": [
                "http://www.travbuddy.com/California-travel-guide-p85"
            ],
            "longitude": "-119.206496"
        },
        "america": {
            "latitude": "36.2573198",
            "closest_to": "pasadena",
            "address": "America, Kings County, California, 93246, United States of America",
            "locType": "residential",
            "blogLinks": [
                "http://www.travbuddy.com/California-travel-guide-p85"
            ],
            "longitude": "-119.8948706"
        },
        "calistoga": {
            "latitude": "38.582615",
            "closest_to": "napa",
            "address": "Calistoga, Napa County, California, United States of America",
            "locType": "city",
            "blogLinks": [
                "https://www.winecountryinn.com/blog/napa-valley-bike-tour/",
                "http://www.frommers.com/slideshows/820910-10-best-california-wineries-with-a-view"
            ],
            "longitude": "-122.583325948608"
        }
    },
    "napa": {
        "type": "city",
        "osm_id": "111735",
        "class": "place",
        "importance": 0.68412686507501,
        "lat": "38.2971367",
        "lon": "-122.2855292",
        "boundingbox": [
            "38.221091",
            "38.350834",
            "-122.3577209",
            "-122.2221959"
        ],
        "display_name": "Napa, Napa County, California, United States of America",
        "licence": "Data \u00a9 OpenStreetMap contributors, ODbL 1.0. http://www.openstreetmap.org/copyright",
        "icon": "https://nominatim.openstreetmap.org/images/mapicons/poi_place_city.p.20.png",
        "place_id": "158644281",
        "osm_type": "relation"
    }
}