{
    "stockton": {
        "type": "city",
        "osm_id": "112382",
        "class": "place",
        "importance": 0.7132631887217,
        "lat": "37.9577016",
        "lon": "-121.2907795",
        "boundingbox": [
            "37.887747",
            "38.0583",
            "-121.4197359",
            "-121.1840371"
        ],
        "display_name": "Stockton, San Joaquin County, California, United States of America",
        "licence": "Data \u00a9 OpenStreetMap contributors, ODbL 1.0. http://www.openstreetmap.org/copyright",
        "icon": "https://nominatim.openstreetmap.org/images/mapicons/poi_place_city.p.20.png",
        "place_id": "157785814",
        "osm_type": "relation"
    },
    "pasadena": {
        "type": "city",
        "osm_id": "3529725",
        "class": "place",
        "importance": 0.7778961552687,
        "lat": "34.1476452",
        "lon": "-118.1444778",
        "boundingbox": [
            "34.1172023",
            "34.251905",
            "-118.1981389",
            "-118.0654789"
        ],
        "display_name": "Pasadena, Los Angeles County, California, United States of America",
        "licence": "Data \u00a9 OpenStreetMap contributors, ODbL 1.0. http://www.openstreetmap.org/copyright",
        "icon": "https://nominatim.openstreetmap.org/images/mapicons/poi_place_city.p.20.png",
        "place_id": "159486921",
        "osm_type": "relation"
    },
    "mentions": {
        "pacific coast highway": {
            "latitude": "33.6595127",
            "closest_to": "pasadena",
            "address": "Pacific Coast Highway, Huntington Beach, Orange County, California, 92648, United States of America",
            "locType": "primary",
            "blogLinks": [
                "https://www.yelp.com/biz/pacific-coast-highway-carmel",
                "http://www.tripleblaze.com/best/?c=8"
            ],
            "longitude": "-118.0051687"
        },
        "hawaii": {
            "latitude": "36.8347819",
            "closest_to": "stockton",
            "address": "Hawaii, Fresno County, California, 93650, United States of America",
            "locType": "service",
            "blogLinks": [
                "https://www.yelp.com/biz/pacific-coast-highway-carmel"
            ],
            "longitude": "-119.7966952"
        },
        "palos verdes peninsula ca": {
            "latitude": "33.77984925",
            "closest_to": "pasadena",
            "address": "Palos Verdes Peninsula High School, Hawthorne Boulevard, Rolling Hills Estates, Los Angeles County, California, 90274, United States of America",
            "locType": "school",
            "blogLinks": [
                "http://www.california-blog.com/"
            ],
            "longitude": "-118.372196730215"
        },
        "arizona": {
            "latitude": "34.4631398",
            "closest_to": "pasadena",
            "address": "Arizona, San Bernardino County, California, 92371, United States of America",
            "locType": "track",
            "blogLinks": [
                "https://www.tripadvisor.com/ShowTopic-g28930-i18-k4620154-Driving_from_Florida_to_California-Florida.html"
            ],
            "longitude": "-117.5060679"
        },
        "yreka": {
            "latitude": "41.7326157",
            "closest_to": "stockton",
            "address": "Yreka, Siskiyou County, California, United States of America",
            "locType": "city",
            "blogLinks": [
                "https://www.yelp.com/biz/pacific-coast-highway-carmel"
            ],
            "longitude": "-122.6377654"
        },
        "vancouver": {
            "latitude": "34.824773",
            "closest_to": "stockton",
            "address": "Vancouver, San Bernardino County, California, United States of America",
            "locType": "residential",
            "blogLinks": [
                "https://www.yelp.com/biz/pacific-coast-highway-carmel"
            ],
            "longitude": "-117.4634669"
        },
        "phoenix": {
            "latitude": "33.6988015",
            "closest_to": "pasadena",
            "address": "Phoenix, Heritage Park Apartments, El Camino Real, Irvine, Orange County, California, 92604, United States of America",
            "locType": "residential",
            "blogLinks": [
                "https://www.tripadvisor.com/ShowTopic-g28930-i18-k4620154-Driving_from_Florida_to_California-Florida.html"
            ],
            "longitude": "-117.7764481"
        },
        "estes park": {
            "latitude": "33.5899355",
            "closest_to": "pasadena",
            "address": "Estes Park Court, California Oaks, Wildomar, Riverside County, California, 92564, United States of America",
            "locType": "residential",
            "blogLinks": [
                "https://www.tripadvisor.com/ShowTopic-g28930-i18-k4620154-Driving_from_Florida_to_California-Florida.html"
            ],
            "longitude": "-117.2312372"
        },
        "pismo beach": {
            "latitude": "35.1427533",
            "closest_to": "stockton",
            "address": "Pismo Beach, San Luis Obispo County, California, United States of America",
            "locType": "city",
            "blogLinks": [
                "https://www.tripadvisor.com/ShowTopic-g28930-i18-k4620154-Driving_from_Florida_to_California-Florida.html",
                "https://www.yelp.com/biz/pacific-coast-highway-carmel"
            ],
            "longitude": "-120.6412826"
        },
        "huntington beach": {
            "latitude": "33.6783336",
            "closest_to": "pasadena",
            "address": "Huntington Beach, Orange County, California, United States of America",
            "locType": "city",
            "blogLinks": [
                "https://www.yelp.com/biz/pacific-coast-highway-carmel"
            ],
            "longitude": "-118.0000165"
        },
        "mount san gorgonio ca": {
            "latitude": "33.9121294",
            "closest_to": "pasadena",
            "address": "San Gorgonio Avenue, Banning, Riverside County, California, 92220, United States of America",
            "locType": "secondary",
            "blogLinks": [
                "http://www.california-blog.com/"
            ],
            "longitude": "-116.8766731"
        },
        "long beach": {
            "latitude": "33.78538945",
            "closest_to": "pasadena",
            "address": "Long Beach, Los Angeles County, California, United States of America",
            "locType": "city",
            "blogLinks": [
                "https://www.yelp.com/biz/pacific-coast-highway-carmel"
            ],
            "longitude": "-118.158049215311"
        },
        "mission bay ca": {
            "latitude": "37.7707742",
            "closest_to": "stockton",
            "address": "Mission Bay, SF, California, 94158, United States of America",
            "locType": "neighbourhood",
            "blogLinks": [
                "http://www.california-blog.com/"
            ],
            "longitude": "-122.3911711"
        },
        "tijuana": {
            "latitude": "32.5008626",
            "closest_to": "pasadena",
            "address": "Tijuana, Baja California, M\u00e9xico",
            "locType": "city",
            "blogLinks": [
                "https://www.yelp.com/biz/pacific-coast-highway-carmel"
            ],
            "longitude": "-116.9641656"
        },
        "bixby bridge": {
            "latitude": "36.3710197",
            "closest_to": "stockton",
            "address": "Bixby Creek Bridge, Notleys Landing, Monterey County, California, 93923, United States of America",
            "locType": "primary",
            "blogLinks": [
                "https://www.yelp.com/biz/pacific-coast-highway-carmel"
            ],
            "longitude": "-121.9017572"
        },
        "moreno valley ca": {
            "latitude": "33.937517",
            "closest_to": "pasadena",
            "address": "Moreno Valley, Riverside County, California, United States of America",
            "locType": "city",
            "blogLinks": [
                "http://www.california-blog.com/"
            ],
            "longitude": "-117.2305943"
        },
        "utah": {
            "latitude": "37.413408",
            "closest_to": "stockton",
            "address": "Utah, Rovana, Inyo County, California, United States of America",
            "locType": "residential",
            "blogLinks": [
                "https://www.tripadvisor.com/ShowTopic-g28930-i18-k4620154-Driving_from_Florida_to_California-Florida.html"
            ],
            "longitude": "-118.6125359"
        },
        "santa monica": {
            "latitude": "34.0195598",
            "closest_to": "stockton",
            "address": "Santa Monica, Los Angeles County, California, United States of America",
            "locType": "city",
            "blogLinks": [
                "https://www.yelp.com/biz/pacific-coast-highway-carmel"
            ],
            "longitude": "-118.4869738"
        },
        "galveston": {
            "latitude": "34.0772803",
            "closest_to": "pasadena",
            "address": "Galveston Street, Echo Park, Angelino Heights, LA, Los Angeles County, California, 90026, United States of America",
            "locType": "residential",
            "blogLinks": [
                "https://www.tripadvisor.com/ShowTopic-g28930-i18-k4620154-Driving_from_Florida_to_California-Florida.html"
            ],
            "longitude": "-118.2538537"
        },
        "pacific coast": {
            "latitude": "33.8047323",
            "closest_to": "pasadena",
            "address": "Pacific Coast, Florista Street, Los Alamitos, Orange County, California, 90720, United States of America",
            "locType": "yes",
            "blogLinks": [
                "https://www.yelp.com/biz/pacific-coast-highway-carmel",
                "http://www.livability.com/ca"
            ],
            "longitude": "-118.063517668143"
        },
        "irvine": {
            "latitude": "33.6856969",
            "closest_to": "pasadena",
            "address": "Irvine, Orange County, California, United States of America",
            "locType": "city",
            "blogLinks": [
                "http://www.livability.com/ca"
            ],
            "longitude": "-117.8259818"
        },
        "monterrey": {
            "latitude": "32.5492861",
            "closest_to": "pasadena",
            "address": "Monterrey, Mexicali, Baja California, M\u00e9xico",
            "locType": "village",
            "blogLinks": [
                "https://www.yelp.com/biz/pacific-coast-highway-carmel"
            ],
            "longitude": "-115.0704122"
        },
        "la jolla": {
            "latitude": "32.8472711",
            "closest_to": "pasadena",
            "address": "La Jolla, San Diego, San Diego County, California, United States of America",
            "locType": "suburb",
            "blogLinks": [
                "https://www.yelp.com/biz/pacific-coast-highway-carmel"
            ],
            "longitude": "-117.2742085"
        },
        "encinitas": {
            "latitude": "33.0369867",
            "closest_to": "pasadena",
            "address": "Encinitas, San Diego County, California, United States of America",
            "locType": "city",
            "blogLinks": [
                "https://www.yelp.com/biz/pacific-coast-highway-carmel"
            ],
            "longitude": "-117.2919817"
        },
        "southern california": {
            "latitude": "34.0224149",
            "closest_to": "pasadena",
            "address": "University of Southern California, Watt Way, Saint James Park, LA, Los Angeles County, California, 90089, United States of America",
            "locType": "university",
            "blogLinks": [
                "https://www.yelp.com/biz/pacific-coast-highway-carmel"
            ],
            "longitude": "-118.286343973446"
        },
        "savannah": {
            "latitude": "33.5398723",
            "closest_to": "pasadena",
            "address": "Savannah, Harveston, Temecula, Riverside County, California, United States of America",
            "locType": "administrative",
            "blogLinks": [
                "https://www.tripadvisor.com/ShowTopic-g28930-i18-k4620154-Driving_from_Florida_to_California-Florida.html"
            ],
            "longitude": "-117.160000996048"
        },
        "newport beach": {
            "latitude": "33.6170092",
            "closest_to": "pasadena",
            "address": "Newport Beach, Orange County, California, United States of America",
            "locType": "city",
            "blogLinks": [
                "https://www.yelp.com/biz/pacific-coast-highway-carmel"
            ],
            "longitude": "-117.92944"
        },
        "colorado": {
            "latitude": "33.71351445",
            "closest_to": "pasadena",
            "address": "Colorado, Walnut, Irvine, Orange County, California, 92606, United States of America",
            "locType": "residential",
            "blogLinks": [
                "https://www.tripadvisor.com/ShowTopic-g28930-i18-k4620154-Driving_from_Florida_to_California-Florida.html"
            ],
            "longitude": "-117.791165718199"
        },
        "old town san diego": {
            "latitude": "32.7542167",
            "closest_to": "pasadena",
            "address": "Old Town San Diego, San Diego County, California, United States of America",
            "locType": "hamlet",
            "blogLinks": [
                "http://www.california-blog.com/"
            ],
            "longitude": "-117.1969792"
        },
        "santa barbara": {
            "latitude": "34.4221319",
            "closest_to": "stockton",
            "address": "Santa Barbara, Santa Barbara County, California, United States of America",
            "locType": "city",
            "blogLinks": [
                "https://www.tripadvisor.com/ShowTopic-g28930-i18-k4620154-Driving_from_Florida_to_California-Florida.html",
                "https://www.yelp.com/biz/pacific-coast-highway-carmel",
                "http://www.livability.com/ca"
            ],
            "longitude": "-119.7026672"
        },
        "chilnualna falls": {
            "latitude": "37.5486657",
            "closest_to": "stockton",
            "address": "North Chilnualna Falls Road, North Wawona, Mariposa County, California, 95389, United States of America",
            "locType": "residential",
            "blogLinks": [
                "http://www.tripleblaze.com/best/?c=8"
            ],
            "longitude": "-119.633114"
        },
        "san luis obispo": {
            "latitude": "35.2827525",
            "closest_to": "stockton",
            "address": "San Luis Obispo, San Luis Obispo County, California, United States of America",
            "locType": "city",
            "blogLinks": [
                "https://www.yelp.com/biz/pacific-coast-highway-carmel"
            ],
            "longitude": "-120.6596155"
        },
        "san jose": {
            "latitude": "37.3361905",
            "closest_to": "stockton",
            "address": "San Jos\u00e9, Santa Clara County, California, United States of America",
            "locType": "city",
            "blogLinks": [
                "http://www.livability.com/ca"
            ],
            "longitude": "-121.8905832"
        },
        "korea": {
            "latitude": "32.742474",
            "closest_to": "pasadena",
            "address": "Korea Road, Old Town, San Diego, San Diego County, California, 92140, United States of America",
            "locType": "residential",
            "blogLinks": [
                "http://www.visitstockton.org/restaurants/"
            ],
            "longitude": "-117.2033459"
        },
        "santa monica beach": {
            "latitude": "34.159111",
            "closest_to": "stockton",
            "address": "Santa Monica Drive, Channel Islands Beach, Ventura County, California, 93035, United States of America",
            "locType": "residential",
            "blogLinks": [
                "https://www.yelp.com/biz/pacific-coast-highway-carmel"
            ],
            "longitude": "-119.2203179"
        },
        "ocean beach": {
            "latitude": "32.7477784",
            "closest_to": "pasadena",
            "address": "Ocean Beach, San Diego, San Diego County, California, United States of America",
            "locType": "region",
            "blogLinks": [
                "https://www.yelp.com/biz/pacific-coast-highway-carmel"
            ],
            "longitude": "-117.249321"
        },
        "new orleans": {
            "latitude": "33.8116219",
            "closest_to": "pasadena",
            "address": "New Orleans Square, Anaheim, Orange County, California, United States of America",
            "locType": "locality",
            "blogLinks": [
                "https://www.tripadvisor.com/ShowTopic-g28930-i18-k4620154-Driving_from_Florida_to_California-Florida.html"
            ],
            "longitude": "-117.9206364"
        },
        "san clemente": {
            "latitude": "33.4270275",
            "closest_to": "pasadena",
            "address": "San Clemente, Orange County, California, United States of America",
            "locType": "city",
            "blogLinks": [
                "https://www.yelp.com/biz/pacific-coast-highway-carmel"
            ],
            "longitude": "-117.6124178"
        },
        "aliso creek": {
            "latitude": "33.602558",
            "closest_to": "pasadena",
            "address": "Aliso Creek, Laguna Woods, Orange County, California, United States of America",
            "locType": "stream",
            "blogLinks": [
                "http://www.tripleblaze.com/best/?c=8"
            ],
            "longitude": "-117.7034805"
        },
        "mount baldy ca": {
            "latitude": "34.2361168",
            "closest_to": "pasadena",
            "address": "Mount Baldy, Los Angeles County, California, United States of America",
            "locType": "hamlet",
            "blogLinks": [
                "http://www.california-blog.com/"
            ],
            "longitude": "-117.6600552"
        },
        "san francisco": {
            "latitude": "37.7792808",
            "closest_to": "stockton",
            "address": "SF, California, United States of America",
            "locType": "city",
            "blogLinks": [
                "https://www.tripadvisor.com/ShowTopic-g28930-i18-k4620154-Driving_from_Florida_to_California-Florida.html",
                "https://www.yelp.com/biz/pacific-coast-highway-carmel",
                "http://www.livability.com/ca",
                "http://gocalifornia.about.com/od/topcalifornia/qt/From-To-In-California.htm"
            ],
            "longitude": "-122.4192362"
        },
        "mount palomar ca": {
            "latitude": "33.1278146",
            "closest_to": "pasadena",
            "address": "California Bank & Trust, 2501, Palomar Airport Road, Carlsbad, San Diego County, California, 92011, United States of America",
            "locType": "bank",
            "blogLinks": [
                "http://www.california-blog.com/"
            ],
            "longitude": "-117.270809764613"
        },
        "san antonio": {
            "latitude": "38.1838069",
            "closest_to": "stockton",
            "address": "San Antonio, Marin County, California, United States of America",
            "locType": "hamlet",
            "blogLinks": [
                "https://www.tripadvisor.com/ShowTopic-g28930-i18-k4620154-Driving_from_Florida_to_California-Florida.html"
            ],
            "longitude": "-122.5913722"
        },
        "tennessee": {
            "latitude": "33.7116447",
            "closest_to": "pasadena",
            "address": "Tennessee, Walnut, Irvine, Orange County, California, 92606, United States of America",
            "locType": "residential",
            "blogLinks": [
                "https://www.tripadvisor.com/ShowTopic-g28930-i18-k4620154-Driving_from_Florida_to_California-Florida.html"
            ],
            "longitude": "-117.7934117"
        },
        "balboa island": {
            "latitude": "33.6064778",
            "closest_to": "pasadena",
            "address": "Balboa Island, Newport Beach, Orange County, California, United States of America",
            "locType": "suburb",
            "blogLinks": [
                "https://www.yelp.com/biz/pacific-coast-highway-carmel"
            ],
            "longitude": "-117.8920818"
        },
        "half moon bay": {
            "latitude": "37.4635519",
            "closest_to": "stockton",
            "address": "Half Moon Bay, San Mateo County, California, United States of America",
            "locType": "city",
            "blogLinks": [
                "https://www.yelp.com/biz/pacific-coast-highway-carmel"
            ],
            "longitude": "-122.4285861"
        },
        "napa": {
            "latitude": "38.2971367",
            "closest_to": "stockton",
            "address": "Napa, Napa County, California, United States of America",
            "locType": "city",
            "blogLinks": [
                "https://www.yelp.com/biz/pacific-coast-highway-carmel"
            ],
            "longitude": "-122.2855292"
        },
        "creek": {
            "latitude": "39.3751013",
            "closest_to": "stockton",
            "address": "Creek, Mendocino County, California, United States of America",
            "locType": "stream",
            "blogLinks": [
                "http://www.tripleblaze.com/best/?c=8"
            ],
            "longitude": "-123.0482197"
        },
        "ca": {
            "latitude": "37.8242285466918",
            "closest_to": "stockton",
            "address": "Piedmont, Alameda County, California, ca, United States of America",
            "locType": "postcode",
            "blogLinks": [
                "http://www.distancesfrom.com/us/Trip-Cost-from-Stockton-to-Pasadena/TripCostHistory/12605441.aspx",
                "http://www.distancesfrom.com/us/distance-from-Stockton-to-Pasadena/DistanceHistory/12605441.aspx"
            ],
            "longitude": "-122.232613735941"
        },
        "morongo valley": {
            "latitude": "34.0537585",
            "closest_to": "pasadena",
            "address": "Morongo Valley, Vista Drive, Morongo Valley, San Bernardino County, California, 92256, United States of America",
            "locType": "administrative",
            "blogLinks": [
                "http://www.california-blog.com/"
            ],
            "longitude": "-116.596723958419"
        },
        "berkeley": {
            "latitude": "37.8708393",
            "closest_to": "stockton",
            "address": "Berkeley, Alameda County, California, United States of America",
            "locType": "city",
            "blogLinks": [
                "http://www.livability.com/ca"
            ],
            "longitude": "-122.2728638"
        },
        "morro rock ca": {
            "latitude": "35.369669",
            "closest_to": "stockton",
            "address": "Morro Rock, Morro Bay, San Luis Obispo County, California, United States of America",
            "locType": "peak",
            "blogLinks": [
                "http://www.california-blog.com/"
            ],
            "longitude": "-120.8676993"
        },
        "solana beach": {
            "latitude": "32.9905597",
            "closest_to": "pasadena",
            "address": "Solana Beach, San Diego County, California, United States of America",
            "locType": "city",
            "blogLinks": [
                "https://www.yelp.com/biz/pacific-coast-highway-carmel"
            ],
            "longitude": "-117.2691315"
        },
        "cardiff": {
            "latitude": "33.6883363",
            "closest_to": "pasadena",
            "address": "Cardiff, Westpark, Irvine, Orange County, California, 92606, United States of America",
            "locType": "residential",
            "blogLinks": [
                "https://www.yelp.com/biz/pacific-coast-highway-carmel"
            ],
            "longitude": "-117.806356451668"
        },
        "tillamook": {
            "latitude": "32.728329",
            "closest_to": "pasadena",
            "address": "Tillamook Bay Drive, San Diego, San Diego County, California, 92114, United States of America",
            "locType": "residential",
            "blogLinks": [
                "https://www.yelp.com/biz/pacific-coast-highway-carmel"
            ],
            "longitude": "-117.0726319"
        },
        "morro bay ca": {
            "latitude": "35.3658075",
            "closest_to": "stockton",
            "address": "Morro Bay, San Luis Obispo County, California, United States of America",
            "locType": "city",
            "blogLinks": [
                "http://www.california-blog.com/"
            ],
            "longitude": "-120.8499012"
        },
        "monterey peninsula ca": {
            "latitude": "36.5878734",
            "closest_to": "stockton",
            "address": "Monterey Regional Airport, Airport Road, Seaside, Del Monte Heights, Monterey County, California, 93940, United States of America",
            "locType": "aerodrome",
            "blogLinks": [
                "http://www.california-blog.com/"
            ],
            "longitude": "-121.843618374407"
        },
        "mojave desert": {
            "latitude": "35.1456319",
            "closest_to": "pasadena",
            "address": "Mojave Desert, Utility Road, San Bernardino County, California, United States of America",
            "locType": "desert",
            "blogLinks": [
                "http://www.livability.com/ca"
            ],
            "longitude": "-115.548963686646"
        },
        "lone cypress": {
            "latitude": "36.5687376",
            "closest_to": "stockton",
            "address": "The Lone Cypress, 17 Mile Drive, Del Monte Forest, Monterey County, California, 93953, United States of America",
            "locType": "tree",
            "blogLinks": [
                "https://www.yelp.com/biz/pacific-coast-highway-carmel"
            ],
            "longitude": "-121.9652341"
        },
        "redondo beach": {
            "latitude": "33.8455911",
            "closest_to": "pasadena",
            "address": "Redondo Beach, Los Angeles County, California, United States of America",
            "locType": "city",
            "blogLinks": [
                "https://www.yelp.com/biz/pacific-coast-highway-carmel"
            ],
            "longitude": "-118.3886765"
        },
        "india": {
            "latitude": "32.72025735",
            "closest_to": "pasadena",
            "address": "Star of India, North Harbor Drive, Hillcrest, San Diego, San Diego County, California, 92106, United States of America",
            "locType": "attraction",
            "blogLinks": [
                "http://www.visitstockton.org/restaurants/"
            ],
            "longitude": "-117.173543004762"
        },
        "pacific crest trail": {
            "latitude": "38.69418",
            "closest_to": "stockton",
            "address": "Pacific Crest Trail, Pleasant Valley, El Dorado County, California, 95667, United States of America",
            "locType": "residential",
            "blogLinks": [
                "http://www.tripleblaze.com/best/?c=8"
            ],
            "longitude": "-120.6375709"
        },
        "santa cruz": {
            "latitude": "36.9735903",
            "closest_to": "stockton",
            "address": "Santa Cruz, Santa Cruz County, California, United States of America",
            "locType": "city",
            "blogLinks": [
                "https://www.yelp.com/biz/pacific-coast-highway-carmel"
            ],
            "longitude": "-122.0260569"
        },
        "monrovia": {
            "latitude": "34.1483499",
            "closest_to": "pasadena",
            "address": "Monrovia, Los Angeles County, California, United States of America",
            "locType": "city",
            "blogLinks": [
                "http://www.california-blog.com/"
            ],
            "longitude": "-118.0014516"
        },
        "newport beach ca": {
            "latitude": "33.6170092",
            "closest_to": "pasadena",
            "address": "Newport Beach, Orange County, California, United States of America",
            "locType": "city",
            "blogLinks": [
                "http://www.california-blog.com/"
            ],
            "longitude": "-117.92944"
        },
        "la": {
            "latitude": "36.7014631",
            "closest_to": "stockton",
            "address": "California, United States of America",
            "locType": "administrative",
            "blogLinks": [
                "https://www.tripadvisor.com/ShowTopic-g28930-i18-k4620154-Driving_from_Florida_to_California-Florida.html",
                "https://www.yelp.com/biz/pacific-coast-highway-carmel",
                "http://koa.com/ways-to-stay/tent-sites/",
                "http://gocalifornia.about.com/od/topcalifornia/qt/From-To-In-California.htm"
            ],
            "longitude": "-118.7559973"
        },
        "whittier hills whittier": {
            "latitude": "33.9397495",
            "closest_to": "pasadena",
            "address": "Whittwood Branch Whittier Public Library, Starbuck Street, Friendly Hills, Whittier, Los Angeles County, California, 90603, United States of America",
            "locType": "library",
            "blogLinks": [
                "http://www.tripleblaze.com/best/?c=8"
            ],
            "longitude": "-117.993545449378"
        },
        "palm springs air museum ca": {
            "latitude": "33.83250375",
            "closest_to": "pasadena",
            "address": "Palm Springs Air Museum, 745, North Gene Autry Trail, Palm Springs, Riverside County, California, 92262, United States of America",
            "locType": "museum",
            "blogLinks": [
                "http://www.california-blog.com/"
            ],
            "longitude": "-116.504677958796"
        },
        "san fran": {
            "latitude": "35.142465",
            "closest_to": "stockton",
            "address": "Golden Hills, Kern County, California, United States of America",
            "locType": "village",
            "blogLinks": [
                "https://www.tripadvisor.com/ShowTopic-g28930-i18-k4620154-Driving_from_Florida_to_California-Florida.html"
            ],
            "longitude": "-118.4903642"
        },
        "mount san jacinto ca": {
            "latitude": "33.7839084",
            "closest_to": "pasadena",
            "address": "San Jacinto, Riverside County, California, United States of America",
            "locType": "city",
            "blogLinks": [
                "http://www.california-blog.com/"
            ],
            "longitude": "-116.9586349"
        },
        "houston": {
            "latitude": "34.4422871",
            "closest_to": "stockton",
            "address": "Houston, Plum Canyon, Canyon Country, Los Angeles County, California, 91351, United States of America",
            "locType": "residential",
            "blogLinks": [
                "https://www.thrillist.com/"
            ],
            "longitude": "-118.4777157"
        },
        "carlsbad": {
            "latitude": "33.1580933",
            "closest_to": "pasadena",
            "address": "Carlsbad, San Diego County, California, United States of America",
            "locType": "city",
            "blogLinks": [
                "https://www.yelp.com/biz/pacific-coast-highway-carmel",
                "http://www.visitstockton.org/things-to-do/"
            ],
            "longitude": "-117.3505938"
        },
        "pebble beach ca": {
            "latitude": "36.5664874",
            "closest_to": "stockton",
            "address": "Pebble Beach, Monterey County, California, United States of America",
            "locType": "hamlet",
            "blogLinks": [
                "http://www.california-blog.com/"
            ],
            "longitude": "-121.9466112"
        },
        "oregon": {
            "latitude": "33.7123207",
            "closest_to": "pasadena",
            "address": "Oregon, Walnut, Irvine, Orange County, California, 92606, United States of America",
            "locType": "residential",
            "blogLinks": [
                "https://www.yelp.com/biz/pacific-coast-highway-carmel"
            ],
            "longitude": "-117.7911567"
        },
        "ojai valley": {
            "latitude": "34.4480495",
            "closest_to": "stockton",
            "address": "Ojai, Ventura County, California, United States of America",
            "locType": "city",
            "blogLinks": [
                "http://www.california-blog.com/"
            ],
            "longitude": "-119.2428889"
        },
        "oceanside": {
            "latitude": "33.1958696",
            "closest_to": "pasadena",
            "address": "Oceanside, San Diego County, California, United States of America",
            "locType": "city",
            "blogLinks": [
                "https://www.yelp.com/biz/pacific-coast-highway-carmel"
            ],
            "longitude": "-117.3794833"
        },
        "northern california": {
            "latitude": "32.7349196",
            "closest_to": "pasadena",
            "address": "Northern Frontier, San Diego, San Diego County, California, United States of America",
            "locType": "locality",
            "blogLinks": [
                "http://www.napavalley.com/"
            ],
            "longitude": "-117.1545973"
        },
        "canada": {
            "latitude": "33.7298842",
            "closest_to": "pasadena",
            "address": "La Canada, Lower Peters Canyon, Irvine, Orange County, California, 92602, United States of America",
            "locType": "residential",
            "blogLinks": [
                "https://www.yelp.com/biz/pacific-coast-highway-carmel",
                "http://www.distancecalculator.net/from-stockton-to-pasadena-2"
            ],
            "longitude": "-117.7641381"
        },
        "us": {
            "latitude": "36.7014631",
            "closest_to": "stockton",
            "address": "California, United States of America",
            "locType": "administrative",
            "blogLinks": [
                "https://www.yelp.com/biz/pacific-coast-highway-carmel"
            ],
            "longitude": "-118.7559973"
        },
        "santa maria": {
            "latitude": "34.9531295",
            "closest_to": "stockton",
            "address": "Santa Maria, Santa Barbara County, California, United States of America",
            "locType": "city",
            "blogLinks": [
                "https://www.yelp.com/biz/pacific-coast-highway-carmel"
            ],
            "longitude": "-120.4358576"
        },
        "paris": {
            "latitude": "34.4719383",
            "closest_to": "stockton",
            "address": "Paris, Los Angeles County, California, United States of America",
            "locType": "hamlet",
            "blogLinks": [
                "http://www.napavalley.com/"
            ],
            "longitude": "-118.1809078"
        },
        "los angeles": {
            "latitude": "34.0543942",
            "closest_to": "pasadena",
            "address": "LA, Los Angeles County, California, United States of America",
            "locType": "city",
            "blogLinks": [
                "http://www.timeanddate.com/worldclock/distances.html?n=137",
                "https://www.tripadvisor.com/Attractions-g32859-Activities-Pasadena_California.html",
                "https://www.tripoto.com/travel-guide/stockton",
                "http://gocalifornia.about.com/od/topcalifornia/qt/From-To-In-California.htm"
            ],
            "longitude": "-118.2439408"
        },
        "old encinitas": {
            "latitude": "33.0369867",
            "closest_to": "pasadena",
            "address": "Encinitas, San Diego County, California, United States of America",
            "locType": "city",
            "blogLinks": [
                "https://www.yelp.com/biz/pacific-coast-highway-carmel"
            ],
            "longitude": "-117.2919817"
        },
        "monterey": {
            "latitude": "36.5844165",
            "closest_to": "stockton",
            "address": "Monterey, Monterey County, California, United States of America",
            "locType": "city",
            "blogLinks": [
                "https://www.yelp.com/biz/pacific-coast-highway-carmel"
            ],
            "longitude": "-121.866792846206"
        },
        "north lake ca": {
            "latitude": "37.76958295",
            "closest_to": "stockton",
            "address": "North Lake, Chain of Lakes Drive East, Sunset District, SF, California, 94122, United States of America",
            "locType": "water",
            "blogLinks": [
                "http://www.california-blog.com/"
            ],
            "longitude": "-122.501983281136"
        },
        "orange county": {
            "latitude": "33.7500378",
            "closest_to": "pasadena",
            "address": "Orange County, California, United States of America",
            "locType": "administrative",
            "blogLinks": [
                "https://www.yelp.com/biz/pacific-coast-highway-carmel"
            ],
            "longitude": "-117.870493"
        },
        "los angeles/anaheim": {
            "latitude": "33.7803597",
            "closest_to": "pasadena",
            "address": "Global Tires of California, 233, East Anaheim Street, Wilmington, LA, Los Angeles County, California, 90744, United States of America",
            "locType": "car_repair",
            "blogLinks": [
                "http://gocalifornia.about.com/od/topcalifornia/qt/From-To-In-California.htm"
            ],
            "longitude": "-118.2602935"
        },
        "san diego": {
            "latitude": "32.7174209",
            "closest_to": "pasadena",
            "address": "San Diego, San Diego County, California, United States of America",
            "locType": "city",
            "blogLinks": [
                "https://www.yelp.com/biz/pacific-coast-highway-carmel",
                "http://www.tripleblaze.com/best/?c=8",
                "http://gocalifornia.about.com/od/topcalifornia/qt/From-To-In-California.htm"
            ],
            "longitude": "-117.1627713"
        },
        "cambria": {
            "latitude": "35.5641381",
            "closest_to": "stockton",
            "address": "Cambria, San Luis Obispo County, California, United States of America",
            "locType": "administrative",
            "blogLinks": [
                "https://www.yelp.com/biz/pacific-coast-highway-carmel"
            ],
            "longitude": "-121.0807467"
        },
        "vietnam": {
            "latitude": "37.7979399",
            "closest_to": "stockton",
            "address": "Vietnam, 618-626, Broadway Street, Nob Hill, SF, California, 94109, United States of America",
            "locType": "restaurant",
            "blogLinks": [
                "http://www.visitstockton.org/restaurants/"
            ],
            "longitude": "-122.4074503"
        },
        "whistler": {
            "latitude": "34.3090058",
            "closest_to": "stockton",
            "address": "Whistler Avenue, LA, Los Angeles County, California, 91344, United States of America",
            "locType": "residential",
            "blogLinks": [
                "https://www.yelp.com/biz/pacific-coast-highway-carmel"
            ],
            "longitude": "-118.5053852"
        },
        "mono lake ca": {
            "latitude": "38.0077189",
            "closest_to": "stockton",
            "address": "Mono Lake, Mono County, California, United States of America",
            "locType": "water",
            "blogLinks": [
                "http://www.california-blog.com/"
            ],
            "longitude": "-118.967033937845"
        },
        "eaton canyon park": {
            "latitude": "34.18216575",
            "closest_to": "stockton",
            "address": "Eaton Canyon Park, Canyon View Lane, Pasadena, Los Angeles County, California, 91107, United States of America",
            "locType": "park",
            "blogLinks": [
                "http://www.tripleblaze.com/best/?c=8"
            ],
            "longitude": "-118.095556461784"
        },
        "china": {
            "latitude": "37.9989198",
            "closest_to": "stockton",
            "address": "China Camp State Park, Bay View Trail, Santa Venetia, Marin County, California, 94901, United States of America",
            "locType": "park",
            "blogLinks": [
                "http://www.visitstockton.org/restaurants/"
            ],
            "longitude": "-122.49033307856"
        },
        "las vegas": {
            "latitude": "36.17310935",
            "closest_to": "pasadena",
            "address": "California Hotel, Sky Walk(Connection from Main Street to California, Cultural Corridor, Vegas Heights, Las Vegas, Clark County, Nevada, 89101, United States of America",
            "locType": "hotel",
            "blogLinks": [
                "http://gocalifornia.about.com/od/topcalifornia/qt/From-To-In-California.htm"
            ],
            "longitude": "-115.144667930325"
        },
        "memphis": {
            "latitude": "33.6768939",
            "closest_to": "pasadena",
            "address": "Memphis, Randolph Avenue, Costa Mesa, Orange County, California, 92626, United States of America",
            "locType": "restaurant",
            "blogLinks": [
                "https://www.tripadvisor.com/ShowTopic-g28930-i18-k4620154-Driving_from_Florida_to_California-Florida.html"
            ],
            "longitude": "-117.8866571"
        },
        "napa valley ca": {
            "latitude": "38.2972603",
            "closest_to": "stockton",
            "address": "California Boulevard, Napa, Napa County, California, 94558, United States of America",
            "locType": "secondary",
            "blogLinks": [
                "http://www.california-blog.com/"
            ],
            "longitude": "-122.3002947"
        },
        "ontario": {
            "latitude": "34.065846",
            "closest_to": "pasadena",
            "address": "Ontario, San Bernardino County, California, United States of America",
            "locType": "city",
            "blogLinks": [
                "http://www.california-blog.com/"
            ],
            "longitude": "-117.6484303"
        },
        "pasadena route": {
            "latitude": "34.1476452",
            "closest_to": "stockton",
            "address": "Pasadena, Los Angeles County, California, United States of America",
            "locType": "city",
            "blogLinks": [
                "http://www.visitstockton.org/restaurants/"
            ],
            "longitude": "-118.1444778"
        },
        "seal beach": {
            "latitude": "33.741176",
            "closest_to": "pasadena",
            "address": "Seal Beach, Orange County, California, United States of America",
            "locType": "city",
            "blogLinks": [
                "https://www.yelp.com/biz/pacific-coast-highway-carmel"
            ],
            "longitude": "-118.1046355"
        },
        "pacific ocean": {
            "latitude": "36.16305775",
            "closest_to": "stockton",
            "address": "Pacific Ocean, Cabrillo Highway, Monterey County, California, 93920, United States of America",
            "locType": "cliff",
            "blogLinks": [
                "https://www.yelp.com/biz/pacific-coast-highway-carmel"
            ],
            "longitude": "-121.678715787326"
        },
        "bear lake": {
            "latitude": "32.852283",
            "closest_to": "pasadena",
            "address": "Bear Lake, Riverview, Johnstown, San Diego County, California, 92021, United States of America",
            "locType": "residential",
            "blogLinks": [
                "https://www.tripadvisor.com/ShowTopic-g28930-i18-k4620154-Driving_from_Florida_to_California-Florida.html"
            ],
            "longitude": "-116.8849329"
        },
        "san simeon": {
            "latitude": "35.6438587",
            "closest_to": "stockton",
            "address": "San Simeon, San Luis Obispo County, California, United States of America",
            "locType": "hamlet",
            "blogLinks": [
                "https://www.yelp.com/biz/pacific-coast-highway-carmel"
            ],
            "longitude": "-121.1907532"
        },
        "big sur": {
            "latitude": "36.270241",
            "closest_to": "stockton",
            "address": "Big Sur, Monterey County, California, United States of America",
            "locType": "village",
            "blogLinks": [
                "https://www.yelp.com/biz/pacific-coast-highway-carmel"
            ],
            "longitude": "-121.8074544"
        },
        "sacramento": {
            "latitude": "38.5815719",
            "closest_to": "stockton",
            "address": "Sacramento, Sacramento County, California, United States of America",
            "locType": "city",
            "blogLinks": [
                "https://www.yelp.com/biz/pacific-coast-highway-carmel"
            ],
            "longitude": "-121.4943995"
        },
        "torrey pines road": {
            "latitude": "32.8491824",
            "closest_to": "pasadena",
            "address": "Torrey Pines Road, La Jolla, San Diego, San Diego County, California, 92037, United States of America",
            "locType": "secondary",
            "blogLinks": [
                "https://www.yelp.com/biz/pacific-coast-highway-carmel"
            ],
            "longitude": "-117.2620194"
        },
        "bay area": {
            "latitude": "37.7884969",
            "closest_to": "stockton",
            "address": "San Francisco Bay Area, SF, California, United States of America",
            "locType": "region",
            "blogLinks": [
                "https://www.yelp.com/biz/pacific-coast-highway-carmel"
            ],
            "longitude": "-122.3558472"
        },
        "united states": {
            "latitude": "36.7014631",
            "closest_to": "stockton",
            "address": "California, United States of America",
            "locType": "administrative",
            "blogLinks": [
                "http://www.distancesfrom.com/us/Trip-Cost-from-Stockton-to-Pasadena/TripCostHistory/12605441.aspx",
                "https://www.tripadvisor.com/Attractions-g32859-Activities-Pasadena_California.html",
                "http://www.distancecalculator.net/from-stockton-to-pasadena-2",
                "http://www.distancesfrom.com/us/distance-from-Stockton-to-Pasadena/DistanceHistory/12605441.aspx"
            ],
            "longitude": "-118.7559973"
        },
        "pasadena": {
            "latitude": "34.1476452",
            "closest_to": "stockton",
            "address": "Pasadena, Los Angeles County, California, United States of America",
            "locType": "city",
            "blogLinks": [
                "http://www.tripleblaze.com/best/?c=8",
                "http://www.distancesfrom.com/us/Trip-Cost-from-Stockton-to-Pasadena/TripCostHistory/12605441.aspx",
                "http://www.california-blog.com/",
                "http://www.distancesfrom.com/us/distance-from-Stockton-to-Pasadena/DistanceHistory/12605441.aspx",
                "http://www.distancecalculator.net/from-stockton-to-pasadena-2",
                "http://www.livability.com/ca"
            ],
            "longitude": "-118.1444778"
        },
        "santa clara": {
            "latitude": "37.3541132",
            "closest_to": "stockton",
            "address": "Santa Clara, Santa Clara County, California, United States of America",
            "locType": "city",
            "blogLinks": [
                "http://www.livability.com/ca"
            ],
            "longitude": "-121.9551743"
        },
        "donner lake rim": {
            "latitude": "39.349315",
            "closest_to": "stockton",
            "address": "Donner Lake Rim Trail, Donner, Nevada County, California, 95724, United States of America",
            "locType": "footway",
            "blogLinks": [
                "http://www.tripleblaze.com/best/?c=8"
            ],
            "longitude": "-120.3406539"
        },
        "manhattan beach": {
            "latitude": "33.8950839",
            "closest_to": "pasadena",
            "address": "Manhattan Beach, Los Angeles County, California, United States of America",
            "locType": "city",
            "blogLinks": [
                "https://www.yelp.com/biz/pacific-coast-highway-carmel"
            ],
            "longitude": "-118.4000146"
        },
        "mediterranean": {
            "latitude": "33.7439509",
            "closest_to": "pasadena",
            "address": "Mediterranean, Palm Desert, Riverside County, California, 92211, United States of America",
            "locType": "residential",
            "blogLinks": [
                "http://www.livability.com/ca"
            ],
            "longitude": "-116.3534838"
        },
        "riverside national cemetery": {
            "latitude": "33.87692125",
            "closest_to": "pasadena",
            "address": "Riverside National Cemetery, 22495, Alessandro, Riverside County, California, 92518, United States of America",
            "locType": "cemetery",
            "blogLinks": [
                "http://www.california-blog.com/"
            ],
            "longitude": "-117.270726607134"
        },
        "frisco": {
            "latitude": "35.0714062",
            "closest_to": "stockton",
            "address": "Frisco Way, Los Berros, San Luis Obispo County, California, 93420, United States of America",
            "locType": "residential",
            "blogLinks": [
                "https://www.yelp.com/biz/pacific-coast-highway-carmel"
            ],
            "longitude": "-120.5207138"
        },
        "malibu": {
            "latitude": "33.7932142",
            "closest_to": "pasadena",
            "address": "Malibu, Palm Springs, Riverside County, California, 92264, United States of America",
            "locType": "residential",
            "blogLinks": [
                "https://www.yelp.com/biz/pacific-coast-highway-carmel",
                "http://www.tripleblaze.com/best/?c=8"
            ],
            "longitude": "-116.5023561"
        },
        "burbank": {
            "latitude": "34.1816482",
            "closest_to": "stockton",
            "address": "Burbank, Los Angeles County, California, United States of America",
            "locType": "city",
            "blogLinks": [
                "https://www.tripadvisor.com/ShowTopic-g28930-i18-k4620154-Driving_from_Florida_to_California-Florida.html"
            ],
            "longitude": "-118.3258553"
        },
        "nashville": {
            "latitude": "38.5787952",
            "closest_to": "stockton",
            "address": "Nashville, El Dorado County, California, United States of America",
            "locType": "hamlet",
            "blogLinks": [
                "https://www.tripadvisor.com/ShowTopic-g28930-i18-k4620154-Driving_from_Florida_to_California-Florida.html"
            ],
            "longitude": "-120.8452144"
        },
        "mojave desert ca": {
            "latitude": "35.1456319",
            "closest_to": "pasadena",
            "address": "Mojave Desert, Utility Road, San Bernardino County, California, United States of America",
            "locType": "desert",
            "blogLinks": [
                "http://www.california-blog.com/"
            ],
            "longitude": "-115.548963686646"
        },
        "monterey bay aquarium ca": {
            "latitude": "36.61809095",
            "closest_to": "stockton",
            "address": "MBA, 886, Cannery Row, Monterey, Monterey County, California, 93940, United States of America",
            "locType": "aquarium",
            "blogLinks": [
                "http://www.california-blog.com/"
            ],
            "longitude": "-121.901680002002"
        },
        "charleston": {
            "latitude": "33.53745",
            "closest_to": "pasadena",
            "address": "Charleston, Harveston, Temecula, Riverside County, California, United States of America",
            "locType": "administrative",
            "blogLinks": [
                "https://www.tripadvisor.com/ShowTopic-g28930-i18-k4620154-Driving_from_Florida_to_California-Florida.html"
            ],
            "longitude": "-117.160560207655"
        },
        "bay": {
            "latitude": "33.6899249",
            "closest_to": "pasadena",
            "address": "Bay, Meadows Mobile Home Park, El Camino Real, Irvine, Orange County, California, 92406, United States of America",
            "locType": "service",
            "blogLinks": [
                "https://www.yelp.com/biz/pacific-coast-highway-carmel"
            ],
            "longitude": "-117.7729354"
        },
        "laguna beach": {
            "latitude": "33.5420888",
            "closest_to": "pasadena",
            "address": "Laguna Beach, Orange County, California, United States of America",
            "locType": "city",
            "blogLinks": [
                "https://www.yelp.com/biz/pacific-coast-highway-carmel"
            ],
            "longitude": "-117.7834146"
        },
        "america": {
            "latitude": "36.2573198",
            "closest_to": "stockton",
            "address": "America, Kings County, California, 93246, United States of America",
            "locType": "residential",
            "blogLinks": [
                "http://www.livability.com/ca"
            ],
            "longitude": "-119.8948706"
        },
        "kern river": {
            "latitude": "36.6816956",
            "closest_to": "stockton",
            "address": "Kern River, Tulare County, California, United States of America",
            "locType": "river",
            "blogLinks": [
                "http://www.california-blog.com/"
            ],
            "longitude": "-118.4124188"
        },
        "carmel": {
            "latitude": "38.75511285",
            "closest_to": "stockton",
            "address": "Carmel, Roseville, Placer County, California, 95747, United States of America",
            "locType": "residential",
            "blogLinks": [
                "https://www.yelp.com/biz/pacific-coast-highway-carmel"
            ],
            "longitude": "-121.353308848273"
        },
        "stockton": {
            "latitude": "37.9577016",
            "closest_to": "stockton",
            "address": "Stockton, San Joaquin County, California, United States of America",
            "locType": "city",
            "blogLinks": [
                "http://www.distancesfrom.com/us/Trip-Cost-from-Stockton-to-Pasadena/TripCostHistory/12605441.aspx",
                "http://www.distancesfrom.com/us/distance-from-Stockton-to-Pasadena/DistanceHistory/12605441.aspx",
                "http://www.visitstockton.org/restaurants/",
                "http://www.visitstockton.org/things-to-do/"
            ],
            "longitude": "-121.2907795"
        },
        "laguna": {
            "latitude": "38.4210209",
            "closest_to": "stockton",
            "address": "Laguna, Sacramento County, California, United States of America",
            "locType": "hamlet",
            "blogLinks": [
                "https://www.yelp.com/biz/pacific-coast-highway-carmel"
            ],
            "longitude": "-121.4238413"
        },
        "laos": {
            "latitude": "35.3602368",
            "closest_to": "stockton",
            "address": "Laos Temple, L Street, Bakersfield, Kern County, California, 93301, United States of America",
            "locType": "place_of_worship",
            "blogLinks": [
                "http://www.visitstockton.org/restaurants/"
            ],
            "longitude": "-119.0164903"
        },
        "dana point": {
            "latitude": "33.4669721",
            "closest_to": "pasadena",
            "address": "Dana Point, Orange County, California, United States of America",
            "locType": "city",
            "blogLinks": [
                "https://www.yelp.com/biz/pacific-coast-highway-carmel"
            ],
            "longitude": "-117.6981074"
        }
    }
}