{
    "san bernardino": {
        "type": "city",
        "osm_id": "253639",
        "class": "place",
        "importance": 0.81183700771795,
        "lat": "34.1083449",
        "lon": "-117.2897651",
        "boundingbox": [
            "34.050346",
            "34.230706",
            "-117.4024519",
            "-117.1649719"
        ],
        "display_name": "San Bernardino, San Bernardino County, California, United States of America",
        "licence": "Data \u00a9 OpenStreetMap contributors, ODbL 1.0. http://www.openstreetmap.org/copyright",
        "icon": "https://nominatim.openstreetmap.org/images/mapicons/poi_place_city.p.20.png",
        "place_id": "159293643",
        "osm_type": "relation"
    },
    "mentions": {
        "hollywood boulevard": {
            "latitude": "34.1016312",
            "closest_to": "san bernardino",
            "address": "Hollywood Boulevard, Hollywood, LA, Los Angeles County, California, 90028, United States of America",
            "locType": "secondary",
            "blogLinks": [
                "https://en.wikipedia.org/wiki/Reportedly_haunted_locations_in_California"
            ],
            "longitude": "-118.32684"
        },
        "hollywood sign": {
            "latitude": "34.1340991",
            "closest_to": "san bernardino",
            "address": "Hollywood Sign, Mount Lee Drive, Hollywood Hills, LA, Los Angeles County, California, 90068, United States of America",
            "locType": "attraction",
            "blogLinks": [
                "https://en.wikipedia.org/wiki/Reportedly_haunted_locations_in_California"
            ],
            "longitude": "-118.3216522"
        },
        "sunset strip": {
            "latitude": "33.7224763",
            "closest_to": "san bernardino",
            "address": "Sunset Strip, Happy Wanderer, Indio, Riverside County, California, 92201, United States of America",
            "locType": "living_street",
            "blogLinks": [
                "https://en.wikipedia.org/wiki/Reportedly_haunted_locations_in_California"
            ],
            "longitude": "-116.1940439"
        },
        "lemoore": {
            "latitude": "36.3007835",
            "closest_to": "san bernardino",
            "address": "Lemoore, Kings County, California, United States of America",
            "locType": "city",
            "blogLinks": [
                "http://www.roadsideamerica.com/location/ca"
            ],
            "longitude": "-119.7829106"
        },
        "sierra camp": {
            "latitude": "37.1905014",
            "closest_to": "san bernardino",
            "address": "Camp Sierra, Fresno County, California, United States of America",
            "locType": "hamlet",
            "blogLinks": [
                "http://gocalifornia.about.com/od/topcalifornia/ss/California-Weekend-Getaways-A-to-Z.htm"
            ],
            "longitude": "-119.2598455"
        },
        "irvine": {
            "latitude": "33.6856969",
            "closest_to": "san bernardino",
            "address": "Irvine, Orange County, California, United States of America",
            "locType": "city",
            "blogLinks": [
                "https://www.nerdwallet.com/blog/mortgages/cities-for-young-families-california/"
            ],
            "longitude": "-117.8259818"
        },
        "santa rosa": {
            "latitude": "38.4404675",
            "closest_to": "sacramento",
            "address": "Santa Rosa, Sonoma County, California, United States of America",
            "locType": "city",
            "blogLinks": [
                "http://gocalifornia.about.com/od/topcalifornia/ss/California-Weekend-Getaways-A-to-Z.htm"
            ],
            "longitude": "-122.7144313"
        },
        "east bay": {
            "latitude": "38.156964",
            "closest_to": "san bernardino",
            "address": "East Bay, San Joaquin County, California, United States of America",
            "locType": "track",
            "blogLinks": [
                "https://www.nerdwallet.com/blog/mortgages/cities-for-young-families-california/",
                "http://gocalifornia.about.com/od/topcalifornia/ss/California-Weekend-Getaways-A-to-Z.htm"
            ],
            "longitude": "-121.0270079"
        },
        "norco": {
            "latitude": "33.9323307",
            "closest_to": "san bernardino",
            "address": "Norco, Riverside County, California, 92860, United States of America",
            "locType": "city",
            "blogLinks": [
                "http://www.roadsideamerica.com/location/ca"
            ],
            "longitude": "-117.55089"
        },
        "humboldt county": {
            "latitude": "40.5997415",
            "closest_to": "sacramento",
            "address": "Humboldt County, California, United States of America",
            "locType": "administrative",
            "blogLinks": [
                "http://gocalifornia.about.com/od/topcalifornia/ss/California-Weekend-Getaways-A-to-Z.htm"
            ],
            "longitude": "-123.8997733"
        },
        "east l.a.": {
            "latitude": "33.8077557",
            "closest_to": "san bernardino",
            "address": "A, West Anaheim, Anaheim, Orange County, California, 92802, United States of America",
            "locType": "residential",
            "blogLinks": [
                "https://www.nerdwallet.com/blog/mortgages/cities-for-young-families-california/"
            ],
            "longitude": "-117.9411432"
        },
        "fort irwin": {
            "latitude": "35.2627527",
            "closest_to": "san bernardino",
            "address": "Fort Irwin, San Bernardino County, California, United States of America",
            "locType": "hamlet",
            "blogLinks": [
                "http://www.roadsideamerica.com/location/ca"
            ],
            "longitude": "-116.6847523"
        },
        "big sur coast": {
            "latitude": "36.2019303",
            "closest_to": "san bernardino",
            "address": "Coast Gallery Big Sur, Cabrillo Highway, Posts, Monterey County, California, 93920, United States of America",
            "locType": "art",
            "blogLinks": [
                "http://gocalifornia.about.com/od/topcalifornia/ss/California-Weekend-Getaways-A-to-Z.htm"
            ],
            "longitude": "-121.7255471"
        },
        "cotati": {
            "latitude": "38.3266798",
            "closest_to": "sacramento",
            "address": "Cotati, Sonoma County, California, United States of America",
            "locType": "city",
            "blogLinks": [
                "http://www.roadsideamerica.com/location/ca"
            ],
            "longitude": "-122.706844"
        },
        "palmdale": {
            "latitude": "34.5793131",
            "closest_to": "san bernardino",
            "address": "Palmdale, Los Angeles County, California, United States of America",
            "locType": "city",
            "blogLinks": [
                "http://www.roadsideamerica.com/location/ca"
            ],
            "longitude": "-118.1171107"
        },
        "oaks": {
            "latitude": "38.9046249",
            "closest_to": "sacramento",
            "address": "The Oaks, Mendocino County, California, United States of America",
            "locType": "hamlet",
            "blogLinks": [
                "http://gocalifornia.about.com/od/topcalifornia/ss/California-Weekend-Getaways-A-to-Z.htm"
            ],
            "longitude": "-123.2261176"
        },
        "manhattan": {
            "latitude": "33.8109789",
            "closest_to": "san bernardino",
            "address": "Manhattan, Anaheim Resort District, Anaheim, Orange County, California, 217, United States of America",
            "locType": "forest",
            "blogLinks": [
                "http://www.sbsun.com/search?text=stabbing&sort=modifiedtime+desc"
            ],
            "longitude": "-117.919744373725"
        },
        "pacific": {
            "latitude": "38.7601815",
            "closest_to": "san bernardino",
            "address": "Pacific, El Dorado County, California, United States of America",
            "locType": "hamlet",
            "blogLinks": [
                "http://gocalifornia.about.com/od/topcalifornia/ss/California-Weekend-Getaways-A-to-Z.htm"
            ],
            "longitude": "-120.507146"
        },
        "santa clarita": {
            "latitude": "34.3916641",
            "closest_to": "san bernardino",
            "address": "Santa Clarita, Los Angeles County, California, United States of America",
            "locType": "city",
            "blogLinks": [
                "http://www.roadsideamerica.com/location/ca"
            ],
            "longitude": "-118.5425859"
        },
        "alcatraz": {
            "latitude": "37.8267283",
            "closest_to": "san bernardino",
            "address": "Alcatraz Island, SF, California, United States of America",
            "locType": "island",
            "blogLinks": [
                "https://en.wikipedia.org/wiki/Reportedly_haunted_locations_in_California"
            ],
            "longitude": "-122.422746492409"
        },
        "grass valley": {
            "latitude": "39.2086655",
            "closest_to": "sacramento",
            "address": "Grass Valley, Nevada County, California, United States of America",
            "locType": "city",
            "blogLinks": [
                "https://en.wikipedia.org/wiki/Reportedly_haunted_locations_in_California"
            ],
            "longitude": "-121.053122977412"
        },
        "lake tahoe/reno": {
            "latitude": "39.1670768",
            "closest_to": "san bernardino",
            "address": "Lake Tahoe Dam, Placer County, California, United States of America",
            "locType": "dam",
            "blogLinks": [
                "http://gocalifornia.about.com/od/topcalifornia/ss/California-Weekend-Getaways-A-to-Z.htm"
            ],
            "longitude": "-120.1440332"
        },
        "death valley national park": {
            "latitude": "36.4914385",
            "closest_to": "san bernardino",
            "address": "Death Valley National Park, Lucky Wash Road, Skidoo, Inyo County, California, United States of America",
            "locType": "national_park",
            "blogLinks": [
                "http://www.roadsideamerica.com/location/ca"
            ],
            "longitude": "-117.102293507719"
        },
        "tonga": {
            "latitude": "32.579494",
            "closest_to": "san bernardino",
            "address": "Via Tonga, Otay Mesa West, San Ysidro, San Diego, San Diego County, California, 92154, United States of America",
            "locType": "residential",
            "blogLinks": [
                "http://www.roadsideamerica.com/location/ca"
            ],
            "longitude": "-117.0612559"
        },
        "southern california": {
            "latitude": "34.0224149",
            "closest_to": "san bernardino",
            "address": "University of Southern California, Watt Way, Saint James Park, LA, Los Angeles County, California, 90089, United States of America",
            "locType": "university",
            "blogLinks": [
                "http://californiathroughmylens.com/route-66-attractions-barstow-victorville",
                "http://koa.com/states-provinces/california/",
                "http://www.bestplaces.net/city/california/fontana",
                "http://www.inlandempire.com/things-to-do/san-bernardino/"
            ],
            "longitude": "-118.286343973446"
        },
        "guadalupe": {
            "latitude": "29.0350656",
            "closest_to": "san bernardino",
            "address": "Isla Guadalupe, Ensenada, Baja California, M\u00e9xico",
            "locType": "island",
            "blogLinks": [
                "http://www.roadsideamerica.com/location/ca"
            ],
            "longitude": "-118.269896818344"
        },
        "old town san diego": {
            "latitude": "32.7542167",
            "closest_to": "san bernardino",
            "address": "Old Town San Diego, San Diego County, California, United States of America",
            "locType": "hamlet",
            "blogLinks": [
                "https://en.wikipedia.org/wiki/Reportedly_haunted_locations_in_California"
            ],
            "longitude": "-117.1969792"
        },
        "heritage hill historical park": {
            "latitude": "33.6470583",
            "closest_to": "san bernardino",
            "address": "Heritage Hill Historical Park, Serrano Road, Foothill Ranch, Lake Forest, Orange County, California, 92630, United States of America",
            "locType": "park",
            "blogLinks": [
                "https://www.nerdwallet.com/blog/mortgages/cities-for-young-families-california/"
            ],
            "longitude": "-117.689829269192"
        },
        "moonstone beach": {
            "latitude": "35.573855",
            "closest_to": "san bernardino",
            "address": "Moonstone Beach, Cambria, San Luis Obispo County, California, CA 93428, United States of America",
            "locType": "path",
            "blogLinks": [
                "http://gocalifornia.about.com/od/topcalifornia/ss/California-Weekend-Getaways-A-to-Z.htm"
            ],
            "longitude": "-121.1128747"
        },
        "san jose": {
            "latitude": "37.3361905",
            "closest_to": "san bernardino",
            "address": "San Jos\u00e9, Santa Clara County, California, United States of America",
            "locType": "city",
            "blogLinks": [
                "http://www.roadsideamerica.com/location/ca",
                "https://en.wikipedia.org/wiki/Reportedly_haunted_locations_in_California",
                "https://www.nerdwallet.com/blog/mortgages/cities-for-young-families-california/",
                "http://gocalifornia.about.com/od/topcalifornia/ss/California-Weekend-Getaways-A-to-Z.htm"
            ],
            "longitude": "-121.8905832"
        },
        "bodie state historic park": {
            "latitude": "38.2154734",
            "closest_to": "san bernardino",
            "address": "Bodie State Historic Park, Street, Bodie, Mono County, California, United States of America",
            "locType": "park",
            "blogLinks": [
                "http://www.roadsideamerica.com/location/ca"
            ],
            "longitude": "-119.0109761"
        },
        "loma linda": {
            "latitude": "34.075626",
            "closest_to": "san bernardino",
            "address": "Loma Linda, San Bernardino County, California, United States of America",
            "locType": "city",
            "blogLinks": [
                "http://www.bestplaces.net/city/california/fontana"
            ],
            "longitude": "-117.25204765"
        },
        "prospect avenue": {
            "latitude": "33.9681166",
            "closest_to": "san bernardino",
            "address": "Prospect Avenue, Riverside, Riverside County, California, 92507, United States of America",
            "locType": "residential",
            "blogLinks": [
                "https://en.wikipedia.org/wiki/Reportedly_haunted_locations_in_California"
            ],
            "longitude": "-117.369273"
        },
        "tracy": {
            "latitude": "37.7396513",
            "closest_to": "san bernardino",
            "address": "Tracy, San Joaquin County, California, United States of America",
            "locType": "city",
            "blogLinks": [
                "https://en.wikipedia.org/wiki/Reportedly_haunted_locations_in_California"
            ],
            "longitude": "-121.4252226"
        },
        "mojave river": {
            "latitude": "34.810823",
            "closest_to": "san bernardino",
            "address": "Mojave River, San Bernardino County, California, United States of America",
            "locType": "river",
            "blogLinks": [
                "http://californiathroughmylens.com/route-66-attractions-barstow-victorville"
            ],
            "longitude": "-117.2140293"
        },
        "hanford": {
            "latitude": "36.3274502",
            "closest_to": "san bernardino",
            "address": "Hanford, Kings County, California, United States of America",
            "locType": "city",
            "blogLinks": [
                "https://en.wikipedia.org/wiki/Reportedly_haunted_locations_in_California"
            ],
            "longitude": "-119.6456843"
        },
        "costa mesa": {
            "latitude": "33.6633386",
            "closest_to": "san bernardino",
            "address": "Costa Mesa, Orange County, California, United States of America",
            "locType": "city",
            "blogLinks": [
                "http://www.roadsideamerica.com/location/ca"
            ],
            "longitude": "-117.9033169"
        },
        "healdsburg": {
            "latitude": "38.6106812",
            "closest_to": "sacramento",
            "address": "Healdsburg, Sonoma County, California, United States of America",
            "locType": "city",
            "blogLinks": [
                "http://www.roadsideamerica.com/location/ca",
                "http://gocalifornia.about.com/od/topcalifornia/ss/California-Weekend-Getaways-A-to-Z.htm"
            ],
            "longitude": "-122.8701379"
        },
        "classic california": {
            "latitude": "33.6996713",
            "closest_to": "san bernardino",
            "address": "Classic, Woodbury, Irvine, Orange County, California, 92676, United States of America",
            "locType": "unclassified",
            "blogLinks": [
                "http://gocalifornia.about.com/od/topcalifornia/ss/California-Weekend-Getaways-A-to-Z.htm"
            ],
            "longitude": "-117.7399365"
        },
        "theater.la jolla": {
            "latitude": "32.8714796",
            "closest_to": "san bernardino",
            "address": "Theater District, La Jolla, San Diego, San Diego County, California, 92037, United States of America",
            "locType": "neighbourhood",
            "blogLinks": [
                "http://gocalifornia.about.com/od/topcalifornia/ss/California-Weekend-Getaways-A-to-Z.htm"
            ],
            "longitude": "-117.24078452988"
        },
        "ukiah": {
            "latitude": "39.1501662",
            "closest_to": "sacramento",
            "address": "Ukiah, Mendocino County, California, United States of America",
            "locType": "city",
            "blogLinks": [
                "http://www.roadsideamerica.com/location/ca"
            ],
            "longitude": "-123.207786"
        },
        "ca": {
            "latitude": "37.8242285466918",
            "closest_to": "san bernardino",
            "address": "Piedmont, Alameda County, California, ca, United States of America",
            "locType": "postcode",
            "blogLinks": [
                "https://www.nerdwallet.com/blog/mortgages/cities-for-young-families-california/"
            ],
            "longitude": "-122.232613735941"
        },
        "reno/tahoe": {
            "latitude": "38.9228218",
            "closest_to": "san bernardino",
            "address": "Reno Avenue, South Lake Tahoe, El Dorado County, California, 96150, United States of America",
            "locType": "residential",
            "blogLinks": [
                "http://gocalifornia.about.com/od/topcalifornia/ss/California-Weekend-Getaways-A-to-Z.htm"
            ],
            "longitude": "-119.9810715"
        },
        "redondo beach": {
            "latitude": "33.8455911",
            "closest_to": "san bernardino",
            "address": "Redondo Beach, Los Angeles County, California, United States of America",
            "locType": "city",
            "blogLinks": [
                "http://gocalifornia.about.com/od/topcalifornia/ss/California-Weekend-Getaways-A-to-Z.htm"
            ],
            "longitude": "-118.3886765"
        },
        "crestline": {
            "latitude": "34.2495525",
            "closest_to": "san bernardino",
            "address": "Crestline, Old Mill Road, Crestline, San Bernardino County, California, 92407, United States of America",
            "locType": "administrative",
            "blogLinks": [
                "https://www.nerdwallet.com/blog/mortgages/cities-for-young-families-california/"
            ],
            "longitude": "-117.293895511888"
        },
        "berkeley": {
            "latitude": "37.8708393",
            "closest_to": "san bernardino",
            "address": "Berkeley, Alameda County, California, United States of America",
            "locType": "city",
            "blogLinks": [
                "http://www.roadsideamerica.com/location/ca"
            ],
            "longitude": "-122.2728638"
        },
        "pacific grove": {
            "latitude": "36.6174432",
            "closest_to": "san bernardino",
            "address": "Pacific Grove, Monterey County, California, United States of America",
            "locType": "city",
            "blogLinks": [
                "http://gocalifornia.about.com/od/topcalifornia/ss/California-Weekend-Getaways-A-to-Z.htm"
            ],
            "longitude": "-121.9155905"
        },
        "san luis obispo": {
            "latitude": "35.2827525",
            "closest_to": "san bernardino",
            "address": "San Luis Obispo, San Luis Obispo County, California, United States of America",
            "locType": "city",
            "blogLinks": [
                "http://www.roadsideamerica.com/location/ca"
            ],
            "longitude": "-120.6596155"
        },
        "fresno": {
            "latitude": "36.748793",
            "closest_to": "san bernardino",
            "address": "Fresno, Fresno County, California, United States of America",
            "locType": "city",
            "blogLinks": [
                "http://www.roadsideamerica.com/location/ca",
                "https://en.wikipedia.org/wiki/Reportedly_haunted_locations_in_California",
                "https://www.nerdwallet.com/blog/mortgages/cities-for-young-families-california/",
                "http://gocalifornia.about.com/od/topcalifornia/ss/California-Weekend-Getaways-A-to-Z.htm"
            ],
            "longitude": "-119.714839601149"
        },
        "hill park": {
            "latitude": "37.8122249",
            "closest_to": "san bernardino",
            "address": "Hill Park, Macalla Road, SF, California, 94130, United States of America",
            "locType": "bench",
            "blogLinks": [
                "http://www.inlandempire.com/things-to-do/san-bernardino/"
            ],
            "longitude": "-122.3706428"
        },
        "victorville": {
            "latitude": "34.5361067",
            "closest_to": "san bernardino",
            "address": "Victorville, San Bernardino County, California, United States of America",
            "locType": "city",
            "blogLinks": [
                "http://californiathroughmylens.com/route-66-attractions-barstow-victorville"
            ],
            "longitude": "-117.2911564"
        },
        "indio": {
            "latitude": "33.7192808",
            "closest_to": "san bernardino",
            "address": "Indio, Riverside County, California, United States of America",
            "locType": "city",
            "blogLinks": [
                "http://www.roadsideamerica.com/location/ca"
            ],
            "longitude": "-116.2188053"
        },
        "crescent city": {
            "latitude": "41.8528065",
            "closest_to": "sacramento",
            "address": "Crescent City, Del Norte County, California, United States of America",
            "locType": "city",
            "blogLinks": [
                "https://en.wikipedia.org/wiki/Reportedly_haunted_locations_in_California"
            ],
            "longitude": "-124.149861883096"
        },
        "califia": {
            "latitude": "34.4290422",
            "closest_to": "san bernardino",
            "address": "Califia Court, Santa Barbara County, California, 93111, United States of America",
            "locType": "residential",
            "blogLinks": [
                "http://www.roadsideamerica.com/location/ca"
            ],
            "longitude": "-119.8065791"
        },
        "temecula": {
            "latitude": "33.4946353",
            "closest_to": "san bernardino",
            "address": "Temecula, Riverside County, California, United States of America",
            "locType": "city",
            "blogLinks": [
                "http://www.roadsideamerica.com/location/ca"
            ],
            "longitude": "-117.147366"
        },
        "simi valley": {
            "latitude": "34.2694474",
            "closest_to": "san bernardino",
            "address": "Simi Valley, Ventura County, California, United States of America",
            "locType": "city",
            "blogLinks": [
                "http://www.roadsideamerica.com/location/ca"
            ],
            "longitude": "-118.7814819"
        },
        "mojave desert": {
            "latitude": "35.1456319",
            "closest_to": "san bernardino",
            "address": "Mojave Desert, Utility Road, San Bernardino County, California, United States of America",
            "locType": "desert",
            "blogLinks": [
                "http://www.bestplaces.net/city/california/fontana"
            ],
            "longitude": "-115.548963686646"
        },
        "jerusalem": {
            "latitude": "40.5175442",
            "closest_to": "sacramento",
            "address": "Jerusalem Creek, Shasta County, California, United States of America",
            "locType": "stream",
            "blogLinks": [
                "http://www.roadsideamerica.com/location/ca"
            ],
            "longitude": "-122.7581059"
        },
        "santa cruz": {
            "latitude": "36.9735903",
            "closest_to": "san bernardino",
            "address": "Santa Cruz, Santa Cruz County, California, United States of America",
            "locType": "city",
            "blogLinks": [
                "http://www.roadsideamerica.com/location/ca",
                "http://koa.com/states-provinces/california/",
                "http://gocalifornia.about.com/od/topcalifornia/ss/California-Weekend-Getaways-A-to-Z.htm"
            ],
            "longitude": "-122.0260569"
        },
        "west marshall blvd": {
            "latitude": "34.1492922",
            "closest_to": "san bernardino",
            "address": "West Marshall Boulevard, San Bernardino, San Bernardino County, California, 92405, United States of America",
            "locType": "residential",
            "blogLinks": [
                "http://www.inlandempire.com/things-to-do/san-bernardino/"
            ],
            "longitude": "-117.3125487"
        },
        "visalia": {
            "latitude": "36.3302284",
            "closest_to": "san bernardino",
            "address": "Visalia, Tulare County, California, United States of America",
            "locType": "city",
            "blogLinks": [
                "https://en.wikipedia.org/wiki/Reportedly_haunted_locations_in_California"
            ],
            "longitude": "-119.2920584"
        },
        "southwest": {
            "latitude": "40.4370184",
            "closest_to": "sacramento",
            "address": "Southwest, Lassen Peak Highway, Tehama County, California, United States of America",
            "locType": "camp_site",
            "blogLinks": [
                "http://www.bestplaces.net/city/california/fontana"
            ],
            "longitude": "-121.5324607"
        },
        "valencia": {
            "latitude": "34.1466768",
            "closest_to": "san bernardino",
            "address": "Valencia, San Bernardino County, California, United States of America",
            "locType": "hamlet",
            "blogLinks": [
                "http://www.inlandempire.com/things-to-do/san-bernardino/"
            ],
            "longitude": "-117.2725426"
        },
        "national park": {
            "latitude": "37.7488554",
            "closest_to": "san bernardino",
            "address": "Yosemite, Village Drive, Yosemite Village, Yosemite Valley, Mariposa County, California, United States of America",
            "locType": "attraction",
            "blogLinks": [
                "http://gocalifornia.about.com/od/topcalifornia/ss/California-Weekend-Getaways-A-to-Z.htm"
            ],
            "longitude": "-119.5893389"
        },
        "riverside mission inn": {
            "latitude": "33.9819467",
            "closest_to": "san bernardino",
            "address": "Riverside Metropolitan Museum, Mission Inn Avenue, Riverside, Riverside County, California, 92501, United States of America",
            "locType": "yes",
            "blogLinks": [
                "https://en.wikipedia.org/wiki/Reportedly_haunted_locations_in_California"
            ],
            "longitude": "-117.372475849413"
        },
        "sunnyvale": {
            "latitude": "37.3688301",
            "closest_to": "san bernardino",
            "address": "Sunnyvale, Santa Clara County, California, United States of America",
            "locType": "city",
            "blogLinks": [
                "https://en.wikipedia.org/wiki/Reportedly_haunted_locations_in_California"
            ],
            "longitude": "-122.0363495"
        },
        "glendale": {
            "latitude": "34.1423455",
            "closest_to": "san bernardino",
            "address": "Glendale, Los Angeles County, California, United States of America",
            "locType": "city",
            "blogLinks": [
                "http://www.roadsideamerica.com/location/ca"
            ],
            "longitude": "-118.248367"
        },
        "kearny": {
            "latitude": "32.8288522",
            "closest_to": "san bernardino",
            "address": "Kearny Mesa, San Diego County, California, United States of America",
            "locType": "village",
            "blogLinks": [
                "http://gocalifornia.about.com/od/topcalifornia/ss/California-Weekend-Getaways-A-to-Z.htm"
            ],
            "longitude": "-117.1420072"
        },
        "yermo": {
            "latitude": "34.9049849",
            "closest_to": "san bernardino",
            "address": "Yermo, San Bernardino County, California, United States of America",
            "locType": "hamlet",
            "blogLinks": [
                "http://www.roadsideamerica.com/location/ca"
            ],
            "longitude": "-116.8203126"
        },
        "turlock": {
            "latitude": "37.4946568",
            "closest_to": "san bernardino",
            "address": "Turlock, Stanislaus County, California, United States of America",
            "locType": "city",
            "blogLinks": [
                "http://www.roadsideamerica.com/location/ca"
            ],
            "longitude": "-120.846594"
        },
        "alameda": {
            "latitude": "37.6090291",
            "closest_to": "san bernardino",
            "address": "Alameda County, California, United States of America",
            "locType": "administrative",
            "blogLinks": [
                "https://en.wikipedia.org/wiki/Reportedly_haunted_locations_in_California"
            ],
            "longitude": "-121.8991419"
        },
        "san miguel": {
            "latitude": "35.7524679",
            "closest_to": "san bernardino",
            "address": "San Miguel, San Luis Obispo County, California, United States of America",
            "locType": "village",
            "blogLinks": [
                "https://en.wikipedia.org/wiki/Reportedly_haunted_locations_in_California"
            ],
            "longitude": "-120.6962825"
        },
        "santa barbara": {
            "latitude": "34.4221319",
            "closest_to": "san bernardino",
            "address": "Santa Barbara, Santa Barbara County, California, United States of America",
            "locType": "city",
            "blogLinks": [
                "http://gocalifornia.about.com/od/topcalifornia/ss/California-Weekend-Getaways-A-to-Z.htm"
            ],
            "longitude": "-119.7026672"
        },
        "asilomar beach": {
            "latitude": "36.6241141",
            "closest_to": "san bernardino",
            "address": "Asilomar State Beach, Sunset Drive, Pacific Grove, Monterey County, California, 93950, United States of America",
            "locType": "park",
            "blogLinks": [
                "http://gocalifornia.about.com/od/topcalifornia/ss/California-Weekend-Getaways-A-to-Z.htm"
            ],
            "longitude": "-121.940055839932"
        },
        "san juan capistrano": {
            "latitude": "33.5016932",
            "closest_to": "san bernardino",
            "address": "San Juan Capistrano, Orange County, California, United States of America",
            "locType": "city",
            "blogLinks": [
                "https://en.wikipedia.org/wiki/Reportedly_haunted_locations_in_California"
            ],
            "longitude": "-117.6625508"
        },
        "buellton": {
            "latitude": "34.6134727",
            "closest_to": "san bernardino",
            "address": "Buellton, Santa Barbara County, California, United States of America",
            "locType": "city",
            "blogLinks": [
                "http://www.roadsideamerica.com/location/ca"
            ],
            "longitude": "-120.1936691"
        },
        "canada": {
            "latitude": "33.7298842",
            "closest_to": "san bernardino",
            "address": "La Canada, Lower Peters Canyon, Irvine, Orange County, California, 92602, United States of America",
            "locType": "residential",
            "blogLinks": [
                "http://koa.com/states-provinces/california/"
            ],
            "longitude": "-117.7641381"
        },
        "san diego ca": {
            "latitude": "32.7174209",
            "closest_to": "san bernardino",
            "address": "San Diego, San Diego County, California, United States of America",
            "locType": "city",
            "blogLinks": [
                "https://www.nerdwallet.com/blog/mortgages/cities-for-young-families-california/"
            ],
            "longitude": "-117.1627713"
        },
        "trona": {
            "latitude": "35.7627322",
            "closest_to": "san bernardino",
            "address": "Trona, San Bernardino County, California, United States of America",
            "locType": "hamlet",
            "blogLinks": [
                "http://www.roadsideamerica.com/location/ca"
            ],
            "longitude": "-117.3728345"
        },
        "emeryville": {
            "latitude": "37.8314089",
            "closest_to": "san bernardino",
            "address": "Emeryville, Alameda County, California, United States of America",
            "locType": "administrative",
            "blogLinks": [
                "http://www.roadsideamerica.com/location/ca"
            ],
            "longitude": "-122.2865265"
        },
        "redlands": {
            "latitude": "34.069909",
            "closest_to": "san bernardino",
            "address": "Redlands, San Bernardino County, California, United States of America",
            "locType": "city",
            "blogLinks": [
                "http://californiathroughmylens.com/route-66-attractions-barstow-victorville",
                "https://en.wikipedia.org/wiki/Reportedly_haunted_locations_in_California",
                "https://www.nerdwallet.com/blog/mortgages/cities-for-young-families-california/"
            ],
            "longitude": "-117.248983896912"
        },
        "placerville": {
            "latitude": "38.7296252",
            "closest_to": "san bernardino",
            "address": "Placerville, El Dorado County, California, United States of America",
            "locType": "city",
            "blogLinks": [
                "http://www.roadsideamerica.com/location/ca",
                "https://en.wikipedia.org/wiki/Reportedly_haunted_locations_in_California"
            ],
            "longitude": "-120.7985459"
        },
        "east los angeles": {
            "latitude": "34.0239015",
            "closest_to": "san bernardino",
            "address": "East Los Angeles, Belvedere Gardens, Los Angeles County, California, United States of America",
            "locType": "suburb",
            "blogLinks": [
                "http://www.roadsideamerica.com/location/ca"
            ],
            "longitude": "-118.1720156"
        },
        "chowchilla library": {
            "latitude": "37.1193886",
            "closest_to": "san bernardino",
            "address": "Chowchilla Branch Madera County Library, Robertson Boulevard, Chowchilla, Madera County, California, 93610, United States of America",
            "locType": "library",
            "blogLinks": [
                "https://en.wikipedia.org/wiki/Reportedly_haunted_locations_in_California"
            ],
            "longitude": "-120.2637864"
        },
        "fontana": {
            "latitude": "34.0922335",
            "closest_to": "san bernardino",
            "address": "Fontana, San Bernardino County, California, United States of America",
            "locType": "city",
            "blogLinks": [
                "http://www.bestplaces.net/city/california/fontana",
                "https://www.nerdwallet.com/blog/mortgages/cities-for-young-families-california/"
            ],
            "longitude": "-117.4350479"
        },
        "los angeles": {
            "latitude": "34.0543942",
            "closest_to": "san bernardino",
            "address": "LA, Los Angeles County, California, United States of America",
            "locType": "city",
            "blogLinks": [
                "http://www.roadsideamerica.com/location/ca",
                "https://en.wikipedia.org/wiki/Reportedly_haunted_locations_in_California",
                "http://www.bestplaces.net/city/california/fontana",
                "https://www.nerdwallet.com/blog/mortgages/cities-for-young-families-california/",
                "http://gocalifornia.about.com/od/topcalifornia/ss/California-Weekend-Getaways-A-to-Z.htm"
            ],
            "longitude": "-118.2439408"
        },
        "sonoma county": {
            "latitude": "38.5110803",
            "closest_to": "sacramento",
            "address": "Sonoma County, California, United States of America",
            "locType": "administrative",
            "blogLinks": [
                "http://gocalifornia.about.com/od/topcalifornia/ss/California-Weekend-Getaways-A-to-Z.htm"
            ],
            "longitude": "-122.8473387"
        },
        "death valley junction": {
            "latitude": "36.3017289",
            "closest_to": "san bernardino",
            "address": "Death Valley Junction, Inyo County, California, United States of America",
            "locType": "hamlet",
            "blogLinks": [
                "https://en.wikipedia.org/wiki/Reportedly_haunted_locations_in_California"
            ],
            "longitude": "-116.4140659"
        },
        "sierras": {
            "latitude": "37.39153875",
            "closest_to": "san bernardino",
            "address": "The Sierras Apartments, Winton, Merced County, California, 95388, United States of America",
            "locType": "residential",
            "blogLinks": [
                "https://www.nerdwallet.com/blog/mortgages/cities-for-young-families-california/",
                "http://gocalifornia.about.com/od/topcalifornia/ss/California-Weekend-Getaways-A-to-Z.htm"
            ],
            "longitude": "-120.612206560096"
        },
        "golden gate": {
            "latitude": "37.8190177",
            "closest_to": "san bernardino",
            "address": "Golden Gate, Golden Gate Bridge, Waldo, Marin County, California, 94965, United States of America",
            "locType": "strait",
            "blogLinks": [
                "https://www.nerdwallet.com/blog/mortgages/cities-for-young-families-california/"
            ],
            "longitude": "-122.4793972"
        },
        "boston": {
            "latitude": "33.696779",
            "closest_to": "san bernardino",
            "address": "Boston, Heritage Park Apartments, El Camino Real, Irvine, Orange County, California, 92604, United States of America",
            "locType": "residential",
            "blogLinks": [
                "https://www.nerdwallet.com/blog/mortgages/cities-for-young-families-california/"
            ],
            "longitude": "-117.7757132"
        },
        "new york": {
            "latitude": "34.0143928",
            "closest_to": "san bernardino",
            "address": "New York, West Covina, Los Angeles County, California, 91792, United States of America",
            "locType": "service",
            "blogLinks": [
                "http://www.sbsun.com/search?text=stabbing&sort=modifiedtime+desc"
            ],
            "longitude": "-117.8984509"
        },
        "redwood city": {
            "latitude": "37.4852152",
            "closest_to": "san bernardino",
            "address": "Redwood City, San Mateo County, California, United States of America",
            "locType": "city",
            "blogLinks": [
                "http://www.roadsideamerica.com/location/ca"
            ],
            "longitude": "-122.2363547"
        },
        "modesto": {
            "latitude": "37.6390972",
            "closest_to": "san bernardino",
            "address": "Modesto, Stanislaus County, California, United States of America",
            "locType": "city",
            "blogLinks": [
                "http://gocalifornia.about.com/od/topcalifornia/ss/California-Weekend-Getaways-A-to-Z.htm"
            ],
            "longitude": "-120.9968781"
        },
        "inglewood": {
            "latitude": "33.9616801",
            "closest_to": "san bernardino",
            "address": "Inglewood, Los Angeles County, California, United States of America",
            "locType": "city",
            "blogLinks": [
                "http://www.roadsideamerica.com/location/ca"
            ],
            "longitude": "-118.353131"
        },
        "united states": {
            "latitude": "36.7014631",
            "closest_to": "san bernardino",
            "address": "California, United States of America",
            "locType": "administrative",
            "blogLinks": [
                "https://en.wikipedia.org/wiki/Reportedly_haunted_locations_in_California",
                "http://gocalifornia.about.com/od/topcalifornia/ss/California-Weekend-Getaways-A-to-Z.htm"
            ],
            "longitude": "-118.7559973"
        },
        "burbank": {
            "latitude": "34.1816482",
            "closest_to": "san bernardino",
            "address": "Burbank, Los Angeles County, California, United States of America",
            "locType": "city",
            "blogLinks": [
                "http://www.roadsideamerica.com/location/ca",
                "http://gocalifornia.about.com/od/topcalifornia/ss/California-Weekend-Getaways-A-to-Z.htm"
            ],
            "longitude": "-118.3258553"
        },
        "monterey": {
            "latitude": "36.5844165",
            "closest_to": "san bernardino",
            "address": "Monterey, Monterey County, California, United States of America",
            "locType": "city",
            "blogLinks": [
                "http://gocalifornia.about.com/od/topcalifornia/ss/California-Weekend-Getaways-A-to-Z.htm"
            ],
            "longitude": "-121.866792846206"
        },
        "benicia": {
            "latitude": "38.049365",
            "closest_to": "san bernardino",
            "address": "Benicia, Solano County, California, United States of America",
            "locType": "administrative",
            "blogLinks": [
                "https://en.wikipedia.org/wiki/Reportedly_haunted_locations_in_California",
                "https://www.nerdwallet.com/blog/mortgages/cities-for-young-families-california/"
            ],
            "longitude": "-122.1585776"
        },
        "sequoia national park": {
            "latitude": "36.49584065",
            "closest_to": "san bernardino",
            "address": "Sequoia National Park, Black Rock Pass Trail, Mineral King, Tulare County, California, United States of America",
            "locType": "national_park",
            "blogLinks": [
                "http://www.roadsideamerica.com/location/ca",
                "http://gocalifornia.about.com/od/topcalifornia/ss/California-Weekend-Getaways-A-to-Z.htm"
            ],
            "longitude": "-118.559919284386"
        },
        "sacramento": {
            "latitude": "38.5815719",
            "closest_to": "san bernardino",
            "address": "Sacramento, Sacramento County, California, United States of America",
            "locType": "city",
            "blogLinks": [
                "https://www.nerdwallet.com/blog/mortgages/cities-for-young-families-california/",
                "http://gocalifornia.about.com/od/topcalifornia/ss/California-Weekend-Getaways-A-to-Z.htm"
            ],
            "longitude": "-121.4943995"
        },
        "highland ave.": {
            "latitude": "34.135757",
            "closest_to": "san bernardino",
            "address": "Highland Avenue, San Bernardino, San Bernardino County, California, 92346, United States of America",
            "locType": "primary",
            "blogLinks": [
                "http://www.inlandempire.com/things-to-do/san-bernardino/"
            ],
            "longitude": "-117.1953088"
        },
        "morro rock": {
            "latitude": "35.369669",
            "closest_to": "san bernardino",
            "address": "Morro Rock, Morro Bay, San Luis Obispo County, California, United States of America",
            "locType": "peak",
            "blogLinks": [
                "http://gocalifornia.about.com/od/topcalifornia/ss/California-Weekend-Getaways-A-to-Z.htm"
            ],
            "longitude": "-120.8676993"
        },
        "pasadena": {
            "latitude": "34.1476452",
            "closest_to": "san bernardino",
            "address": "Pasadena, Los Angeles County, California, United States of America",
            "locType": "city",
            "blogLinks": [
                "http://www.roadsideamerica.com/location/ca",
                "http://gocalifornia.about.com/od/topcalifornia/ss/California-Weekend-Getaways-A-to-Z.htm"
            ],
            "longitude": "-118.1444778"
        },
        "san simeon": {
            "latitude": "35.6438587",
            "closest_to": "san bernardino",
            "address": "San Simeon, San Luis Obispo County, California, United States of America",
            "locType": "hamlet",
            "blogLinks": [
                "http://www.roadsideamerica.com/location/ca"
            ],
            "longitude": "-121.1907532"
        },
        "russian river": {
            "latitude": "38.4825985",
            "closest_to": "sacramento",
            "address": "Russian River, Sonoma County, California, United States of America",
            "locType": "river",
            "blogLinks": [
                "http://gocalifornia.about.com/od/topcalifornia/ss/California-Weekend-Getaways-A-to-Z.htm"
            ],
            "longitude": "-123.0082118"
        },
        "del rey cemetery": {
            "latitude": "36.656079",
            "closest_to": "san bernardino",
            "address": "Del Rey, East Jefferson Avenue, Del Rey, Fresno County, California, 93616, United States of America",
            "locType": "administrative",
            "blogLinks": [
                "https://en.wikipedia.org/wiki/Reportedly_haunted_locations_in_California"
            ],
            "longitude": "-119.599926318969"
        },
        "sunol": {
            "latitude": "37.5943781",
            "closest_to": "san bernardino",
            "address": "Sunol, Alameda County, California, United States of America",
            "locType": "hamlet",
            "blogLinks": [
                "http://www.roadsideamerica.com/location/ca"
            ],
            "longitude": "-121.8885682"
        },
        "alabama": {
            "latitude": "37.413435",
            "closest_to": "san bernardino",
            "address": "Alabama, Rovana, Inyo County, California, United States of America",
            "locType": "residential",
            "blogLinks": [
                "http://www.sbsun.com/search?text=stabbing&sort=modifiedtime+desc"
            ],
            "longitude": "-118.6109719"
        },
        "chino hills": {
            "latitude": "33.9926803",
            "closest_to": "san bernardino",
            "address": "Chino Hills, San Bernardino County, California, United States of America",
            "locType": "city",
            "blogLinks": [
                "http://www.bestplaces.net/city/california/fontana"
            ],
            "longitude": "-117.7600559"
        },
        "santa cruz mountains": {
            "latitude": "37.2188403",
            "closest_to": "san bernardino",
            "address": "Santa Cruz Mountains, Santa Clara County, California, United States of America",
            "locType": "mountain_range",
            "blogLinks": [
                "http://gocalifornia.about.com/od/topcalifornia/ss/California-Weekend-Getaways-A-to-Z.htm"
            ],
            "longitude": "-122.0712855"
        },
        "camp pendleton california": {
            "latitude": "33.2167022",
            "closest_to": "san bernardino",
            "address": "Camp Pendleton Boat Basin, San Diego County, California, United States of America",
            "locType": "dock",
            "blogLinks": [
                "https://en.wikipedia.org/wiki/Reportedly_haunted_locations_in_California"
            ],
            "longitude": "-117.4000394"
        },
        "castroville": {
            "latitude": "36.7657904",
            "closest_to": "san bernardino",
            "address": "Castroville, Monterey County, California, United States of America",
            "locType": "administrative",
            "blogLinks": [
                "http://www.roadsideamerica.com/location/ca"
            ],
            "longitude": "-121.7580049"
        },
        "malibu": {
            "latitude": "33.7932142",
            "closest_to": "san bernardino",
            "address": "Malibu, Palm Springs, Riverside County, California, 92264, United States of America",
            "locType": "residential",
            "blogLinks": [
                "http://www.roadsideamerica.com/location/ca",
                "http://gocalifornia.about.com/od/topcalifornia/ss/California-Weekend-Getaways-A-to-Z.htm"
            ],
            "longitude": "-116.5023561"
        },
        "garberville": {
            "latitude": "40.1005685",
            "closest_to": "sacramento",
            "address": "Garberville, Humboldt County, California, United States of America",
            "locType": "village",
            "blogLinks": [
                "http://www.roadsideamerica.com/location/ca"
            ],
            "longitude": "-123.7961393"
        },
        "minnesota": {
            "latitude": "40.6620938",
            "closest_to": "sacramento",
            "address": "Minnesota, Shasta County, California, United States of America",
            "locType": "hamlet",
            "blogLinks": [
                "http://www.sbsun.com/search?text=stabbing&sort=modifiedtime+desc"
            ],
            "longitude": "-122.488902"
        },
        "sebastopol": {
            "latitude": "38.4021359",
            "closest_to": "sacramento",
            "address": "Sebastopol, Sonoma County, California, United States of America",
            "locType": "city",
            "blogLinks": [
                "http://www.roadsideamerica.com/location/ca",
                "http://gocalifornia.about.com/od/topcalifornia/ss/California-Weekend-Getaways-A-to-Z.htm"
            ],
            "longitude": "-122.8238805"
        },
        "lake county": {
            "latitude": "39.0505411",
            "closest_to": "sacramento",
            "address": "Lake County, California, United States of America",
            "locType": "administrative",
            "blogLinks": [
                "http://gocalifornia.about.com/od/topcalifornia/ss/California-Weekend-Getaways-A-to-Z.htm"
            ],
            "longitude": "-122.7776555"
        },
        "presidio": {
            "latitude": "34.299701",
            "closest_to": "san bernardino",
            "address": "Presidio, Simi Valley, Ventura County, California, 93063, United States of America",
            "locType": "residential",
            "blogLinks": [
                "http://gocalifornia.about.com/od/topcalifornia/ss/California-Weekend-Getaways-A-to-Z.htm"
            ],
            "longitude": "-118.7127949"
        },
        "ventura": {
            "latitude": "34.4458248",
            "closest_to": "san bernardino",
            "address": "Ventura County, California, United States of America",
            "locType": "administrative",
            "blogLinks": [
                "https://en.wikipedia.org/wiki/Reportedly_haunted_locations_in_California",
                "http://gocalifornia.about.com/od/topcalifornia/ss/California-Weekend-Getaways-A-to-Z.htm"
            ],
            "longitude": "-119.0779358"
        },
        "stinson beach": {
            "latitude": "37.9008084",
            "closest_to": "sacramento",
            "address": "Stinson Beach, Marin County, California, United States of America",
            "locType": "hamlet",
            "blogLinks": [
                "https://en.wikipedia.org/wiki/Reportedly_haunted_locations_in_California"
            ],
            "longitude": "-122.64508"
        },
        "long beach": {
            "latitude": "33.78538945",
            "closest_to": "san bernardino",
            "address": "Long Beach, Los Angeles County, California, United States of America",
            "locType": "city",
            "blogLinks": [
                "https://en.wikipedia.org/wiki/Reportedly_haunted_locations_in_California",
                "http://gocalifornia.about.com/od/topcalifornia/ss/California-Weekend-Getaways-A-to-Z.htm"
            ],
            "longitude": "-118.158049215311"
        },
        "mohawk": {
            "latitude": "39.778787",
            "closest_to": "sacramento",
            "address": "Mohawk, Plumas County, California, United States of America",
            "locType": "hamlet",
            "blogLinks": [
                "http://californiathroughmylens.com/route-66-attractions-barstow-victorville"
            ],
            "longitude": "-120.635497"
        },
        "calico": {
            "latitude": "35.6327332",
            "closest_to": "san bernardino",
            "address": "Calico, Kern County, California, United States of America",
            "locType": "locality",
            "blogLinks": [
                "https://en.wikipedia.org/wiki/Reportedly_haunted_locations_in_California"
            ],
            "longitude": "-119.206496"
        },
        "sylmar": {
            "latitude": "34.3076252",
            "closest_to": "san bernardino",
            "address": "Sylmar, LA, Los Angeles County, California, United States of America",
            "locType": "suburb",
            "blogLinks": [
                "http://www.roadsideamerica.com/location/ca"
            ],
            "longitude": "-118.4492147"
        },
        "san bernardino county": {
            "latitude": "34.8253019",
            "closest_to": "san bernardino",
            "address": "San Bernardino County, California, United States of America",
            "locType": "administrative",
            "blogLinks": [
                "http://www.bestplaces.net/city/california/fontana"
            ],
            "longitude": "-116.0833143"
        },
        "lake san antonio": {
            "latitude": "35.84337785",
            "closest_to": "san bernardino",
            "address": "Lake San Antonio, Lynch Road, Pleyto, Monterey County, California, 93426, United States of America",
            "locType": "water",
            "blogLinks": [
                "http://gocalifornia.about.com/od/topcalifornia/ss/California-Weekend-Getaways-A-to-Z.htm"
            ],
            "longitude": "-120.959199367235"
        },
        "forestville": {
            "latitude": "38.4833405",
            "closest_to": "sacramento",
            "address": "Forestville, Trenton Road, Trenton, Sonoma County, California, 95436, United States of America",
            "locType": "administrative",
            "blogLinks": [
                "http://www.roadsideamerica.com/location/ca"
            ],
            "longitude": "-122.861584174866"
        },
        "north hollywood": {
            "latitude": "34.1729044",
            "closest_to": "san bernardino",
            "address": "North Hollywood, LA, Los Angeles County, California, United States of America",
            "locType": "suburb",
            "blogLinks": [
                "http://www.roadsideamerica.com/location/ca"
            ],
            "longitude": "-118.374037"
        },
        "lake shasta": {
            "latitude": "40.7965121",
            "closest_to": "sacramento",
            "address": "Shasta County, California, United States of America",
            "locType": "administrative",
            "blogLinks": [
                "http://gocalifornia.about.com/od/topcalifornia/ss/California-Weekend-Getaways-A-to-Z.htm"
            ],
            "longitude": "-121.9979193"
        },
        "natural bridge.santa cruz": {
            "latitude": "36.9495007",
            "closest_to": "san bernardino",
            "address": "Lookout Parking, Crespi Court, Westside, Santa Cruz, Santa Cruz County, California, 95060, United States of America",
            "locType": "parking",
            "blogLinks": [
                "http://gocalifornia.about.com/od/topcalifornia/ss/California-Weekend-Getaways-A-to-Z.htm"
            ],
            "longitude": "-122.056642291684"
        },
        "juzgado": {
            "latitude": "37.3508453",
            "closest_to": "san bernardino",
            "address": "Hall of Justice, County Jail Access, Civic Center, Japantown, San Jos\u00e9, Santa Clara County, California, 95126, United States of America",
            "locType": "courthouse",
            "blogLinks": [
                "https://en.wikipedia.org/wiki/Reportedly_haunted_locations_in_California"
            ],
            "longitude": "-121.90701244616"
        },
        "antioch": {
            "latitude": "38.0049214",
            "closest_to": "san bernardino",
            "address": "Antioch, Contra Costa County, California, United States of America",
            "locType": "city",
            "blogLinks": [
                "https://en.wikipedia.org/wiki/Reportedly_haunted_locations_in_California"
            ],
            "longitude": "-121.8057889"
        },
        "benicia california": {
            "latitude": "38.049365",
            "closest_to": "san bernardino",
            "address": "Benicia, Solano County, California, United States of America",
            "locType": "administrative",
            "blogLinks": [
                "http://www.sbsun.com/search?text=stabbing&sort=modifiedtime+desc"
            ],
            "longitude": "-122.1585776"
        },
        "golden state": {
            "latitude": "39.6712719",
            "closest_to": "sacramento",
            "address": "Golden State Island, Butte County, California, United States of America",
            "locType": "island",
            "blogLinks": [
                "http://koa.com/states-provinces/california/"
            ],
            "longitude": "-121.9619226"
        },
        "coronado": {
            "latitude": "32.6858854",
            "closest_to": "san bernardino",
            "address": "Coronado, San Diego County, California, United States of America",
            "locType": "city",
            "blogLinks": [
                "https://en.wikipedia.org/wiki/Reportedly_haunted_locations_in_California"
            ],
            "longitude": "-117.183089"
        },
        "chowchilla": {
            "latitude": "37.1123505",
            "closest_to": "san bernardino",
            "address": "Chowchilla, Madera County, California, United States of America",
            "locType": "city",
            "blogLinks": [
                "https://en.wikipedia.org/wiki/Reportedly_haunted_locations_in_California"
            ],
            "longitude": "-120.286426136452"
        },
        "old town": {
            "latitude": "35.142943",
            "closest_to": "san bernardino",
            "address": "Old Town, Golden Hills, Kern County, California, United States of America",
            "locType": "locality",
            "blogLinks": [
                "http://californiathroughmylens.com/route-66-attractions-barstow-victorville",
                "http://gocalifornia.about.com/od/topcalifornia/ss/California-Weekend-Getaways-A-to-Z.htm"
            ],
            "longitude": "-118.4954422"
        },
        "monastery beach": {
            "latitude": "36.5243631",
            "closest_to": "san bernardino",
            "address": "Monastery Beach, Cabrillo Highway, Carmel Highlands, Monterey County, California, 93923, United States of America",
            "locType": "beach",
            "blogLinks": [
                "http://gocalifornia.about.com/od/topcalifornia/ss/California-Weekend-Getaways-A-to-Z.htm"
            ],
            "longitude": "-121.9257984755"
        },
        "guerneville": {
            "latitude": "38.5116609",
            "closest_to": "sacramento",
            "address": "Guerneville, Orchard Road, El Bonita, Sonoma County, California, 95446, United States of America",
            "locType": "administrative",
            "blogLinks": [
                "http://www.roadsideamerica.com/location/ca"
            ],
            "longitude": "-122.987128549631"
        },
        "ferndale": {
            "latitude": "40.5762406",
            "closest_to": "sacramento",
            "address": "Ferndale, Humboldt County, California, United States of America",
            "locType": "city",
            "blogLinks": [
                "http://gocalifornia.about.com/od/topcalifornia/ss/California-Weekend-Getaways-A-to-Z.htm"
            ],
            "longitude": "-124.2639441"
        },
        "cities.long beach": {
            "latitude": "33.8851632",
            "closest_to": "san bernardino",
            "address": "Gateway Cities Council, Jackson Street, Paramount, Los Angeles County, California, 90723, United States of America",
            "locType": "yes",
            "blogLinks": [
                "http://gocalifornia.about.com/od/topcalifornia/ss/California-Weekend-Getaways-A-to-Z.htm"
            ],
            "longitude": "-118.160416016831"
        },
        "monterey bay": {
            "latitude": "36.7999557",
            "closest_to": "san bernardino",
            "address": "Monterey Bay, Monterey County, California, United States of America",
            "locType": "bay",
            "blogLinks": [
                "http://koa.com/states-provinces/california/",
                "http://gocalifornia.about.com/od/topcalifornia/ss/California-Weekend-Getaways-A-to-Z.htm"
            ],
            "longitude": "-121.9010667"
        },
        "huntington beach": {
            "latitude": "33.6783336",
            "closest_to": "san bernardino",
            "address": "Huntington Beach, Orange County, California, United States of America",
            "locType": "city",
            "blogLinks": [
                "http://www.roadsideamerica.com/location/ca"
            ],
            "longitude": "-118.0000165"
        },
        "kettleman city": {
            "latitude": "36.008937",
            "closest_to": "san bernardino",
            "address": "Kettleman City, 7th Street, Kettleman City, Kings County, California, 93239, United States of America",
            "locType": "administrative",
            "blogLinks": [
                "http://www.roadsideamerica.com/location/ca"
            ],
            "longitude": "-119.962676860725"
        },
        "venice": {
            "latitude": "33.995044",
            "closest_to": "san bernardino",
            "address": "Venice, LA, Los Angeles County, California, United States of America",
            "locType": "suburb",
            "blogLinks": [
                "http://www.roadsideamerica.com/location/ca"
            ],
            "longitude": "-118.4668874"
        },
        "badwater": {
            "latitude": "36.2296742",
            "closest_to": "san bernardino",
            "address": "Badwater, Inyo County, California, United States of America",
            "locType": "locality",
            "blogLinks": [
                "http://gocalifornia.about.com/od/topcalifornia/ss/California-Weekend-Getaways-A-to-Z.htm"
            ],
            "longitude": "-116.7669938"
        },
        "us": {
            "latitude": "36.7014631",
            "closest_to": "san bernardino",
            "address": "California, United States of America",
            "locType": "administrative",
            "blogLinks": [
                "https://en.wikipedia.org/wiki/Reportedly_haunted_locations_in_California",
                "http://distancecalculator.globefeed.com/US_Distance_Calculator.asp?state=CA",
                "http://koa.com/states-provinces/california/",
                "http://gocalifornia.about.com/od/topcalifornia/ss/California-Weekend-Getaways-A-to-Z.htm"
            ],
            "longitude": "-118.7559973"
        },
        "boonville": {
            "latitude": "39.0091667",
            "closest_to": "sacramento",
            "address": "Boonville, Mendocino County, California, 95415, United States of America",
            "locType": "village",
            "blogLinks": [
                "http://www.roadsideamerica.com/location/ca"
            ],
            "longitude": "-123.366111"
        },
        "santa fe springs": {
            "latitude": "33.9482434",
            "closest_to": "san bernardino",
            "address": "Santa Fe Springs, Los Angeles County, California, United States of America",
            "locType": "city",
            "blogLinks": [
                "http://www.roadsideamerica.com/location/ca"
            ],
            "longitude": "-118.0676102"
        },
        "california highway one": {
            "latitude": "37.7931799",
            "closest_to": "san bernardino",
            "address": "One California Street Building, 1, California Street, Financial District, SF, California, 94121, United States of America",
            "locType": "yes",
            "blogLinks": [
                "http://gocalifornia.about.com/od/topcalifornia/ss/California-Weekend-Getaways-A-to-Z.htm"
            ],
            "longitude": "-122.397168822203"
        },
        "san rafael": {
            "latitude": "37.9735346",
            "closest_to": "sacramento",
            "address": "San Rafael, Marin County, California, United States of America",
            "locType": "city",
            "blogLinks": [
                "http://www.roadsideamerica.com/location/ca"
            ],
            "longitude": "-122.5310873"
        },
        "columbus": {
            "latitude": "33.5188188",
            "closest_to": "san bernardino",
            "address": "Columbus, Laguna Niguel, Orange County, California, 92677, United States of America",
            "locType": "residential",
            "blogLinks": [
                "http://gocalifornia.about.com/od/topcalifornia/ss/California-Weekend-Getaways-A-to-Z.htm"
            ],
            "longitude": "-117.6826955"
        },
        "lake arrowhead": {
            "latitude": "34.2592869",
            "closest_to": "san bernardino",
            "address": "Lake Arrowhead, Shelter Cove Lane, North Shore, San Bernardino County, California, 92407, United States of America",
            "locType": "water",
            "blogLinks": [
                "https://www.nerdwallet.com/blog/mortgages/cities-for-young-families-california/"
            ],
            "longitude": "-117.185753981831"
        },
        "rose hill cemetery": {
            "latitude": "39.1898933",
            "closest_to": "sacramento",
            "address": "Rose Hill, Yuba County, California, United States of America",
            "locType": "peak",
            "blogLinks": [
                "https://en.wikipedia.org/wiki/Reportedly_haunted_locations_in_California"
            ],
            "longitude": "-121.3124589"
        },
        "moreno valley": {
            "latitude": "33.937517",
            "closest_to": "san bernardino",
            "address": "Moreno Valley, Riverside County, California, United States of America",
            "locType": "city",
            "blogLinks": [
                "https://www.nerdwallet.com/blog/mortgages/cities-for-young-families-california/"
            ],
            "longitude": "-117.2305943"
        },
        "sonoma": {
            "latitude": "38.5110803",
            "closest_to": "sacramento",
            "address": "Sonoma County, California, United States of America",
            "locType": "administrative",
            "blogLinks": [
                "http://gocalifornia.about.com/od/topcalifornia/ss/California-Weekend-Getaways-A-to-Z.htm"
            ],
            "longitude": "-122.8473387"
        },
        "baldwin park": {
            "latitude": "34.0854739",
            "closest_to": "san bernardino",
            "address": "Baldwin Park, Los Angeles County, California, United States of America",
            "locType": "city",
            "blogLinks": [
                "http://www.roadsideamerica.com/location/ca"
            ],
            "longitude": "-117.961176"
        },
        "brookdale": {
            "latitude": "37.107917",
            "closest_to": "san bernardino",
            "address": "Brookdale, Santa Cruz County, California, United States of America",
            "locType": "village",
            "blogLinks": [
                "https://en.wikipedia.org/wiki/Reportedly_haunted_locations_in_California"
            ],
            "longitude": "-122.1086838"
        },
        "london": {
            "latitude": "36.4760619",
            "closest_to": "san bernardino",
            "address": "London, Tulare County, California, United States of America",
            "locType": "village",
            "blogLinks": [
                "http://www.roadsideamerica.com/location/ca"
            ],
            "longitude": "-119.4431784"
        },
        "chinatown.los angeles": {
            "latitude": "34.0638128",
            "closest_to": "san bernardino",
            "address": "Chinatown, College Street, Naud Junction, Little Tokyo Historic District, LA, Los Angeles County, California, 90012, United States of America",
            "locType": "station",
            "blogLinks": [
                "http://gocalifornia.about.com/od/topcalifornia/ss/California-Weekend-Getaways-A-to-Z.htm"
            ],
            "longitude": "-118.2359234"
        },
        "santa catalina island": {
            "latitude": "33.3890232",
            "closest_to": "san bernardino",
            "address": "Santa Catalina Island, Los Angeles County, California, United States of America",
            "locType": "island",
            "blogLinks": [
                "https://en.wikipedia.org/wiki/Reportedly_haunted_locations_in_California"
            ],
            "longitude": "-118.424154004558"
        },
        "folsom": {
            "latitude": "38.6779591",
            "closest_to": "san bernardino",
            "address": "Folsom, Sacramento County, California, United States of America",
            "locType": "city",
            "blogLinks": [
                "https://www.nerdwallet.com/blog/mortgages/cities-for-young-families-california/"
            ],
            "longitude": "-121.1760582"
        },
        "south lake tahoe": {
            "latitude": "38.929125",
            "closest_to": "san bernardino",
            "address": "South Lake Tahoe, El Dorado County, California, United States of America",
            "locType": "city",
            "blogLinks": [
                "http://www.roadsideamerica.com/location/ca"
            ],
            "longitude": "-119.987846390157"
        },
        "newport beach": {
            "latitude": "33.6170092",
            "closest_to": "san bernardino",
            "address": "Newport Beach, Orange County, California, United States of America",
            "locType": "city",
            "blogLinks": [
                "http://www.roadsideamerica.com/location/ca",
                "http://gocalifornia.about.com/od/topcalifornia/ss/California-Weekend-Getaways-A-to-Z.htm"
            ],
            "longitude": "-117.92944"
        },
        "pacifica": {
            "latitude": "37.6138253",
            "closest_to": "san bernardino",
            "address": "Pacifica, San Mateo County, California, United States of America",
            "locType": "city",
            "blogLinks": [
                "http://www.roadsideamerica.com/location/ca"
            ],
            "longitude": "-122.4869193"
        },
        "tulelake": {
            "latitude": "41.9559885",
            "closest_to": "sacramento",
            "address": "Tulelake, Siskiyou County, California, United States of America",
            "locType": "city",
            "blogLinks": [
                "http://www.roadsideamerica.com/location/ca"
            ],
            "longitude": "-121.4774915"
        },
        "hopland": {
            "latitude": "38.9729542",
            "closest_to": "sacramento",
            "address": "Hopland, Mendocino County, California, United States of America",
            "locType": "hamlet",
            "blogLinks": [
                "http://www.roadsideamerica.com/location/ca"
            ],
            "longitude": "-123.1163917"
        },
        "' death valley": {
            "latitude": "36.42404725",
            "closest_to": "san bernardino",
            "address": "Death Valley, Timbisha, Inyo County, California, 92328, United States of America",
            "locType": "desert",
            "blogLinks": [
                "http://gocalifornia.about.com/od/topcalifornia/ss/California-Weekend-Getaways-A-to-Z.htm"
            ],
            "longitude": "-116.914043572057"
        },
        "mokelumne hill": {
            "latitude": "38.3013435",
            "closest_to": "san bernardino",
            "address": "Mokelumne Hill, Campo Seco Turnpike, Mokelumne Hill, Calaveras County, California, 95245, United States of America",
            "locType": "administrative",
            "blogLinks": [
                "https://en.wikipedia.org/wiki/Reportedly_haunted_locations_in_California"
            ],
            "longitude": "-120.711143743929"
        },
        "palm desert": {
            "latitude": "33.7288179",
            "closest_to": "san bernardino",
            "address": "Palm Desert, Riverside County, California, United States of America",
            "locType": "city",
            "blogLinks": [
                "http://www.bestplaces.net/city/california/fontana"
            ],
            "longitude": "-116.382571"
        },
        "bakersfield": {
            "latitude": "35.3738712",
            "closest_to": "san bernardino",
            "address": "Bakersfield, Kern County, California, United States of America",
            "locType": "city",
            "blogLinks": [
                "http://www.roadsideamerica.com/location/ca",
                "https://en.wikipedia.org/wiki/Reportedly_haunted_locations_in_California",
                "http://gocalifornia.about.com/od/topcalifornia/ss/California-Weekend-Getaways-A-to-Z.htm"
            ],
            "longitude": "-119.0194638"
        },
        "san quentin": {
            "latitude": "37.9413133",
            "closest_to": "sacramento",
            "address": "San Quentin, Marin County, California, United States of America",
            "locType": "hamlet",
            "blogLinks": [
                "http://www.roadsideamerica.com/location/ca"
            ],
            "longitude": "-122.4849738"
        },
        "mendocino botanical garden": {
            "latitude": "39.4083606",
            "closest_to": "sacramento",
            "address": "Mendocino Coast Botanical Gardens, 18220, Shore Trail, Noyo, Mendocino County, California, 95420, United States of America",
            "locType": "garden",
            "blogLinks": [
                "http://gocalifornia.about.com/od/topcalifornia/ss/California-Weekend-Getaways-A-to-Z.htm"
            ],
            "longitude": "-123.815650611292"
        },
        "hollywood hills": {
            "latitude": "34.1311792",
            "closest_to": "san bernardino",
            "address": "Hollywood Hills, LA, Los Angeles County, California, United States of America",
            "locType": "suburb",
            "blogLinks": [
                "https://en.wikipedia.org/wiki/Reportedly_haunted_locations_in_California"
            ],
            "longitude": "-118.3355473"
        },
        "murrieta-riverside county": {
            "latitude": "33.560832",
            "closest_to": "san bernardino",
            "address": "Murrieta, Riverside County, California, United States of America",
            "locType": "city",
            "blogLinks": [
                "https://www.nerdwallet.com/blog/mortgages/cities-for-young-families-california/"
            ],
            "longitude": "-117.2106563"
        },
        "monterey peninsula": {
            "latitude": "36.5878734",
            "closest_to": "san bernardino",
            "address": "Monterey Regional Airport, Airport Road, Seaside, Del Monte Heights, Monterey County, California, 93940, United States of America",
            "locType": "aerodrome",
            "blogLinks": [
                "http://gocalifornia.about.com/od/topcalifornia/ss/California-Weekend-Getaways-A-to-Z.htm"
            ],
            "longitude": "-121.843618374407"
        },
        "san diego.los angeles": {
            "latitude": "33.9282867",
            "closest_to": "san bernardino",
            "address": "California Baptist University, Magnolia Avenue, Riverside, Riverside County, California, 92879, United States of America",
            "locType": "university",
            "blogLinks": [
                "http://gocalifornia.about.com/od/topcalifornia/ss/California-Weekend-Getaways-A-to-Z.htm"
            ],
            "longitude": "-117.427248540447"
        },
        "pearl st. napa": {
            "latitude": "38.3003697",
            "closest_to": "sacramento",
            "address": "Pearl Street, Napa, Napa County, California, 94559, United States of America",
            "locType": "residential",
            "blogLinks": [
                "https://en.wikipedia.org/wiki/Reportedly_haunted_locations_in_California"
            ],
            "longitude": "-122.2870788"
        },
        "san carlos": {
            "latitude": "37.4982065",
            "closest_to": "san bernardino",
            "address": "San Carlos, San Mateo County, California, United States of America",
            "locType": "city",
            "blogLinks": [
                "http://www.roadsideamerica.com/location/ca"
            ],
            "longitude": "-122.266149723864"
        },
        "napa": {
            "latitude": "38.2971367",
            "closest_to": "sacramento",
            "address": "Napa, Napa County, California, United States of America",
            "locType": "city",
            "blogLinks": [
                "https://en.wikipedia.org/wiki/Reportedly_haunted_locations_in_California",
                "http://gocalifornia.about.com/od/topcalifornia/ss/California-Weekend-Getaways-A-to-Z.htm"
            ],
            "longitude": "-122.2855292"
        },
        "hawk tower": {
            "latitude": "36.5419056",
            "closest_to": "san bernardino",
            "address": "Hawk Tower, Stewart Way, Pebble Beach, Monterey County, California, 93923, United States of America",
            "locType": "yes",
            "blogLinks": [
                "https://en.wikipedia.org/wiki/Reportedly_haunted_locations_in_California"
            ],
            "longitude": "-121.9310658"
        },
        "vogue": {
            "latitude": "34.0909877",
            "closest_to": "san bernardino",
            "address": "North Vogue Avenue, Covina, Los Angeles County, California, 91722, United States of America",
            "locType": "residential",
            "blogLinks": [
                "https://en.wikipedia.org/wiki/Reportedly_haunted_locations_in_California"
            ],
            "longitude": "-117.9152754"
        },
        "rancho": {
            "latitude": "33.77933665",
            "closest_to": "san bernardino",
            "address": "El Rancho, San Jacinto, Riverside County, California, 92583, United States of America",
            "locType": "residential",
            "blogLinks": [
                "http://californiathroughmylens.com/route-66-attractions-barstow-victorville"
            ],
            "longitude": "-116.961064091183"
        },
        "shasta country": {
            "latitude": "33.7193126",
            "closest_to": "san bernardino",
            "address": "Shasta Lane, Indian Wells Country Club, Indian Wells, Riverside County, California, 92210, United States of America",
            "locType": "residential",
            "blogLinks": [
                "http://gocalifornia.about.com/od/topcalifornia/ss/California-Weekend-Getaways-A-to-Z.htm"
            ],
            "longitude": "-116.318828"
        },
        "castle park": {
            "latitude": "32.6103329",
            "closest_to": "san bernardino",
            "address": "Castle Park, San Diego County, California, United States of America",
            "locType": "hamlet",
            "blogLinks": [
                "https://www.nerdwallet.com/blog/mortgages/cities-for-young-families-california/"
            ],
            "longitude": "-117.0675277"
        },
        "tomales bay": {
            "latitude": "38.0812158",
            "closest_to": "sacramento",
            "address": "Tomales Bay, Bivalve, Marin County, California, 94948, United States of America",
            "locType": "path",
            "blogLinks": [
                "http://gocalifornia.about.com/od/topcalifornia/ss/California-Weekend-Getaways-A-to-Z.htm"
            ],
            "longitude": "-122.8225806"
        },
        "hollywood bowl": {
            "latitude": "34.1121836",
            "closest_to": "san bernardino",
            "address": "Hollywood Bowl, Los Tilos Road, Whitley Heights, LA, Los Angeles County, California, 90068, United States of America",
            "locType": "theatre",
            "blogLinks": [
                "http://gocalifornia.about.com/od/topcalifornia/ss/California-Weekend-Getaways-A-to-Z.htm"
            ],
            "longitude": "-118.339277261641"
        },
        "chowchilla california": {
            "latitude": "37.1123505",
            "closest_to": "san bernardino",
            "address": "Chowchilla, Madera County, California, United States of America",
            "locType": "city",
            "blogLinks": [
                "https://en.wikipedia.org/wiki/Reportedly_haunted_locations_in_California"
            ],
            "longitude": "-120.286426136452"
        },
        "america": {
            "latitude": "36.2573198",
            "closest_to": "san bernardino",
            "address": "America, Kings County, California, 93246, United States of America",
            "locType": "residential",
            "blogLinks": [
                "http://www.roadsideamerica.com/location/ca",
                "https://en.wikipedia.org/wiki/Reportedly_haunted_locations_in_California",
                "http://www.inlandempire.com/things-to-do/san-bernardino/",
                "http://gocalifornia.about.com/od/topcalifornia/ss/California-Weekend-Getaways-A-to-Z.htm"
            ],
            "longitude": "-119.8948706"
        },
        "willow creek": {
            "latitude": "40.9395774",
            "closest_to": "sacramento",
            "address": "Willow Creek, Humboldt County, California, United States of America",
            "locType": "hamlet",
            "blogLinks": [
                "http://www.roadsideamerica.com/location/ca"
            ],
            "longitude": "-123.6314411"
        },
        "palo alto": {
            "latitude": "37.442156",
            "closest_to": "san bernardino",
            "address": "Palo Alto, Santa Clara County, California, United States of America",
            "locType": "city",
            "blogLinks": [
                "http://www.roadsideamerica.com/location/ca"
            ],
            "longitude": "-122.1634471"
        },
        "mother road": {
            "latitude": "33.8058766",
            "closest_to": "san bernardino",
            "address": "Route 66, Anaheim Resort District, Anaheim, Orange County, California, 92802, United States of America",
            "locType": "living_street",
            "blogLinks": [
                "https://en.wikipedia.org/wiki/Reportedly_haunted_locations_in_California"
            ],
            "longitude": "-117.9189801"
        },
        "glendora": {
            "latitude": "34.1361187",
            "closest_to": "san bernardino",
            "address": "Glendora, Los Angeles County, California, United States of America",
            "locType": "city",
            "blogLinks": [
                "http://www.roadsideamerica.com/location/ca"
            ],
            "longitude": "-117.8653389"
        },
        "golden gate park": {
            "latitude": "37.7693681",
            "closest_to": "san bernardino",
            "address": "Golden Gate Park, Overlook Drive, Richmond District, SF, California, 94122, United States of America",
            "locType": "park",
            "blogLinks": [
                "https://en.wikipedia.org/wiki/Reportedly_haunted_locations_in_California"
            ],
            "longitude": "-122.482183611177"
        },
        "inland empire": {
            "latitude": "33.73849885",
            "closest_to": "san bernardino",
            "address": "Inland Empire Energy Center, Romoland, Riverside County, California, 92585, United States of America",
            "locType": "industrial",
            "blogLinks": [
                "http://www.bestplaces.net/city/california/fontana",
                "http://www.inlandempire.com/things-to-do/san-bernardino/"
            ],
            "longitude": "-117.16947092864"
        },
        "peninsula": {
            "latitude": "33.5987849",
            "closest_to": "san bernardino",
            "address": "Peninsula, Corona del Mar, Newport Beach, Orange County, California, 92657, United States of America",
            "locType": "residential",
            "blogLinks": [
                "https://www.nerdwallet.com/blog/mortgages/cities-for-young-families-california/"
            ],
            "longitude": "-117.830566223937"
        },
        "west hollywood": {
            "latitude": "34.0900091",
            "closest_to": "san bernardino",
            "address": "West Hollywood, Los Angeles County, California, United States of America",
            "locType": "city",
            "blogLinks": [
                "https://en.wikipedia.org/wiki/Reportedly_haunted_locations_in_California",
                "http://gocalifornia.about.com/od/topcalifornia/ss/California-Weekend-Getaways-A-to-Z.htm"
            ],
            "longitude": "-118.3617442"
        },
        "altadena": {
            "latitude": "34.1863161",
            "closest_to": "san bernardino",
            "address": "Altadena, Los Angeles County, California, United States of America",
            "locType": "town",
            "blogLinks": [
                "https://en.wikipedia.org/wiki/Reportedly_haunted_locations_in_California"
            ],
            "longitude": "-118.1352328"
        },
        "camp pendleton": {
            "latitude": "33.2167022",
            "closest_to": "san bernardino",
            "address": "Camp Pendleton Boat Basin, San Diego County, California, United States of America",
            "locType": "dock",
            "blogLinks": [
                "https://en.wikipedia.org/wiki/Reportedly_haunted_locations_in_California"
            ],
            "longitude": "-117.4000394"
        },
        "la": {
            "latitude": "36.7014631",
            "closest_to": "san bernardino",
            "address": "California, United States of America",
            "locType": "administrative",
            "blogLinks": [
                "http://www.bestplaces.net/city/california/fontana",
                "https://www.nerdwallet.com/blog/mortgages/cities-for-young-families-california/",
                "http://gocalifornia.about.com/od/topcalifornia/ss/California-Weekend-Getaways-A-to-Z.htm"
            ],
            "longitude": "-118.7559973"
        },
        "hollywood": {
            "latitude": "34.1028268",
            "closest_to": "san bernardino",
            "address": "Hollywood, LA, Los Angeles County, California, United States of America",
            "locType": "suburb",
            "blogLinks": [
                "http://www.roadsideamerica.com/location/ca",
                "https://en.wikipedia.org/wiki/Reportedly_haunted_locations_in_California",
                "http://gocalifornia.about.com/od/topcalifornia/ss/California-Weekend-Getaways-A-to-Z.htm"
            ],
            "longitude": "-118.3299898"
        },
        "little tokyo": {
            "latitude": "34.0482697",
            "closest_to": "san bernardino",
            "address": "Little Tokyo, Little Tokyo Historic District, LA, Los Angeles County, California, 90013, United States of America",
            "locType": "neighbourhood",
            "blogLinks": [
                "http://gocalifornia.about.com/od/topcalifornia/ss/California-Weekend-Getaways-A-to-Z.htm"
            ],
            "longitude": "-118.2417215"
        },
        "lompoc": {
            "latitude": "34.6391501",
            "closest_to": "san bernardino",
            "address": "Lompoc, Santa Barbara County, California, United States of America",
            "locType": "city",
            "blogLinks": [
                "https://en.wikipedia.org/wiki/Reportedly_haunted_locations_in_California"
            ],
            "longitude": "-120.4579408"
        },
        "san joaquin valley": {
            "latitude": "37.9372901",
            "closest_to": "san bernardino",
            "address": "San Joaquin County, California, United States of America",
            "locType": "administrative",
            "blogLinks": [
                "https://www.nerdwallet.com/blog/mortgages/cities-for-young-families-california/"
            ],
            "longitude": "-121.2773718"
        },
        "hilton san bernardino": {
            "latitude": "34.1096444",
            "closest_to": "san bernardino",
            "address": "Hilton Drive Industrial Park, Fontana, San Bernardino County, California, 92336, United States of America",
            "locType": "commercial",
            "blogLinks": [
                "http://www.inlandempire.com/things-to-do/san-bernardino/"
            ],
            "longitude": "-117.480020994389"
        },
        "nevada city": {
            "latitude": "39.2615606",
            "closest_to": "sacramento",
            "address": "Nevada City, Nevada County, California, United States of America",
            "locType": "city",
            "blogLinks": [
                "https://en.wikipedia.org/wiki/Reportedly_haunted_locations_in_California"
            ],
            "longitude": "-121.0160593"
        },
        "antique station": {
            "latitude": "38.56593065",
            "closest_to": "san bernardino",
            "address": "57th Street Antique Mall, Sacramento, Sacramento County, California, 95819, United States of America",
            "locType": "retail",
            "blogLinks": [
                "http://californiathroughmylens.com/route-66-attractions-barstow-victorville"
            ],
            "longitude": "-121.432587801138"
        },
        "northern california": {
            "latitude": "32.7349196",
            "closest_to": "san bernardino",
            "address": "Northern Frontier, San Diego, San Diego County, California, United States of America",
            "locType": "locality",
            "blogLinks": [
                "http://koa.com/states-provinces/california/",
                "http://gocalifornia.about.com/od/topcalifornia/ss/California-Weekend-Getaways-A-to-Z.htm"
            ],
            "longitude": "-117.1545973"
        },
        "balboa peninsula": {
            "latitude": "33.5975",
            "closest_to": "san bernardino",
            "address": "Balboa Peninsula, Newport Beach, Orange County, California, United States of America",
            "locType": "suburb",
            "blogLinks": [
                "http://gocalifornia.about.com/od/topcalifornia/ss/California-Weekend-Getaways-A-to-Z.htm"
            ],
            "longitude": "-117.8860521"
        },
        "agua mansa pioneer cemetery": {
            "latitude": "34.0415618",
            "closest_to": "san bernardino",
            "address": "Agua Mansa Pioneer Cemetery, 2001, Agua Mansa Road, Colton, San Bernardino County, California, 92324, United States of America",
            "locType": "memorial",
            "blogLinks": [
                "https://en.wikipedia.org/wiki/Reportedly_haunted_locations_in_California"
            ],
            "longitude": "-117.364453265289"
        },
        "san francisco bay": {
            "latitude": "37.708264",
            "closest_to": "san bernardino",
            "address": "San Francisco Bay, Ferry Landing, Alameda, Alameda County, California, 94502, United States of America",
            "locType": "bay",
            "blogLinks": [
                "https://en.wikipedia.org/wiki/Reportedly_haunted_locations_in_California"
            ],
            "longitude": "-122.2802469"
        },
        "stater bros.": {
            "latitude": "33.9160206",
            "closest_to": "san bernardino",
            "address": "Stater Bros, Bridgepoint Court, Tiburon, Riverside, Riverside County, California, 92505, United States of America",
            "locType": "supermarket",
            "blogLinks": [
                "http://www.inlandempire.com/things-to-do/san-bernardino/"
            ],
            "longitude": "-117.4875587"
        },
        "mendocino": {
            "latitude": "39.3176491",
            "closest_to": "sacramento",
            "address": "Mendocino County, California, United States of America",
            "locType": "administrative",
            "blogLinks": [
                "http://gocalifornia.about.com/od/topcalifornia/ss/California-Weekend-Getaways-A-to-Z.htm"
            ],
            "longitude": "-123.4126398"
        },
        "orange county": {
            "latitude": "33.7500378",
            "closest_to": "san bernardino",
            "address": "Orange County, California, United States of America",
            "locType": "administrative",
            "blogLinks": [
                "http://gocalifornia.about.com/od/topcalifornia/ss/California-Weekend-Getaways-A-to-Z.htm"
            ],
            "longitude": "-117.870493"
        },
        "santa ynez valley": {
            "latitude": "34.608637",
            "closest_to": "san bernardino",
            "address": "Santa Ynez, Stadium Place, Santa Ynez, Santa Barbara County, California, 93463, United States of America",
            "locType": "administrative",
            "blogLinks": [
                "http://gocalifornia.about.com/od/topcalifornia/ss/California-Weekend-Getaways-A-to-Z.htm"
            ],
            "longitude": "-120.104677321497"
        },
        "xa0in lake forest": {
            "latitude": "33.6469261",
            "closest_to": "san bernardino",
            "address": "Lake Forest, Orange County, California, United States of America",
            "locType": "city",
            "blogLinks": [
                "https://www.nerdwallet.com/blog/mortgages/cities-for-young-families-california/"
            ],
            "longitude": "-117.6859212"
        },
        "lesher center": {
            "latitude": "37.90091195",
            "closest_to": "san bernardino",
            "address": "Lesher Center for the Arts, 1601, Civic Drive, Walnut Creek, Contra Costa County, California, 94596, United States of America",
            "locType": "theatre",
            "blogLinks": [
                "https://www.nerdwallet.com/blog/mortgages/cities-for-young-families-california/"
            ],
            "longitude": "-122.063456815073"
        },
        "nordhoff cemetery": {
            "latitude": "34.445491",
            "closest_to": "san bernardino",
            "address": "Nordhoff Cemetery, Del Norte Road, Arbolada, Ventura County, California, 93023, United States of America",
            "locType": "grave_yard",
            "blogLinks": [
                "https://en.wikipedia.org/wiki/Reportedly_haunted_locations_in_California"
            ],
            "longitude": "-119.26059588403"
        },
        "san andreas fault": {
            "latitude": "37.3266078",
            "closest_to": "san bernardino",
            "address": "San Andreas Fault, Franciscan Loop Trail, Los Trancos Woods, San Mateo County, California, United States of America",
            "locType": "fault",
            "blogLinks": [
                "http://gocalifornia.about.com/od/topcalifornia/ss/California-Weekend-Getaways-A-to-Z.htm"
            ],
            "longitude": "-122.1794844"
        },
        "jackson california": {
            "latitude": "38.3488024",
            "closest_to": "san bernardino",
            "address": "Jackson, Amador County, California, United States of America",
            "locType": "village",
            "blogLinks": [
                "https://en.wikipedia.org/wiki/Reportedly_haunted_locations_in_California"
            ],
            "longitude": "-120.7741017"
        },
        "catalina island california": {
            "latitude": "33.3890232",
            "closest_to": "san bernardino",
            "address": "Santa Catalina Island, Los Angeles County, California, United States of America",
            "locType": "island",
            "blogLinks": [
                "https://en.wikipedia.org/wiki/Reportedly_haunted_locations_in_California"
            ],
            "longitude": "-118.424154004558"
        },