{
    "stockton": {
        "type": "city",
        "osm_id": "112382",
        "class": "place",
        "importance": 0.7132631887217,
        "lat": "37.9577016",
        "lon": "-121.2907795",
        "boundingbox": [
            "37.887747",
            "38.0583",
            "-121.4197359",
            "-121.1840371"
        ],
        "display_name": "Stockton, San Joaquin County, California, United States of America",
        "licence": "Data \u00a9 OpenStreetMap contributors, ODbL 1.0. http://www.openstreetmap.org/copyright",
        "icon": "https://nominatim.openstreetmap.org/images/mapicons/poi_place_city.p.20.png",
        "place_id": "157785814",
        "osm_type": "relation"
    },
    "mentions": {
        "antioch": {
            "latitude": "38.0049214",
            "closest_to": "stockton",
            "address": "Antioch, Contra Costa County, California, United States of America",
            "locType": "city",
            "blogLinks": [
                "https://www.tripadvisor.com/ShowTopic-g60713-i30-k5261581-Scenic_Route_from_San_Francisco_to_Sacramento-San_Francisco_California.html"
            ],
            "longitude": "-121.8057889"
        },
        "san joaquin valley": {
            "latitude": "37.9372901",
            "closest_to": "stockton",
            "address": "San Joaquin County, California, United States of America",
            "locType": "administrative",
            "blogLinks": [
                "http://traveltips.usatoday.com/driving-sacramento-los-angeles-108352.html"
            ],
            "longitude": "-121.2773718"
        },
        "thornton rd": {
            "latitude": "38.022652",
            "closest_to": "stockton",
            "address": "Thornton Road, Stockton, San Joaquin County, California, 95207, United States of America",
            "locType": "secondary",
            "blogLinks": [
                "https://www.wildlife.ca.gov/Lands/Places-to-Visit/Cosumnes-River-ER"
            ],
            "longitude": "-121.3266819"
        },
        "putah creek cafe": {
            "latitude": "38.5219179",
            "closest_to": "sacramento",
            "address": "Putah Creek Cafe, Main Street, Winters, Yolo County, California, 95694, United States of America",
            "locType": "restaurant",
            "blogLinks": [
                "http://sacramento.cbslocal.com/top-lists/the-scenic-drives-within-60-miles-of-sacramento/"
            ],
            "longitude": "-121.9690811"
        },
        "central california": {
            "latitude": "38.392688",
            "closest_to": "stockton",
            "address": "Central, Yolo County, California, United States of America",
            "locType": "hamlet",
            "blogLinks": [
                "http://www.bestplaces.net/city/california/stockton",
                "http://blogs.esanjoaquin.com/valleytravel/"
            ],
            "longitude": "-121.573011"
        },
        "fiddletown road": {
            "latitude": "38.499907",
            "closest_to": "sacramento",
            "address": "Fiddletown Road, Fiddletown, Amador County, California, 95629, United States of America",
            "locType": "tertiary",
            "blogLinks": [
                "http://blogs.esanjoaquin.com/valleytravel/"
            ],
            "longitude": "-120.7416099"
        },
        "desmond road": {
            "latitude": "38.2758785",
            "closest_to": "stockton",
            "address": "Desmond Road, Sacramento County, California, United States of America",
            "locType": "residential",
            "blogLinks": [
                "https://www.wildlife.ca.gov/Lands/Places-to-Visit/Cosumnes-River-ER"
            ],
            "longitude": "-121.4390241"
        },
        "mokelumne city": {
            "latitude": "38.2529704",
            "closest_to": "stockton",
            "address": "Mokelumne City, San Joaquin County, California, United States of America",
            "locType": "hamlet",
            "blogLinks": [
                "http://blogs.esanjoaquin.com/valleytravel/"
            ],
            "longitude": "-121.4391181"
        },
        "oxford circle": {
            "latitude": "37.9712385",
            "closest_to": "stockton",
            "address": "Oxford Circle, Stockton, San Joaquin County, California, 95204, United States of America",
            "locType": "residential",
            "blogLinks": [
                "http://blogs.esanjoaquin.com/valleytravel/"
            ],
            "longitude": "-121.308029593409"
        },
        "placerville": {
            "latitude": "38.7296252",
            "closest_to": "sacramento",
            "address": "Placerville, El Dorado County, California, United States of America",
            "locType": "city",
            "blogLinks": [
                "http://sacramento.cbslocal.com/top-lists/the-scenic-drives-within-60-miles-of-sacramento/"
            ],
            "longitude": "-120.7985459"
        },
        "cosumnes river": {
            "latitude": "38.2566724",
            "closest_to": "stockton",
            "address": "Cosumnes River, Sacramento County, California, United States of America",
            "locType": "river",
            "blogLinks": [
                "https://www.wildlife.ca.gov/Lands/Places-to-Visit/Cosumnes-River-ER",
                "http://blogs.esanjoaquin.com/valleytravel/"
            ],
            "longitude": "-121.4384786"
        },
        "lodi": {
            "latitude": "38.097198",
            "closest_to": "stockton",
            "address": "Lodi, San Joaquin County, California, United States of America",
            "locType": "city",
            "blogLinks": [
                "http://www.bestplaces.net/city/california/stockton",
                "http://traveltips.usatoday.com/driving-sacramento-los-angeles-108352.html",
                "http://blogs.esanjoaquin.com/valleytravel/",
                "http://www.visitcentralvalley.com/places/"
            ],
            "longitude": "-121.387849546574"
        },
        "trinity parkway": {
            "latitude": "38.0533353",
            "closest_to": "stockton",
            "address": "Trinity Parkway, Stockton, San Joaquin County, California, 95209, United States of America",
            "locType": "residential",
            "blogLinks": [
                "http://blogs.esanjoaquin.com/valleytravel/"
            ],
            "longitude": "-121.3752466"
        },
        "west sacramento": {
            "latitude": "38.5804609",
            "closest_to": "sacramento",
            "address": "West Sacramento, Yolo County, California, United States of America",
            "locType": "city",
            "blogLinks": [
                "http://www.visitcentralvalley.com/places/"
            ],
            "longitude": "-121.5302339"
        },
        "plymouth": {
            "latitude": "38.4818531",
            "closest_to": "stockton",
            "address": "Plymouth, Amador County, California, United States of America",
            "locType": "city",
            "blogLinks": [
                "http://blogs.esanjoaquin.com/valleytravel/"
            ],
            "longitude": "-120.8446589"
        },
        "stockton": {
            "latitude": "37.9577016",
            "closest_to": "stockton",
            "address": "Stockton, San Joaquin County, California, United States of America",
            "locType": "city",
            "blogLinks": [
                "http://www.bestplaces.net/city/california/stockton",
                "https://www.wildlife.ca.gov/Lands/Places-to-Visit/Sacramento-Bypass-WA",
                "http://blogs.esanjoaquin.com/valleytravel/",
                "http://www.visitstockton.org/things-to-do/"
            ],
            "longitude": "-121.2907795"
        },
        "lodi lake park": {
            "latitude": "38.147974",
            "closest_to": "stockton",
            "address": "Lodi Lake Park, Turner Road, Lodi, San Joaquin County, California, 95241, United States of America",
            "locType": "park",
            "blogLinks": [
                "http://blogs.esanjoaquin.com/valleytravel/"
            ],
            "longitude": "-121.2991146"
        },
        "san joaquin county": {
            "latitude": "37.9372901",
            "closest_to": "stockton",
            "address": "San Joaquin County, California, United States of America",
            "locType": "administrative",
            "blogLinks": [
                "http://blogs.esanjoaquin.com/valleytravel/",
                "http://www.visitcentralvalley.com/places/"
            ],
            "longitude": "-121.2773718"
        },
        "joaquin county": {
            "latitude": "37.9372901",
            "closest_to": "stockton",
            "address": "San Joaquin County, California, United States of America",
            "locType": "administrative",
            "blogLinks": [
                "http://www.visitcentralvalley.com/places/"
            ],
            "longitude": "-121.2773718"
        },
        "sutter creek": {
            "latitude": "38.3929675",
            "closest_to": "stockton",
            "address": "Sutter Creek, Amador County, California, United States of America",
            "locType": "city",
            "blogLinks": [
                "http://blogs.esanjoaquin.com/valleytravel/"
            ],
            "longitude": "-120.8024356"
        },
        "shenandoah valley museum": {
            "latitude": "38.5449069",
            "closest_to": "sacramento",
            "address": "Shenandoah Valley Museum, Steiner Road, River Pines, Amador County, California, 95669, United States of America",
            "locType": "museum",
            "blogLinks": [
                "http://blogs.esanjoaquin.com/valleytravel/"
            ],
            "longitude": "-120.7760452"
        },
        "manteca": {
            "latitude": "37.7986184",
            "closest_to": "stockton",
            "address": "Manteca, San Joaquin County, California, United States of America",
            "locType": "city",
            "blogLinks": [
                "http://blogs.esanjoaquin.com/valleytravel/",
                "http://www.visitcentralvalley.com/places/"
            ],
            "longitude": "-121.2117147"
        },
        "woodland": {
            "latitude": "38.6786109",
            "closest_to": "sacramento",
            "address": "Woodland, Yolo County, California, United States of America",
            "locType": "city",
            "blogLinks": [
                "http://www.visitcentralvalley.com/places/"
            ],
            "longitude": "-121.7733284"
        },
        "university of the pacific": {
            "latitude": "37.98042375",
            "closest_to": "stockton",
            "address": "University of the Pacific, 3601, Pacific Avenue, Stockton, San Joaquin County, California, 95211, United States of America",
            "locType": "university",
            "blogLinks": [
                "http://www.bestplaces.net/city/california/stockton"
            ],
            "longitude": "-121.312847098327"
        },
        "sacramento valley": {
            "latitude": "38.5815719",
            "closest_to": "sacramento",
            "address": "Sacramento, Sacramento County, California, United States of America",
            "locType": "city",
            "blogLinks": [
                "http://www.visitcentralvalley.com/places/"
            ],
            "longitude": "-121.4943995"
        },
        "cooperstown": {
            "latitude": "37.7432632",
            "closest_to": "stockton",
            "address": "Cooperstown, Stanislaus County, California, United States of America",
            "locType": "hamlet",
            "blogLinks": [
                "http://blogs.esanjoaquin.com/valleytravel/"
            ],
            "longitude": "-120.5446437"
        },
        "fairfield": {
            "latitude": "38.2493581",
            "closest_to": "sacramento",
            "address": "Fairfield, Solano County, California, United States of America",
            "locType": "city",
            "blogLinks": [
                "http://www.visitcentralvalley.com/places/"
            ],
            "longitude": "-122.0399662"
        },
        "lincoln center": {
            "latitude": "38.0110579",
            "closest_to": "stockton",
            "address": "Lincoln Center, Stockton, San Joaquin County, California, 95207, United States of America",
            "locType": "service",
            "blogLinks": [
                "http://blogs.esanjoaquin.com/valleytravel/"
            ],
            "longitude": "-121.3220378"
        },
        "madison ave. sacramento": {
            "latitude": "38.664093",
            "closest_to": "sacramento",
            "address": "Madison Avenue, Citrus Heights, Sacramento County, California, 95628, United States of America",
            "locType": "primary",
            "blogLinks": [
                "http://sacramento.cbslocal.com/top-lists/the-scenic-drives-within-60-miles-of-sacramento/",
                "http://sacramento.cbslocal.com/top-lists/best-cheap-long-weekend-trips-near-sacramento/"
            ],
            "longitude": "-121.2647048"
        },
        "sierra nevada": {
            "latitude": "39.097593",
            "closest_to": "sacramento",
            "address": "Sierra, Wolf, Nevada County, California, 95949, United States of America",
            "locType": "residential",
            "blogLinks": [
                "http://www.bestplaces.net/city/california/stockton",
                "https://www.wildlife.ca.gov/Lands/Places-to-Visit/Cosumnes-River-ER",
                "http://blogs.esanjoaquin.com/valleytravel/"
            ],
            "longitude": "-121.1396689"
        },
        "modesto": {
            "latitude": "37.6390972",
            "closest_to": "stockton",
            "address": "Modesto, Stanislaus County, California, United States of America",
            "locType": "city",
            "blogLinks": [
                "http://sacramento.cbslocal.com/top-lists/the-scenic-drives-within-60-miles-of-sacramento/",
                "http://sacramento.cbslocal.com/top-lists/best-cheap-long-weekend-trips-near-sacramento/",
                "http://traveltips.usatoday.com/driving-sacramento-los-angeles-108352.html",
                "http://www.visitcentralvalley.com/places/"
            ],
            "longitude": "-120.9968781"
        },
        "coloma": {
            "latitude": "38.7999014",
            "closest_to": "sacramento",
            "address": "Coloma, El Dorado County, California, United States of America",
            "locType": "hamlet",
            "blogLinks": [
                "http://sacramento.cbslocal.com/top-lists/the-scenic-drives-within-60-miles-of-sacramento/",
                "http://sacramento.cbslocal.com/top-lists/best-cheap-long-weekend-trips-near-sacramento/"
            ],
            "longitude": "-120.8902159"
        },
        "putah creek state wildlife area": {
            "latitude": "38.5110183",
            "closest_to": "sacramento",
            "address": "Putah Creek State Wildlife Area, CA 128, Yolo County, California, 95694, United States of America",
            "locType": "park",
            "blogLinks": [
                "http://sacramento.cbslocal.com/top-lists/the-scenic-drives-within-60-miles-of-sacramento/"
            ],
            "longitude": "-122.0844158"
        },
        "elk grove boulevard": {
            "latitude": "38.4086877",
            "closest_to": "stockton",
            "address": "Elk Grove Boulevard, Elk Grove, Sacramento County, California, 95624, United States of America",
            "locType": "secondary",
            "blogLinks": [
                "http://blogs.esanjoaquin.com/valleytravel/"
            ],
            "longitude": "-121.4521195"
        },
        "sacramento": {
            "latitude": "38.5815719",
            "closest_to": "sacramento",
            "address": "Sacramento, Sacramento County, California, United States of America",
            "locType": "city",
            "blogLinks": [
                "http://sacramento.cbslocal.com/top-lists/the-scenic-drives-within-60-miles-of-sacramento/",
                "http://sacramento.cbslocal.com/top-lists/best-cheap-long-weekend-trips-near-sacramento/",
                "https://www.tripadvisor.com/ShowTopic-g60713-i30-k5261581-Scenic_Route_from_San_Francisco_to_Sacramento-San_Francisco_California.html",
                "http://www.visitsacramento.com/",
                "https://www.wildlife.ca.gov/Lands/Places-to-Visit/Cosumnes-River-ER",
                "https://www.trekaroo.com/places/california/snapshot",
                "http://www.bestplaces.net/city/california/stockton",
                "http://traveltips.usatoday.com/driving-sacramento-los-angeles-108352.html",
                "http://www.visitcentralvalley.com/places/"
            ],
            "longitude": "-121.4943995"
        },
        "yuba-sutter": {
            "latitude": "39.1404477",
            "closest_to": "sacramento",
            "address": "Yuba City, Sutter County, California, United States of America",
            "locType": "city",
            "blogLinks": [
                "http://www.visitcentralvalley.com/places/"
            ],
            "longitude": "-121.6169107"
        },
        "lodi lake": {
            "latitude": "38.0922395",
            "closest_to": "stockton",
            "address": "Lodi, San Joaquin County, California, United States of America",
            "locType": "city",
            "blogLinks": [
                "http://blogs.esanjoaquin.com/valleytravel/"
            ],
            "longitude": "-121.389845833665"
        },
        "locke": {
            "latitude": "38.2504703",
            "closest_to": "stockton",
            "address": "Locke, Sacramento County, California, United States of America",
            "locType": "hamlet",
            "blogLinks": [
                "http://traveltips.usatoday.com/driving-sacramento-los-angeles-108352.html"
            ],
            "longitude": "-121.5093973"
        },
        "mokelumne rivers": {
            "latitude": "38.1576421",
            "closest_to": "stockton",
            "address": "North Mokelumne River, California, United States of America",
            "locType": "river",
            "blogLinks": [
                "http://blogs.esanjoaquin.com/valleytravel/"
            ],
            "longitude": "-121.536446"
        },
        "thornton road": {
            "latitude": "38.022652",
            "closest_to": "stockton",
            "address": "Thornton Road, Stockton, San Joaquin County, California, 95207, United States of America",
            "locType": "secondary",
            "blogLinks": [
                "https://www.wildlife.ca.gov/Lands/Places-to-Visit/Cosumnes-River-ER"
            ],
            "longitude": "-121.3266819"
        },
        "suisun": {
            "latitude": "38.24690555",
            "closest_to": "stockton",
            "address": "Suisun City, Solano County, California, United States of America",
            "locType": "city",
            "blogLinks": [
                "http://www.visitcentralvalley.com/places/"
            ],
            "longitude": "-121.971724116502"
        },
        "franklin boulevard": {
            "latitude": "38.4555099",
            "closest_to": "stockton",
            "address": "Franklin Boulevard, Sacramento, Sacramento County, California, 95823, United States of America",
            "locType": "secondary",
            "blogLinks": [
                "https://www.wildlife.ca.gov/Lands/Places-to-Visit/Cosumnes-River-ER"
            ],
            "longitude": "-121.445526"
        },
        "franklin": {
            "latitude": "38.3790776",
            "closest_to": "stockton",
            "address": "Franklin, Sacramento County, California, United States of America",
            "locType": "hamlet",
            "blogLinks": [
                "https://www.wildlife.ca.gov/Lands/Places-to-Visit/Cosumnes-River-ER"
            ],
            "longitude": "-121.4543972"
        },
        "thornton": {
            "latitude": "38.2260268",
            "closest_to": "stockton",
            "address": "Thornton, San Joaquin County, California, United States of America",
            "locType": "hamlet",
            "blogLinks": [
                "http://blogs.esanjoaquin.com/valleytravel/"
            ],
            "longitude": "-121.4246732"
        },
        "american river": {
            "latitude": "38.6051945",
            "closest_to": "sacramento",
            "address": "American River, Sacramento County, California, United States of America",
            "locType": "river",
            "blogLinks": [
                "http://sacramento.cbslocal.com/top-lists/the-scenic-drives-within-60-miles-of-sacramento/"
            ],
            "longitude": "-121.3128945"
        },
        "calaveras river": {
            "latitude": "38.1485238",
            "closest_to": "stockton",
            "address": "Calaveras River, Calaveras County, California, United States of America",
            "locType": "river",
            "blogLinks": [
                "http://blogs.esanjoaquin.com/valleytravel/"
            ],
            "longitude": "-120.8302242"
        },
        "oakdale": {
            "latitude": "37.7665947",
            "closest_to": "stockton",
            "address": "Oakdale, Stanislaus County, California, United States of America",
            "locType": "city",
            "blogLinks": [
                "http://www.visitcentralvalley.com/places/"
            ],
            "longitude": "-120.8471544"
        },
        "ripon": {
            "latitude": "37.741595",
            "closest_to": "stockton",
            "address": "Ripon, San Joaquin County, California, United States of America",
            "locType": "city",
            "blogLinks": [
                "http://blogs.esanjoaquin.com/valleytravel/"
            ],
            "longitude": "-121.1243827"
        },
        "stanislaus county": {
            "latitude": "37.5500871",
            "closest_to": "stockton",
            "address": "Stanislaus County, California, United States of America",
            "locType": "administrative",
            "blogLinks": [
                "http://www.visitcentralvalley.com/places/"
            ],
            "longitude": "-121.0501424"
        },
        "san joaquin": {
            "latitude": "37.9372901",
            "closest_to": "stockton",
            "address": "San Joaquin County, California, United States of America",
            "locType": "administrative",
            "blogLinks": [
                "http://www.bestplaces.net/city/california/stockton",
                "http://blogs.esanjoaquin.com/valleytravel/",
                "http://www.visitcentralvalley.com/places/"
            ],
            "longitude": "-121.2773718"
        },
        "lincoln village west": {
            "latitude": "38.0006569",
            "closest_to": "stockton",
            "address": "2973, Lincoln Village West, Stockton, San Joaquin County, California, 95219, United States of America",
            "locType": "residential",
            "blogLinks": [
                "http://blogs.esanjoaquin.com/valleytravel/"
            ],
            "longitude": "-121.351012946088"
        },
        "bruceville road": {
            "latitude": "38.448602",
            "closest_to": "stockton",
            "address": "Bruceville Road, Sacramento, Sacramento County, California, 95758, United States of America",
            "locType": "secondary",
            "blogLinks": [
                "https://www.wildlife.ca.gov/Lands/Places-to-Visit/Cosumnes-River-ER"
            ],
            "longitude": "-121.4180449"
        },
        "shenandoah valley": {
            "latitude": "38.5332405",
            "closest_to": "sacramento",
            "address": "Shenandoah Lake 486 Dam, Amador County, California, United States of America",
            "locType": "dam",
            "blogLinks": [
                "http://blogs.esanjoaquin.com/valleytravel/"
            ],
            "longitude": "-120.8143799"
        },
        "carmel": {
            "latitude": "38.75511285",
            "closest_to": "sacramento",
            "address": "Carmel, Roseville, Placer County, California, 95747, United States of America",
            "locType": "residential",
            "blogLinks": [
                "http://traveltips.usatoday.com/driving-sacramento-los-angeles-108352.html",
                "https://www.trekaroo.com/places/california/snapshot"
            ],
            "longitude": "-121.353308848273"
        },
        "lathrop": {
            "latitude": "37.8227046",
            "closest_to": "stockton",
            "address": "Lathrop, San Joaquin County, California, United States of America",
            "locType": "city",
            "blogLinks": [
                "http://www.bestplaces.net/city/california/stockton"
            ],
            "longitude": "-121.2766099"
        },
        "turlock community theatre": {
            "latitude": "37.4993327",
            "closest_to": "stockton",
            "address": "Turlock Community Theater, East Canal Drive, Turlock, Stanislaus County, California, 95380, United States of America",
            "locType": "theatre",
            "blogLinks": [
                "http://www.visitcentralvalley.com/places/"
            ],
            "longitude": "-120.832241"
        },
        "vacaville": {
            "latitude": "38.3565773",
            "closest_to": "sacramento",
            "address": "Vacaville, Solano County, California, United States of America",
            "locType": "city",
            "blogLinks": [
                "http://www.visitcentralvalley.com/places/"
            ],
            "longitude": "-121.9877443"
        }
    },
    "sacramento": {
        "type": "city",
        "osm_id": "6232940",
        "class": "place",
        "importance": 0.80674211027009,
        "lat": "38.5815719",
        "lon": "-121.4943995",
        "boundingbox": [
            "38.437574",
            "38.685507",
            "-121.5601199",
            "-121.3627399"
        ],
        "display_name": "Sacramento, Sacramento County, California, United States of America",
        "licence": "Data \u00a9 OpenStreetMap contributors, ODbL 1.0. http://www.openstreetmap.org/copyright",
        "icon": "https://nominatim.openstreetmap.org/images/mapicons/poi_place_city.p.20.png",
        "place_id": "159758891",
        "osm_type": "relation"
    }
}