{
    "mentions": {
        "pacific coast highway": {
            "latitude": "33.6595127",
            "closest_to": "san luis obispo",
            "address": "Pacific Coast Highway, Huntington Beach, Orange County, California, 92648, United States of America",
            "locType": "primary",
            "blogLinks": [
                "http://www.hopper.com/articles/291/five-great-stops-between-los-angeles-and-san-francisco-on-the-pacific-coast-highway"
            ],
            "longitude": "-118.0051687"
        },
        "san luis obispo museum of art": {
            "latitude": "35.2795773",
            "closest_to": "san luis obispo",
            "address": "San Luis Obispo Museum of Art, 1010, Broad Street, San Luis Obispo, San Luis Obispo County, California, 93401, United States of America",
            "locType": "museum",
            "blogLinks": [
                "http://travelblog.viator.com/road-trip-san-francisco-los-angeles/"
            ],
            "longitude": "-120.6649345"
        },
        "golden gate bridge": {
            "latitude": "37.8302809",
            "closest_to": "sausalito",
            "address": "Golden Gate Bridge, Waldo, Marin County, California, 94965, United States of America",
            "locType": "motorway",
            "blogLinks": [
                "http://therealmbahousewife.blogspot.com/2013/03/pch-roadtrip-from-la-to-san-francisco.html"
            ],
            "longitude": "-122.4798473"
        },
        "mcway falls trail": {
            "latitude": "36.1578211",
            "closest_to": "sausalito",
            "address": "McWay Falls, Monterey County, California, United States of America",
            "locType": "waterfall",
            "blogLinks": [
                "http://travelblog.viator.com/road-trip-san-francisco-los-angeles/"
            ],
            "longitude": "-121.6723957"
        },
        "carmel-by-the-sea": {
            "latitude": "36.5552387",
            "closest_to": "sausalito",
            "address": "Carmel-by-the-Sea, Monterey County, California, United States of America",
            "locType": "city",
            "blogLinks": [
                "http://travelblog.viator.com/road-trip-san-francisco-los-angeles/",
                "http://www.hopper.com/articles/291/five-great-stops-between-los-angeles-and-san-francisco-on-the-pacific-coast-highway"
            ],
            "longitude": "-121.9232878"
        },
        "tank farm road": {
            "latitude": "35.2467421",
            "closest_to": "san luis obispo",
            "address": "Tank Farm Road, San Luis Obispo, San Luis Obispo County, California, 93401, United States of America",
            "locType": "tertiary",
            "blogLinks": [
                "http://www.sfgate.com/travel/article/San-Luis-Obispo-attractions-Slow-is-the-way-to-go-5112057.php"
            ],
            "longitude": "-120.66996"
        },
        "guerneville": {
            "latitude": "38.5116609",
            "closest_to": "sausalito",
            "address": "Guerneville, Orchard Road, El Bonita, Sonoma County, California, 95446, United States of America",
            "locType": "administrative",
            "blogLinks": [
                "http://www.roadsideamerica.com/location/ca"
            ],
            "longitude": "-122.987128549631"
        },
        "la": {
            "latitude": "36.7014631",
            "closest_to": "san luis obispo",
            "address": "California, United States of America",
            "locType": "administrative",
            "blogLinks": [
                "http://therealmbahousewife.blogspot.com/2013/03/pch-roadtrip-from-la-to-san-francisco.html"
            ],
            "longitude": "-118.7559973"
        },
        "nob hill": {
            "latitude": "37.7932622",
            "closest_to": "sausalito",
            "address": "Nob Hill, SF, California, United States of America",
            "locType": "peak",
            "blogLinks": [
                "http://therealmbahousewife.blogspot.com/2013/03/pch-roadtrip-from-la-to-san-francisco.html"
            ],
            "longitude": "-122.4152489"
        },
        "monterey bay": {
            "latitude": "36.7999557",
            "closest_to": "sausalito",
            "address": "Monterey Bay, Monterey County, California, United States of America",
            "locType": "bay",
            "blogLinks": [
                "http://travelblog.viator.com/road-trip-san-francisco-los-angeles/",
                "http://www.hopper.com/articles/291/five-great-stops-between-los-angeles-and-san-francisco-on-the-pacific-coast-highway",
                "http://hearstcastle.org/plan-your-trip/area-attractions/mbnms/"
            ],
            "longitude": "-121.9010667"
        },
        "pismo beach": {
            "latitude": "35.1427533",
            "closest_to": "san luis obispo",
            "address": "Pismo Beach, San Luis Obispo County, California, United States of America",
            "locType": "city",
            "blogLinks": [
                "http://www.hopper.com/articles/291/five-great-stops-between-los-angeles-and-san-francisco-on-the-pacific-coast-highway",
                "http://therealmbahousewife.blogspot.com/2013/03/pch-roadtrip-from-la-to-san-francisco.html"
            ],
            "longitude": "-120.6412826"
        },
        "comstock saloon": {
            "latitude": "37.7969638",
            "closest_to": "sausalito",
            "address": "Comstock Saloon, 155, Columbus Avenue, Chinatown, SF, California, 94133, United States of America",
            "locType": "bar",
            "blogLinks": [
                "http://therealmbahousewife.blogspot.com/2013/03/pch-roadtrip-from-la-to-san-francisco.html"
            ],
            "longitude": "-122.4056425"
        },
        "lemoore": {
            "latitude": "36.3007835",
            "closest_to": "sausalito",
            "address": "Lemoore, Kings County, California, United States of America",
            "locType": "city",
            "blogLinks": [
                "http://www.roadsideamerica.com/location/ca"
            ],
            "longitude": "-119.7829106"
        },
        "venice": {
            "latitude": "33.995044",
            "closest_to": "san luis obispo",
            "address": "Venice, LA, Los Angeles County, California, United States of America",
            "locType": "suburb",
            "blogLinks": [
                "http://www.roadsideamerica.com/location/ca"
            ],
            "longitude": "-118.4668874"
        },
        "cotati": {
            "latitude": "38.3266798",
            "closest_to": "sausalito",
            "address": "Cotati, Sonoma County, California, United States of America",
            "locType": "city",
            "blogLinks": [
                "http://www.roadsideamerica.com/location/ca"
            ],
            "longitude": "-122.706844"
        },
        "ca": {
            "latitude": "37.8242285466918",
            "closest_to": "sausalito",
            "address": "Piedmont, Alameda County, California, ca, United States of America",
            "locType": "postcode",
            "blogLinks": [
                "http://hearstcastle.org/plan-your-trip/area-attractions/mbnms/"
            ],
            "longitude": "-122.232613735941"
        },
        "emeryville": {
            "latitude": "37.8314089",
            "closest_to": "sausalito",
            "address": "Emeryville, Alameda County, California, United States of America",
            "locType": "administrative",
            "blogLinks": [
                "http://www.roadsideamerica.com/location/ca"
            ],
            "longitude": "-122.2865265"
        },
        "boonville": {
            "latitude": "39.0091667",
            "closest_to": "sausalito",
            "address": "Boonville, Mendocino County, California, 95415, United States of America",
            "locType": "village",
            "blogLinks": [
                "http://www.roadsideamerica.com/location/ca"
            ],
            "longitude": "-123.366111"
        },
        "santa fe springs": {
            "latitude": "33.9482434",
            "closest_to": "san luis obispo",
            "address": "Santa Fe Springs, Los Angeles County, California, United States of America",
            "locType": "city",
            "blogLinks": [
                "http://www.roadsideamerica.com/location/ca"
            ],
            "longitude": "-118.0676102"
        },
        "sausalito": {
            "latitude": "37.8590272",
            "closest_to": "sausalito",
            "address": "Sausalito, Marin County, California, United States of America",
            "locType": "administrative",
            "blogLinks": [
                "http://www.distancesfrom.com/us/distance-from-La-Jolla-to-Sausalito-CA-via-San-Luis-Obispo/DistanceHistory/13341813.aspx",
                "http://hearstcastle.org/plan-your-trip/area-attractions/mbnms/",
                "http://www.coastalliving.com/travel/california"
            ],
            "longitude": "-122.4854693"
        },
        "southern california": {
            "latitude": "34.0224149",
            "closest_to": "san luis obispo",
            "address": "University of Southern California, Watt Way, Saint James Park, LA, Los Angeles County, California, 90089, United States of America",
            "locType": "university",
            "blogLinks": [
                "http://www.coastalliving.com/travel/california"
            ],
            "longitude": "-118.286343973446"
        },
        "cal poly": {
            "latitude": "35.30440705",
            "closest_to": "sausalito",
            "address": "Cal Poly, Mount Bishop Road, Paso Robles, San Luis Obispo County, California, 93407, United States of America",
            "locType": "parking",
            "blogLinks": [
                "http://www.sfgate.com/travel/article/San-Luis-Obispo-attractions-Slow-is-the-way-to-go-5112057.php",
                "http://therealmbahousewife.blogspot.com/2013/03/pch-roadtrip-from-la-to-san-francisco.html"
            ],
            "longitude": "-120.670126285884"
        },
        "europe": {
            "latitude": "37.3491727",
            "closest_to": "sausalito",
            "address": "Europe Court, Santa Clara, Santa Clara County, California, 95051, United States of America",
            "locType": "residential",
            "blogLinks": [
                "http://therealmbahousewife.blogspot.com/2013/03/pch-roadtrip-from-la-to-san-francisco.html"
            ],
            "longitude": "-121.9980641"
        },
        "pacific": {
            "latitude": "38.7601815",
            "closest_to": "sausalito",
            "address": "Pacific, El Dorado County, California, United States of America",
            "locType": "hamlet",
            "blogLinks": [
                "http://travelblog.viator.com/road-trip-san-francisco-los-angeles/",
                "http://www.coastalliving.com/travel/california"
            ],
            "longitude": "-120.507146"
        },
        "san luis obispo county": {
            "latitude": "35.3540209",
            "closest_to": "san luis obispo",
            "address": "San Luis Obispo County, California, United States of America",
            "locType": "administrative",
            "blogLinks": [
                "http://www.hopper.com/articles/291/five-great-stops-between-los-angeles-and-san-francisco-on-the-pacific-coast-highway"
            ],
            "longitude": "-120.3757162"
        },
        "marina": {
            "latitude": "36.6900785",
            "closest_to": "sausalito",
            "address": "Marina, Monterey County, California, United States of America",
            "locType": "city",
            "blogLinks": [
                "http://therealmbahousewife.blogspot.com/2013/03/pch-roadtrip-from-la-to-san-francisco.html"
            ],
            "longitude": "-121.800639730262"
        },
        "santa monica": {
            "latitude": "34.0195598",
            "closest_to": "san luis obispo",
            "address": "Santa Monica, Los Angeles County, California, United States of America",
            "locType": "city",
            "blogLinks": [
                "http://travelblog.viator.com/road-trip-san-francisco-los-angeles/",
                "http://therealmbahousewife.blogspot.com/2013/03/pch-roadtrip-from-la-to-san-francisco.html"
            ],
            "longitude": "-118.4869738"
        },
        "london": {
            "latitude": "36.4760619",
            "closest_to": "sausalito",
            "address": "London, Tulare County, California, United States of America",
            "locType": "village",
            "blogLinks": [
                "http://www.roadsideamerica.com/location/ca"
            ],
            "longitude": "-119.4431784"
        },
        "american riviera": {
            "latitude": "38.576666",
            "closest_to": "sausalito",
            "address": "American River Drive, La Riviera, Sacramento County, California, 95608, United States of America",
            "locType": "tertiary",
            "blogLinks": [
                "http://travelblog.viator.com/road-trip-san-francisco-los-angeles/",
                "http://www.hopper.com/articles/291/five-great-stops-between-los-angeles-and-san-francisco-on-the-pacific-coast-highway"
            ],
            "longitude": "-121.3602199"
        },
        "newport beach": {
            "latitude": "33.6170092",
            "closest_to": "san luis obispo",
            "address": "Newport Beach, Orange County, California, United States of America",
            "locType": "city",
            "blogLinks": [
                "http://www.roadsideamerica.com/location/ca"
            ],
            "longitude": "-117.92944"
        },
        "central coast": {
            "latitude": "35.3611193",
            "closest_to": "san luis obispo",
            "address": "Central Coast Street, Bakersfield, Kern County, California, 93314, United States of America",
            "locType": "residential",
            "blogLinks": [
                "http://travelblog.viator.com/road-trip-san-francisco-los-angeles/",
                "http://www.sfgate.com/travel/article/San-Luis-Obispo-attractions-Slow-is-the-way-to-go-5112057.php"
            ],
            "longitude": "-119.1665989"
        },
        "south lake tahoe": {
            "latitude": "38.929125",
            "closest_to": "sausalito",
            "address": "South Lake Tahoe, El Dorado County, California, United States of America",
            "locType": "city",
            "blogLinks": [
                "http://www.roadsideamerica.com/location/ca"
            ],
            "longitude": "-119.987846390157"
        },
        "sylmar": {
            "latitude": "34.3076252",
            "closest_to": "san luis obispo",
            "address": "Sylmar, LA, Los Angeles County, California, United States of America",
            "locType": "suburb",
            "blogLinks": [
                "http://www.roadsideamerica.com/location/ca"
            ],
            "longitude": "-118.4492147"
        },
        "sonoma valley": {
            "latitude": "38.29331315",
            "closest_to": "sausalito",
            "address": "Sonoma Valley Chevron, 540, West Napa Street, Sonoma, Sonoma County, California, 95476, United States of America",
            "locType": "fuel",
            "blogLinks": [
                "http://therealmbahousewife.blogspot.com/2013/03/pch-roadtrip-from-la-to-san-francisco.html"
            ],
            "longitude": "-122.469385770353"
        },
        "san jose": {
            "latitude": "37.3361905",
            "closest_to": "sausalito",
            "address": "San Jos\u00e9, Santa Clara County, California, United States of America",
            "locType": "city",
            "blogLinks": [
                "http://www.roadsideamerica.com/location/ca",
                "http://therealmbahousewife.blogspot.com/2013/03/pch-roadtrip-from-la-to-san-francisco.html"
            ],
            "longitude": "-121.8905832"
        },
        "bodie state historic park": {
            "latitude": "38.2154734",
            "closest_to": "sausalito",
            "address": "Bodie State Historic Park, Street, Bodie, Mono County, California, United States of America",
            "locType": "park",
            "blogLinks": [
                "http://www.roadsideamerica.com/location/ca"
            ],
            "longitude": "-119.0109761"
        },
        "santa cruz beach boardwalk": {
            "latitude": "36.96446855",
            "closest_to": "sausalito",
            "address": "Santa Cruz Beach Boardwalk, Boardwalk, Beach & Boardwalk District (Commercial), Seabright, Santa Cruz, Santa Cruz County, California, 1982, United States of America",
            "locType": "attraction",
            "blogLinks": [
                "http://travelblog.viator.com/road-trip-san-francisco-los-angeles/"
            ],
            "longitude": "-122.016027247326"
        },
        "norco": {
            "latitude": "33.9323307",
            "closest_to": "san luis obispo",
            "address": "Norco, Riverside County, California, 92860, United States of America",
            "locType": "city",
            "blogLinks": [
                "http://www.roadsideamerica.com/location/ca"
            ],
            "longitude": "-117.55089"
        },
        "santa clara": {
            "latitude": "37.3541132",
            "closest_to": "sausalito",
            "address": "Santa Clara, Santa Clara County, California, United States of America",
            "locType": "city",
            "blogLinks": [
                "http://www.roadsideamerica.com/location/ca"
            ],
            "longitude": "-121.9551743"
        },
        "america": {
            "latitude": "36.2573198",
            "closest_to": "sausalito",
            "address": "America, Kings County, California, 93246, United States of America",
            "locType": "residential",
            "blogLinks": [
                "http://www.roadsideamerica.com/location/ca",
                "http://www.coastalliving.com/travel/california"
            ],
            "longitude": "-119.8948706"
        },
        "apple valley": {
            "latitude": "34.5008311",
            "closest_to": "san luis obispo",
            "address": "Apple Valley, San Bernardino County, California, United States of America",
            "locType": "administrative",
            "blogLinks": [
                "http://www.roadsideamerica.com/location/ca"
            ],
            "longitude": "-117.1858758"
        },
        "william randolph hearst memorial beach": {
            "latitude": "35.64173",
            "closest_to": "sausalito",
            "address": "William Randolph Hearst Memorial Beach, San Simeon Road, San Simeon, San Luis Obispo County, California, United States of America",
            "locType": "beach",
            "blogLinks": [
                "http://hearstcastle.org/plan-your-trip/area-attractions/mbnms/"
            ],
            "longitude": "-121.193848951127"
        },
        "costa mesa": {
            "latitude": "33.6633386",
            "closest_to": "san luis obispo",
            "address": "Costa Mesa, Orange County, California, United States of America",
            "locType": "city",
            "blogLinks": [
                "http://www.roadsideamerica.com/location/ca"
            ],
            "longitude": "-117.9033169"
        },
        "boudin bakery": {
            "latitude": "37.808455",
            "closest_to": "sausalito",
            "address": "Boudin Bakery, 160, Jefferson Street, Russian Hill, SF, California, 94133, United States of America",
            "locType": "bakery",
            "blogLinks": [
                "http://therealmbahousewife.blogspot.com/2013/03/pch-roadtrip-from-la-to-san-francisco.html"
            ],
            "longitude": "-122.4149089"
        },
        "buena park": {
            "latitude": "33.870413",
            "closest_to": "san luis obispo",
            "address": "Buena Park, Orange County, California, United States of America",
            "locType": "city",
            "blogLinks": [
                "http://www.roadsideamerica.com/location/ca"
            ],
            "longitude": "-117.9962164"
        },
        "golden gate park": {
            "latitude": "37.7693681",
            "closest_to": "sausalito",
            "address": "Golden Gate Park, Overlook Drive, Richmond District, SF, California, 94122, United States of America",
            "locType": "park",
            "blogLinks": [
                "http://therealmbahousewife.blogspot.com/2013/03/pch-roadtrip-from-la-to-san-francisco.html"
            ],
            "longitude": "-122.482183611177"
        },
        "ukiah": {
            "latitude": "39.1501662",
            "closest_to": "sausalito",
            "address": "Ukiah, Mendocino County, California, United States of America",
            "locType": "city",
            "blogLinks": [
                "http://www.roadsideamerica.com/location/ca"
            ],
            "longitude": "-123.207786"
        },
        "napa": {
            "latitude": "38.2971367",
            "closest_to": "sausalito",
            "address": "Napa, Napa County, California, United States of America",
            "locType": "city",
            "blogLinks": [
                "http://therealmbahousewife.blogspot.com/2013/03/pch-roadtrip-from-la-to-san-francisco.html"
            ],
            "longitude": "-122.2855292"
        },
        "palo alto": {
            "latitude": "37.442156",
            "closest_to": "sausalito",
            "address": "Palo Alto, Santa Clara County, California, United States of America",
            "locType": "city",
            "blogLinks": [
                "http://www.roadsideamerica.com/location/ca"
            ],
            "longitude": "-122.1634471"
        },
        "broadway": {
            "latitude": "37.7958391",
            "closest_to": "sausalito",
            "address": "Broadway, Russian Hill, SF, California, 94109;94115, United States of America",
            "locType": "primary",
            "blogLinks": [
                "http://therealmbahousewife.blogspot.com/2013/03/pch-roadtrip-from-la-to-san-francisco.html"
            ],
            "longitude": "-122.4226908"
        },
        "santa clarita": {
            "latitude": "34.3916641",
            "closest_to": "san luis obispo",
            "address": "Santa Clarita, Los Angeles County, California, United States of America",
            "locType": "city",
            "blogLinks": [
                "http://www.roadsideamerica.com/location/ca"
            ],
            "longitude": "-118.5425859"
        },
        "berkeley": {
            "latitude": "37.8708393",
            "closest_to": "sausalito",
            "address": "Berkeley, Alameda County, California, United States of America",
            "locType": "city",
            "blogLinks": [
                "http://www.roadsideamerica.com/location/ca"
            ],
            "longitude": "-122.2728638"
        },
        "san luis obispo": {
            "latitude": "35.2827525",
            "closest_to": "sausalito",
            "address": "San Luis Obispo, San Luis Obispo County, California, United States of America",
            "locType": "city",
            "blogLinks": [
                "http://travelblog.viator.com/road-trip-san-francisco-los-angeles/",
                "http://www.distancesfrom.com/us/distance-from-La-Jolla-to-Sausalito-CA-via-San-Luis-Obispo/DistanceHistory/13341813.aspx",
                "http://hearstcastle.org/plan-your-trip/area-attractions/mbnms/",
                "http://www.sfgate.com/travel/article/San-Luis-Obispo-attractions-Slow-is-the-way-to-go-5112057.php",
                "http://therealmbahousewife.blogspot.com/2013/03/pch-roadtrip-from-la-to-san-francisco.html"
            ],
            "longitude": "-120.6596155"
        },
        "fresno": {
            "latitude": "36.748793",
            "closest_to": "sausalito",
            "address": "Fresno, Fresno County, California, United States of America",
            "locType": "city",
            "blogLinks": [
                "http://www.roadsideamerica.com/location/ca"
            ],
            "longitude": "-119.714839601149"
        },
        "healdsburg": {
            "latitude": "38.6106812",
            "closest_to": "sausalito",
            "address": "Healdsburg, Sonoma County, California, United States of America",
            "locType": "city",
            "blogLinks": [
                "http://www.roadsideamerica.com/location/ca"
            ],
            "longitude": "-122.8701379"
        },
        "oro state park": {
            "latitude": "35.2714109",
            "closest_to": "sausalito",
            "address": "Montana de Oro State Park, San Luis Obispo County, California, United States of America",
            "locType": "track",
            "blogLinks": [
                "http://www.sfgate.com/travel/article/San-Luis-Obispo-attractions-Slow-is-the-way-to-go-5112057.php"
            ],
            "longitude": "-120.8888312"
        },
        "stanislaus county": {
            "latitude": "37.5500871",
            "closest_to": "sausalito",
            "address": "Stanislaus County, California, United States of America",
            "locType": "administrative",
            "blogLinks": [
                "http://www.sfgate.com/travel/article/San-Luis-Obispo-attractions-Slow-is-the-way-to-go-5112057.php"
            ],
            "longitude": "-121.0501424"
        },
        "califia": {
            "latitude": "34.4290422",
            "closest_to": "san luis obispo",
            "address": "Califia Court, Santa Barbara County, California, 93111, United States of America",
            "locType": "residential",
            "blogLinks": [
                "http://www.roadsideamerica.com/location/ca"
            ],
            "longitude": "-119.8065791"
        },
        "bubblegum alley": {
            "latitude": "35.2791663",
            "closest_to": "san luis obispo",
            "address": "Bubblegum Alley, San Luis Obispo, San Luis Obispo County, California, 93405, United States of America",
            "locType": "attraction",
            "blogLinks": [
                "http://www.sfgate.com/travel/article/San-Luis-Obispo-attractions-Slow-is-the-way-to-go-5112057.php"
            ],
            "longitude": "-120.6638629"
        },
        "los alamos": {
            "latitude": "34.7379311",
            "closest_to": "san luis obispo",
            "address": "Los Alamos, Bell Street, Los Alamos, Santa Barbara County, California, 93455, United States of America",
            "locType": "administrative",
            "blogLinks": [
                "http://travelblog.viator.com/road-trip-san-francisco-los-angeles/"
            ],
            "longitude": "-120.26591036241"
        },
        "san quentin": {
            "latitude": "37.9413133",
            "closest_to": "sausalito",
            "address": "San Quentin, Marin County, California, United States of America",
            "locType": "hamlet",
            "blogLinks": [
                "http://www.roadsideamerica.com/location/ca"
            ],
            "longitude": "-122.4849738"
        },
        "huntington beach": {
            "latitude": "33.6783336",
            "closest_to": "san luis obispo",
            "address": "Huntington Beach, Orange County, California, United States of America",
            "locType": "city",
            "blogLinks": [
                "http://www.roadsideamerica.com/location/ca"
            ],
            "longitude": "-118.0000165"
        },
        "california state parks": {
            "latitude": "38.4366423",
            "closest_to": "sausalito",
            "address": "California State Parks, Adobe Canyon Road, Kenwood, Sonoma County, California, 95452, United States of America",
            "locType": "theatre",
            "blogLinks": [
                "http://hearstcastle.org/plan-your-trip/area-attractions/mbnms/"
            ],
            "longitude": "-122.5126798"
        },
        "hopland": {
            "latitude": "38.9729542",
            "closest_to": "sausalito",
            "address": "Hopland, Mendocino County, California, United States of America",
            "locType": "hamlet",
            "blogLinks": [
                "http://www.roadsideamerica.com/location/ca"
            ],
            "longitude": "-123.1163917"
        },
        "simi valley": {
            "latitude": "34.2694474",
            "closest_to": "san luis obispo",
            "address": "Simi Valley, Ventura County, California, United States of America",
            "locType": "city",
            "blogLinks": [
                "http://www.roadsideamerica.com/location/ca"
            ],
            "longitude": "-118.7814819"
        },
        "jerusalem": {
            "latitude": "40.5175442",
            "closest_to": "sausalito",
            "address": "Jerusalem Creek, Shasta County, California, United States of America",
            "locType": "stream",
            "blogLinks": [
                "http://www.roadsideamerica.com/location/ca"
            ],
            "longitude": "-122.7581059"
        },
        "santa cruz": {
            "latitude": "36.9735903",
            "closest_to": "sausalito",
            "address": "Santa Cruz, Santa Cruz County, California, United States of America",
            "locType": "city",
            "blogLinks": [
                "http://www.roadsideamerica.com/location/ca"
            ],
            "longitude": "-122.0260569"
        },
        "santa lucia mountain": {
            "latitude": "34.4379129",
            "closest_to": "san luis obispo",
            "address": "Santa Lucia, Santa Barbara County, California, 93111, United States of America",
            "locType": "residential",
            "blogLinks": [
                "http://travelblog.viator.com/road-trip-san-francisco-los-angeles/"
            ],
            "longitude": "-119.8003246"
        },
        "castroville": {
            "latitude": "36.7657904",
            "closest_to": "sausalito",
            "address": "Castroville, Monterey County, California, United States of America",
            "locType": "administrative",
            "blogLinks": [
                "http://www.roadsideamerica.com/location/ca"
            ],
            "longitude": "-121.7580049"
        },
        "irish hills": {
            "latitude": "35.2588819",
            "closest_to": "san luis obispo",
            "address": "Irish Hills Hamlet, San Luis Obispo, San Luis Obispo County, California, 93405, United States of America",
            "locType": "residential",
            "blogLinks": [
                "http://www.sfgate.com/travel/article/San-Luis-Obispo-attractions-Slow-is-the-way-to-go-5112057.php"
            ],
            "longitude": "-120.694049133087"
        },
        "east los angeles": {
            "latitude": "34.0239015",
            "closest_to": "san luis obispo",
            "address": "East Los Angeles, Belvedere Gardens, Los Angeles County, California, United States of America",
            "locType": "suburb",
            "blogLinks": [
                "http://www.roadsideamerica.com/location/ca"
            ],
            "longitude": "-118.1720156"
        },
        "santa ynez": {
            "latitude": "34.608637",
            "closest_to": "san luis obispo",
            "address": "Santa Ynez, Stadium Place, Santa Ynez, Santa Barbara County, California, 93463, United States of America",
            "locType": "administrative",
            "blogLinks": [
                "http://therealmbahousewife.blogspot.com/2013/03/pch-roadtrip-from-la-to-san-francisco.html"
            ],
            "longitude": "-120.104677321497"
        },
        "glendale": {
            "latitude": "34.1423455",
            "closest_to": "san luis obispo",
            "address": "Glendale, Los Angeles County, California, United States of America",
            "locType": "city",
            "blogLinks": [
                "http://www.roadsideamerica.com/location/ca"
            ],
            "longitude": "-118.248367"
        },
        "woodbridge": {
            "latitude": "38.1540849",
            "closest_to": "sausalito",
            "address": "Woodbridge, San Joaquin County, California, United States of America",
            "locType": "hamlet",
            "blogLinks": [
                "http://therealmbahousewife.blogspot.com/2013/03/pch-roadtrip-from-la-to-san-francisco.html"
            ],
            "longitude": "-121.3013369"
        },
        "kettleman city": {
            "latitude": "36.008937",
            "closest_to": "sausalito",
            "address": "Kettleman City, 7th Street, Kettleman City, Kings County, California, 93239, United States of America",
            "locType": "administrative",
            "blogLinks": [
                "http://www.roadsideamerica.com/location/ca"
            ],
            "longitude": "-119.962676860725"
        },
        "turlock": {
            "latitude": "37.4946568",
            "closest_to": "sausalito",
            "address": "Turlock, Stanislaus County, California, United States of America",
            "locType": "city",
            "blogLinks": [
                "http://www.roadsideamerica.com/location/ca"
            ],
            "longitude": "-120.846594"
        },
        "monterey county": {
            "latitude": "36.2231079",
            "closest_to": "sausalito",
            "address": "Monterey County, California, United States of America",
            "locType": "administrative",
            "blogLinks": [
                "http://travelblog.viator.com/road-trip-san-francisco-los-angeles/"
            ],
            "longitude": "-121.3877427"
        },
        "solvang": {
            "latitude": "34.5958572",
            "closest_to": "san luis obispo",
            "address": "Solvang, Santa Barbara County, California, United States of America",
            "locType": "city",
            "blogLinks": [
                "http://therealmbahousewife.blogspot.com/2013/03/pch-roadtrip-from-la-to-san-francisco.html"
            ],
            "longitude": "-120.1390893"
        },
        "santa barbara county": {
            "latitude": "34.7136533",
            "closest_to": "san luis obispo",
            "address": "Santa Barbara County, California, United States of America",
            "locType": "administrative",
            "blogLinks": [
                "http://www.sfgate.com/travel/article/San-Luis-Obispo-attractions-Slow-is-the-way-to-go-5112057.php"
            ],
            "longitude": "-119.9858231"
        },
        "santa barbara": {
            "latitude": "34.4221319",
            "closest_to": "san luis obispo",
            "address": "Santa Barbara, Santa Barbara County, California, United States of America",
            "locType": "city",
            "blogLinks": [
                "http://travelblog.viator.com/road-trip-san-francisco-los-angeles/",
                "http://www.hopper.com/articles/291/five-great-stops-between-los-angeles-and-san-francisco-on-the-pacific-coast-highway",
                "http://therealmbahousewife.blogspot.com/2013/03/pch-roadtrip-from-la-to-san-francisco.html"
            ],
            "longitude": "-119.7026672"
        },
        "chicago": {
            "latitude": "37.7850531",
            "closest_to": "sausalito",
            "address": "Chicago, Woodstock, Alameda, Alameda County, California, 94501, United States of America",
            "locType": "residential",
            "blogLinks": [
                "http://therealmbahousewife.blogspot.com/2013/03/pch-roadtrip-from-la-to-san-francisco.html"
            ],
            "longitude": "-122.2872948"
        },
        "palmdale": {
            "latitude": "34.5793131",
            "closest_to": "san luis obispo",
            "address": "Palmdale, Los Angeles County, California, United States of America",
            "locType": "city",
            "blogLinks": [
                "http://www.roadsideamerica.com/location/ca"
            ],
            "longitude": "-118.1171107"
        },
        "buellton": {
            "latitude": "34.6134727",
            "closest_to": "san luis obispo",
            "address": "Buellton, Santa Barbara County, California, United States of America",
            "locType": "city",
            "blogLinks": [
                "http://www.sfgate.com/travel/article/San-Luis-Obispo-attractions-Slow-is-the-way-to-go-5112057.php",
                "http://www.roadsideamerica.com/location/ca"
            ],
            "longitude": "-120.1936691"
        },
        "viking garden": {
            "latitude": "33.7687836",
            "closest_to": "san luis obispo",
            "address": "Viking Circle, Garden Grove, Orange County, California, 92843, United States of America",
            "locType": "residential",
            "blogLinks": [
                "http://therealmbahousewife.blogspot.com/2013/03/pch-roadtrip-from-la-to-san-francisco.html"
            ],
            "longitude": "-117.9253327"
        },
        "trona": {
            "latitude": "35.7627322",
            "closest_to": "san luis obispo",
            "address": "Trona, San Bernardino County, California, United States of America",
            "locType": "hamlet",
            "blogLinks": [
                "http://www.roadsideamerica.com/location/ca"
            ],
            "longitude": "-117.3728345"
        },
        "santa maria": {
            "latitude": "34.9531295",
            "closest_to": "san luis obispo",
            "address": "Santa Maria, Santa Barbara County, California, United States of America",
            "locType": "city",
            "blogLinks": [
                "http://www.sfgate.com/travel/article/San-Luis-Obispo-attractions-Slow-is-the-way-to-go-5112057.php"
            ],
            "longitude": "-120.4358576"
        },
        "placerville": {
            "latitude": "38.7296252",
            "closest_to": "sausalito",
            "address": "Placerville, El Dorado County, California, United States of America",
            "locType": "city",
            "blogLinks": [
                "http://www.roadsideamerica.com/location/ca"
            ],
            "longitude": "-120.7985459"
        },
        "ano nuevo": {
            "latitude": "37.142919",
            "closest_to": "sausalito",
            "address": "Ano Nuevo Creek, Santa Cruz County, California, United States of America",
            "locType": "stream",
            "blogLinks": [
                "http://hearstcastle.org/plan-your-trip/area-attractions/mbnms/"
            ],
            "longitude": "-122.2862076"
        },
        "avila": {
            "latitude": "34.151876",
            "closest_to": "san luis obispo",
            "address": "Avila, Los Angeles County, California, 91750, United States of America",
            "locType": "residential",
            "blogLinks": [
                "http://therealmbahousewife.blogspot.com/2013/03/pch-roadtrip-from-la-to-san-francisco.html"
            ],
            "longitude": "-117.7559123"
        },
        "san carlos": {
            "latitude": "37.4982065",
            "closest_to": "sausalito",
            "address": "San Carlos, San Mateo County, California, United States of America",
            "locType": "city",
            "blogLinks": [
                "http://www.roadsideamerica.com/location/ca"
            ],
            "longitude": "-122.266149723864"
        },
        "lodi": {
            "latitude": "38.097198",
            "closest_to": "sausalito",
            "address": "Lodi, San Joaquin County, California, United States of America",
            "locType": "city",
            "blogLinks": [
                "http://therealmbahousewife.blogspot.com/2013/03/pch-roadtrip-from-la-to-san-francisco.html"
            ],
            "longitude": "-121.387849546574"
        },
        "san simeon bay": {
            "latitude": "35.6396921",
            "closest_to": "sausalito",
            "address": "San Simeon Bay, Slo San Simeon Road, San Simeon, San Luis Obispo County, California, United States of America",
            "locType": "bay",
            "blogLinks": [
                "http://hearstcastle.org/plan-your-trip/area-attractions/mbnms/"
            ],
            "longitude": "-121.1888087"
        },
        "san pedro": {
            "latitude": "33.7358518",
            "closest_to": "san luis obispo",
            "address": "San Pedro, LA, Los Angeles County, California, United States of America",
            "locType": "suburb",
            "blogLinks": [
                "http://www.roadsideamerica.com/location/ca"
            ],
            "longitude": "-118.2922933"
        },
        "monterey": {
            "latitude": "36.5844165",
            "closest_to": "sausalito",
            "address": "Monterey, Monterey County, California, United States of America",
            "locType": "city",
            "blogLinks": [
                "http://www.distancesfrom.com/us/distance-from-La-Jolla-to-Sausalito-CA-via-San-Luis-Obispo/DistanceHistory/13341813.aspx",
                "http://www.roadsideamerica.com/location/ca",
                "http://therealmbahousewife.blogspot.com/2013/03/pch-roadtrip-from-la-to-san-francisco.html"
            ],
            "longitude": "-121.866792846206"
        },
        "ravenswood": {
            "latitude": "37.4763272",
            "closest_to": "sausalito",
            "address": "Ravenswood, San Mateo County, California, United States of America",
            "locType": "hamlet",
            "blogLinks": [
                "http://therealmbahousewife.blogspot.com/2013/03/pch-roadtrip-from-la-to-san-francisco.html"
            ],
            "longitude": "-122.1352416"
        },
        "golden gate": {
            "latitude": "37.8190177",
            "closest_to": "sausalito",
            "address": "Golden Gate, Golden Gate Bridge, Waldo, Marin County, California, 94965, United States of America",
            "locType": "strait",
            "blogLinks": [
                "http://therealmbahousewife.blogspot.com/2013/03/pch-roadtrip-from-la-to-san-francisco.html"
            ],
            "longitude": "-122.4793972"
        },
        "orange county": {
            "latitude": "33.7500378",
            "closest_to": "san luis obispo",
            "address": "Orange County, California, United States of America",
            "locType": "administrative",
            "blogLinks": [
                "http://therealmbahousewife.blogspot.com/2013/03/pch-roadtrip-from-la-to-san-francisco.html"
            ],
            "longitude": "-117.870493"
        },
        "nepenthe": {
            "latitude": "36.2218116",
            "closest_to": "sausalito",
            "address": "Nepenthe, 48510, Cabrillo Highway, Posts, Monterey County, California, 93920-9549, United States of America",
            "locType": "restaurant",
            "blogLinks": [
                "http://travelblog.viator.com/road-trip-san-francisco-los-angeles/"
            ],
            "longitude": "-121.7596564"
        },
        "hotel union square": {
            "latitude": "37.785799",
            "closest_to": "sausalito",
            "address": "Hotel Union Square, Powell Street, Chinatown, SF, California, 94133, United States of America",
            "locType": "hotel",
            "blogLinks": [
                "http://therealmbahousewife.blogspot.com/2013/03/pch-roadtrip-from-la-to-san-francisco.html"
            ],
            "longitude": "-122.4077409"
        },
        "laguna beach": {
            "latitude": "33.5420888",
            "closest_to": "san luis obispo",
            "address": "Laguna Beach, Orange County, California, United States of America",
            "locType": "city",
            "blogLinks": [
                "http://www.coastalliving.com/travel/california"
            ],
            "longitude": "-117.7834146"
        },
        "los angeles": {
            "latitude": "34.0543942",
            "closest_to": "san luis obispo",
            "address": "LA, Los Angeles County, California, United States of America",
            "locType": "city",
            "blogLinks": [
                "http://travelblog.viator.com/road-trip-san-francisco-los-angeles/",
                "http://www.hopper.com/articles/291/five-great-stops-between-los-angeles-and-san-francisco-on-the-pacific-coast-highway",
                "http://www.roadsideamerica.com/location/ca"
            ],
            "longitude": "-118.2439408"
        },
        "cambria": {
            "latitude": "35.5641381",
            "closest_to": "sausalito",
            "address": "Cambria, San Luis Obispo County, California, United States of America",
            "locType": "administrative",
            "blogLinks": [
                "http://hearstcastle.org/plan-your-trip/area-attractions/mbnms/",
                "http://therealmbahousewife.blogspot.com/2013/03/pch-roadtrip-from-la-to-san-francisco.html"
            ],
            "longitude": "-121.0807467"
        },
        "woodland hills": {
            "latitude": "34.1683386",
            "closest_to": "san luis obispo",
            "address": "Woodland Hills, LA, Los Angeles County, California, United States of America",
            "locType": "suburb",
            "blogLinks": [
                "http://www.roadsideamerica.com/location/ca"
            ],
            "longitude": "-118.6059196"
        },
        "redwood city": {
            "latitude": "37.4852152",
            "closest_to": "sausalito",
            "address": "Redwood City, San Mateo County, California, United States of America",
            "locType": "city",
            "blogLinks": [
                "http://www.roadsideamerica.com/location/ca"
            ],
            "longitude": "-122.2363547"
        },
        "bixby creek bridge": {
            "latitude": "36.3710197",
            "closest_to": "sausalito",
            "address": "Bixby Creek Bridge, Notleys Landing, Monterey County, California, 93923, United States of America",
            "locType": "primary",
            "blogLinks": [
                "http://travelblog.viator.com/road-trip-san-francisco-los-angeles/"
            ],
            "longitude": "-121.9017572"
        },
        "sonoma": {
            "latitude": "38.5110803",
            "closest_to": "sausalito",
            "address": "Sonoma County, California, United States of America",
            "locType": "administrative",
            "blogLinks": [
                "http://therealmbahousewife.blogspot.com/2013/03/pch-roadtrip-from-la-to-san-francisco.html"
            ],
            "longitude": "-122.8473387"
        },
        "avila beach": {
            "latitude": "35.1799752",
            "closest_to": "san luis obispo",
            "address": "Avila Beach, San Luis Obispo County, California, United States of America",
            "locType": "hamlet",
            "blogLinks": [
                "http://www.sfgate.com/travel/article/San-Luis-Obispo-attractions-Slow-is-the-way-to-go-5112057.php"
            ],
            "longitude": "-120.7318417"
        },
        "san simeon": {
            "latitude": "35.6438587",
            "closest_to": "sausalito",
            "address": "San Simeon, San Luis Obispo County, California, United States of America",
            "locType": "hamlet",
            "blogLinks": [
                "http://www.roadsideamerica.com/location/ca",
                "http://www.hopper.com/articles/291/five-great-stops-between-los-angeles-and-san-francisco-on-the-pacific-coast-highway",
                "http://hearstcastle.org/plan-your-trip/area-attractions/mbnms/",
                "http://therealmbahousewife.blogspot.com/2013/03/pch-roadtrip-from-la-to-san-francisco.html"
            ],
            "longitude": "-121.1907532"
        },
        "burbank": {
            "latitude": "34.1816482",
            "closest_to": "san luis obispo",
            "address": "Burbank, Los Angeles County, California, United States of America",
            "locType": "city",
            "blogLinks": [
                "http://www.roadsideamerica.com/location/ca"
            ],
            "longitude": "-118.3258553"
        },
        "geyserville": {
            "latitude": "38.707687",
            "closest_to": "sausalito",
            "address": "Geyserville, Sonoma County, California, United States of America",
            "locType": "hamlet",
            "blogLinks": [
                "http://www.roadsideamerica.com/location/ca"
            ],
            "longitude": "-122.9024963"
        },
        "morro bay": {
            "latitude": "35.3658075",
            "closest_to": "sausalito",
            "address": "Morro Bay, San Luis Obispo County, California, United States of America",
            "locType": "city",
            "blogLinks": [
                "http://www.sfgate.com/travel/article/San-Luis-Obispo-attractions-Slow-is-the-way-to-go-5112057.php"
            ],
            "longitude": "-120.8499012"
        },
        "modesto": {
            "latitude": "37.6390972",
            "closest_to": "sausalito",
            "address": "Modesto, Stanislaus County, California, United States of America",
            "locType": "city",
            "blogLinks": [
                "http://therealmbahousewife.blogspot.com/2013/03/pch-roadtrip-from-la-to-san-francisco.html"
            ],
            "longitude": "-120.9968781"
        },
        "san fran": {
            "latitude": "35.142465",
            "closest_to": "san luis obispo",
            "address": "Golden Hills, Kern County, California, United States of America",
            "locType": "village",
            "blogLinks": [
                "http://therealmbahousewife.blogspot.com/2013/03/pch-roadtrip-from-la-to-san-francisco.html"
            ],
            "longitude": "-118.4903642"
        },
        "pacific ocean": {
            "latitude": "36.16305775",
            "closest_to": "sausalito",
            "address": "Pacific Ocean, Cabrillo Highway, Monterey County, California, 93920, United States of America",
            "locType": "cliff",
            "blogLinks": [
                "http://travelblog.viator.com/road-trip-san-francisco-los-angeles/",
                "http://www.hopper.com/articles/291/five-great-stops-between-los-angeles-and-san-francisco-on-the-pacific-coast-highway"
            ],
            "longitude": "-121.678715787326"
        },
        "san francisco": {
            "latitude": "37.7792808",
            "closest_to": "sausalito",
            "address": "SF, California, United States of America",
            "locType": "city",
            "blogLinks": [
                "http://www.roadsideamerica.com/location/ca",
                "http://www.hopper.com/articles/291/five-great-stops-between-los-angeles-and-san-francisco-on-the-pacific-coast-highway",
                "http://www.sfgate.com/travel/article/San-Luis-Obispo-attractions-Slow-is-the-way-to-go-5112057.php",
                "http://therealmbahousewife.blogspot.com/2013/03/pch-roadtrip-from-la-to-san-francisco.html",
                "http://travelblog.viator.com/road-trip-san-francisco-los-angeles/",
                "http://hearstcastle.org/plan-your-trip/area-attractions/mbnms/"
            ],
            "longitude": "-122.4192362"
        },
        "sequoia national park": {
            "latitude": "36.49584065",
            "closest_to": "san luis obispo",
            "address": "Sequoia National Park, Black Rock Pass Trail, Mineral King, Tulare County, California, United States of America",
            "locType": "national_park",
            "blogLinks": [
                "http://www.roadsideamerica.com/location/ca"
            ],
            "longitude": "-118.559919284386"
        },
        "coalinga": {
            "latitude": "36.1298952",
            "closest_to": "sausalito",
            "address": "Coalinga, Fresno County, California, United States of America",
            "locType": "city",
            "blogLinks": [
                "http://www.roadsideamerica.com/location/ca"
            ],
            "longitude": "-120.245046293019"
        },
        "hyatt regency": {
            "latitude": "34.05472945",
            "closest_to": "san luis obispo",
            "address": "Hyatt Regency, The LA Hotel Downtown, Figueroa Street, Financial District, Bunker Hill, LA, Los Angeles County, California, 90071, United States of America",
            "locType": "hotel",
            "blogLinks": [
                "http://therealmbahousewife.blogspot.com/2013/03/pch-roadtrip-from-la-to-san-francisco.html"
            ],
            "longitude": "-118.255604370831"
        },
        "monterey bay aquarium": {
            "latitude": "36.61809095",
            "closest_to": "sausalito",
            "address": "MBA, 886, Cannery Row, Monterey, Monterey County, California, 93940, United States of America",
            "locType": "aquarium",
            "blogLinks": [
                "http://travelblog.viator.com/road-trip-san-francisco-los-angeles/",
                "http://www.hopper.com/articles/291/five-great-stops-between-los-angeles-and-san-francisco-on-the-pacific-coast-highway",
                "http://therealmbahousewife.blogspot.com/2013/03/pch-roadtrip-from-la-to-san-francisco.html"
            ],
            "longitude": "-121.901680002002"
        },
        "bay area": {
            "latitude": "37.7884969",
            "closest_to": "sausalito",
            "address": "San Francisco Bay Area, SF, California, United States of America",
            "locType": "region",
            "blogLinks": [
                "http://www.sfgate.com/travel/article/San-Luis-Obispo-attractions-Slow-is-the-way-to-go-5112057.php",
                "http://therealmbahousewife.blogspot.com/2013/03/pch-roadtrip-from-la-to-san-francisco.html"
            ],
            "longitude": "-122.3558472"
        },
        "united states": {
            "latitude": "36.7014631",
            "closest_to": "san luis obispo",
            "address": "California, United States of America",
            "locType": "administrative",
            "blogLinks": [
                "http://hearstcastle.org/plan-your-trip/area-attractions/mbnms/"
            ],
            "longitude": "-118.7559973"
        },
        "pasadena": {
            "latitude": "34.1476452",
            "closest_to": "san luis obispo",
            "address": "Pasadena, Los Angeles County, California, United States of America",
            "locType": "city",
            "blogLinks": [
                "http://www.roadsideamerica.com/location/ca"
            ],
            "longitude": "-118.1444778"
        },
        "forestville": {
            "latitude": "38.4833405",
            "closest_to": "sausalito",
            "address": "Forestville, Trenton Road, Trenton, Sonoma County, California, 95436, United States of America",
            "locType": "administrative",
            "blogLinks": [
                "http://www.roadsideamerica.com/location/ca"
            ],
            "longitude": "-122.861584174866"
        },
        "sunol": {
            "latitude": "37.5943781",
            "closest_to": "sausalito",
            "address": "Sunol, Alameda County, California, United States of America",
            "locType": "hamlet",
            "blogLinks": [
                "http://www.roadsideamerica.com/location/ca"
            ],
            "longitude": "-121.8885682"
        },
        "north beach": {
            "latitude": "37.8011749",
            "closest_to": "sausalito",
            "address": "North Beach, SF, California, 94133, United States of America",
            "locType": "neighbourhood",
            "blogLinks": [
                "http://therealmbahousewife.blogspot.com/2013/03/pch-roadtrip-from-la-to-san-francisco.html"
            ],
            "longitude": "-122.409002"
        },
        "pacifica": {
            "latitude": "37.6138253",
            "closest_to": "sausalito",
            "address": "Pacifica, San Mateo County, California, United States of America",
            "locType": "city",
            "blogLinks": [
                "http://www.roadsideamerica.com/location/ca"
            ],
            "longitude": "-122.4869193"
        },
        "big sur bakery": {
            "latitude": "36.2359105",
            "closest_to": "sausalito",
            "address": "Big Sur Bakery, 47540, Cabrillo Highway, Posts, Monterey County, California, 93920, United States of America",
            "locType": "bakery",
            "blogLinks": [
                "http://travelblog.viator.com/road-trip-san-francisco-los-angeles/"
            ],
            "longitude": "-121.7693642"
        },
        "san rafael": {
            "latitude": "37.9735346",
            "closest_to": "sausalito",
            "address": "San Rafael, Marin County, California, United States of America",
            "locType": "city",
            "blogLinks": [
                "http://www.roadsideamerica.com/location/ca"
            ],
            "longitude": "-122.5310873"
        },
        "oroville": {
            "latitude": "39.5137752",
            "closest_to": "sausalito",
            "address": "Oroville, Butte County, California, United States of America",
            "locType": "city",
            "blogLinks": [
                "http://www.roadsideamerica.com/location/ca"
            ],
            "longitude": "-121.5563589"
        },
        "el moro elfin forest": {
            "latitude": "35.33376935",
            "closest_to": "sausalito",
            "address": "El Moro Elfin Forest Preserve, 15th Street, Baywood-Los Osos, San Luis Obispo County, California, 93402, United States of America",
            "locType": "protected_area",
            "blogLinks": [
                "http://www.sfgate.com/travel/article/San-Luis-Obispo-attractions-Slow-is-the-way-to-go-5112057.php"
            ],
            "longitude": "-120.82692824744"
        },
        "garberville": {
            "latitude": "40.1005685",
            "closest_to": "sausalito",
            "address": "Garberville, Humboldt County, California, United States of America",
            "locType": "village",
            "blogLinks": [
                "http://www.roadsideamerica.com/location/ca"
            ],
            "longitude": "-123.7961393"
        },
        "baldwin park": {
            "latitude": "34.0854739",
            "closest_to": "san luis obispo",
            "address": "Baldwin Park, Los Angeles County, California, United States of America",
            "locType": "city",
            "blogLinks": [
                "http://www.roadsideamerica.com/location/ca"
            ],
            "longitude": "-117.961176"
        },
        "sebastopol": {
            "latitude": "38.4021359",
            "closest_to": "sausalito",
            "address": "Sebastopol, Sonoma County, California, United States of America",
            "locType": "city",
            "blogLinks": [
                "http://www.roadsideamerica.com/location/ca"
            ],
            "longitude": "-122.8238805"
        },
        "richmond": {
            "latitude": "37.9357576",
            "closest_to": "sausalito",
            "address": "Richmond, Contra Costa County, California, United States of America",
            "locType": "city",
            "blogLinks": [
                "http://www.roadsideamerica.com/location/ca"
            ],
            "longitude": "-122.3477485"
        },
        "bakersfield": {
            "latitude": "35.3738712",
            "closest_to": "san luis obispo",
            "address": "Bakersfield, Kern County, California, United States of America",
            "locType": "city",
            "blogLinks": [
                "http://www.roadsideamerica.com/location/ca"
            ],
            "longitude": "-119.0194638"
        },
        "inglewood": {
            "latitude": "33.9616801",
            "closest_to": "san luis obispo",
            "address": "Inglewood, Los Angeles County, California, United States of America",
            "locType": "city",
            "blogLinks": [
                "http://www.roadsideamerica.com/location/ca"
            ],
            "longitude": "-118.353131"
        },
        "ventura": {
            "latitude": "34.4458248",
            "closest_to": "san luis obispo",
            "address": "Ventura County, California, United States of America",
            "locType": "administrative",
            "blogLinks": [
                "http://travelblog.viator.com/road-trip-san-francisco-los-angeles/"
            ],
            "longitude": "-119.0779358"
        },
        "atascadero": {
            "latitude": "35.4894169",
            "closest_to": "sausalito",
            "address": "Atascadero, San Luis Obispo County, California, United States of America",
            "locType": "city",
            "blogLinks": [
                "http://www.roadsideamerica.com/location/ca"
            ],
            "longitude": "-120.6707254"
        },
        "whittier": {
            "latitude": "33.9748932",
            "closest_to": "san luis obispo",
            "address": "Whittier, Los Angeles County, California, United States of America",
            "locType": "city",
            "blogLinks": [
                "http://www.roadsideamerica.com/location/ca"
            ],
            "longitude": "-118.0336974"
        },
        "los osos": {
            "latitude": "35.3107214",
            "closest_to": "sausalito",
            "address": "Los Osos, San Luis Obispo County, California, United States of America",
            "locType": "village",
            "blogLinks": [
                "http://www.sfgate.com/travel/article/San-Luis-Obispo-attractions-Slow-is-the-way-to-go-5112057.php"
            ],
            "longitude": "-120.8323486"
        },
        "colma": {
            "latitude": "37.6768779",
            "closest_to": "sausalito",
            "address": "Colma, San Mateo County, California, United States of America",
            "locType": "administrative",
            "blogLinks": [
                "http://www.roadsideamerica.com/location/ca"
            ],
            "longitude": "-122.4596949"
        },
        "bay": {
            "latitude": "33.6899249",
            "closest_to": "san luis obispo",
            "address": "Bay, Meadows Mobile Home Park, El Camino Real, Irvine, Orange County, California, 92406, United States of America",
            "locType": "service",
            "blogLinks": [
                "http://travelblog.viator.com/road-trip-san-francisco-los-angeles/"
            ],
            "longitude": "-117.7729354"
        },
        "haight-ashbury": {
            "latitude": "37.7700462",
            "closest_to": "sausalito",
            "address": "Haight-Ashbury, SF, California, 94117, United States of America",
            "locType": "neighbourhood",
            "blogLinks": [
                "http://therealmbahousewife.blogspot.com/2013/03/pch-roadtrip-from-la-to-san-francisco.html"
            ],
            "longitude": "-122.4470138"
        },
        "julia pfeiffer burns state park": {
            "latitude": "36.16998345",
            "closest_to": "sausalito",
            "address": "Julia Pfeiffer Burns State Park, Ewoldsen trail, Monterey County, California, United States of America",
            "locType": "park",
            "blogLinks": [
                "http://therealmbahousewife.blogspot.com/2013/03/pch-roadtrip-from-la-to-san-francisco.html"
            ],
            "longitude": "-121.665388254615"
        },
        "madonna inn": {
            "latitude": "35.2673282",
            "closest_to": "san luis obispo",
            "address": "Madonna Inn, 100, Madonna Road, San Luis Obispo, San Luis Obispo County, California, 93405, United States of America",
            "locType": "hotel",
            "blogLinks": [
                "http://therealmbahousewife.blogspot.com/2013/03/pch-roadtrip-from-la-to-san-francisco.html"
            ],
            "longitude": "-120.674725246222"
        },
        "carmel": {
            "latitude": "38.75511285",
            "closest_to": "sausalito",
            "address": "Carmel, Roseville, Placer County, California, 95747, United States of America",
            "locType": "residential",
            "blogLinks": [
                "http://travelblog.viator.com/road-trip-san-francisco-los-angeles/",
                "http://www.hopper.com/articles/291/five-great-stops-between-los-angeles-and-san-francisco-on-the-pacific-coast-highway",
                "http://therealmbahousewife.blogspot.com/2013/03/pch-roadtrip-from-la-to-san-francisco.html"
            ],
            "longitude": "-121.353308848273"
        },
        "north hollywood": {
            "latitude": "34.1729044",
            "closest_to": "san luis obispo",
            "address": "North Hollywood, LA, Los Angeles County, California, United States of America",
            "locType": "suburb",
            "blogLinks": [
                "http://www.roadsideamerica.com/location/ca"
            ],
            "longitude": "-118.374037"
        },
        "arroyo grande": {
            "latitude": "35.1185869",
            "closest_to": "san luis obispo",
            "address": "Arroyo Grande, San Luis Obispo County, California, United States of America",
            "locType": "city",
            "blogLinks": [
                "http://www.sfgate.com/travel/article/San-Luis-Obispo-attractions-Slow-is-the-way-to-go-5112057.php"
            ],
            "longitude": "-120.5907251"
        },
        "hollywood": {
            "latitude": "34.1028268",
            "closest_to": "san luis obispo",
            "address": "Hollywood, LA, Los Angeles County, California, United States of America",
            "locType": "suburb",
            "blogLinks": [
                "http://www.roadsideamerica.com/location/ca"
            ],
            "longitude": "-118.3299898"
        },
        "union square": {
            "latitude": "37.78794125",
            "closest_to": "sausalito",
            "address": "Union Square, Post Street, Chinatown, SF, California, 94115, United States of America",
            "locType": "park",
            "blogLinks": [
                "http://therealmbahousewife.blogspot.com/2013/03/pch-roadtrip-from-la-to-san-francisco.html"
            ],
            "longitude": "-122.407502671706"
        },
        "glendora": {
            "latitude": "34.1361187",
            "closest_to": "san luis obispo",
            "address": "Glendora, Los Angeles County, California, United States of America",
            "locType": "city",
            "blogLinks": [
                "http://www.roadsideamerica.com/location/ca"
            ],
            "longitude": "-117.8653389"
        },
        "sierra mar": {
            "latitude": "36.229692",
            "closest_to": "sausalito",
            "address": "Sierra Mar, Bill's Trail, Posts, Monterey County, California, United States of America",
            "locType": "restaurant",
            "blogLinks": [
                "http://therealmbahousewife.blogspot.com/2013/03/pch-roadtrip-from-la-to-san-francisco.html"
            ],
            "longitude": "-121.77167575"
        },
        "north coast": {
            "latitude": "37.858337",
            "closest_to": "sausalito",
            "address": "Coast, Ashby Avenue, Claremont, Berkeley, Alameda County, California, 94705, United States of America",
            "locType": "fuel",
            "blogLinks": [
                "http://www.coastalliving.com/travel/california"
            ],
            "longitude": "-122.2447393"
        }
    },
    "sausalito": {
        "type": "administrative",
        "osm_id": "2829689",
        "class": "boundary",
        "importance": 0.64561533453658,
        "lat": "37.8590272",
        "lon": "-122.4854693",
        "boundingbox": [
            "37.8436795",
            "37.8731429",
            "-122.5102612",
            "-122.4753744"
        ],
        "display_name": "Sausalito, Marin County, California, United States of America",
        "licence": "Data \u00a9 OpenStreetMap contributors, ODbL 1.0. http://www.openstreetmap.org/copyright",
        "icon": "https://nominatim.openstreetmap.org/images/mapicons/poi_boundary_administrative.p.20.png",
        "place_id": "159575624",
        "osm_type": "relation"
    },
    "san luis obispo": {
        "type": "city",
        "osm_id": "33111824",
        "class": "place",
        "importance": 0.87823218277902,
        "lat": "35.2827525",
        "lon": "-120.6596155",
        "boundingbox": [
            "35.233002",
            "35.31199",
            "-120.7229769",
            "-120.6177727"
        ],
        "display_name": "San Luis Obispo, San Luis Obispo County, California, United States of America",
        "licence": "Data \u00a9 OpenStreetMap contributors, ODbL 1.0. http://www.openstreetmap.org/copyright",
        "icon": "https://nominatim.openstreetmap.org/images/mapicons/poi_place_city.p.20.png",
        "place_id": "71485104",
        "osm_type": "way"
    }
}