{
    "san bernardino": {
        "type": "city",
        "osm_id": "253639",
        "class": "place",
        "importance": 0.81183700771795,
        "lat": "34.1083449",
        "lon": "-117.2897651",
        "boundingbox": [
            "34.050346",
            "34.230706",
            "-117.4024519",
            "-117.1649719"
        ],
        "display_name": "San Bernardino, San Bernardino County, California, United States of America",
        "licence": "Data \u00a9 OpenStreetMap contributors, ODbL 1.0. http://www.openstreetmap.org/copyright",
        "icon": "https://nominatim.openstreetmap.org/images/mapicons/poi_place_city.p.20.png",
        "place_id": "159293643",
        "osm_type": "relation"
    },
    "san francisco": {
        "type": "city",
        "osm_id": "111968",
        "class": "place",
        "importance": 0.78836369596997,
        "lat": "37.7792808",
        "lon": "-122.4192362",
        "boundingbox": [
            "37.6403143",
            "37.9298443",
            "-123.1738249",
            "-122.2817799"
        ],
        "display_name": "SF, California, United States of America",
        "licence": "Data \u00a9 OpenStreetMap contributors, ODbL 1.0. http://www.openstreetmap.org/copyright",
        "icon": "https://nominatim.openstreetmap.org/images/mapicons/poi_place_city.p.20.png",
        "place_id": "158675742",
        "osm_type": "relation"
    },
    "mentions": {
        "california coast": {
            "latitude": "32.7586361",
            "closest_to": "san bernardino",
            "address": "California Coast Credit Union, Park Boulevard, Hillcrest, San Diego, San Diego County, California, 92116, United States of America",
            "locType": "bank",
            "blogLinks": [
                "http://traveltips.usatoday.com/fun-things-los-angeles-san-francisco-14664.html"
            ],
            "longitude": "-117.1464145"
        },
        "highway 101": {
            "latitude": "32.9967358",
            "closest_to": "san bernardino",
            "address": "Highway 101, Solana Beach, San Diego County, California, 92075, United States of America",
            "locType": "primary",
            "blogLinks": [
                "http://travelblog.viator.com/road-trip-san-francisco-los-angeles/",
                "http://traveltips.usatoday.com/fun-things-los-angeles-san-francisco-14664.html"
            ],
            "longitude": "-117.2731974"
        },
        "san luis obispo museum of art": {
            "latitude": "35.2795773",
            "closest_to": "san francisco",
            "address": "San Luis Obispo Museum of Art, 1010, Broad Street, San Luis Obispo, San Luis Obispo County, California, 93401, United States of America",
            "locType": "museum",
            "blogLinks": [
                "http://travelblog.viator.com/road-trip-san-francisco-los-angeles/"
            ],
            "longitude": "-120.6649345"
        },
        "pacific coast highway": {
            "latitude": "33.6595127",
            "closest_to": "san francisco",
            "address": "Pacific Coast Highway, Huntington Beach, Orange County, California, 92648, United States of America",
            "locType": "primary",
            "blogLinks": [
                "http://wikitravel.org/en/San_Diego",
                "http://traveltips.usatoday.com/fun-things-los-angeles-san-francisco-14664.html",
                "http://www.hopper.com/articles/291/five-great-stops-between-los-angeles-and-san-francisco-on-the-pacific-coast-highway",
                "https://www.gapyear.com/articles/216212/13-incredible-stops-on-the-pacific-coast-highway",
                "https://www.tripit.com/blog/2016/01/california-driving-distances-and-times.html"
            ],
            "longitude": "-118.0051687"
        },
        "carmel-by-the-sea": {
            "latitude": "36.5552387",
            "closest_to": "san francisco",
            "address": "Carmel-by-the-Sea, Monterey County, California, United States of America",
            "locType": "city",
            "blogLinks": [
                "http://travelblog.viator.com/road-trip-san-francisco-los-angeles/",
                "http://fathomaway.com/guides/usa/san-francisco/itineraries/road-trip-san-francisco-to-monterey-california/",
                "http://www.hopper.com/articles/291/five-great-stops-between-los-angeles-and-san-francisco-on-the-pacific-coast-highway",
                "https://www.gapyear.com/articles/216212/13-incredible-stops-on-the-pacific-coast-highway"
            ],
            "longitude": "-121.9232878"
        },
        "india": {
            "latitude": "32.72025735",
            "closest_to": "san bernardino",
            "address": "Star of India, North Harbor Drive, Hillcrest, San Diego, San Diego County, California, 92106, United States of America",
            "locType": "attraction",
            "blogLinks": [
                "http://wikitravel.org/en/San_Diego"
            ],
            "longitude": "-117.173543004762"
        },
        "phoenix": {
            "latitude": "33.6988015",
            "closest_to": "san bernardino",
            "address": "Phoenix, Heritage Park Apartments, El Camino Real, Irvine, Orange County, California, 92604, United States of America",
            "locType": "residential",
            "blogLinks": [
                "http://wikitravel.org/en/San_Diego"
            ],
            "longitude": "-117.7764481"
        },
        "linda vista road": {
            "latitude": "32.805611",
            "closest_to": "san bernardino",
            "address": "Linda Vista Road, Mission Valley, San Diego, San Diego County, California, 92111, United States of America",
            "locType": "secondary",
            "blogLinks": [
                "http://wikitravel.org/en/San_Diego"
            ],
            "longitude": "-117.1553189"
        },
        "us hwy 101": {
            "latitude": "32.9967358",
            "closest_to": "san bernardino",
            "address": "Highway 101, Solana Beach, San Diego County, California, 92075, United States of America",
            "locType": "primary",
            "blogLinks": [
                "http://gocalifornia.about.com/od/topcalifornia/ss/route-66.htm"
            ],
            "longitude": "-117.2731974"
        },
        "san diego county": {
            "latitude": "32.9637838",
            "closest_to": "san bernardino",
            "address": "San Diego County, California, United States of America",
            "locType": "administrative",
            "blogLinks": [
                "http://wikitravel.org/en/San_Diego",
                "https://www.gapyear.com/articles/216212/13-incredible-stops-on-the-pacific-coast-highway"
            ],
            "longitude": "-116.7706276"
        },
        "sea lion point": {
            "latitude": "36.51877145",
            "closest_to": "san francisco",
            "address": "Sea Lion Point, Seal Lion Point Trail, Carmel Highlands, Monterey County, California, 93921, United States of America",
            "locType": "parking",
            "blogLinks": [
                "http://fathomaway.com/guides/usa/san-francisco/itineraries/road-trip-san-francisco-to-monterey-california/"
            ],
            "longitude": "-121.94980853776"
        },
        "san francisco bay area": {
            "latitude": "37.7884969",
            "closest_to": "san francisco",
            "address": "San Francisco Bay Area, SF, California, United States of America",
            "locType": "region",
            "blogLinks": [
                "http://wikitravel.org/en/San_Diego"
            ],
            "longitude": "-122.3558472"
        },
        "imperial beach": {
            "latitude": "32.5839444",
            "closest_to": "san bernardino",
            "address": "Imperial Beach, San Diego County, California, United States of America",
            "locType": "city",
            "blogLinks": [
                "http://wikitravel.org/en/San_Diego"
            ],
            "longitude": "-117.1130848"
        },
        "cajon pass": {
            "latitude": "34.3251973",
            "closest_to": "san francisco",
            "address": "Cajon Pass, Summit Terrace, San Bernardino County, California, United States of America",
            "locType": "yes",
            "blogLinks": [
                "http://gocalifornia.about.com/od/topcalifornia/ss/route-66.htm",
                "https://www.tripadvisor.com/ShowTopic-g28926-i29-k4437891-HWY_1_Road_Trip_San_Francisco_to_San_Diego_Itinerary-California.html"
            ],
            "longitude": "-117.4282748"
        },
        "sierra madre blvd south": {
            "latitude": "34.161921",
            "closest_to": "san francisco",
            "address": "Sierra Madre Boulevard, Pasadena, Los Angeles County, California, 91024, United States of America",
            "locType": "primary",
            "blogLinks": [
                "http://gocalifornia.about.com/od/topcalifornia/ss/route-66.htm"
            ],
            "longitude": "-118.0698286"
        },
        "colorado river": {
            "latitude": "33.58648635",
            "closest_to": "san bernardino",
            "address": "Colorado River, Riviera Drive, East Blythe, Riverside County, California, 92225, United States of America",
            "locType": "water",
            "blogLinks": [
                "http://gocalifornia.about.com/od/topcalifornia/ss/route-66.htm"
            ],
            "longitude": "-114.542164096234"
        },
        "imperial valley": {
            "latitude": "33.0305487",
            "closest_to": "san bernardino",
            "address": "Imperial County, California, United States of America",
            "locType": "administrative",
            "blogLinks": [
                "http://wikitravel.org/en/San_Diego"
            ],
            "longitude": "-115.3595665"
        },
        "la jolla": {
            "latitude": "32.8472711",
            "closest_to": "san bernardino",
            "address": "La Jolla, San Diego, San Diego County, California, United States of America",
            "locType": "suburb",
            "blogLinks": [
                "http://wikitravel.org/en/San_Diego"
            ],
            "longitude": "-117.2742085"
        },
        "mcway falls trail": {
            "latitude": "36.1578211",
            "closest_to": "san francisco",
            "address": "McWay Falls, Monterey County, California, United States of America",
            "locType": "waterfall",
            "blogLinks": [
                "http://travelblog.viator.com/road-trip-san-francisco-los-angeles/"
            ],
            "longitude": "-121.6723957"
        },
        "ballast point": {
            "latitude": "33.4306128",
            "closest_to": "san francisco",
            "address": "Ballast Point, Two Harbors, Los Angeles County, California, United States of America",
            "locType": "locality",
            "blogLinks": [
                "http://wikitravel.org/en/San_Diego"
            ],
            "longitude": "-118.5054834"
        },
        "encinitas": {
            "latitude": "33.0369867",
            "closest_to": "san bernardino",
            "address": "Encinitas, San Diego County, California, United States of America",
            "locType": "city",
            "blogLinks": [
                "http://wikitravel.org/en/San_Diego"
            ],
            "longitude": "-117.2919817"
        },
        "genesee avenue": {
            "latitude": "34.0376458",
            "closest_to": "san francisco",
            "address": "Genesee Avenue, South Carthay, The Village Green, LA, Los Angeles County, California, 90016, United States of America",
            "locType": "residential",
            "blogLinks": [
                "http://wikitravel.org/en/San_Diego"
            ],
            "longitude": "-118.3685811"
        },
        "santa monica": {
            "latitude": "34.0195598",
            "closest_to": "san francisco",
            "address": "Santa Monica, Los Angeles County, California, United States of America",
            "locType": "city",
            "blogLinks": [
                "http://travelblog.viator.com/road-trip-san-francisco-los-angeles/",
                "http://gocalifornia.about.com/od/topcalifornia/ss/route-66.htm",
                "https://www.tripadvisor.com/ShowTopic-g28926-i29-k4437891-HWY_1_Road_Trip_San_Francisco_to_San_Diego_Itinerary-California.html"
            ],
            "longitude": "-118.4869738"
        },
        "los angeles county": {
            "latitude": "34.3155072",
            "closest_to": "san francisco",
            "address": "Los Angeles County, California, United States of America",
            "locType": "administrative",
            "blogLinks": [
                "http://gocalifornia.about.com/od/topcalifornia/ss/route-66.htm"
            ],
            "longitude": "-118.2096813"
        },
        "san clemente": {
            "latitude": "33.4270275",
            "closest_to": "san bernardino",
            "address": "San Clemente, Orange County, California, United States of America",
            "locType": "city",
            "blogLinks": [
                "http://wikitravel.org/en/San_Diego"
            ],
            "longitude": "-117.6124178"
        },
        "' soda lake": {
            "latitude": "35.23913735",
            "closest_to": "san francisco",
            "address": "Soda Lake, Soda Lake Road, San Luis Obispo County, California, United States of America",
            "locType": "water",
            "blogLinks": [
                "https://www.gapyear.com/articles/216212/13-incredible-stops-on-the-pacific-coast-highway"
            ],
            "longitude": "-119.895515964214"
        },
        "gaslamp quarter": {
            "latitude": "32.7109444",
            "closest_to": "san bernardino",
            "address": "Gaslamp Quarter, San Diego County, California, United States of America",
            "locType": "hamlet",
            "blogLinks": [
                "http://wikitravel.org/en/San_Diego"
            ],
            "longitude": "-117.1597028"
        },
        "san jose": {
            "latitude": "37.3361905",
            "closest_to": "san francisco",
            "address": "San Jos\u00e9, Santa Clara County, California, United States of America",
            "locType": "city",
            "blogLinks": [
                "http://fathomaway.com/guides/usa/san-francisco/itineraries/road-trip-san-francisco-to-monterey-california/",
                "https://www.gapyear.com/articles/216212/13-incredible-stops-on-the-pacific-coast-highway"
            ],
            "longitude": "-121.8905832"
        },
        "king city": {
            "latitude": "36.2127439",
            "closest_to": "san francisco",
            "address": "King City, Monterey County, California, United States of America",
            "locType": "city",
            "blogLinks": [
                "http://traveltips.usatoday.com/fun-things-los-angeles-san-francisco-14664.html"
            ],
            "longitude": "-121.1260286"
        },
        "las vegas": {
            "latitude": "36.17310935",
            "closest_to": "san bernardino",
            "address": "California Hotel, Sky Walk(Connection from Main Street to California, Cultural Corridor, Vegas Heights, Las Vegas, Clark County, Nevada, 89101, United States of America",
            "locType": "hotel",
            "blogLinks": [
                "https://www.tripadvisor.com/ShowTopic-g28926-i29-k4437891-HWY_1_Road_Trip_San_Francisco_to_San_Diego_Itinerary-California.html",
                "http://www.timeanddate.com/worldclock/distances.html?n=770",
                "https://www.tripit.com/blog/2016/01/california-driving-distances-and-times.html"
            ],
            "longitude": "-115.144667930325"
        },
        "santa cruz": {
            "latitude": "36.9735903",
            "closest_to": "san francisco",
            "address": "Santa Cruz, Santa Cruz County, California, United States of America",
            "locType": "city",
            "blogLinks": [
                "http://fathomaway.com/guides/usa/san-francisco/itineraries/road-trip-san-francisco-to-monterey-california/",
                "https://www.tripadvisor.com/ShowTopic-g28926-i29-k4437891-HWY_1_Road_Trip_San_Francisco_to_San_Diego_Itinerary-California.html",
                "http://traveltips.usatoday.com/fun-things-los-angeles-san-francisco-14664.html",
                "https://www.gapyear.com/articles/216212/13-incredible-stops-on-the-pacific-coast-highway",
                "https://www.tripit.com/blog/2016/01/california-driving-distances-and-times.html"
            ],
            "longitude": "-122.0260569"
        },
        "ocean beach": {
            "latitude": "32.7477784",
            "closest_to": "san bernardino",
            "address": "Ocean Beach, San Diego, San Diego County, California, United States of America",
            "locType": "region",
            "blogLinks": [
                "http://travelblog.viator.com/road-trip-san-francisco-los-angeles/",
                "http://wikitravel.org/en/San_Diego"
            ],
            "longitude": "-117.249321"
        },
        "hillcrest": {
            "latitude": "32.7483621",
            "closest_to": "san bernardino",
            "address": "Hillcrest, San Diego, San Diego County, California, United States of America",
            "locType": "suburb",
            "blogLinks": [
                "http://wikitravel.org/en/San_Diego"
            ],
            "longitude": "-117.1609795"
        },
        "santa cruz beach boardwalk": {
            "latitude": "36.96446855",
            "closest_to": "san francisco",
            "address": "Santa Cruz Beach Boardwalk, Boardwalk, Beach & Boardwalk District (Commercial), Seabright, Santa Cruz, Santa Cruz County, California, 1982, United States of America",
            "locType": "attraction",
            "blogLinks": [
                "http://travelblog.viator.com/road-trip-san-francisco-los-angeles/",
                "https://www.gapyear.com/articles/216212/13-incredible-stops-on-the-pacific-coast-highway"
            ],
            "longitude": "-122.016027247326"
        },
        "santa monica boulevard": {
            "latitude": "34.0907545",
            "closest_to": "san francisco",
            "address": "Santa Monica Boulevard, Little Armenia, LA, Los Angeles County, California, Ca 90038, United States of America",
            "locType": "primary",
            "blogLinks": [
                "http://gocalifornia.about.com/od/topcalifornia/ss/route-66.htm"
            ],
            "longitude": "-118.317943"
        },
        "ano nuevo state park": {
            "latitude": "37.1642859",
            "closest_to": "san francisco",
            "address": "A\u00f1o Nuevo State Park, White House Canyon Road, San Mateo County, California, United States of America",
            "locType": "park",
            "blogLinks": [
                "https://www.gapyear.com/articles/216212/13-incredible-stops-on-the-pacific-coast-highway"
            ],
            "longitude": "-122.328030779329"
        },
        "shanghai": {
            "latitude": "37.34935045",
            "closest_to": "san francisco",
            "address": "Shanghai, Jackson Street, Hensley Historic District, Japantown, San Jos\u00e9, Santa Clara County, California, 95112, United States of America",
            "locType": "yes",
            "blogLinks": [
                "http://wikitravel.org/en/San_Diego"
            ],
            "longitude": "-121.894015266141"
        },
        "latin america": {
            "latitude": "32.88513545",
            "closest_to": "san bernardino",
            "address": "Latin America Hall, North Torrey Pines Road, La Jolla, San Diego, San Diego County, California, 92037, United States of America",
            "locType": "yes",
            "blogLinks": [
                "http://wikitravel.org/en/San_Diego"
            ],
            "longitude": "-117.243474813578"
        },
        "soledad": {
            "latitude": "36.4269452",
            "closest_to": "san francisco",
            "address": "Soledad, Monterey County, California, United States of America",
            "locType": "city",
            "blogLinks": [
                "http://traveltips.usatoday.com/fun-things-los-angeles-san-francisco-14664.html"
            ],
            "longitude": "-121.3272146"
        },
        "alcatraz island": {
            "latitude": "37.8267283",
            "closest_to": "san francisco",
            "address": "Alcatraz Island, SF, California, United States of America",
            "locType": "island",
            "blogLinks": [
                "https://www.gapyear.com/articles/216212/13-incredible-stops-on-the-pacific-coast-highway"
            ],
            "longitude": "-122.422746492409"
        },
        "esmeralda": {
            "latitude": "34.0829329",
            "closest_to": "san francisco",
            "address": "Esmeralda Street, Rose Hill, Highland Park, LA, Los Angeles County, California, 90032, United States of America",
            "locType": "residential",
            "blogLinks": [
                "http://wikitravel.org/en/San_Diego"
            ],
            "longitude": "-118.1939061"
        },
        "viejas arena": {
            "latitude": "32.77380925",
            "closest_to": "san bernardino",
            "address": "Viejas Arena, Aztec Walk, San Diego, San Diego County, California, 92182, United States of America",
            "locType": "sports_centre",
            "blogLinks": [
                "http://wikitravel.org/en/San_Diego"
            ],
            "longitude": "-117.074548235413"
        },
        "pacific northwest": {
            "latitude": "37.98042375",
            "closest_to": "san francisco",
            "address": "University of the Pacific, 3601, Pacific Avenue, Stockton, San Joaquin County, California, 95211, United States of America",
            "locType": "university",
            "blogLinks": [
                "https://www.tripit.com/blog/2016/01/california-driving-distances-and-times.html"
            ],
            "longitude": "-121.312847098327"
        },
        "american riviera": {
            "latitude": "38.576666",
            "closest_to": "san francisco",
            "address": "American River Drive, La Riviera, Sacramento County, California, 95608, United States of America",
            "locType": "tertiary",
            "blogLinks": [
                "http://travelblog.viator.com/road-trip-san-francisco-los-angeles/",
                "http://www.hopper.com/articles/291/five-great-stops-between-los-angeles-and-san-francisco-on-the-pacific-coast-highway"
            ],
            "longitude": "-121.3602199"
        },
        "west coast": {
            "latitude": "34.0222263",
            "closest_to": "san francisco",
            "address": "West Coast, Motor Avenue, Palms, LA, Los Angeles County, California, 90034-5702, United States of America",
            "locType": "plumber",
            "blogLinks": [
                "https://www.gapyear.com/articles/216212/13-incredible-stops-on-the-pacific-coast-highway"
            ],
            "longitude": "-118.4051087"
        },
        "chandler": {
            "latitude": "36.5873787",
            "closest_to": "san francisco",
            "address": "Chandler, Selma, Fresno County, California, 93662, United States of America",
            "locType": "residential",
            "blogLinks": [
                "http://wikitravel.org/en/San_Diego"
            ],
            "longitude": "-119.633388"
        },
        "san bernardino": {
            "latitude": "34.1083449",
            "closest_to": "san francisco",
            "address": "San Bernardino, San Bernardino County, California, United States of America",
            "locType": "city",
            "blogLinks": [
                "http://wikitravel.org/en/San_Diego",
                "https://www.virtualtourist.com/travel/North_America/United_States_of_America/California/San_Bernardino-755456/Things_To_Do-San_Bernardino-TG-C-1.html",
                "http://gocalifornia.about.com/od/topcalifornia/ss/route-66.htm",
                "https://www.tripadvisor.com/ShowTopic-g28926-i29-k4437891-HWY_1_Road_Trip_San_Francisco_to_San_Diego_Itinerary-California.html",
                "http://californiathroughmylens.com/route-66-san-bernardino-to-rancho-cucamonga"
            ],
            "longitude": "-117.2897651"
        },
        "victorville": {
            "latitude": "34.5361067",
            "closest_to": "san francisco",
            "address": "Victorville, San Bernardino County, California, United States of America",
            "locType": "city",
            "blogLinks": [
                "http://gocalifornia.about.com/od/topcalifornia/ss/route-66.htm"
            ],
            "longitude": "-117.2911564"
        },
        "morena blvd": {
            "latitude": "32.816795",
            "closest_to": "san bernardino",
            "address": "Morena Boulevard, Pacific Beach, San Diego, San Diego County, California, 92110, United States of America",
            "locType": "secondary",
            "blogLinks": [
                "http://wikitravel.org/en/San_Diego"
            ],
            "longitude": "-117.2209089"
        },
        "north park": {
            "latitude": "32.7408842",
            "closest_to": "san bernardino",
            "address": "North Park, San Diego, San Diego County, California, 92104, United States of America",
            "locType": "neighbourhood",
            "blogLinks": [
                "http://wikitravel.org/en/San_Diego"
            ],
            "longitude": "-117.1305876"
        },
        "east beach": {
            "latitude": "37.8061771",
            "closest_to": "san francisco",
            "address": "East Beach, Mason Street, Presidio Heights, SF, California, 94129, United States of America",
            "locType": "beach",
            "blogLinks": [
                "https://www.gapyear.com/articles/216212/13-incredible-stops-on-the-pacific-coast-highway"
            ],
            "longitude": "-122.452368017781"
        },
        "bubblegum alley": {
            "latitude": "35.2791663",
            "closest_to": "san francisco",
            "address": "Bubblegum Alley, San Luis Obispo, San Luis Obispo County, California, 93405, United States of America",
            "locType": "attraction",
            "blogLinks": [
                "https://www.gapyear.com/articles/216212/13-incredible-stops-on-the-pacific-coast-highway"
            ],
            "longitude": "-120.6638629"
        },
        "goffs rd": {
            "latitude": "34.7547621",
            "closest_to": "san bernardino",
            "address": "Goffs Road, Essex, San Bernardino County, California, United States of America",
            "locType": "secondary",
            "blogLinks": [
                "http://gocalifornia.about.com/od/topcalifornia/ss/route-66.htm"
            ],
            "longitude": "-115.2214411"
        },
        "huntington beach": {
            "latitude": "33.6783336",
            "closest_to": "san francisco",
            "address": "Huntington Beach, Orange County, California, United States of America",
            "locType": "city",
            "blogLinks": [
                "https://www.gapyear.com/articles/216212/13-incredible-stops-on-the-pacific-coast-highway"
            ],
            "longitude": "-118.0000165"
        },
        "paso robles": {
            "latitude": "35.6267654",
            "closest_to": "san francisco",
            "address": "Paso Robles, San Luis Obispo County, California, United States of America",
            "locType": "city",
            "blogLinks": [
                "https://www.tripadvisor.com/ShowTopic-g28926-i29-k4437891-HWY_1_Road_Trip_San_Francisco_to_San_Diego_Itinerary-California.html"
            ],
            "longitude": "-120.6912455"
        },
        "old town": {
            "latitude": "35.142943",
            "closest_to": "san francisco",
            "address": "Old Town, Golden Hills, Kern County, California, United States of America",
            "locType": "locality",
            "blogLinks": [
                "http://wikitravel.org/en/San_Diego",
                "https://www.gapyear.com/articles/216212/13-incredible-stops-on-the-pacific-coast-highway"
            ],
            "longitude": "-118.4954422"
        },
        "rio theatre": {
            "latitude": "36.9801486",
            "closest_to": "san francisco",
            "address": "Rio Theatre, Soquel Avenue, Soquel Avenue Commercial Corridor, Eastside, Santa Cruz, Santa Cruz County, California, 95062, United States of America",
            "locType": "theatre",
            "blogLinks": [
                "https://www.gapyear.com/articles/216212/13-incredible-stops-on-the-pacific-coast-highway"
            ],
            "longitude": "-122.0104295"
        },
        "devore": {
            "latitude": "34.2163964",
            "closest_to": "san francisco",
            "address": "Devore, San Bernardino County, California, United States of America",
            "locType": "hamlet",
            "blogLinks": [
                "http://gocalifornia.about.com/od/topcalifornia/ss/route-66.htm"
            ],
            "longitude": "-117.4014364"
        },
        "interstate highway": {
            "latitude": "33.704135",
            "closest_to": "san bernardino",
            "address": "Interstate 10, Desert Center, Riverside County, California, 92239, United States of America",
            "locType": "motorway",
            "blogLinks": [
                "http://gocalifornia.about.com/od/topcalifornia/ss/route-66.htm"
            ],
            "longitude": "-115.44222"
        },
        "torrey pines state beach": {
            "latitude": "32.91754945",
            "closest_to": "san bernardino",
            "address": "Torrey Pines State Beach, Yucca Point Trail, Del Mar, San Diego, San Diego County, California, 92121, United States of America",
            "locType": "beach",
            "blogLinks": [
                "http://wikitravel.org/en/San_Diego"
            ],
            "longitude": "-117.259044437013"
        },
        "valencia": {
            "latitude": "34.1466768",
            "closest_to": "san francisco",
            "address": "Valencia, San Bernardino County, California, United States of America",
            "locType": "hamlet",
            "blogLinks": [
                "http://fathomaway.com/guides/usa/san-francisco/itineraries/road-trip-san-francisco-to-monterey-california/"
            ],
            "longitude": "-117.2725426"
        },
        "black 's beach": {
            "latitude": "33.3358674",
            "closest_to": "san bernardino",
            "address": "Black Sea Avenue, Salton Sea Beach, Imperial County, California, United States of America",
            "locType": "residential",
            "blogLinks": [
                "http://wikitravel.org/en/San_Diego"
            ],
            "longitude": "-115.9938426"
        },
        "harbor drive": {
            "latitude": "34.5013497",
            "closest_to": "san francisco",
            "address": "Harbor Drive, San Bernardino County, California, 92392, United States of America",
            "locType": "residential",
            "blogLinks": [
                "http://wikitravel.org/en/San_Diego"
            ],
            "longitude": "-117.2654027"
        },
        "lenwood": {
            "latitude": "34.8766497",
            "closest_to": "san francisco",
            "address": "Lenwood, San Bernardino County, California, United States of America",
            "locType": "village",
            "blogLinks": [
                "http://gocalifornia.about.com/od/topcalifornia/ss/route-66.htm"
            ],
            "longitude": "-117.1039313"
        },
        "glendale": {
            "latitude": "34.1423455",
            "closest_to": "san francisco",
            "address": "Glendale, Los Angeles County, California, United States of America",
            "locType": "city",
            "blogLinks": [
                "http://gocalifornia.about.com/od/topcalifornia/ss/route-66.htm"
            ],
            "longitude": "-118.248367"
        },
        "france": {
            "latitude": "34.2013715",
            "closest_to": "san francisco",
            "address": "France, Sherman Way, Canoga Park, LA, Los Angeles County, California, 91307, United States of America",
            "locType": "cafe",
            "blogLinks": [
                "http://wikitravel.org/en/San_Diego"
            ],
            "longitude": "-118.5935353"
        },
        "lobero theatre": {
            "latitude": "34.4216681",
            "closest_to": "san francisco",
            "address": "Lobero Theatre, Anacapa Street, Santa Barbara, Santa Barbara County, California, 93105, United States of America",
            "locType": "theatre",
            "blogLinks": [
                "https://www.gapyear.com/articles/216212/13-incredible-stops-on-the-pacific-coast-highway"
            ],
            "longitude": "-119.700020768116"
        },
        "pacific avenue": {
            "latitude": "34.1571445",
            "closest_to": "san francisco",
            "address": "Pacific Avenue, Glendale, Los Angeles County, California, 91203, United States of America",
            "locType": "secondary",
            "blogLinks": [
                "https://www.gapyear.com/articles/216212/13-incredible-stops-on-the-pacific-coast-highway"
            ],
            "longitude": "-118.2641839"
        },
        "santa barbara": {
            "latitude": "34.4221319",
            "closest_to": "san francisco",
            "address": "Santa Barbara, Santa Barbara County, California, United States of America",
            "locType": "city",
            "blogLinks": [
                "http://travelblog.viator.com/road-trip-san-francisco-los-angeles/",
                "https://www.tripadvisor.com/ShowTopic-g28926-i29-k4437891-HWY_1_Road_Trip_San_Francisco_to_San_Diego_Itinerary-California.html",
                "http://traveltips.usatoday.com/fun-things-los-angeles-san-francisco-14664.html",
                "http://www.hopper.com/articles/291/five-great-stops-between-los-angeles-and-san-francisco-on-the-pacific-coast-highway",
                "https://www.gapyear.com/articles/216212/13-incredible-stops-on-the-pacific-coast-highway"
            ],
            "longitude": "-119.7026672"
        },
        "chicago": {
            "latitude": "37.7850531",
            "closest_to": "san francisco",
            "address": "Chicago, Woodstock, Alameda, Alameda County, California, 94501, United States of America",
            "locType": "residential",
            "blogLinks": [
                "https://www.virtualtourist.com/travel/North_America/United_States_of_America/California/San_Bernardino-755456/Things_To_Do-San_Bernardino-TG-C-1.html"
            ],
            "longitude": "-122.2872948"
        },
        "tijuana": {
            "latitude": "32.5008626",
            "closest_to": "san bernardino",
            "address": "Tijuana, Baja California, M\u00e9xico",
            "locType": "city",
            "blogLinks": [
                "http://wikitravel.org/en/San_Diego"
            ],
            "longitude": "-116.9641656"
        },
        "yuma": {
            "latitude": "32.749997",
            "closest_to": "san bernardino",
            "address": "Yuma Main Canal, Imperial County, California, United States of America",
            "locType": "canal",
            "blogLinks": [
                "http://wikitravel.org/en/San_Diego"
            ],
            "longitude": "-114.6287508"
        },
        "buellton": {
            "latitude": "34.6134727",
            "closest_to": "san francisco",
            "address": "Buellton, Santa Barbara County, California, United States of America",
            "locType": "city",
            "blogLinks": [
                "http://traveltips.usatoday.com/fun-things-los-angeles-san-francisco-14664.html"
            ],
            "longitude": "-120.1936691"
        },
        "outer sunset": {
            "latitude": "34.471629",
            "closest_to": "san francisco",
            "address": "Outer Bear Valley Road, Apple Valley, San Bernardino County, California, 92308, United States of America",
            "locType": "residential",
            "blogLinks": [
                "http://fathomaway.com/guides/usa/san-francisco/itineraries/road-trip-san-francisco-to-monterey-california/"
            ],
            "longitude": "-117.2110142"
        },
        "mother road": {
            "latitude": "33.8058766",
            "closest_to": "san francisco",
            "address": "Route 66, Anaheim Resort District, Anaheim, Orange County, California, 92802, United States of America",
            "locType": "living_street",
            "blogLinks": [
                "http://gocalifornia.about.com/od/topcalifornia/ss/route-66.htm"
            ],
            "longitude": "-117.9189801"
        },
        "santa monica pier": {
            "latitude": "34.0104809",
            "closest_to": "san francisco",
            "address": "Santa Monica Pier, Santa Monica, Los Angeles County, California, CA 90401, United States of America",
            "locType": "service",
            "blogLinks": [
                "http://gocalifornia.about.com/od/topcalifornia/ss/route-66.htm",
                "http://traveltips.usatoday.com/fun-things-los-angeles-san-francisco-14664.html",
                "https://www.gapyear.com/articles/216212/13-incredible-stops-on-the-pacific-coast-highway"
            ],
            "longitude": "-118.4960541"
        },
        "san ysidro blvd": {
            "latitude": "32.5520013",
            "closest_to": "san bernardino",
            "address": "San Ysidro, San Diego, San Diego County, California, United States of America",
            "locType": "suburb",
            "blogLinks": [
                "http://wikitravel.org/en/San_Diego"
            ],
            "longitude": "-117.0430812"
        },
        "oceanside": {
            "latitude": "33.1958696",
            "closest_to": "san bernardino",
            "address": "Oceanside, San Diego County, California, United States of America",
            "locType": "city",
            "blogLinks": [
                "http://wikitravel.org/en/San_Diego"
            ],
            "longitude": "-117.3794833"
        },
        "tucson": {
            "latitude": "33.5678303",
            "closest_to": "san bernardino",
            "address": "Tucson, Coto de Caza, Orange County, California, 92690, United States of America",
            "locType": "residential",
            "blogLinks": [
                "http://wikitravel.org/en/San_Diego"
            ],
            "longitude": "-117.5934281"
        },
        "laurel street": {
            "latitude": "32.7313904",
            "closest_to": "san bernardino",
            "address": "Laurel Street, Hillcrest, San Diego, San Diego County, California, 92101, United States of America",
            "locType": "secondary",
            "blogLinks": [
                "http://wikitravel.org/en/San_Diego"
            ],
            "longitude": "-117.1594735"
        },
        "mt vernon": {
            "latitude": "35.6971844",
            "closest_to": "san francisco",
            "address": "Mount Vernon, Kern County, California, United States of America",
            "locType": "peak",
            "blogLinks": [
                "http://gocalifornia.about.com/od/topcalifornia/ss/route-66.htm"
            ],
            "longitude": "-119.9662482"
        },
        "el cajon": {
            "latitude": "32.7947731",
            "closest_to": "san bernardino",
            "address": "El Cajon, San Diego County, California, United States of America",
            "locType": "city",
            "blogLinks": [
                "http://wikitravel.org/en/San_Diego"
            ],
            "longitude": "-116.9625268"
        },
        "los angeles": {
            "latitude": "34.0543942",
            "closest_to": "san francisco",
            "address": "LA, Los Angeles County, California, United States of America",
            "locType": "city",
            "blogLinks": [
                "http://gocalifornia.about.com/od/topcalifornia/ss/route-66.htm",
                "https://www.gapyear.com/articles/216212/13-incredible-stops-on-the-pacific-coast-highway",
                "https://www.tripadvisor.com/ShowTopic-g28926-i29-k4437891-HWY_1_Road_Trip_San_Francisco_to_San_Diego_Itinerary-California.html",
                "http://travelblog.viator.com/road-trip-san-francisco-los-angeles/",
                "http://wikitravel.org/en/San_Diego",
                "https://www.tripit.com/blog/2016/01/california-driving-distances-and-times.html",
                "http://traveltips.usatoday.com/fun-things-los-angeles-san-francisco-14664.html",
                "http://www.hopper.com/articles/291/five-great-stops-between-los-angeles-and-san-francisco-on-the-pacific-coast-highway"
            ],
            "longitude": "-118.2439408"
        },
        "san ysidro": {
            "latitude": "32.5520013",
            "closest_to": "san bernardino",
            "address": "San Ysidro, San Diego, San Diego County, California, United States of America",
            "locType": "suburb",
            "blogLinks": [
                "http://wikitravel.org/en/San_Diego"
            ],
            "longitude": "-117.0430812"
        },
        "monterey": {
            "latitude": "36.5844165",
            "closest_to": "san francisco",
            "address": "Monterey, Monterey County, California, United States of America",
            "locType": "city",
            "blogLinks": [
                "http://travelblog.viator.com/road-trip-san-francisco-los-angeles/",
                "http://fathomaway.com/guides/usa/san-francisco/itineraries/road-trip-san-francisco-to-monterey-california/",
                "https://www.tripadvisor.com/ShowTopic-g28926-i29-k4437891-HWY_1_Road_Trip_San_Francisco_to_San_Diego_Itinerary-California.html",
                "http://traveltips.usatoday.com/fun-things-los-angeles-san-francisco-14664.html",
                "https://www.gapyear.com/articles/216212/13-incredible-stops-on-the-pacific-coast-highway"
            ],
            "longitude": "-121.866792846206"
        },
        "pfeiffer beach": {
            "latitude": "36.23934855",
            "closest_to": "san francisco",
            "address": "Pfeiffer Beach, Sycamore Canyon Road, Big Sur, Monterey County, California, 93920, United States of America",
            "locType": "beach",
            "blogLinks": [
                "https://www.gapyear.com/articles/216212/13-incredible-stops-on-the-pacific-coast-highway"
            ],
            "longitude": "-121.81778571416"
        },
        "arizona-california": {
            "latitude": "34.4631398",
            "closest_to": "san francisco",
            "address": "Arizona, San Bernardino County, California, 92371, United States of America",
            "locType": "track",
            "blogLinks": [
                "http://gocalifornia.about.com/od/topcalifornia/ss/route-66.htm"
            ],
            "longitude": "-117.5060679"
        },
        "bixby bridge": {
            "latitude": "36.3710197",
            "closest_to": "san francisco",
            "address": "Bixby Creek Bridge, Notleys Landing, Monterey County, California, 93923, United States of America",
            "locType": "primary",
            "blogLinks": [
                "https://www.gapyear.com/articles/216212/13-incredible-stops-on-the-pacific-coast-highway"
            ],
            "longitude": "-121.9017572"
        },
        "point sur state historic park": {
            "latitude": "36.315378",
            "closest_to": "san francisco",
            "address": "Point Sur State Historic Park, Cabrillo Highway, Big Sur, Monterey County, California, 93923, United States of America",
            "locType": "park",
            "blogLinks": [
                "https://www.gapyear.com/articles/216212/13-incredible-stops-on-the-pacific-coast-highway"
            ],
            "longitude": "-121.881955510784"
        },
        "st. didacus": {
            "latitude": "34.3061118",
            "closest_to": "san francisco",
            "address": "Saint Didacus School, Fellows Avenue, Sylmar, LA, Los Angeles County, California, 91342, United States of America",
            "locType": "school",
            "blogLinks": [
                "http://wikitravel.org/en/San_Diego"
            ],
            "longitude": "-118.4445275"
        },
        "old town-mission valley": {
            "latitude": "32.7566177",
            "closest_to": "san bernardino",
            "address": "Old Town, San Diego, San Diego County, California, United States of America",
            "locType": "suburb",
            "blogLinks": [
                "http://wikitravel.org/en/San_Diego"
            ],
            "longitude": "-117.2028231"
        },
        "redwood trail": {
            "latitude": "34.016644",
            "closest_to": "san bernardino",
            "address": "Redwood Trail, Yucaipa (City of), San Bernardino County, California, 92399, United States of America",
            "locType": "residential",
            "blogLinks": [
                "http://fathomaway.com/guides/usa/san-francisco/itineraries/road-trip-san-francisco-to-monterey-california/"
            ],
            "longitude": "-116.9992599"
        },
        "pacific rim": {
            "latitude": "40.8702874",
            "closest_to": "san francisco",
            "address": "Pacific Rim, 1021, I Street, Arcata, Humboldt County, California, 95518-4448, United States of America",
            "locType": "restaurant",
            "blogLinks": [
                "http://wikitravel.org/en/San_Diego"
            ],
            "longitude": "-124.0877889"
        },
        "aztec hotel": {
            "latitude": "34.151536",
            "closest_to": "san francisco",
            "address": "Aztec Hotel, 311, West Foothill Boulevard, Monrovia, Los Angeles County, California, 91016, United States of America",
            "locType": "hotel",
            "blogLinks": [
                "http://gocalifornia.about.com/od/topcalifornia/ss/route-66.htm"
            ],
            "longitude": "-118.0057962"
        },
        "la jolla shores": {
            "latitude": "32.8556028",
            "closest_to": "san bernardino",
            "address": "La Jolla Shores, San Diego County, California, United States of America",
            "locType": "hamlet",
            "blogLinks": [
                "http://wikitravel.org/en/San_Diego"
            ],
            "longitude": "-117.2536478"
        },
        "creek hot springs": {
            "latitude": "40.0187792",
            "closest_to": "san francisco",
            "address": "Hot Springs, Plumas County, California, United States of America",
            "locType": "hamlet",
            "blogLinks": [
                "https://www.virtualtourist.com/travel/North_America/United_States_of_America/California/San_Bernardino-755456/Things_To_Do-San_Bernardino-TG-C-1.html"
            ],
            "longitude": "-121.0338461"
        },
        "balboa park | balboa park-hillcrest": {
            "latitude": "32.7310521",
            "closest_to": "san bernardino",
            "address": "Balboa Park, Plaza de Balboa, North Park, Hillcrest, San Diego, San Diego County, California, 92101, United States of America",
            "locType": "park",
            "blogLinks": [
                "http://wikitravel.org/en/San_Diego"
            ],
            "longitude": "-117.146580648446"
        },
        "montgomery field": {
            "latitude": "32.8149052",
            "closest_to": "san bernardino",
            "address": "Montgomery Field, John J Montgomery Drive, Mission Valley, San Diego, San Diego County, California, 92123, United States of America",
            "locType": "aerodrome",
            "blogLinks": [
                "http://wikitravel.org/en/San_Diego"
            ],
            "longitude": "-117.140320448768"
        },
        "santa fe depot": {
            "latitude": "32.7167353",
            "closest_to": "san bernardino",
            "address": "Santa Fe Depot, Martin Luther King Promenade, Hillcrest, San Diego, San Diego County, California, 92101, United States of America",
            "locType": "station",
            "blogLinks": [
                "http://wikitravel.org/en/San_Diego"
            ],
            "longitude": "-117.1698167"
        },
        "shamrock avenue": {
            "latitude": "33.9999686",
            "closest_to": "san bernardino",
            "address": "Shamrock Avenue, Riverside, Riverside County, California, 92501, United States of America",
            "locType": "residential",
            "blogLinks": [
                "http://gocalifornia.about.com/od/topcalifornia/ss/route-66.htm"
            ],
            "longitude": "-117.3682239"
        },
        "santee": {
            "latitude": "32.8383828",
            "closest_to": "san bernardino",
            "address": "Santee, San Diego County, California, United States of America",
            "locType": "city",
            "blogLinks": [
                "http://wikitravel.org/en/San_Diego"
            ],
            "longitude": "-116.9739166"
        },
        "arroyo parkway": {
            "latitude": "38.6709801",
            "closest_to": "san francisco",
            "address": "Willow Creek, Folsom, Sacramento County, California, United States of America",
            "locType": "stream",
            "blogLinks": [
                "http://gocalifornia.about.com/od/topcalifornia/ss/route-66.htm"
            ],
            "longitude": "-121.1287517"
        },
        "penny ice creamery": {
            "latitude": "36.9748975",
            "closest_to": "san francisco",
            "address": "The Penny Ice Creamery, 913, Cedar Street, Downtown District (Commercial), Downtown, Santa Cruz, Santa Cruz County, California, 95060, United States of America",
            "locType": "restaurant",
            "blogLinks": [
                "http://fathomaway.com/guides/usa/san-francisco/itineraries/road-trip-san-francisco-to-monterey-california/"
            ],
            "longitude": "-122.0278272"
        },
        "pasadena": {
            "latitude": "34.1476452",
            "closest_to": "san francisco",
            "address": "Pasadena, Los Angeles County, California, United States of America",
            "locType": "city",
            "blogLinks": [
                "http://gocalifornia.about.com/od/topcalifornia/ss/route-66.htm",
                "https://www.tripadvisor.com/ShowTopic-g28926-i29-k4437891-HWY_1_Road_Trip_San_Francisco_to_San_Diego_Itinerary-California.html"
            ],
            "longitude": "-118.1444778"
        },
        "needles": {
            "latitude": "34.8480597",
            "closest_to": "san bernardino",
            "address": "Needles, San Bernardino County, California, United States of America",
            "locType": "city",
            "blogLinks": [
                "http://gocalifornia.about.com/od/topcalifornia/ss/route-66.htm"
            ],
            "longitude": "-114.6141315"
        },
        "oxnard": {
            "latitude": "34.1976308",
            "closest_to": "san francisco",
            "address": "Oxnard, Ventura County, California, United States of America",
            "locType": "city",
            "blogLinks": [
                "http://traveltips.usatoday.com/fun-things-los-angeles-san-francisco-14664.html",
                "https://www.gapyear.com/articles/216212/13-incredible-stops-on-the-pacific-coast-highway"
            ],
            "longitude": "-119.1803817"
        },
        "mountain springs rd": {
            "latitude": "34.8298792",
            "closest_to": "san bernardino",
            "address": "Mountain Springs Road, San Bernardino County, California, United States of America",
            "locType": "secondary",
            "blogLinks": [
                "http://gocalifornia.about.com/od/topcalifornia/ss/route-66.htm"
            ],
            "longitude": "-115.0509214"
        },
        "big sur": {
            "latitude": "36.270241",
            "closest_to": "san francisco",
            "address": "Big Sur, Monterey County, California, United States of America",
            "locType": "village",
            "blogLinks": [
                "https://www.tripadvisor.com/ShowTopic-g28926-i29-k4437891-HWY_1_Road_Trip_San_Francisco_to_San_Diego_Itinerary-California.html"
            ],
            "longitude": "-121.8074544"
        },
        "sacramento": {
            "latitude": "38.5815719",
            "closest_to": "san francisco",
            "address": "Sacramento, Sacramento County, California, United States of America",
            "locType": "city",
            "blogLinks": [
                "http://wikitravel.org/en/San_Diego"
            ],
            "longitude": "-121.4943995"
        },
        "la mesa": {
            "latitude": "32.7678288",
            "closest_to": "san bernardino",
            "address": "La Mesa, San Diego County, California, United States of America",
            "locType": "city",
            "blogLinks": [
                "http://wikitravel.org/en/San_Diego"
            ],
            "longitude": "-117.0230838"
        },
        "gila bend": {
            "latitude": "32.8134269",
            "closest_to": "san bernardino",
            "address": "Gila Bend Drive, Seeley, Imperial County, California, 92243, United States of America",
            "locType": "residential",
            "blogLinks": [
                "http://wikitravel.org/en/San_Diego"
            ],
            "longitude": "-115.6753603"
        },
        "essex": {
            "latitude": "34.7336097",
            "closest_to": "san bernardino",
            "address": "Essex, San Bernardino County, California, United States of America",
            "locType": "hamlet",
            "blogLinks": [
                "http://gocalifornia.about.com/od/topcalifornia/ss/route-66.htm"
            ],
            "longitude": "-115.2449793"
        },
        "mission district": {
            "latitude": "37.75993",
            "closest_to": "san francisco",
            "address": "Mission District, SF, California, 94110, United States of America",
            "locType": "neighbourhood",
            "blogLinks": [
                "http://fathomaway.com/guides/usa/san-francisco/itineraries/road-trip-san-francisco-to-monterey-california/"
            ],
            "longitude": "-122.4191375"
        },
        "balboa park-hillcrest": {
            "latitude": "32.7310521",
            "closest_to": "san bernardino",
            "address": "Balboa Park, Plaza de Balboa, North Park, Hillcrest, San Diego, San Diego County, California, 92101, United States of America",
            "locType": "park",
            "blogLinks": [
                "http://wikitravel.org/en/San_Diego"
            ],
            "longitude": "-117.146580648446"
        },
        "la jolla cove": {
            "latitude": "32.85051835",
            "closest_to": "san bernardino",
            "address": "La Jolla Cove, Coast Boulevard, La Jolla, San Diego, San Diego County, California, 92037, United States of America",
            "locType": "beach",
            "blogLinks": [
                "http://wikitravel.org/en/San_Diego"
            ],
            "longitude": "-117.273024234204"
        },
        "mediterranean": {
            "latitude": "33.7439509",
            "closest_to": "san bernardino",
            "address": "Mediterranean, Palm Desert, Riverside County, California, 92211, United States of America",
            "locType": "residential",
            "blogLinks": [
                "http://wikitravel.org/en/San_Diego"
            ],
            "longitude": "-116.3534838"
        },
        "belgium": {
            "latitude": "39.7276351",
            "closest_to": "san francisco",
            "address": "Belgium Avenue, Chico, Butte County, California, 95928, United States of America",
            "locType": "residential",
            "blogLinks": [
                "http://wikitravel.org/en/San_Diego"
            ],
            "longitude": "-121.785498"
        },
        "des moines": {
            "latitude": "33.9319577",
            "closest_to": "san francisco",
            "address": "Des Moines, Orange County, California, United States of America",
            "locType": "hamlet",
            "blogLinks": [
                "https://www.virtualtourist.com/travel/North_America/United_States_of_America/California/San_Bernardino-755456/Things_To_Do-San_Bernardino-TG-C-1.html"
            ],
            "longitude": "-117.9678407"
        },
        "malibu": {
            "latitude": "33.7932142",
            "closest_to": "san bernardino",
            "address": "Malibu, Palm Springs, Riverside County, California, 92264, United States of America",
            "locType": "residential",
            "blogLinks": [
                "https://www.gapyear.com/articles/216212/13-incredible-stops-on-the-pacific-coast-highway"
            ],
            "longitude": "-116.5023561"
        },
        "illinois": {
            "latitude": "34.4646044",
            "closest_to": "san francisco",
            "address": "Illinois, Paris, Los Angeles County, California, 93510, United States of America",
            "locType": "residential",
            "blogLinks": [
                "http://wikitravel.org/en/San_Diego"
            ],
            "longitude": "-118.1758901"
        },
        "torrey pines": {
            "latitude": "33.6004207",
            "closest_to": "san bernardino",
            "address": "Torrey Pines, Coto de Caza, Orange County, California, 92679, United States of America",
            "locType": "residential",
            "blogLinks": [
                "http://wikitravel.org/en/San_Diego"
            ],
            "longitude": "-117.5806448"
        },
        "mission beach-pacific beach": {
            "latitude": "32.7846357",
            "closest_to": "san bernardino",
            "address": "The Mission, 3795, Mission Boulevard, Pacific Beach, San Diego, San Diego County, California, 92109, United States of America",
            "locType": "cafe",
            "blogLinks": [
                "http://wikitravel.org/en/San_Diego"
            ],
            "longitude": "-117.2527558"
        },
        "little italy": {
            "latitude": "32.7234579",
            "closest_to": "san bernardino",
            "address": "Little Italy, San Diego County, California, United States of America",
            "locType": "hamlet",
            "blogLinks": [
                "http://wikitravel.org/en/San_Diego"
            ],
            "longitude": "-117.1682719"
        },
        "escondido": {
            "latitude": "33.1216751",
            "closest_to": "san bernardino",
            "address": "Escondido, San Diego County, California, United States of America",
            "locType": "city",
            "blogLinks": [
                "http://wikitravel.org/en/San_Diego"
            ],
            "longitude": "-117.0814848"
        },
        "tempe": {
            "latitude": "33.4248191",
            "closest_to": "san bernardino",
            "address": "California, Tempe Cascade, Maricopa County, Arizona, 8, United States of America",
            "locType": "service",
            "blogLinks": [
                "http://wikitravel.org/en/San_Diego"
            ],
            "longitude": "-111.8872863"
        },
        "downtown": {
            "latitude": "37.8036295",
            "closest_to": "san francisco",
            "address": "Downtown, Oakland, Alameda County, California, 94612, United States of America",
            "locType": "neighbourhood",
            "blogLinks": [
                "http://wikitravel.org/en/San_Diego"
            ],
            "longitude": "-122.2715243"
        },
        "san fernando valley": {
            "latitude": "34.2819461",
            "closest_to": "san francisco",
            "address": "San Fernando, Los Angeles County, California, United States of America",
            "locType": "administrative",
            "blogLinks": [
                "https://www.gapyear.com/articles/216212/13-incredible-stops-on-the-pacific-coast-highway"
            ],
            "longitude": "-118.4389718"
        },
        "montana": {
            "latitude": "37.413991",
            "closest_to": "san francisco",
            "address": "Montana, Rovana, Inyo County, California, United States of America",
            "locType": "residential",
            "blogLinks": [
                "http://wikitravel.org/en/San_Diego"
            ],
            "longitude": "-118.6129969"
        },
        "az": {
            "latitude": "33.3547482",
            "closest_to": "san bernardino",
            "address": "California, Gold Canyon RV & Golf Resort, San Tan Valley, Pinal County, Arizona, 85219, United States of America",
            "locType": "service",
            "blogLinks": [
                "http://wikitravel.org/en/San_Diego"
            ],
            "longitude": "-111.4698532"
        },
        "lindbergh field": {
            "latitude": "32.73336075",
            "closest_to": "san bernardino",
            "address": "San Diego International Airport, Air Lane, Old Town, San Diego, San Diego County, California, 92101, United States of America",
            "locType": "aerodrome",
            "blogLinks": [
                "http://wikitravel.org/en/San_Diego"
            ],
            "longitude": "-117.193463366077"
        },
        "millbrae": {
            "latitude": "37.5985468",
            "closest_to": "san francisco",
            "address": "Millbrae, San Mateo County, California, United States of America",
            "locType": "city",
            "blogLinks": [
                "http://fathomaway.com/guides/usa/san-francisco/itineraries/road-trip-san-francisco-to-monterey-california/"
            ],
            "longitude": "-122.3871941"
        },
        "palomar airport road": {
            "latitude": "33.1291437",
            "closest_to": "san bernardino",
            "address": "Palomar Airport Road, Carlsbad, San Diego County, California, 92009, United States of America",
            "locType": "primary",
            "blogLinks": [
                "http://wikitravel.org/en/San_Diego"
            ],
            "longitude": "-117.2418974"
        },
        "las vegas strip": {
            "latitude": "36.12050715",
            "closest_to": "san bernardino",
            "address": "California Pizza Kitchen, South Las Vegas Boulevard, Hughes Center, Paradise, Clark County, Nevada, 89123, United States of America",
            "locType": "restaurant",
            "blogLinks": [
                "http://wikitravel.org/en/San_Diego"
            ],
            "longitude": "-115.173775796208"
        },
        "long beach": {
            "latitude": "33.78538945",
            "closest_to": "san francisco",
            "address": "Long Beach, Los Angeles County, California, United States of America",
            "locType": "city",
            "blogLinks": [
                "https://www.gapyear.com/articles/216212/13-incredible-stops-on-the-pacific-coast-highway"
            ],
            "longitude": "-118.158049215311"
        },
        "mission beach": {
            "latitude": "32.7827144",
            "closest_to": "san bernardino",
            "address": "Mission Beach, San Diego County, California, United States of America",
            "locType": "hamlet",
            "blogLinks": [
                "http://wikitravel.org/en/San_Diego",
                "https://www.gapyear.com/articles/216212/13-incredible-stops-on-the-pacific-coast-highway"
            ],
            "longitude": "-117.2525056"
        },
        "america": {
            "latitude": "36.2573198",
            "closest_to": "san francisco",
            "address": "America, Kings County, California, 93246, United States of America",
            "locType": "residential",
            "blogLinks": [
                "http://wikitravel.org/en/San_Diego",
                "http://fathomaway.com/guides/usa/san-francisco/itineraries/road-trip-san-francisco-to-monterey-california/",
                "http://gocalifornia.about.com/od/topcalifornia/ss/route-66.htm",
                "http://traveltips.usatoday.com/fun-things-los-angeles-san-francisco-14664.html"
            ],
            "longitude": "-119.8948706"
        },
        "san bernardino county": {
            "latitude": "34.8253019",
            "closest_to": "san bernardino",
            "address": "San Bernardino County, California, United States of America",
            "locType": "administrative",
            "blogLinks": [
                "https://www.virtualtourist.com/travel/North_America/United_States_of_America/California/San_Bernardino-755456/Things_To_Do-San_Bernardino-TG-C-1.html",
                "http://gocalifornia.about.com/od/topcalifornia/ss/route-66.htm"
            ],
            "longitude": "-116.0833143"
        },
        "santa barbara botanic garden": {
            "latitude": "34.456953",
            "closest_to": "san francisco",
            "address": "Santa Barbara Botanic Gardens, Mission Canyon Road, Mission Canyon, Santa Barbara County, California, 93105, United States of America",
            "locType": "park",
            "blogLinks": [
                "https://www.gapyear.com/articles/216212/13-incredible-stops-on-the-pacific-coast-highway"
            ],
            "longitude": "-119.709585108231"
        },
        "pebble beach golf course": {
            "latitude": "36.56413635",
            "closest_to": "san francisco",
            "address": "Pebble Beach Golf Course, Live Oak Meadow Road, Del Monte Forest, Monterey County, California, 93953, United States of America",
            "locType": "golf_course",
            "blogLinks": [
                "http://traveltips.usatoday.com/fun-things-los-angeles-san-francisco-14664.html"
            ],
            "longitude": "-121.937790801787"
        },
        "north san bernardino": {
            "latitude": "34.2366266",
            "closest_to": "san francisco",
            "address": "North, Meadowbrook Woods, San Bernardino County, California, 92326, United States of America",
            "locType": "residential",
            "blogLinks": [
                "http://californiathroughmylens.com/route-66-san-bernardino-to-rancho-cucamonga"
            ],
            "longitude": "-117.2037027"
        },
        "golden gate bridge": {
            "latitude": "37.8302809",
            "closest_to": "san francisco",
            "address": "Golden Gate Bridge, Waldo, Marin County, California, 94965, United States of America",
            "locType": "motorway",
            "blogLinks": [
                "http://fathomaway.com/guides/usa/san-francisco/itineraries/road-trip-san-francisco-to-monterey-california/"
            ],
            "longitude": "-122.4798473"
        },
        "golden state": {
            "latitude": "39.6712719",
            "closest_to": "san francisco",
            "address": "Golden State Island, Butte County, California, United States of America",
            "locType": "island",
            "blogLinks": [
                "http://gocalifornia.about.com/od/topcalifornia/ss/route-66.htm",
                "https://www.tripit.com/blog/2016/01/california-driving-distances-and-times.html"
            ],
            "longitude": "-121.9619226"
        },
        "arizona": {
            "latitude": "34.4631398",
            "closest_to": "san francisco",
            "address": "Arizona, San Bernardino County, California, 92371, United States of America",
            "locType": "track",
            "blogLinks": [
                "http://wikitravel.org/en/San_Diego",
                "http://gocalifornia.about.com/od/topcalifornia/ss/route-66.htm"
            ],
            "longitude": "-117.5060679"
        },
        "fenner": {
            "latitude": "34.8158313",
            "closest_to": "san bernardino",
            "address": "Fenner, San Bernardino County, California, United States of America",
            "locType": "hamlet",
            "blogLinks": [
                "http://gocalifornia.about.com/od/topcalifornia/ss/route-66.htm"
            ],
            "longitude": "-115.179145"
        },
        "' ocean beach": {
            "latitude": "32.7477784",
            "closest_to": "san bernardino",
            "address": "Ocean Beach, San Diego, San Diego County, California, United States of America",
            "locType": "region",
            "blogLinks": [
                "http://wikitravel.org/en/San_Diego"
            ],
            "longitude": "-117.249321"
        },
        "mojave river": {
            "latitude": "34.810823",
            "closest_to": "san francisco",
            "address": "Mojave River, San Bernardino County, California, United States of America",
            "locType": "river",
            "blogLinks": [
                "http://gocalifornia.about.com/od/topcalifornia/ss/route-66.htm"
            ],
            "longitude": "-117.2140293"
        },
        "carmel": {
            "latitude": "38.75511285",
            "closest_to": "san francisco",
            "address": "Carmel, Roseville, Placer County, California, 95747, United States of America",
            "locType": "residential",
            "blogLinks": [
                "http://travelblog.viator.com/road-trip-san-francisco-los-angeles/",
                "https://www.tripadvisor.com/ShowTopic-g28926-i29-k4437891-HWY_1_Road_Trip_San_Francisco_to_San_Diego_Itinerary-California.html",
                "http://www.hopper.com/articles/291/five-great-stops-between-los-angeles-and-san-francisco-on-the-pacific-coast-highway"
            ],
            "longitude": "-121.353308848273"
        },
        "los alamos": {
            "latitude": "34.7379311",
            "closest_to": "san francisco",
            "address": "Los Alamos, Bell Street, Los Alamos, Santa Barbara County, California, 93455, United States of America",
            "locType": "administrative",
            "blogLinks": [
                "http://travelblog.viator.com/road-trip-san-francisco-los-angeles/"
            ],
            "longitude": "-120.26591036241"
        },
        "monterey bay": {
            "latitude": "36.7999557",
            "closest_to": "san francisco",
            "address": "Monterey Bay, Monterey County, California, United States of America",
            "locType": "bay",
            "blogLinks": [
                "http://travelblog.viator.com/road-trip-san-francisco-los-angeles/",
                "http://wikitravel.org/en/San_Diego",
                "http://fathomaway.com/guides/usa/san-francisco/itineraries/road-trip-san-francisco-to-monterey-california/",
                "http://www.hopper.com/articles/291/five-great-stops-between-los-angeles-and-san-francisco-on-the-pacific-coast-highway",
                "https://www.gapyear.com/articles/216212/13-incredible-stops-on-the-pacific-coast-highway"
            ],
            "longitude": "-121.9010667"
        },
        "pismo beach": {
            "latitude": "35.1427533",
            "closest_to": "san francisco",
            "address": "Pismo Beach, San Luis Obispo County, California, United States of America",
            "locType": "city",
            "blogLinks": [
                "https://www.tripadvisor.com/ShowTopic-g28926-i29-k4437891-HWY_1_Road_Trip_San_Francisco_to_San_Diego_Itinerary-California.html",
                "http://traveltips.usatoday.com/fun-things-los-angeles-san-francisco-14664.html",
                "http://www.hopper.com/articles/291/five-great-stops-between-los-angeles-and-san-francisco-on-the-pacific-coast-highway",
                "https://www.gapyear.com/articles/216212/13-incredible-stops-on-the-pacific-coast-highway"
            ],
            "longitude": "-120.6412826"
        },
        "qualcomm stadium": {
            "latitude": "32.7810139",
            "closest_to": "san bernardino",
            "address": "Qualcomm Stadium, Qualcomm Way, Mission Valley, San Diego, San Diego County, California, 92123, United States of America",
            "locType": "station",
            "blogLinks": [
                "http://wikitravel.org/en/San_Diego"
            ],
            "longitude": "-117.1196206"
        },
        "mid-city": {
            "latitude": "37.5133425",
            "closest_to": "san francisco",
            "address": "Middle Bair Island, Redwood City, San Mateo County, California, United States of America",
            "locType": "island",
            "blogLinks": [
                "http://wikitravel.org/en/San_Diego"
            ],
            "longitude": "-122.2303835"
        },
        "disneyland": {
            "latitude": "33.8136367",
            "closest_to": "san francisco",
            "address": "DL, 1313, South Harbor Boulevard, Anaheim Resort District, Anaheim, Orange County, California, 92805, United States of America",
            "locType": "theme_park",
            "blogLinks": [
                "http://gocalifornia.about.com/od/topcalifornia/ss/route-66.htm"
            ],
            "longitude": "-117.91971186569"
        },
        "us": {
            "latitude": "36.7014631",
            "closest_to": "san francisco",
            "address": "California, United States of America",
            "locType": "administrative",
            "blogLinks": [
                "http://wikitravel.org/en/San_Diego",
                "https://www.virtualtourist.com/travel/North_America/United_States_of_America/California/San_Bernardino-755456/Things_To_Do-San_Bernardino-TG-C-1.html",
                "http://gocalifornia.about.com/od/topcalifornia/ss/route-66.htm",
                "http://californiathroughmylens.com/route-66-san-bernardino-to-rancho-cucamonga"
            ],
            "longitude": "-118.7559973"
        },
        "barbeque": {
            "latitude": "33.9245119",
            "closest_to": "san francisco",
            "address": "Three Bears Barbeque, 11916, South Figueroa Street, South Los Angeles, LA, Los Angeles County, California, 90061, United States of America",
            "locType": "restaurant",
            "blogLinks": [
                "https://www.virtualtourist.com/travel/North_America/United_States_of_America/California/San_Bernardino-755456/Things_To_Do-San_Bernardino-TG-C-1.html"
            ],
            "longitude": "-118.282316"
        },
        "wilder ranch state park": {
            "latitude": "36.96021805",
            "closest_to": "san francisco",
            "address": "Wilder Ranch State Park, Coast Road, Westside, Santa Cruz County, California, 95060, United States of America",
            "locType": "park",
            "blogLinks": [
                "https://www.gapyear.com/articles/216212/13-incredible-stops-on-the-pacific-coast-highway"
            ],
            "longitude": "-122.079566815934"
        },
        "palomar mountain": {
            "latitude": "33.3228128",
            "closest_to": "san bernardino",
            "address": "Palomar Mountain, San Diego County, California, United States of America",
            "locType": "hamlet",
            "blogLinks": [
                "http://wikitravel.org/en/San_Diego"
            ],
            "longitude": "-116.8786358"
        },
        "utah": {
            "latitude": "37.413408",
            "closest_to": "san francisco",
            "address": "Utah, Rovana, Inyo County, California, United States of America",
            "locType": "residential",
            "blogLinks": [
                "http://wikitravel.org/en/San_Diego"
            ],
            "longitude": "-118.6125359"
        },
        "southern california": {
            "latitude": "34.0224149",
            "closest_to": "san francisco",
            "address": "University of Southern California, Watt Way, Saint James Park, LA, Los Angeles County, California, 90089, United States of America",
            "locType": "university",
            "blogLinks": [
                "http://wikitravel.org/en/San_Diego",
                "http://www.hopper.com/articles/291/five-great-stops-between-los-angeles-and-san-francisco-on-the-pacific-coast-highway"
            ],
            "longitude": "-118.286343973446"
        },
        "tecate": {
            "latitude": "32.43593355",
            "closest_to": "san bernardino",
            "address": "Tecate, Baja California, M\u00e9xico",
            "locType": "administrative",
            "blogLinks": [
                "http://wikitravel.org/en/San_Diego"
            ],
            "longitude": "-116.273657068655"
        },
        "el paso": {
            "latitude": "36.8487922",
            "closest_to": "san francisco",
            "address": "El Paso, Clovis, Fresno County, California, 93611, United States of America",
            "locType": "residential",
            "blogLinks": [
                "http://wikitravel.org/en/San_Diego"
            ],
            "longitude": "-119.6823199"
        },
        "san simeon": {
            "latitude": "35.6438587",
            "closest_to": "san francisco",
            "address": "San Simeon, San Luis Obispo County, California, United States of America",
            "locType": "hamlet",
            "blogLinks": [
                "https://www.tripadvisor.com/ShowTopic-g28926-i29-k4437891-HWY_1_Road_Trip_San_Francisco_to_San_Diego_Itinerary-California.html",
                "http://traveltips.usatoday.com/fun-things-los-angeles-san-francisco-14664.html",
                "http://www.hopper.com/articles/291/five-great-stops-between-los-angeles-and-san-francisco-on-the-pacific-coast-highway",
                "https://www.gapyear.com/articles/216212/13-incredible-stops-on-the-pacific-coast-highway"
            ],
            "longitude": "-121.1907532"
        },
        "central avenue": {
            "latitude": "33.9535912",
            "closest_to": "san bernardino",
            "address": "Central Avenue, Riverside, Riverside County, California, 92504, United States of America",
            "locType": "primary",
            "blogLinks": [
                "http://gocalifornia.about.com/od/topcalifornia/ss/route-66.htm"
            ],
            "longitude": "-117.3851652"
        },
        "monterey bay aquarium": {
            "latitude": "36.61809095",
            "closest_to": "san francisco",
            "address": "MBA, 886, Cannery Row, Monterey, Monterey County, California, 93940, United States of America",
            "locType": "aquarium",
            "blogLinks": [
                "http://travelblog.viator.com/road-trip-san-francisco-los-angeles/",
                "http://traveltips.usatoday.com/fun-things-los-angeles-san-francisco-14664.html",
                "http://www.hopper.com/articles/291/five-great-stops-between-los-angeles-and-san-francisco-on-the-pacific-coast-highway",
                "https://www.gapyear.com/articles/216212/13-incredible-stops-on-the-pacific-coast-highway"
            ],
            "longitude": "-121.901680002002"
        },
        "pacific": {
            "latitude": "38.7601815",
            "closest_to": "san francisco",
            "address": "Pacific, El Dorado County, California, United States of America",
            "locType": "hamlet",
            "blogLinks": [
                "http://travelblog.viator.com/road-trip-san-francisco-los-angeles/",
                "http://fathomaway.com/guides/usa/san-francisco/itineraries/road-trip-san-francisco-to-monterey-california/",
                "http://gocalifornia.about.com/od/topcalifornia/ss/route-66.htm"
            ],
            "longitude": "-120.507146"
        },
        "san luis obispo county": {
            "latitude": "35.3540209",
            "closest_to": "san francisco",
            "address": "San Luis Obispo County, California, United States of America",
            "locType": "administrative",
            "blogLinks": [
                "http://www.hopper.com/articles/291/five-great-stops-between-los-angeles-and-san-francisco-on-the-pacific-coast-highway"
            ],
            "longitude": "-120.3757162"
        },
        "mcway falls": {
            "latitude": "36.1578211",
            "closest_to": "san francisco",
            "address": "McWay Falls, Monterey County, California, United States of America",
            "locType": "waterfall",
            "blogLinks": [
                "https://www.gapyear.com/articles/216212/13-incredible-stops-on-the-pacific-coast-highway"
            ],
            "longitude": "-121.6723957"
        },
        "town-mission valley": {
            "latitude": "32.7537731",
            "closest_to": "san bernardino",
            "address": "Old Town San Diego State Historic Park, Twiggs Street, Old Town, San Diego, San Diego County, California, 92110, United States of America",
            "locType": "park",
            "blogLinks": [
                "http://wikitravel.org/en/San_Diego"
            ],
            "longitude": "-117.194891467408"
        },
        "newport beach": {
            "latitude": "33.6170092",
            "closest_to": "san francisco",
            "address": "Newport Beach, Orange County, California, United States of America",
            "locType": "city",
            "blogLinks": [
                "https://www.gapyear.com/articles/216212/13-incredible-stops-on-the-pacific-coast-highway"
            ],
            "longitude": "-117.92944"
        },
        "central coast": {
            "latitude": "35.3611193",
            "closest_to": "san francisco",
            "address": "Central Coast Street, Bakersfield, Kern County, California, 93314, United States of America",
            "locType": "residential",
            "blogLinks": [
                "http://travelblog.viator.com/road-trip-san-francisco-los-angeles/",
                "http://wikitravel.org/en/San_Diego"
            ],
            "longitude": "-119.1665989"
        },
        "islay hill": {
            "latitude": "35.2455305",
            "closest_to": "san francisco",
            "address": "Islay Hill, San Luis Obispo, San Luis Obispo County, California, United States of America",
            "locType": "peak",
            "blogLinks": [
                "https://www.gapyear.com/articles/216212/13-incredible-stops-on-the-pacific-coast-highway"
            ],
            "longitude": "-120.622392"
        },
        "santa ana": {
            "latitude": "33.7494951",
            "closest_to": "san francisco",
            "address": "Santa Ana, Orange County, California, United States of America",
            "locType": "city",
            "blogLinks": [
                "http://wikitravel.org/en/San_Diego"
            ],
            "longitude": "-117.8732212"
        },
        "san diego zoo safari park": {
            "latitude": "33.096694",
            "closest_to": "san bernardino",
            "address": "San Diego Zoo Safari Park, 15500, San Pasqual Valley Road, San Diego, San Diego County, California, 92025, United States of America",
            "locType": "zoo",
            "blogLinks": [
                "http://wikitravel.org/en/San_Diego"
            ],
            "longitude": "-116.995039439834"
        },
        "tokyo": {
            "latitude": "34.0431787",
            "closest_to": "san francisco",
            "address": "Southern California Institute of Architecture, 960, East 3rd Street, Arts District, Little Tokyo Historic District, LA, Los Angeles County, California, 90013, United States of America",
            "locType": "school",
            "blogLinks": [
                "http://wikitravel.org/en/San_Diego"
            ],
            "longitude": "-118.2328066"
        },
        "mission valley": {
            "latitude": "32.7768074",
            "closest_to": "san bernardino",
            "address": "Mission Valley, San Diego, San Diego County, California, United States of America",
            "locType": "suburb",
            "blogLinks": [
                "http://wikitravel.org/en/San_Diego"
            ],
            "longitude": "-117.1520977"
        },
        "santa monica blvd": {
            "latitude": "34.0907545",
            "closest_to": "san francisco",
            "address": "Santa Monica Boulevard, Little Armenia, LA, Los Angeles County, California, Ca 90038, United States of America",
            "locType": "primary",
            "blogLinks": [
                "http://gocalifornia.about.com/od/topcalifornia/ss/route-66.htm"
            ],
            "longitude": "-118.317943"
        },
        "nevada": {
            "latitude": "39.3540335",
            "closest_to": "san francisco",
            "address": "Nevada County, California, United States of America",
            "locType": "administrative",
            "blogLinks": [
                "http://wikitravel.org/en/San_Diego"
            ],
            "longitude": "-120.8089842"
        },
        "hearst castle": {
            "latitude": "35.6853689",
            "closest_to": "san francisco",
            "address": "Hearst Castle, 750, Hearst Castle Road, San Simeon, San Luis Obispo County, California, 93452, United States of America",
            "locType": "museum",
            "blogLinks": [
                "http://traveltips.usatoday.com/fun-things-los-angeles-san-francisco-14664.html"
            ],
            "longitude": "-121.167587299509"
        },
        "beverly hills": {
            "latitude": "34.0736204",
            "closest_to": "san francisco",
            "address": "Beverly Hills, Los Angeles County, California, United States of America",
            "locType": "city",
            "blogLinks": [
                "http://gocalifornia.about.com/od/topcalifornia/ss/route-66.htm"
            ],
            "longitude": "-118.4003562"
        },
        "queens": {
            "latitude": "38.9993752",
            "closest_to": "san francisco",
            "address": "Three Queens Rapids, El Dorado County, California, United States of America",
            "locType": "rapids",
            "blogLinks": [
                "https://www.gapyear.com/articles/216212/13-incredible-stops-on-the-pacific-coast-highway"
            ],
            "longitude": "-120.7912868"
        },
        "gilroy": {
            "latitude": "37.0065078",
            "closest_to": "san francisco",
            "address": "Gilroy, Santa Clara County, California, United States of America",
            "locType": "city",
            "blogLinks": [
                "http://traveltips.usatoday.com/fun-things-los-angeles-san-francisco-14664.html"
            ],
            "longitude": "-121.5631722"
        },
        "old town transit center": {
            "latitude": "32.7548849",
            "closest_to": "san bernardino",
            "address": "Old Town Transit Center, Congress Street, Old Town, San Diego, San Diego County, California, 92110, United States of America",
            "locType": "station",
            "blogLinks": [
                "http://wikitravel.org/en/San_Diego"
            ],
            "longitude": "-117.1994928"
        },
        "black hill": {
            "latitude": "34.1788953",
            "closest_to": "san bernardino",
            "address": "Black Hill, San Bernardino County, California, United States of America",
            "locType": "peak",
            "blogLinks": [
                "https://www.gapyear.com/articles/216212/13-incredible-stops-on-the-pacific-coast-highway"
            ],
            "longitude": "-116.49196"
        },
        "cuyamaca rancho state park": {
            "latitude": "32.86396725",
            "closest_to": "san bernardino",
            "address": "Cuyamaca Rancho State Park, Highway 79, Guatay, San Diego County, California, 92036, United States of America",
            "locType": "park",
            "blogLinks": [
                "http://wikitravel.org/en/San_Diego"
            ],
            "longitude": "-116.591579345466"
        },
        "canada": {
            "latitude": "33.7298842",
            "closest_to": "san francisco",
            "address": "La Canada, Lower Peters Canyon, Irvine, Orange County, California, 92602, United States of America",
            "locType": "residential",
            "blogLinks": [
                "http://wikitravel.org/en/San_Diego"
            ],
            "longitude": "-117.7641381"
        },
        "broadway": {
            "latitude": "37.7958391",
            "closest_to": "san francisco",
            "address": "Broadway, Russian Hill, SF, California, 94109;94115, United States of America",
            "locType": "primary",
            "blogLinks": [
                "http://wikitravel.org/en/San_Diego",
                "http://gocalifornia.about.com/od/topcalifornia/ss/route-66.htm"
            ],
            "longitude": "-122.4226908"
        },
        "kumeyaay": {
            "latitude": "32.6464696",
            "closest_to": "san bernardino",
            "address": "Kumeyaay Highway, Titus, San Diego County, California, 91934, United States of America",
            "locType": "motorway",
            "blogLinks": [
                "http://wikitravel.org/en/San_Diego"
            ],
            "longitude": "-116.1858258"
        },
        "kettner blvd.": {
            "latitude": "32.725143",
            "closest_to": "san bernardino",
            "address": "Kettner Boulevard, Hillcrest, San Diego, San Diego County, California, 92101, United States of America",
            "locType": "secondary",
            "blogLinks": [
                "http://wikitravel.org/en/San_Diego"
            ],
            "longitude": "-117.1698529"
        },
        "solana beach": {
            "latitude": "32.9905597",
            "closest_to": "san bernardino",
            "address": "Solana Beach, San Diego County, California, United States of America",
            "locType": "city",
            "blogLinks": [
                "http://wikitravel.org/en/San_Diego"
            ],
            "longitude": "-117.2691315"
        },
        "inland san diego county": {
            "latitude": "33.119939",
            "closest_to": "san bernardino",
            "address": "Inland Rail Trail, Escondido, San Diego County, California, 92025, United States of America",
            "locType": "cycleway",
            "blogLinks": [
                "http://wikitravel.org/en/San_Diego"
            ],
            "longitude": "-117.0913462"
        },
        "legoland california": {
            "latitude": "33.1278683",
            "closest_to": "san bernardino",
            "address": "Legoland California, 1, LEGOLAND drive, Carlsbad, San Diego County, California, 92008, United States of America",
            "locType": "theme_park",
            "blogLinks": [
                "http://wikitravel.org/en/San_Diego"
            ],
            "longitude": "-117.311664211922"
        },
        "san diego airport": {
            "latitude": "33.1278146",
            "closest_to": "san bernardino",
            "address": "California Bank & Trust, 2501, Palomar Airport Road, Carlsbad, San Diego County, California, 92011, United States of America",
            "locType": "bank",
            "blogLinks": [
                "http://wikitravel.org/en/San_Diego"
            ],
            "longitude": "-117.270809764613"
        },
        "temecula wine country": {
            "latitude": "33.5334975",
            "closest_to": "san bernardino",
            "address": "Temecula Valley Wine Country, Valle de los Caballos, Riverside County, California, United States of America",
            "locType": "suburb",
            "blogLinks": [
                "http://wikitravel.org/en/San_Diego"
            ],
            "longitude": "-117.0334856"
        },
        "balboa park": {
            "latitude": "37.72494875",
            "closest_to": "san francisco",
            "address": "Balboa Park, Sergeant John V Young Lane, Ingleside, SF, California, 94112, United States of America",
            "locType": "park",
            "blogLinks": [
                "http://wikitravel.org/en/San_Diego",
                "https://www.gapyear.com/articles/216212/13-incredible-stops-on-the-pacific-coast-highway"
            ],
            "longitude": "-122.444804424152"
        },
        "n. torrey pines rd": {
            "latitude": "32.9358252",
            "closest_to": "san bernardino",
            "address": "North Torrey Pines Road, Del Mar, San Diego, San Diego County, California, 92014, United States of America",
            "locType": "primary",
            "blogLinks": [
                "http://wikitravel.org/en/San_Diego"
            ],
            "longitude": "-117.2608353"
        },
        "mojave desert": {
            "latitude": "35.1456319",
            "closest_to": "san bernardino",
            "address": "Mojave Desert, Utility Road, San Bernardino County, California, United States of America",
            "locType": "desert",
            "blogLinks": [
                "http://gocalifornia.about.com/od/topcalifornia/ss/route-66.htm"
            ],
            "longitude": "-115.548963686646"
        },
        "santa fe railroad": {
            "latitude": "37.9313328",
            "closest_to": "san francisco",
            "address": "Santa Fe Railroad, West Ohio Avenue, Atchison Village, Richmond, Contra Costa County, California, 94804, United States of America",
            "locType": "abandoned",
            "blogLinks": [
                "http://gocalifornia.about.com/od/topcalifornia/ss/route-66.htm"
            ],
            "longitude": "-122.3742068"
        },
        "mission st.": {
            "latitude": "37.7937635",
            "closest_to": "san francisco",
            "address": "Mission Street, Financial District, SF, California, 94105, United States of America",
            "locType": "secondary",
            "blogLinks": [
                "http://fathomaway.com/guides/usa/san-francisco/itineraries/road-trip-san-francisco-to-monterey-california/"
            ],
            "longitude": "-122.3925412"
        },
        "san bernardino valley": {
            "latitude": "34.1083449",
            "closest_to": "san francisco",
            "address": "San Bernardino, San Bernardino County, California, United States of America",
            "locType": "city",
            "blogLinks": [
                "https://www.virtualtourist.com/travel/North_America/United_States_of_America/California/San_Bernardino-755456/Things_To_Do-San_Bernardino-TG-C-1.html"
            ],
            "longitude": "-117.2897651"
        },
        "poway": {
            "latitude": "32.9628234",
            "closest_to": "san bernardino",
            "address": "Poway, San Diego County, California, United States of America",
            "locType": "city",
            "blogLinks": [
                "http://wikitravel.org/en/San_Diego"
            ],
            "longitude": "-117.0358645"
        },
        "golden gate park": {
            "latitude": "37.7693681",
            "closest_to": "san francisco",
            "address": "Golden Gate Park, Overlook Drive, Richmond District, SF, California, 94122, United States of America",
            "locType": "park",
            "blogLinks": [
                "https://www.gapyear.com/articles/216212/13-incredible-stops-on-the-pacific-coast-highway",
                "https://www.tripit.com/blog/2016/01/california-driving-distances-and-times.html"
            ],
            "longitude": "-122.482183611177"
        },
        "inland empire": {
            "latitude": "33.73849885",
            "closest_to": "san bernardino",
            "address": "Inland Empire Energy Center, Romoland, Riverside County, California, 92585, United States of America",
            "locType": "industrial",
            "blogLinks": [
                "http://californiathroughmylens.com/route-66-san-bernardino-to-rancho-cucamonga"
            ],
            "longitude": "-117.16947092864"
        },
        "monrovia": {
            "latitude": "34.1483499",
            "closest_to": "san francisco",
            "address": "Monrovia, Los Angeles County, California, United States of America",
            "locType": "city",
            "blogLinks": [
                "http://gocalifornia.about.com/od/topcalifornia/ss/route-66.htm"
            ],
            "longitude": "-118.0014516"
        },