{
    "mentions": {
        "la jolla": {
            "blogLinks": [
                "https://www.yelp.com/biz/pacific-coast-highway-carmel"
            ],
            "address": "La Jolla, San Diego, San Diego County, California, United States of America",
            "longitude": -117.2742085,
            "locType": "suburb",
            "latitude": 32.8472711,
            "closest_to": "anaheim"
        },
        "alcatraz": {
            "blogLinks": [
                "https://www.trekaroo.com/places/california/snapshot"
            ],
            "address": "Alcatraz Island, SF, California, United States of America",
            "longitude": -122.422746492409,
            "locType": "island",
            "latitude": 37.8267283,
            "closest_to": "stockton"
        },
        "santa barbara": {
            "blogLinks": [
                "http://www.hopper.com/articles/291/five-great-stops-between-los-angeles-and-san-francisco-on-the-pacific-coast-highway",
                "https://www.yelp.com/biz/pacific-coast-highway-carmel"
            ],
            "address": "Santa Barbara, Santa Barbara County, California, United States of America",
            "longitude": -119.7026672,
            "locType": "city",
            "latitude": 34.4221319,
            "closest_to": "stockton"
        },
        "santa monica beach": {
            "blogLinks": [
                "https://www.yelp.com/biz/pacific-coast-highway-carmel",
                "https://www.audleytravel.com/usa/california/places-to-go/los-angeles?audcmp=16-505%20USA%20-%20Region%20-%20California%20and%20Nevada&audadg=USA%20-%20California%20and%20Nevada%20-%20Place%20-%20Los%20Angeles%20-%20Broad&auddev=Desktop%20and%20Tablet"
            ],
            "address": "Santa Monica Drive, Channel Islands Beach, Ventura County, California, 93035, United States of America",
            "longitude": -119.2203179,
            "locType": "residential",
            "latitude": 34.159111,
            "closest_to": "stockton"
        },
        "redondo beach": {
            "blogLinks": [
                "https://www.yelp.com/biz/pacific-coast-highway-carmel"
            ],
            "address": "Redondo Beach, Los Angeles County, California, United States of America",
            "longitude": -118.3886765,
            "locType": "city",
            "latitude": 33.8455911,
            "closest_to": "stockton"
        },
        "los angeles/anaheim": {
            "blogLinks": [
                "http://gocalifornia.about.com/od/topcalifornia/qt/From-To-In-California.htm"
            ],
            "address": "Global Tires of California, 233, East Anaheim Street, Wilmington, LA, Los Angeles County, California, 90744, United States of America",
            "longitude": -118.2602935,
            "locType": "car_repair",
            "latitude": 33.7803597,
            "closest_to": "stockton"
        },
        "eureka": {
            "blogLinks": [
                "http://www.travbuddy.com/California-popular-cities-p85"
            ],
            "address": "Eureka, Humboldt County, California, United States of America",
            "longitude": -124.1636728,
            "locType": "city",
            "latitude": 40.8020712,
            "closest_to": "stockton"
        },
        "long beach": {
            "blogLinks": [
                "http://www.travbuddy.com/California-popular-cities-p85",
                "https://www.yelp.com/biz/pacific-coast-highway-carmel"
            ],
            "address": "Long Beach, Los Angeles County, California, United States of America",
            "longitude": -118.158049215311,
            "locType": "city",
            "latitude": 33.78538945,
            "closest_to": "stockton"
        },
        "palm springs": {
            "blogLinks": [
                "https://www.trekaroo.com/places/california/snapshot"
            ],
            "address": "Palm Springs, Riverside County, California, United States of America",
            "longitude": -116.5403029,
            "locType": "city",
            "latitude": 33.8246269,
            "closest_to": "anaheim"
        },
        "playa": {
            "blogLinks": [
                "http://www.travbuddy.com/California-popular-cities-p85"
            ],
            "address": "La Playa, San Diego County, California, United States of America",
            "longitude": -117.245314,
            "locType": "hamlet",
            "latitude": 32.712273,
            "closest_to": "anaheim"
        },
        "hollywood sign": {
            "blogLinks": [
                "https://blogs.chapman.edu/students/2013/02/19/10-reasons-why-california-is-the-only-place/"
            ],
            "address": "Hollywood Sign, Mount Lee Drive, Hollywood Hills, LA, Los Angeles County, California, 90068, United States of America",
            "longitude": -118.3216522,
            "locType": "attraction",
            "latitude": 34.1340991,
            "closest_to": "stockton"
        },
        "death valley": {
            "blogLinks": [
                "https://blogs.chapman.edu/students/2013/02/19/10-reasons-why-california-is-the-only-place/"
            ],
            "address": "Death Valley, Timbisha, Inyo County, California, 92328, United States of America",
            "longitude": -116.914043572057,
            "locType": "desert",
            "latitude": 36.42404725,
            "closest_to": "stockton"
        },
        "half moon bay state beach": {
            "blogLinks": [
                "https://www.yelp.com/biz/interstate-5-los-angeles"
            ],
            "address": "Half Moon Bay State Beach, Venice Boulevard, Half Moon Bay, San Mateo County, California, 94019, United States of America",
            "longitude": -122.449789014662,
            "locType": "beach",
            "latitude": 37.47903115,
            "closest_to": "stockton"
        },
        "yreka": {
            "blogLinks": [
                "https://www.yelp.com/biz/pacific-coast-highway-carmel"
            ],
            "address": "Yreka, Siskiyou County, California, United States of America",
            "longitude": -122.6377654,
            "locType": "city",
            "latitude": 41.7326157,
            "closest_to": "stockton"
        },
        "los angeles": {
            "blogLinks": [
                "http://gocalifornia.about.com/od/topcalifornia/qt/From-To-In-California.htm",
                "https://blogs.chapman.edu/students/2013/02/19/10-reasons-why-california-is-the-only-place/",
                "http://visitanaheim.org/",
                "https://www.yelp.com/biz/interstate-5-los-angeles",
                "https://www.audleytravel.com/usa/california/places-to-go/los-angeles?audcmp=16-505%20USA%20-%20Region%20-%20California%20and%20Nevada&audadg=USA%20-%20California%20and%20Nevada%20-%20Place%20-%20Los%20Angeles%20-%20Broad&auddev=Desktop%20and%20Tablet",
                "http://www.travbuddy.com/California-popular-cities-p85",
                "https://www.tripadvisor.com/ShowUserReviews-g32037-d627479-r51783537-SpringHill_Suites_Bakersfield-Bakersfield_California.html",
                "http://www.hopper.com/articles/291/five-great-stops-between-los-angeles-and-san-francisco-on-the-pacific-coast-highway",
                "https://www.yelp.com/biz/pacific-coast-highway-carmel"
            ],
            "address": "LA, Los Angeles County, California, United States of America",
            "longitude": -118.2439408,
            "locType": "city",
            "latitude": 34.0543942,
            "closest_to": "stockton"
        },
        "' death valley national park": {
            "blogLinks": [
                "https://www.trekaroo.com/places/california/snapshot"
            ],
            "address": "Death Valley National Park, Lucky Wash Road, Skidoo, Inyo County, California, United States of America",
            "longitude": -117.102293507719,
            "locType": "national_park",
            "latitude": 36.4914385,
            "closest_to": "stockton"
        },
        "west hollywood": {
            "blogLinks": [
                "http://www.travbuddy.com/California-popular-cities-p85",
                "https://www.audleytravel.com/usa/california/places-to-go/los-angeles?audcmp=16-505%20USA%20-%20Region%20-%20California%20and%20Nevada&audadg=USA%20-%20California%20and%20Nevada%20-%20Place%20-%20Los%20Angeles%20-%20Broad&auddev=Desktop%20and%20Tablet"
            ],
            "address": "West Hollywood, Los Angeles County, California, United States of America",
            "longitude": -118.3617442,
            "locType": "city",
            "latitude": 34.0900091,
            "closest_to": "stockton"
        },
        "melrose avenue": {
            "blogLinks": [
                "https://www.audleytravel.com/usa/california/places-to-go/los-angeles?audcmp=16-505%20USA%20-%20Region%20-%20California%20and%20Nevada&audadg=USA%20-%20California%20and%20Nevada%20-%20Place%20-%20Los%20Angeles%20-%20Broad&auddev=Desktop%20and%20Tablet"
            ],
            "address": "Melrose Avenue, San Elijo Hills, San Marcos, San Diego County, California, 92069, United States of America",
            "longitude": -117.2145993,
            "locType": "secondary",
            "latitude": 33.1005138,
            "closest_to": "anaheim"
        },
        "bixby bridge": {
            "blogLinks": [
                "https://www.yelp.com/biz/pacific-coast-highway-carmel"
            ],
            "address": "Bixby Creek Bridge, Notleys Landing, Monterey County, California, 93923, United States of America",
            "longitude": -121.9017572,
            "locType": "primary",
            "latitude": 36.3710197,
            "closest_to": "stockton"
        },
        "big bear lake": {
            "blogLinks": [
                "http://www.travbuddy.com/California-popular-cities-p85"
            ],
            "address": "Big Bear Lake, Lagunita Lane, Big Bear Lake, San Bernardino County, California, 92315, United States of America",
            "longitude": -116.932209587315,
            "locType": "water",
            "latitude": 34.253293,
            "closest_to": "anaheim"
        },
        "big sur": {
            "blogLinks": [
                "https://www.yelp.com/biz/pacific-coast-highway-carmel"
            ],
            "address": "Big Sur, Monterey County, California, United States of America",
            "longitude": -121.8074544,
            "locType": "village",
            "latitude": 36.270241,
            "closest_to": "stockton"
        },
        "castaic": {
            "blogLinks": [
                "https://www.yelp.com/biz/interstate-5-los-angeles"
            ],
            "address": "Castaic, Los Angeles County, California, United States of America",
            "longitude": -118.6228655,
            "locType": "hamlet",
            "latitude": 34.4888822,
            "closest_to": "stockton"
        },
        "california pizza kitchen": {
            "blogLinks": [
                "https://www.tripadvisor.com/ShowUserReviews-g32037-d627479-r51783537-SpringHill_Suites_Bakersfield-Bakersfield_California.html"
            ],
            "address": "California Pizza Kitchen, 10956, Weyburn Avenue, Westwood Village, Westwood, LA, Los Angeles County, California, 90024, United States of America",
            "longitude": -118.4471444,
            "locType": "restaurant",
            "latitude": 34.0622772,
            "closest_to": "stockton"
        },
        "sandusky county": {
            "blogLinks": [
                "http://www.travbuddy.com/California-popular-cities-p85"
            ],
            "address": "Sandusky Creek, Sierra County, California, United States of America",
            "longitude": -120.8679252,
            "locType": "stream",
            "latitude": 39.4898877,
            "closest_to": "stockton"
        },
        "burbank": {
            "blogLinks": [
                "http://www.travbuddy.com/California-popular-cities-p85",
                "https://www.yelp.com/biz/interstate-5-los-angeles"
            ],
            "address": "Burbank, Los Angeles County, California, United States of America",
            "longitude": -118.3258553,
            "locType": "city",
            "latitude": 34.1816482,
            "closest_to": "stockton"
        },
        "calico": {
            "blogLinks": [
                "http://www.travbuddy.com/California-popular-cities-p85"
            ],
            "address": "Calico, Kern County, California, United States of America",
            "longitude": -119.206496,
            "locType": "locality",
            "latitude": 35.6327332,
            "closest_to": "stockton"
        },
        "laguna": {
            "blogLinks": [
                "https://www.yelp.com/biz/pacific-coast-highway-carmel"
            ],
            "address": "Laguna, Sacramento County, California, United States of America",
            "longitude": -121.4238413,
            "locType": "hamlet",
            "latitude": 38.4210209,
            "closest_to": "stockton"
        },
        "cambria": {
            "blogLinks": [
                "https://www.yelp.com/biz/pacific-coast-highway-carmel"
            ],
            "address": "Cambria, San Luis Obispo County, California, United States of America",
            "longitude": -121.0807467,
            "locType": "administrative",
            "latitude": 35.5641381,
            "closest_to": "stockton"
        },
        "bay": {
            "blogLinks": [
                "https://www.yelp.com/biz/interstate-5-los-angeles",
                "https://www.yelp.com/biz/pacific-coast-highway-carmel",
                "http://mousepad.mouseplanet.com/showthread.php?43539-Good-places-to-stay-between-Portland-Oregon-amp-Disneyland"
            ],
            "address": "Bay, Meadows Mobile Home Park, El Camino Real, Irvine, Orange County, California, 92406, United States of America",
            "longitude": -117.7729354,
            "locType": "service",
            "latitude": 33.6899249,
            "closest_to": "anaheim"
        },
        "springhill suites bakersfield": {
            "blogLinks": [
                "https://www.trekaroo.com/places/california/snapshot"
            ],
            "address": "SpringHill Suites Bakersfield, Marriott Drive, Bakersfield, Kern County, California, 93301, United States of America",
            "longitude": -119.049795236274,
            "locType": "hotel",
            "latitude": 35.3798357,
            "closest_to": "stockton"
        },
        "seattle": {
            "blogLinks": [
                "https://www.yelp.com/biz/interstate-5-los-angeles",
                "http://mousepad.mouseplanet.com/showthread.php?43539-Good-places-to-stay-between-Portland-Oregon-amp-Disneyland"
            ],
            "address": "Seattle, Dorris, Siskiyou County, California, 96023, United States of America",
            "longitude": -121.9226289,
            "locType": "residential",
            "latitude": 41.9641881,
            "closest_to": "stockton"
        },
        "golden gate bridge": {
            "blogLinks": [
                "https://www.trekaroo.com/places/california/snapshot"
            ],
            "address": "Golden Gate Bridge, Waldo, Marin County, California, 94965, United States of America",
            "longitude": -122.4798473,
            "locType": "motorway",
            "latitude": 37.8302809,
            "closest_to": "stockton"
        },
        "chinatown": {
            "blogLinks": [
                "https://www.trekaroo.com/places/california/snapshot"
            ],
            "address": "Chinatown, Oakland, Alameda County, California, ca, United States of America",
            "longitude": -122.2702385,
            "locType": "neighbourhood",
            "latitude": 37.7999301,
            "closest_to": "stockton"
        },
        "huntington beach": {
            "blogLinks": [
                "http://www.travbuddy.com/California-popular-cities-p85",
                "https://www.yelp.com/biz/pacific-coast-highway-carmel"
            ],
            "address": "Huntington Beach, Orange County, California, United States of America",
            "longitude": -118.0000165,
            "locType": "city",
            "latitude": 33.6783336,
            "closest_to": "anaheim"
        },
        "buttonwillow": {
            "blogLinks": [
                "https://www.yelp.com/biz/interstate-5-los-angeles"
            ],
            "address": "Buttonwillow, Kern County, California, United States of America",
            "longitude": -119.474104,
            "locType": "village",
            "latitude": 35.3997369,
            "closest_to": "stockton"
        },
        "lake tahoe": {
            "blogLinks": [
                "https://www.trekaroo.com/places/california/snapshot"
            ],
            "address": "Lake Tahoe, Placer County, California, United States of America",
            "longitude": -120.050511752934,
            "locType": "water",
            "latitude": 39.0888982,
            "closest_to": "stockton"
        },
        "solana beach": {
            "blogLinks": [
                "https://www.yelp.com/biz/pacific-coast-highway-carmel"
            ],
            "address": "Solana Beach, San Diego County, California, United States of America",
            "longitude": -117.2691315,
            "locType": "city",
            "latitude": 32.9905597,
            "closest_to": "anaheim"
        },
        "oceanside": {
            "blogLinks": [
                "https://www.yelp.com/biz/pacific-coast-highway-carmel"
            ],
            "address": "Oceanside, San Diego County, California, United States of America",
            "longitude": -117.3794833,
            "locType": "city",
            "latitude": 33.1958696,
            "closest_to": "anaheim"
        },
        "oakland international airport": {
            "blogLinks": [
                "https://www.trekaroo.com/places/california/snapshot"
            ],
            "address": "Oakland International Airport, Airport Drive, Oakland, Alameda County, California, 94614, United States of America",
            "longitude": -122.2123029,
            "locType": "tram_stop",
            "latitude": 37.713158,
            "closest_to": "stockton"
        },
        "california-nevada": {
            "blogLinks": [
                "http://www.travbuddy.com/California-popular-cities-p85"
            ],
            "address": "California Hotel, Sky Walk(Connection from Main Street to California, Cultural Corridor, Vegas Heights, Las Vegas, Clark County, Nevada, 89101, United States of America",
            "longitude": -115.144667930325,
            "locType": "hotel",
            "latitude": 36.17310935,
            "closest_to": "anaheim"
        },
        "fresno": {
            "blogLinks": [
                "https://www.yelp.com/biz/interstate-5-los-angeles"
            ],
            "address": "Fresno, Fresno County, California, United States of America",
            "longitude": -119.714839601149,
            "locType": "city",
            "latitude": 36.748793,
            "closest_to": "stockton"
        },
        "greater los angeles": {
            "blogLinks": [
                "https://www.trekaroo.com/places/california/snapshot"
            ],
            "address": "Greater Cornerstone Baptist Church, Figueroa Street, Wildasin, Florence, LA, Los Angeles County, California, 90044, United States of America",
            "longitude": -118.2822963,
            "locType": "place_of_worship",
            "latitude": 33.9864031,
            "closest_to": "stockton"
        },
        "bay area": {
            "blogLinks": [
                "http://visitanaheim.org/",
                "http://www.tvfoodmaps.com/s1/CA",
                "https://www.yelp.com/biz/pacific-coast-highway-carmel"
            ],
            "address": "San Francisco Bay Area, SF, California, United States of America",
            "longitude": -122.3558472,
            "locType": "region",
            "latitude": 37.7884969,
            "closest_to": "stockton"
        },
        "canada": {
            "blogLinks": [
                "https://www.yelp.com/biz/pacific-coast-highway-carmel",
                "https://www.yelp.com/biz/interstate-5-los-angeles"
            ],
            "address": "La Canada, Lower Peters Canyon, Irvine, Orange County, California, 92602, United States of America",
            "longitude": -117.7641381,
            "locType": "residential",
            "latitude": 33.7298842,
            "closest_to": "anaheim"
        },
        "hampton inn": {
            "blogLinks": [
                "https://www.trekaroo.com/places/california/snapshot"
            ],
            "address": "Hampton Inn, Pryce Street, Ocean Street Commercial Corridor, Downtown, Santa Cruz, Santa Cruz County, California, 95060, United States of America",
            "longitude": -122.0239357,
            "locType": "hotel",
            "latitude": 36.9847575,
            "closest_to": "stockton"
        },
        "central california": {
            "blogLinks": [
                "https://www.yelp.com/biz/interstate-5-los-angeles"
            ],
            "address": "Central, Yolo County, California, United States of America",
            "longitude": -121.573011,
            "locType": "hamlet",
            "latitude": 38.392688,
            "closest_to": "stockton"
        },
        "southern california": {
            "blogLinks": [
                "http://www.travbuddy.com/California-popular-cities-p85",
                "https://www.trekaroo.com/places/california/snapshot",
                "http://visitanaheim.org/",
                "http://www.hopper.com/articles/291/five-great-stops-between-los-angeles-and-san-francisco-on-the-pacific-coast-highway",
                "https://www.yelp.com/biz/pacific-coast-highway-carmel"
            ],
            "address": "University of Southern California, Watt Way, Saint James Park, LA, Los Angeles County, California, 90089, United States of America",
            "longitude": -118.286343973446,
            "locType": "university",
            "latitude": 34.0224149,
            "closest_to": "stockton"
        },
        "sacramento": {
            "blogLinks": [
                "https://www.yelp.com/biz/pacific-coast-highway-carmel",
                "https://www.trekaroo.com/places/california/snapshot",
                "http://mousepad.mouseplanet.com/showthread.php?43539-Good-places-to-stay-between-Portland-Oregon-amp-Disneyland"
            ],
            "address": "Sacramento, Sacramento County, California, United States of America",
            "longitude": -121.4943995,
            "locType": "city",
            "latitude": 38.5815719,
            "closest_to": "stockton"
        },
        "las vegas": {
            "blogLinks": [
                "http://gocalifornia.about.com/od/topcalifornia/qt/From-To-In-California.htm",
                "https://www.tripadvisor.com/ShowUserReviews-g32037-d627479-r51783537-SpringHill_Suites_Bakersfield-Bakersfield_California.html"
            ],
            "address": "California Hotel, Sky Walk(Connection from Main Street to California, Cultural Corridor, Vegas Heights, Las Vegas, Clark County, Nevada, 89101, United States of America",
            "longitude": -115.144667930325,
            "locType": "hotel",
            "latitude": 36.17310935,
            "closest_to": "anaheim"
        },
        "newport beach": {
            "blogLinks": [
                "http://www.travbuddy.com/California-popular-cities-p85",
                "https://www.yelp.com/biz/pacific-coast-highway-carmel"
            ],
            "address": "Newport Beach, Orange County, California, United States of America",
            "longitude": -117.92944,
            "locType": "city",
            "latitude": 33.6170092,
            "closest_to": "anaheim"
        },
        "san juan capistrano": {
            "blogLinks": [
                "http://www.travbuddy.com/California-popular-cities-p85"
            ],
            "address": "San Juan Capistrano, Orange County, California, United States of America",
            "longitude": -117.6625508,
            "locType": "city",
            "latitude": 33.5016932,
            "closest_to": "anaheim"
        },
        "calistoga": {
            "blogLinks": [
                "http://www.travbuddy.com/California-popular-cities-p85"
            ],
            "address": "Calistoga, Napa County, California, United States of America",
            "longitude": -122.583325948608,
            "locType": "city",
            "latitude": 38.582615,
            "closest_to": "stockton"
        },
        "anza-borrego desert": {
            "blogLinks": [
                "https://www.tripadvisor.com/ShowUserReviews-g32037-d627479-r51783537-SpringHill_Suites_Bakersfield-Bakersfield_California.html"
            ],
            "address": "Anza-Borrego Desert State Park, Palm Canyon Drive, Borrego, San Diego County, California, 92004, United States of America",
            "longitude": -116.330414288395,
            "locType": "protected_area",
            "latitude": 33.2528053,
            "closest_to": "anaheim"
        },
        "carmel": {
            "blogLinks": [
                "http://www.travbuddy.com/California-popular-cities-p85",
                "https://www.trekaroo.com/places/california/snapshot",
                "http://www.hopper.com/articles/291/five-great-stops-between-los-angeles-and-san-francisco-on-the-pacific-coast-highway",
                "https://www.yelp.com/biz/pacific-coast-highway-carmel"
            ],
            "address": "Carmel, Roseville, Placer County, California, 95747, United States of America",
            "longitude": -121.353308848273,
            "locType": "residential",
            "latitude": 38.75511285,
            "closest_to": "stockton"
        },
        "pacific coast highway": {
            "blogLinks": [
                "https://blogs.chapman.edu/students/2013/02/19/10-reasons-why-california-is-the-only-place/",
                "http://www.hopper.com/articles/291/five-great-stops-between-los-angeles-and-san-francisco-on-the-pacific-coast-highway",
                "http://www.tvfoodmaps.com/s2/Diners-Drive-Ins-Dives/CA",
                "https://www.yelp.com/biz/pacific-coast-highway-carmel"
            ],
            "address": "Pacific Coast Highway, Huntington Beach, Orange County, California, 92648, United States of America",
            "longitude": -118.0051687,
            "locType": "primary",
            "latitude": 33.6595127,
            "closest_to": "anaheim"
        },
        "hollywood": {
            "blogLinks": [
                "https://www.trekaroo.com/places/california/snapshot"
            ],
            "address": "Hollywood, LA, Los Angeles County, California, United States of America",
            "longitude": -118.3299898,
            "locType": "suburb",
            "latitude": 34.1028268,
            "closest_to": "stockton"
        },
        "tillamook": {
            "blogLinks": [
                "https://www.yelp.com/biz/pacific-coast-highway-carmel"
            ],
            "address": "Tillamook Bay Drive, San Diego, San Diego County, California, 92114, United States of America",
            "longitude": -117.0726319,
            "locType": "residential",
            "latitude": 32.728329,
            "closest_to": "anaheim"
        },
        "los angeles international airport": {
            "blogLinks": [
                "https://www.trekaroo.com/places/california/snapshot"
            ],
            "address": "Los Angeles International Airport, Gate 41, Westchester, Playa del Rey, LA, Los Angeles County, California, 90245, United States of America",
            "longitude": -118.407057290249,
            "locType": "aerodrome",
            "latitude": 33.94211345,
            "closest_to": "stockton"
        },
        "los angeles county": {
            "blogLinks": [
                "http://www.travbuddy.com/California-popular-cities-p85"
            ],
            "address": "Los Angeles County, California, United States of America",
            "longitude": -118.2096813,
            "locType": "administrative",
            "latitude": 34.3155072,
            "closest_to": "stockton"
        },
        "vallejo": {
            "blogLinks": [
                "http://www.travbuddy.com/California-popular-cities-p85"
            ],
            "address": "Vallejo, Solano County, California, United States of America",
            "longitude": -122.2566366,
            "locType": "city",
            "latitude": 38.1040864,
            "closest_to": "stockton"
        },
        "ocean beach": {
            "blogLinks": [
                "https://www.yelp.com/biz/pacific-coast-highway-carmel"
            ],
            "address": "Ocean Beach, San Diego, San Diego County, California, United States of America",
            "longitude": -117.249321,
            "locType": "region",
            "latitude": 32.7477784,
            "closest_to": "anaheim"
        },
        "ca": {
            "blogLinks": [
                "https://www.tripadvisor.com/ShowUserReviews-g32037-d627479-r51783537-SpringHill_Suites_Bakersfield-Bakersfield_California.html"
            ],
            "address": "Piedmont, Alameda County, California, ca, United States of America",
            "longitude": -122.232613735941,
            "locType": "postcode",
            "latitude": 37.8242285466918,
            "closest_to": "stockton"
        },
        "disneyland": {
            "blogLinks": [
                "http://gocalifornia.about.com/od/topcalifornia/qt/From-To-In-California.htm",
                "http://mousepad.mouseplanet.com/showthread.php?43539-Good-places-to-stay-between-Portland-Oregon-amp-Disneyland"
            ],
            "address": "DL, 1313, South Harbor Boulevard, Anaheim Resort District, Anaheim, Orange County, California, 92805, United States of America",
            "longitude": -117.91971186569,
            "locType": "theme_park",
            "latitude": 33.8136367,
            "closest_to": "anaheim"
        },
        "san luis obispo county": {
            "blogLinks": [
                "http://www.travbuddy.com/California-popular-cities-p85",
                "http://www.hopper.com/articles/291/five-great-stops-between-los-angeles-and-san-francisco-on-the-pacific-coast-highway"
            ],
            "address": "San Luis Obispo County, California, United States of America",
            "longitude": -120.3757162,
            "locType": "administrative",
            "latitude": 35.3540209,
            "closest_to": "stockton"
        },
        "encinitas": {
            "blogLinks": [
                "https://www.yelp.com/biz/pacific-coast-highway-carmel"
            ],
            "address": "Encinitas, San Diego County, California, United States of America",
            "longitude": -117.2919817,
            "locType": "city",
            "latitude": 33.0369867,
            "closest_to": "anaheim"
        },
        "springhill suites": {
            "blogLinks": [
                "https://www.tripadvisor.com/ShowUserReviews-g32037-d627479-r51783537-SpringHill_Suites_Bakersfield-Bakersfield_California.html"
            ],
            "address": "SpringHill Suites Lancaster Palmdale, 1811, West Avenue J-12, Lancaster, Los Angeles County, California, 93534, United States of America",
            "longitude": -118.163917450489,
            "locType": "hotel",
            "latitude": 34.67902705,
            "closest_to": "stockton"
        },
        "northern california": {
            "blogLinks": [
                "https://blogs.chapman.edu/students/2013/02/19/10-reasons-why-california-is-the-only-place/"
            ],
            "address": "Northern Frontier, San Diego, San Diego County, California, United States of America",
            "longitude": -117.1545973,
            "locType": "locality",
            "latitude": 32.7349196,
            "closest_to": "anaheim"
        },
        "oakhurst": {
            "blogLinks": [
                "http://www.travbuddy.com/California-popular-cities-p85"
            ],
            "address": "Oakhurst, Junction Drive, Oakhurst, Madera County, California, 93644, United States of America",
            "longitude": -119.657244022836,
            "locType": "administrative",
            "latitude": 37.333178,
            "closest_to": "stockton"
        },
        "hermosa beach": {
            "blogLinks": [
                "http://www.travbuddy.com/California-popular-cities-p85"
            ],
            "address": "Hermosa Beach, Los Angeles County, California, United States of America",
            "longitude": -118.3959099,
            "locType": "city",
            "latitude": 33.86428,
            "closest_to": "stockton"
        },
        "san francisco bay area": {
            "blogLinks": [
                "http://www.travbuddy.com/California-popular-cities-p85",
                "https://www.trekaroo.com/places/california/snapshot"
            ],
            "address": "San Francisco Bay Area, SF, California, United States of America",
            "longitude": -122.3558472,
            "locType": "region",
            "latitude": 37.7884969,
            "closest_to": "stockton"
        },
        "santa clara county": {
            "blogLinks": [
                "http://www.travbuddy.com/California-popular-cities-p85"
            ],
            "address": "Santa Clara County, California, United States of America",
            "longitude": -121.6846348,
            "locType": "administrative",
            "latitude": 37.2333253,
            "closest_to": "stockton"
        },
        "antelope blvd": {
            "blogLinks": [
                "http://www.travbuddy.com/California-popular-cities-p85"
            ],
            "address": "Antelope Boulevard, Red Bluff, Tehama County, California, 96080, United States of America",
            "longitude": -122.2196539,
            "locType": "trunk",
            "latitude": 40.183082,
            "closest_to": "stockton"
        },
        "yosemite national park": {
            "blogLinks": [
                "https://www.trekaroo.com/places/california/snapshot"
            ],
            "address": "Yosemite National Park, Mt. Hoffmann Trail, Mariposa County, California, United States of America",
            "longitude": -119.516587698025,
            "locType": "national_park",
            "latitude": 37.84054795,
            "closest_to": "stockton"
        },
        "san clemente": {
            "blogLinks": [
                "https://www.yelp.com/biz/pacific-coast-highway-carmel"
            ],
            "address": "San Clemente, Orange County, California, United States of America",
            "longitude": -117.6124178,
            "locType": "city",
            "latitude": 33.4270275,
            "closest_to": "anaheim"
        },
        "carlsbad": {
            "blogLinks": [
                "http://www.travbuddy.com/California-popular-cities-p85",
                "https://www.yelp.com/biz/pacific-coast-highway-carmel"
            ],
            "address": "Carlsbad, San Diego County, California, United States of America",
            "longitude": -117.3505938,
            "locType": "city",
            "latitude": 33.1580933,
            "closest_to": "anaheim"
        },
        "american riviera": {
            "blogLinks": [
                "http://www.hopper.com/articles/291/five-great-stops-between-los-angeles-and-san-francisco-on-the-pacific-coast-highway"
            ],
            "address": "American River Drive, La Riviera, Sacramento County, California, 95608, United States of America",
            "longitude": -121.3602199,
            "locType": "tertiary",
            "latitude": 38.576666,
            "closest_to": "stockton"
        },
        "central valley": {
            "blogLinks": [
                "https://www.trekaroo.com/places/california/snapshot"
            ],
            "address": "KNNN-FM (Central Valley), Rattlesnake Drive, Shasta County, California, 96001, United States of America",
            "longitude": -122.4530663,
            "locType": "tower",
            "latitude": 40.5626504,
            "closest_to": "stockton"
        },
        "humboldt county": {
            "blogLinks": [
                "http://www.travbuddy.com/California-popular-cities-p85"
            ],
            "address": "Humboldt County, California, United States of America",
            "longitude": -123.8997733,
            "locType": "administrative",
            "latitude": 40.5997415,
            "closest_to": "stockton"
        },
        "la": {
            "blogLinks": [
                "http://gocalifornia.about.com/od/topcalifornia/qt/From-To-In-California.htm",
                "https://blogs.chapman.edu/students/2013/02/19/10-reasons-why-california-is-the-only-place/",
                "http://mousepad.mouseplanet.com/showthread.php?43539-Good-places-to-stay-between-Portland-Oregon-amp-Disneyland",
                "https://www.yelp.com/biz/interstate-5-los-angeles",
                "https://www.audleytravel.com/usa/california/places-to-go/los-angeles?audcmp=16-505%20USA%20-%20Region%20-%20California%20and%20Nevada&audadg=USA%20-%20California%20and%20Nevada%20-%20Place%20-%20Los%20Angeles%20-%20Broad&auddev=Desktop%20and%20Tablet",
                "https://www.yelp.com/biz/pacific-coast-highway-carmel"
            ],
            "address": "California, United States of America",
            "longitude": -118.7559973,
            "locType": "administrative",
            "latitude": 36.7014631,
            "closest_to": "stockton"
        },
        "vancouver": {
            "blogLinks": [
                "https://www.yelp.com/biz/pacific-coast-highway-carmel"
            ],
            "address": "Vancouver, San Bernardino County, California, United States of America",
            "longitude": -117.4634669,
            "locType": "residential",
            "latitude": 34.824773,
            "closest_to": "stockton"
        },
        "golden gate park": {
            "blogLinks": [
                "https://www.trekaroo.com/places/california/snapshot"
            ],
            "address": "Golden Gate Park, Overlook Drive, Richmond District, SF, California, 94122, United States of America",
            "longitude": -122.482183611177,
            "locType": "park",
            "latitude": 37.7693681,
            "closest_to": "stockton"
        },
        "san francisco": {
            "blogLinks": [
                "http://gocalifornia.about.com/od/topcalifornia/qt/From-To-In-California.htm",
                "https://blogs.chapman.edu/students/2013/02/19/10-reasons-why-california-is-the-only-place/",
                "https://www.trekaroo.com/places/california/snapshot",
                "https://www.yelp.com/biz/interstate-5-los-angeles",
                "http://www.travbuddy.com/California-popular-cities-p85",
                "https://www.tripadvisor.com/ShowUserReviews-g32037-d627479-r51783537-SpringHill_Suites_Bakersfield-Bakersfield_California.html",
                "http://www.hopper.com/articles/291/five-great-stops-between-los-angeles-and-san-francisco-on-the-pacific-coast-highway",
                "https://www.yelp.com/biz/pacific-coast-highway-carmel"
            ],
            "address": "SF, California, United States of America",
            "longitude": -122.4192362,
            "locType": "city",
            "latitude": 37.7792808,
            "closest_to": "stockton"
        },
        "half moon bay": {
            "blogLinks": [
                "https://www.yelp.com/biz/pacific-coast-highway-carmel"
            ],
            "address": "Half Moon Bay, San Mateo County, California, United States of America",
            "longitude": -122.4285861,
            "locType": "city",
            "latitude": 37.4635519,
            "closest_to": "stockton"
        },
        "bakersfield": {
            "blogLinks": [
                "https://www.tripadvisor.com/ShowUserReviews-g32037-d627479-r51783537-SpringHill_Suites_Bakersfield-Bakersfield_California.html"
            ],
            "address": "Bakersfield, Kern County, California, United States of America",
            "longitude": -119.0194638,
            "locType": "city",
            "latitude": 35.3738712,
            "closest_to": "stockton"
        },
        "mount shasta": {
            "blogLinks": [
                "https://www.trekaroo.com/places/california/snapshot"
            ],
            "address": "Mount Shasta, Siskiyou County, California, United States of America",
            "longitude": -122.3105665,
            "locType": "city",
            "latitude": 41.3098746,
            "closest_to": "stockton"
        },
        "san francisco bay area of california": {
            "blogLinks": [
                "http://www.travbuddy.com/California-popular-cities-p85"
            ],
            "address": "San Francisco Bay Area, SF, California, United States of America",
            "longitude": -122.3558472,
            "locType": "region",
            "latitude": 37.7884969,
            "closest_to": "stockton"
        },
        "oregon": {
            "blogLinks": [
                "https://www.yelp.com/biz/pacific-coast-highway-carmel",
                "http://mousepad.mouseplanet.com/showthread.php?53215-Places-to-stay-between-Oregon-and-Disneyland",
                "https://www.yelp.com/biz/interstate-5-los-angeles"
            ],
            "address": "Oregon, Walnut, Irvine, Orange County, California, 92606, United States of America",
            "longitude": -117.7911567,
            "locType": "residential",
            "latitude": 33.7123207,
            "closest_to": "anaheim"
        },
        "barstow": {
            "blogLinks": [
                "http://www.travbuddy.com/California-popular-cities-p85"
            ],
            "address": "Barstow, San Bernardino County, California, United States of America",
            "longitude": -117.0172076,
            "locType": "administrative",
            "latitude": 34.8957684,
            "closest_to": "stockton"
        },
        "sierra nevada range": {
            "blogLinks": [
                "https://www.trekaroo.com/places/california/snapshot"
            ],
            "address": "Via Sierra Nevada, Riverside, Riverside County, California, 92507, United States of America",
            "longitude": -117.3273329,
            "locType": "residential",
            "latitude": 33.9545792,
            "closest_to": "anaheim"
        },
        "san fernando valley": {
            "blogLinks": [
                "https://www.yelp.com/biz/interstate-5-los-angeles"
            ],
            "address": "San Fernando, Los Angeles County, California, United States of America",
            "longitude": -118.4389718,
            "locType": "administrative",
            "latitude": 34.2819461,
            "closest_to": "stockton"
        },
        "pacific ocean": {
            "blogLinks": [
                "https://www.yelp.com/biz/pacific-coast-highway-carmel",
                "http://www.travbuddy.com/California-popular-cities-p85",
                "http://www.hopper.com/articles/291/five-great-stops-between-los-angeles-and-san-francisco-on-the-pacific-coast-highway",
                "https://www.audleytravel.com/usa/california/places-to-go/los-angeles?audcmp=16-505%20USA%20-%20Region%20-%20California%20and%20Nevada&audadg=USA%20-%20California%20and%20Nevada%20-%20Place%20-%20Los%20Angeles%20-%20Broad&auddev=Desktop%20and%20Tablet"
            ],
            "address": "Pacific Ocean, Cabrillo Highway, Monterey County, California, 93920, United States of America",
            "longitude": -121.678715787326,
            "locType": "cliff",
            "latitude": 36.16305775,
            "closest_to": "stockton"
        },
        "redding": {
            "blogLinks": [
                "http://mousepad.mouseplanet.com/showthread.php?53215-Places-to-stay-between-Oregon-and-Disneyland",
                "http://mousepad.mouseplanet.com/showthread.php?43539-Good-places-to-stay-between-Portland-Oregon-amp-Disneyland"
            ],
            "address": "Redding, Shasta County, California, United States of America",
            "longitude": -122.3916753,
            "locType": "city",
            "latitude": 40.5863563,
            "closest_to": "stockton"
        },
        "sunset strip": {
            "blogLinks": [
                "http://www.travbuddy.com/California-popular-cities-p85"
            ],
            "address": "Sunset Strip, Happy Wanderer, Indio, Riverside County, California, 92201, United States of America",
            "longitude": -116.1940439,
            "locType": "living_street",
            "latitude": 33.7224763,
            "closest_to": "anaheim"
        },
        "woodland": {
            "blogLinks": [
                "http://mousepad.mouseplanet.com/showthread.php?53215-Places-to-stay-between-Oregon-and-Disneyland"
            ],
            "address": "Woodland, Yolo County, California, United States of America",
            "longitude": -121.7733284,
            "locType": "city",
            "latitude": 38.6786109,
            "closest_to": "stockton"
        },
        "muscle beach": {
            "blogLinks": [
                "http://www.travbuddy.com/California-popular-cities-p85"
            ],
            "address": "Muscle Beach, Ocean Front Walk, Venice, LA, Los Angeles County, California, 90292, United States of America",
            "longitude": -118.4725820875,
            "locType": "sports_centre",
            "latitude": 33.985446,
            "closest_to": "stockton"
        },
        "us": {
            "blogLinks": [
                "http://www.travbuddy.com/California-popular-cities-p85",
                "https://blogs.chapman.edu/students/2013/02/19/10-reasons-why-california-is-the-only-place/",
                "http://distancecalculator.globefeed.com/US_Distance_Calculator.asp?state=CA",
                "https://www.yelp.com/biz/pacific-coast-highway-carmel"
            ],
            "address": "California, United States of America",
            "longitude": -118.7559973,
            "locType": "administrative",
            "latitude": 36.7014631,
            "closest_to": "stockton"
        },
        "venice": {
            "blogLinks": [
                "http://www.travbuddy.com/California-popular-cities-p85"
            ],
            "address": "Venice, LA, Los Angeles County, California, United States of America",
            "longitude": -118.4668874,
            "locType": "suburb",
            "latitude": 33.995044,
            "closest_to": "stockton"
        },
        "san diego": {
            "blogLinks": [
                "http://gocalifornia.about.com/od/topcalifornia/qt/From-To-In-California.htm",
                "https://blogs.chapman.edu/students/2013/02/19/10-reasons-why-california-is-the-only-place/",
                "http://visitanaheim.org/",
                "https://www.yelp.com/biz/interstate-5-los-angeles",
                "http://www.travbuddy.com/California-popular-cities-p85",
                "https://www.yelp.com/biz/pacific-coast-highway-carmel"
            ],
            "address": "San Diego, San Diego County, California, United States of America",
            "longitude": -117.1627713,
            "locType": "city",
            "latitude": 32.7174209,
            "closest_to": "anaheim"
        },
        "el dorado county": {
            "blogLinks": [
                "http://www.travbuddy.com/California-popular-cities-p85"
            ],
            "address": "El Dorado County, California, United States of America",
            "longitude": -120.5276128,
            "locType": "administrative",
            "latitude": 38.7574137,
            "closest_to": "stockton"
        },
        "old encinitas": {
            "blogLinks": [
                "https://www.yelp.com/biz/pacific-coast-highway-carmel"
            ],
            "address": "Encinitas, San Diego County, California, United States of America",
            "longitude": -117.2919817,
            "locType": "city",
            "latitude": 33.0369867,
            "closest_to": "anaheim"
        },
        "seal beach": {
            "blogLinks": [
                "https://www.yelp.com/biz/pacific-coast-highway-carmel"
            ],
            "address": "Seal Beach, Orange County, California, United States of America",
            "longitude": -118.1046355,
            "locType": "city",
            "latitude": 33.741176,
            "closest_to": "stockton"
        },
        "san jose": {
            "blogLinks": [
                "http://www.travbuddy.com/California-popular-cities-p85"
            ],
            "address": "San Jos\u00e9, Santa Clara County, California, United States of America",
            "longitude": -121.8905832,
            "locType": "city",
            "latitude": 37.3361905,
            "closest_to": "stockton"
        },
        "whistler": {
            "blogLinks": [
                "https://www.yelp.com/biz/pacific-coast-highway-carmel"
            ],
            "address": "Whistler Avenue, LA, Los Angeles County, California, 91344, United States of America",
            "longitude": -118.5053852,
            "locType": "residential",
            "latitude": 34.3090058,
            "closest_to": "stockton"
        },
        "san simeon": {
            "blogLinks": [
                "http://www.travbuddy.com/California-popular-cities-p85",
                "http://www.hopper.com/articles/291/five-great-stops-between-los-angeles-and-san-francisco-on-the-pacific-coast-highway",
                "https://www.yelp.com/biz/pacific-coast-highway-carmel"
            ],
            "address": "San Simeon, San Luis Obispo County, California, United States of America",
            "longitude": -121.1907532,
            "locType": "hamlet",
            "latitude": 35.6438587,
            "closest_to": "stockton"
        },
        "nevada": {
            "blogLinks": [
                "https://www.trekaroo.com/places/california/snapshot",
                "https://blogs.chapman.edu/students/2013/02/19/10-reasons-why-california-is-the-only-place/"
            ],
            "address": "Nevada County, California, United States of America",
            "longitude": -120.8089842,
            "locType": "administrative",
            "latitude": 39.3540335,
            "closest_to": "stockton"
        },
        "colorado": {
            "blogLinks": [
                "http://www.tvfoodmaps.com/s1/CA"
            ],
            "address": "Colorado, Walnut, Irvine, Orange County, California, 92606, United States of America",
            "longitude": -117.791165718199,
            "locType": "residential",
            "latitude": 33.71351445,
            "closest_to": "anaheim"
        },
        "dunsmuir": {
            "blogLinks": [
                "http://mousepad.mouseplanet.com/showthread.php?53215-Places-to-stay-between-Oregon-and-Disneyland",
                "http://mousepad.mouseplanet.com/showthread.php?43539-Good-places-to-stay-between-Portland-Oregon-amp-Disneyland"
            ],
            "address": "Dunsmuir, Siskiyou County, California, United States of America",
            "longitude": -122.2719528,
            "locType": "city",
            "latitude": 41.2082089,
            "closest_to": "stockton"
        },
        "santa nella": {
            "blogLinks": [
                "http://mousepad.mouseplanet.com/showthread.php?53215-Places-to-stay-between-Oregon-and-Disneyland",
                "http://mousepad.mouseplanet.com/showthread.php?43539-Good-places-to-stay-between-Portland-Oregon-amp-Disneyland"
            ],
            "address": "Santa Nella, Sonoma County, California, United States of America",
            "longitude": -122.9666643,
            "locType": "hamlet",
            "latitude": 38.497135,
            "closest_to": "stockton"
        },
        "california coast": {
            "blogLinks": [
                "https://www.trekaroo.com/places/california/snapshot"
            ],
            "address": "California Coast Credit Union, Park Boulevard, Hillcrest, San Diego, San Diego County, California, 92116, United States of America",
            "longitude": -117.1464145,
            "locType": "bank",
            "latitude": 32.7586361,
            "closest_to": "anaheim"
        },
        "el torito": {
            "blogLinks": [
                "https://www.tripadvisor.com/ShowUserReviews-g32037-d627479-r51783537-SpringHill_Suites_Bakersfield-Bakersfield_California.html"
            ],
            "address": "El Torito, 14433, Ventura Boulevard, Sherman Oaks, LA, Los Angeles County, California, 91423, United States of America",
            "longitude": -118.447739187814,
            "locType": "restaurant",
            "latitude": 34.15108785,
            "closest_to": "stockton"
        },
        "monterey bay": {
            "blogLinks": [
                "http://www.travbuddy.com/California-popular-cities-p85",
                "http://www.hopper.com/articles/291/five-great-stops-between-los-angeles-and-san-francisco-on-the-pacific-coast-highway"
            ],
            "address": "Monterey Bay, Monterey County, California, United States of America",
            "longitude": -121.9010667,
            "locType": "bay",
            "latitude": 36.7999557,
            "closest_to": "stockton"
        },
        "bay area of california": {
            "blogLinks": [
                "https://www.tripadvisor.com/ShowUserReviews-g32037-d627479-r51783537-SpringHill_Suites_Bakersfield-Bakersfield_California.html"
            ],
            "address": "San Francisco Bay Area, SF, California, United States of America",
            "longitude": -122.3558472,
            "locType": "region",
            "latitude": 37.7884969,
            "closest_to": "stockton"
        },
        "norwalk": {
            "blogLinks": [
                "https://www.yelp.com/biz/interstate-5-los-angeles"
            ],
            "address": "Norwalk, Los Angeles County, California, United States of America",
            "longitude": -118.0849168,
            "locType": "city",
            "latitude": 33.9092802,
            "closest_to": "stockton"
        },
        "north valley": {
            "blogLinks": [
                "https://www.trekaroo.com/places/california/snapshot"
            ],
            "address": "Berryessa, San Jos\u00e9, Santa Clara County, California, United States of America",
            "longitude": -121.8605103,
            "locType": "suburb",
            "latitude": 37.3863287,
            "closest_to": "stockton"
        },
        "hawaii": {
            "blogLinks": [
                "https://www.yelp.com/biz/pacific-coast-highway-carmel"
            ],
            "address": "Hawaii, Fresno County, California, 93650, United States of America",
            "longitude": -119.7966952,
            "locType": "service",
            "latitude": 36.8347819,
            "closest_to": "stockton"
        },
        "sierra foothills": {
            "blogLinks": [
                "https://www.tripadvisor.com/ShowUserReviews-g32037-d627479-r51783537-SpringHill_Suites_Bakersfield-Bakersfield_California.html"
            ],
            "address": "Sierra Road, Berryessa, San Jos\u00e9, Santa Clara County, California, 95132, United States of America",
            "longitude": -121.8609818,
            "locType": "secondary",
            "latitude": 37.3933656,
            "closest_to": "stockton"
        },
        "santa cruz": {
            "blogLinks": [
                "http://www.travbuddy.com/California-popular-cities-p85",
                "https://www.yelp.com/biz/pacific-coast-highway-carmel"
            ],
            "address": "Santa Cruz, Santa Cruz County, California, United States of America",
            "longitude": -122.0260569,
            "locType": "city",
            "latitude": 36.9735903,
            "closest_to": "stockton"
        },
        "dana point": {
            "blogLinks": [
                "https://www.yelp.com/biz/pacific-coast-highway-carmel"
            ],
            "address": "Dana Point, Orange County, California, United States of America",
            "longitude": -117.6981074,
            "locType": "city",
            "latitude": 33.4669721,
            "closest_to": "anaheim"
        },
        "monterey": {
            "blogLinks": [
                "http://www.travbuddy.com/California-popular-cities-p85",
                "https://onecoolthingeveryweekend.com/",
                "https://www.yelp.com/biz/pacific-coast-highway-carmel"
            ],
            "address": "Monterey, Monterey County, California, United States of America",
            "longitude": -121.866792846206,
            "locType": "city",
            "latitude": 36.5844165,
            "closest_to": "stockton"
        },
        "pacific coast": {
            "blogLinks": [
                "https://www.yelp.com/biz/pacific-coast-highway-carmel"
            ],
            "address": "Pacific Coast, Florista Street, Los Alamitos, Orange County, California, 90720, United States of America",
            "longitude": -118.063517668143,
            "locType": "yes",
            "latitude": 33.8047323,
            "closest_to": "stockton"
        },
        "mt shasta": {
            "blogLinks": [
                "https://www.yelp.com/biz/interstate-5-los-angeles"
            ],
            "address": "Mount Shasta, Siskiyou County, California, United States of America",
            "longitude": -122.3105665,
            "locType": "city",
            "latitude": 41.3098746,
            "closest_to": "stockton"
        },
        "laguna beach": {
            "blogLinks": [
                "https://www.yelp.com/biz/pacific-coast-highway-carmel"
            ],
            "address": "Laguna Beach, Orange County, California, United States of America",
            "longitude": -117.7834146,
            "locType": "city",
            "latitude": 33.5420888,
            "closest_to": "anaheim"
        },
        "cardiff": {
            "blogLinks": [
                "https://www.yelp.com/biz/pacific-coast-highway-carmel"
            ],
            "address": "Cardiff, Westpark, Irvine, Orange County, California, 92606, United States of America",
            "longitude": -117.806356451668,
            "locType": "residential",
            "latitude": 33.6883363,
            "closest_to": "anaheim"
        },
        "south lake tahoe": {
            "blogLinks": [
                "http://www.travbuddy.com/California-popular-cities-p85"
            ],
            "address": "South Lake Tahoe, El Dorado County, California, United States of America",
            "longitude": -119.987846390157,
            "locType": "city",
            "latitude": 38.929125,
            "closest_to": "stockton"
        },
        "san jose international airport": {
            "blogLinks": [
                "http://visitanaheim.org/"
            ],
            "address": "Norman Y. Mineta San Jose International Airport, Terminal Drive, Rose Garden, San Jos\u00e9, Santa Clara County, California, 95110, United States of America",
            "longitude": -121.928592538997,
            "locType": "aerodrome",
            "latitude": 37.36312115,
            "closest_to": "stockton"
        },
        "san joaquin valley": {
            "blogLinks": [
                "https://www.tripadvisor.com/ShowUserReviews-g32037-d627479-r51783537-SpringHill_Suites_Bakersfield-Bakersfield_California.html"
            ],
            "address": "San Joaquin County, California, United States of America",
            "longitude": -121.2773718,
            "locType": "administrative",
            "latitude": 37.9372901,
            "closest_to": "stockton"
        },
        "san francisco bay": {
            "blogLinks": [
                "http://www.travbuddy.com/California-popular-cities-p85"
            ],
            "address": "San Francisco Bay, Ferry Landing, Alameda, Alameda County, California, 94502, United States of America",
            "longitude": -122.2802469,
            "locType": "bay",
            "latitude": 37.708264,
            "closest_to": "stockton"
        },
        "orange county": {
            "blogLinks": [
                "http://www.travbuddy.com/California-popular-cities-p85",
                "https://www.yelp.com/biz/pacific-coast-highway-carmel"
            ],
            "address": "Orange County, California, United States of America",
            "longitude": -117.870493,
            "locType": "administrative",
            "latitude": 33.7500378,
            "closest_to": "anaheim"
        },
        "san luis obispo": {
            "blogLinks": [
                "https://www.yelp.com/biz/pacific-coast-highway-carmel"
            ],
            "address": "San Luis Obispo, San Luis Obispo County, California, United States of America",
            "longitude": -120.6596155,
            "locType": "city",
            "latitude": 35.2827525,
            "closest_to": "stockton"
        },
        "santa monica": {
            "blogLinks": [
                "http://www.travbuddy.com/California-popular-cities-p85",
                "https://www.yelp.com/biz/pacific-coast-highway-carmel"
            ],
            "address": "Santa Monica, Los Angeles County, California, United States of America",
            "longitude": -118.4869738,
            "locType": "city",
            "latitude": 34.0195598,
            "closest_to": "stockton"
        },
        "usa": {
            "blogLinks": [
                "https://www.trekaroo.com/places/california/snapshot",
                "https://www.yelp.com/biz/interstate-5-los-angeles"
            ],
            "address": "California, United States of America",
            "longitude": -118.7559973,
            "locType": "administrative",
            "latitude": 36.7014631,
            "closest_to": "stockton"
        },
        "balboa island": {
            "blogLinks": [
                "https://www.yelp.com/biz/pacific-coast-highway-carmel"
            ],
            "address": "Balboa Island, Newport Beach, Orange County, California, United States of America",
            "longitude": -117.8920818,
            "locType": "suburb",
            "latitude": 33.6064778,
            "closest_to": "anaheim"
        },
        "silicon valley": {
            "blogLinks": [
                "http://www.travbuddy.com/California-popular-cities-p85"
            ],
            "address": "Carnegie Mellon Silicon Valley, South Akron Road, Santa Clara County, California, 94035-0016, United States of America",
            "longitude": -122.0597491,
            "locType": "school",
            "latitude": 37.4105333,
            "closest_to": "stockton"
        },
        "monterey bay aquarium": {
            "blogLinks": [
                "http://www.hopper.com/articles/291/five-great-stops-between-los-angeles-and-san-francisco-on-the-pacific-coast-highway"
            ],
            "address": "MBA, 886, Cannery Row, Monterey, Monterey County, California, 93940, United States of America",
            "longitude": -121.901680002002,
            "locType": "aquarium",
            "latitude": 36.61809095,
            "closest_to": "stockton"
        },
        "tijuana": {
            "blogLinks": [
                "https://www.yelp.com/biz/pacific-coast-highway-carmel"
            ],
            "address": "Tijuana, Baja California, M\u00e9xico",
            "longitude": -116.9641656,
            "locType": "city",
            "latitude": 32.5008626,
            "closest_to": "anaheim"
        },
        "pismo beach": {
            "blogLinks": [
                "http://www.hopper.com/articles/291/five-great-stops-between-los-angeles-and-san-francisco-on-the-pacific-coast-highway",
                "https://www.yelp.com/biz/pacific-coast-highway-carmel"
            ],
            "address": "Pismo Beach, San Luis Obispo County, California, United States of America",
            "longitude": -120.6412826,
            "locType": "city",
            "latitude": 35.1427533,
            "closest_to": "stockton"
        },
        "las angeles": {
            "blogLinks": [
                "http://www.travbuddy.com/California-popular-cities-p85"
            ],
            "address": "California, Obregon Street, West Whittier, Rosemead, Los Angeles County, California, 90606, United States of America",
            "longitude": -118.0668337,
            "locType": "abandoned",
            "latitude": 33.9995929,
            "closest_to": "stockton"
        },
        "san francisco international airport": {
            "blogLinks": [
                "https://www.trekaroo.com/places/california/snapshot"
            ],
            "address": "San Francisco Airport, North Access Road, Lomita Park, San Mateo County, California, 94128, United States of America",
            "longitude": -122.384071507814,
            "locType": "aerodrome",
            "latitude": 37.622452,
            "closest_to": "stockton"
        },
        "south coast plaza": {
            "blogLinks": [
                "http://www.travbuddy.com/California-popular-cities-p85"
            ],
            "address": "South Coast Plaza, Bear Street, Costa Mesa, Orange County, California, 92704, United States of America",
            "longitude": -117.889168433903,
            "locType": "mall",
            "latitude": 33.6907283,
            "closest_to": "anaheim"
        },
        "south bay": {
            "blogLinks": [
                "http://www.travbuddy.com/California-popular-cities-p85"
            ],
            "address": "South Bay, Sea Cliff Avenue, Seacliff, SF, California, 94121, United States of America",
            "longitude": -122.4927499,
            "locType": "bay",
            "latitude": 37.794096,
            "closest_to": "stockton"
        },
        "monterrey": {
            "blogLinks": [
                "https://www.yelp.com/biz/pacific-coast-highway-carmel"
            ],
            "address": "Monterrey, Mexicali, Baja California, M\u00e9xico",
            "longitude": -115.0704122,
            "locType": "village",
            "latitude": 32.5492861,
            "closest_to": "anaheim"
        },
        "kern river": {
            "blogLinks": [
                "https://www.tripadvisor.com/ShowUserReviews-g32037-d627479-r51783537-SpringHill_Suites_Bakersfield-Bakersfield_California.html"
            ],
            "address": "Kern River, Tulare County, California, United States of America",
            "longitude": -118.4124188,
            "locType": "river",
            "latitude": 36.6816956,
            "closest_to": "stockton"
        },
        "anaheim": {
            "blogLinks": [
                "http://gocalifornia.about.com/od/topcalifornia/qt/From-To-In-California.htm",
                "https://blogs.chapman.edu/students/2013/02/19/10-reasons-why-california-is-the-only-place/",
                "http://visitanaheim.org/",
                "http://www.hopper.com/articles/291/five-great-stops-between-los-angeles-and-san-francisco-on-the-pacific-coast-highway"
            ],
            "address": "Anaheim, Orange County, California, United States of America",
            "longitude": -117.9117319,
            "locType": "city",
            "latitude": 33.8347516,
            "closest_to": "stockton"
        },
        "south of california": {
            "blogLinks": [
                "https://blogs.chapman.edu/students/2013/02/19/10-reasons-why-california-is-the-only-place/"
            ],
            "address": "South, Los Angeles County, California, United States of America",
            "longitude": -118.3432299,
            "locType": "peak",
            "latitude": 33.3054766,
            "closest_to": "anaheim"
        },
        "santa maria": {
            "blogLinks": [
                "https://www.yelp.com/biz/pacific-coast-highway-carmel"
            ],
            "address": "Santa Maria, Santa Barbara County, California, United States of America",
            "longitude": -120.4358576,
            "locType": "city",
            "latitude": 34.9531295,
            "closest_to": "stockton"
        },
        "santa cruz mountains.the": {
            "blogLinks": [
                "http://www.travbuddy.com/California-popular-cities-p85"
            ],
            "address": "Santa Cruz Mountains, Santa Clara County, California, United States of America",
            "longitude": -122.0712855,
            "locType": "mountain_range",
            "latitude": 37.2188403,
            "closest_to": "stockton"
        },
        "malibu": {
            "blogLinks": [
                "https://www.yelp.com/biz/pacific-coast-highway-carmel"
            ],
            "address": "Malibu, Palm Springs, Riverside County, California, 92264, United States of America",
            "longitude": -116.5023561,
            "locType": "residential",
            "latitude": 33.7932142,
            "closest_to": "anaheim"
        },
        "carmel-by-the-sea": {
            "blogLinks": [
                "http://www.hopper.com/articles/291/five-great-stops-between-los-angeles-and-san-francisco-on-the-pacific-coast-highway"
            ],
            "address": "Carmel-by-the-Sea, Monterey County, California, United States of America",
            "longitude": -121.9232878,
            "locType": "city",
            "latitude": 36.5552387,
            "closest_to": "stockton"
        },
        "torrey pines road": {
            "blogLinks": [
                "https://www.yelp.com/biz/pacific-coast-highway-carmel"
            ],
            "address": "Torrey Pines Road, La Jolla, San Diego, San Diego County, California, 92037, United States of America",
            "longitude": -117.2620194,
            "locType": "secondary",
            "latitude": 32.8491824,
            "closest_to": "anaheim"
        },
        "beverly hills": {
            "blogLinks": [
                "http://www.travbuddy.com/California-popular-cities-p85"
            ],
            "address": "Beverly Hills, Los Angeles County, California, United States of America",
            "longitude": -118.4003562,
            "locType": "city",
            "latitude": 34.0736204,
            "closest_to": "stockton"
        },
        "san diego county": {
            "blogLinks": [
                "http://www.travbuddy.com/California-popular-cities-p85",
                "https://www.trekaroo.com/places/california/snapshot"
            ],
            "address": "San Diego County, California, United States of America",
            "longitude": -116.7706276,
            "locType": "administrative",
            "latitude": 32.9637838,
            "closest_to": "anaheim"
        },
        "frisco": {
            "blogLinks": [
                "https://www.yelp.com/biz/pacific-coast-highway-carmel"
            ],
            "address": "Frisco Way, Los Berros, San Luis Obispo County, California, 93420, United States of America",
            "longitude": -120.5207138,
            "locType": "residential",
            "latitude": 35.0714062,
            "closest_to": "stockton"
        },
        "solano county": {
            "blogLinks": [
                "http://www.travbuddy.com/California-popular-cities-p85"
            ],
            "address": "Solano County, California, United States of America",
            "longitude": -121.9163554,
            "locType": "administrative",
            "latitude": 38.2218938,
            "closest_to": "stockton"
        },
        "ethiopia": {
            "blogLinks": [
                "https://blogs.chapman.edu/students/2013/02/19/10-reasons-why-california-is-the-only-place/"
            ],
            "address": "Ethiopia Restaurant, 2955, Telegraph Avenue, LeConte, Berkeley, Alameda County, California, 94705, United States of America",
            "longitude": -122.259261231789,
            "locType": "restaurant",
            "latitude": 37.8567857,
            "closest_to": "stockton"
        },
        "springhill": {
            "blogLinks": [
                "https://www.tripadvisor.com/ShowUserReviews-g32037-d627479-r51783537-SpringHill_Suites_Bakersfield-Bakersfield_California.html"
            ],
            "address": "Springhill Place, Windsor Hills, View Park\u2013Windsor Hills, Los Angeles County, California, 90043, United States of America",
            "longitude": -118.3523395,
            "locType": "residential",
            "latitude": 33.9903508,
            "closest_to": "stockton"
        },
        "united states": {
            "blogLinks": [
                "http://www.travbuddy.com/California-popular-cities-p85"
            ],
            "address": "California, United States of America",
            "longitude": -118.7559973,
            "locType": "administrative",
            "latitude": 36.7014631,
            "closest_to": "stockton"
        },
        "santa ana": {
            "blogLinks": [
                "https://www.yelp.com/biz/interstate-5-los-angeles"
            ],
            "address": "Santa Ana, Orange County, California, United States of America",
            "longitude": -117.8732212,
            "locType": "city",
            "latitude": 33.7494951,
            "closest_to": "anaheim"
        },
        "pacific": {
            "blogLinks": [
                "http://www.travbuddy.com/California-popular-cities-p85"
            ],
            "address": "Pacific, El Dorado County, California, United States of America",
            "longitude": -120.507146,
            "locType": "hamlet",
            "latitude": 38.7601815,
            "closest_to": "stockton"
        },
        "manhattan beach": {
            "blogLinks": [
                "http://www.travbuddy.com/California-popular-cities-p85",
                "https://www.yelp.com/biz/pacific-coast-highway-carmel"
            ],
            "address": "Manhattan Beach, Los Angeles County, California, United States of America",
            "longitude": -118.4000146,
            "locType": "city",
            "latitude": 33.8950839,
            "closest_to": "stockton"
        },
        "portland": {
            "blogLinks": [
                "https://www.yelp.com/biz/interstate-5-los-angeles",
                "http://mousepad.mouseplanet.com/showthread.php?53215-Places-to-stay-between-Oregon-and-Disneyland",
                "http://mousepad.mouseplanet.com/showthread.php?43539-Good-places-to-stay-between-Portland-Oregon-amp-Disneyland"
            ],
            "address": "Portland, Riverside, Riverside County, California, 92508, United States of America",
            "longitude": -117.3105194,
            "locType": "residential",
            "latitude": 33.8979116,
            "closest_to": "anaheim"
        },
        "los angeles county museum of art": {
            "blogLinks": [
                "https://www.audleytravel.com/usa/california/places-to-go/los-angeles?audcmp=16-505%20USA%20-%20Region%20-%20California%20and%20Nevada&audadg=USA%20-%20California%20and%20Nevada%20-%20Place%20-%20Los%20Angeles%20-%20Broad&auddev=Desktop%20and%20Tablet"
            ],
            "address": "Los Angeles County Museum of Art, Wilshire Boulevard, Park La Brea, The Village Green, LA, Los Angeles County, California, 90036, United States of America",
            "longitude": -118.357997654056,
            "locType": "museum",
            "latitude": 34.0634357,
            "closest_to": "stockton"
        },
        "america": {
            "blogLinks": [
                "https://www.trekaroo.com/places/california/snapshot"
            ],
            "address": "America, Kings County, California, 93246, United States of America",
            "longitude": -119.8948706,
            "locType": "residential",
            "latitude": 36.2573198,
            "closest_to": "stockton"
        },
        "china town": {
            "blogLinks": [
                "https://blogs.chapman.edu/students/2013/02/19/10-reasons-why-california-is-the-only-place/"
            ],
            "address": "China Town, Duncombe Alley, Chinatown, SF, California, 94133, United States of America",
            "longitude": -122.407568,
            "locType": "marketplace",
            "latitude": 37.7963119,
            "closest_to": "stockton"
        }
    },
    "anaheim": {
        "osm_type": "relation",
        "lon": "-117.9117319",
        "type": "city",
        "boundingbox": [
            "33.7889241",
            "33.8790572",
            "-118.017421",
            "-117.6735594"
        ],
        "class": "place",
        "place_id": "159226845",
        "osm_id": "253985",
        "lat": "33.8347516",
        "licence": "Data \u00a9 OpenStreetMap contributors, ODbL 1.0. http://www.openstreetmap.org/copyright",
        "icon": "https://nominatim.openstreetmap.org/images/mapicons/poi_place_city.p.20.png",
        "importance": 0.79164393262363,
        "display_name": "Anaheim, Orange County, California, United States of America"
    },
    "stockton": {
        "osm_type": "relation",
        "lon": "-121.2907795",
        "type": "city",
        "boundingbox": [
            "37.887747",
            "38.0583",
            "-121.4197359",
            "-121.1840371"
        ],
        "class": "place",
        "place_id": "157785814",
        "osm_id": "112382",
        "lat": "37.9577016",
        "licence": "Data \u00a9 OpenStreetMap contributors, ODbL 1.0. http://www.openstreetmap.org/copyright",
        "icon": "https://nominatim.openstreetmap.org/images/mapicons/poi_place_city.p.20.png",
        "importance": 0.7132631887217,
        "display_name": "Stockton, San Joaquin County, California, United States of America"
    }
}