{
    "mentions": {
        "oso flaco lake": {
            "blogLinks": [
                "http://www.edhat.com/site/tidbit.cfm?nid=139024"
            ],
            "address": "Oso Flaco Lake, Oso Flaco Lake Road, Callender, San Luis Obispo County, California, United States of America",
            "longitude": -120.623450366216,
            "locType": "water",
            "latitude": 35.02945545,
            "closest_to": "santa barbara"
        },
        "bakersfield": {
            "blogLinks": [
                "http://traveltips.usatoday.com/places-stop-way-disneyland-san-jose-california-109883.html"
            ],
            "address": "Bakersfield, Kern County, California, United States of America",
            "longitude": -119.0194638,
            "locType": "city",
            "latitude": 35.3738712,
            "closest_to": "santa barbara"
        },
        "london heathrow": {
            "blogLinks": [
                "https://blog.virgin-atlantic.com/t5/Our-Places/mini-road-trips-los-angeles-to-santa-barbara/ba-p/1216"
            ],
            "address": "Heathrow Street, Bakersfield, Kern County, California, 93311, United States of America",
            "longitude": -119.1198249,
            "locType": "residential",
            "latitude": 35.326829,
            "closest_to": "santa barbara"
        },
        "the valley": {
            "blogLinks": [
                "http://www.edhat.com/site/tidbit.cfm?nid=139024"
            ],
            "address": "Valley, South Stimson Avenue, Industry, Los Angeles County, California, 91745, United States of America",
            "longitude": -117.955234675878,
            "locType": "yes",
            "latitude": 34.0148403,
            "closest_to": "santa barbara"
        },
        "barstow": {
            "blogLinks": [
                "http://www.travbuddy.com/California-travel-guide-p85"
            ],
            "address": "Barstow, San Bernardino County, California, United States of America",
            "longitude": -117.0172076,
            "locType": "administrative",
            "latitude": 34.8957684,
            "closest_to": "anaheim"
        },
        "santa barbara mission": {
            "blogLinks": [
                "https://www.timeout.com/los-angeles/things-to-do/weekend-getaways-from-los-angeles-to-santa-barbara"
            ],
            "address": "KDB-FM (Santa Barbara), Gibraltar Road, Santa Barbara County, California, 93103, United States of America",
            "longitude": -119.6779962,
            "locType": "tower",
            "latitude": 34.4662154,
            "closest_to": "santa barbara"
        },
        "los angeles county": {
            "blogLinks": [
                "http://www.travbuddy.com/California-travel-guide-p85"
            ],
            "address": "Los Angeles County, California, United States of America",
            "longitude": -118.2096813,
            "locType": "administrative",
            "latitude": 34.3155072,
            "closest_to": "santa barbara"
        },
        "morro bay": {
            "blogLinks": [
                "http://www.trippy.com/question/California-Where-to-stay-half-way-between-S-F--and-L-A",
                "http://www.minitime.com/trip-tips/Iconic-California-Coastal-Road-Trip-from-LA-to-San-Francisco-article"
            ],
            "address": "Morro Bay, San Luis Obispo County, California, United States of America",
            "longitude": -120.8499012,
            "locType": "city",
            "latitude": 35.3658075,
            "closest_to": "santa barbara"
        },
        "carpenteria": {
            "blogLinks": [
                "https://blog.virgin-atlantic.com/t5/Our-Places/mini-road-trips-los-angeles-to-santa-barbara/ba-p/1216"
            ],
            "address": "Carpenteria, Lower Peters Canyon, Irvine, Orange County, California, 92602, United States of America",
            "longitude": -117.7681721,
            "locType": "residential",
            "latitude": 33.7274726,
            "closest_to": "anaheim"
        },
        "north broadway": {
            "blogLinks": [
                "http://www.edhat.com/site/tidbit.cfm?nid=139024"
            ],
            "address": "North Broadway, Escondido, San Diego County, California, 92026, United States of America",
            "longitude": -117.0849327,
            "locType": "primary",
            "latitude": 33.1294185,
            "closest_to": "anaheim"
        },
        "valencia": {
            "blogLinks": [
                "http://traveltips.usatoday.com/places-stop-way-disneyland-san-jose-california-109883.html"
            ],
            "address": "Valencia, San Bernardino County, California, United States of America",
            "longitude": -117.2725426,
            "locType": "hamlet",
            "latitude": 34.1466768,
            "closest_to": "anaheim"
        },
        "los angeles": {
            "blogLinks": [
                "http://www.trippy.com/question/California-Where-to-stay-half-way-between-S-F--and-L-A",
                "http://www.travbuddy.com/California-travel-guide-p85",
                "https://www.viator.com/tours/Los-Angeles/3-Day-California-Coast-Tour-Santa-Barbara-San-Francisco-and-Carmel/d645-3857SFOYOS",
                "https://blog.virgin-atlantic.com/t5/Our-Places/mini-road-trips-los-angeles-to-santa-barbara/ba-p/1216",
                "http://traveltips.usatoday.com/places-stop-way-disneyland-san-jose-california-109883.html",
                "http://www.hopper.com/articles/291/five-great-stops-between-los-angeles-and-san-francisco-on-the-pacific-coast-highway",
                "http://www.minitime.com/trip-tips/Iconic-California-Coastal-Road-Trip-from-LA-to-San-Francisco-article"
            ],
            "address": "LA, Los Angeles County, California, United States of America",
            "longitude": -118.2439408,
            "locType": "city",
            "latitude": 34.0543942,
            "closest_to": "santa barbara"
        },
        "guadalupe dunes": {
            "blogLinks": [
                "http://www.edhat.com/site/tidbit.cfm?nid=139024"
            ],
            "address": "Guadalupe Dunes County Park, West Main Street, Santa Barbara County, California, United States of America",
            "longitude": -120.649028637193,
            "locType": "park",
            "latitude": 34.956258,
            "closest_to": "santa barbara"
        },
        "big bear lake": {
            "blogLinks": [
                "http://www.travbuddy.com/California-travel-guide-p85"
            ],
            "address": "Big Bear Lake, Lagunita Lane, Big Bear Lake, San Bernardino County, California, 92315, United States of America",
            "longitude": -116.932209587315,
            "locType": "water",
            "latitude": 34.253293,
            "closest_to": "anaheim"
        },
        "el capitan state beach": {
            "blogLinks": [
                "http://traveltips.usatoday.com/places-stop-way-disneyland-san-jose-california-109883.html"
            ],
            "address": "El Capitan State Beach, Bill Wallace Trail, Santa Barbara County, California, United States of America",
            "longitude": -120.012544859619,
            "locType": "park",
            "latitude": 34.48736925,
            "closest_to": "santa barbara"
        },
        "japan": {
            "blogLinks": [
                "https://www.viator.com/tours/Los-Angeles/3-Day-California-Coast-Tour-Santa-Barbara-San-Francisco-and-Carmel/d645-3857SFOYOS"
            ],
            "address": "Japan LA, Melrose Avenue, Park La Brea, Hollywood, LA, Los Angeles County, California, 90069, United States of America",
            "longitude": -118.3494693,
            "locType": "clothes",
            "latitude": 34.0833889,
            "closest_to": "santa barbara"
        },
        "carpinteria": {
            "blogLinks": [
                "http://www.minitime.com/trip-tips/Iconic-California-Coastal-Road-Trip-from-LA-to-San-Francisco-article"
            ],
            "address": "Carpinteria, Santa Barbara County, California, United States of America",
            "longitude": -119.5184563,
            "locType": "city",
            "latitude": 34.3988838,
            "closest_to": "santa barbara"
        },
        "buttonwillow": {
            "blogLinks": [
                "http://traveltips.usatoday.com/places-stop-way-disneyland-san-jose-california-109883.html"
            ],
            "address": "Buttonwillow, Kern County, California, United States of America",
            "longitude": -119.474104,
            "locType": "village",
            "latitude": 35.3997369,
            "closest_to": "santa barbara"
        },
        "westward beach road": {
            "blogLinks": [
                "https://blog.virgin-atlantic.com/t5/Our-Places/mini-road-trips-los-angeles-to-santa-barbara/ba-p/1216"
            ],
            "address": "Westward Beach Road, Malibu, Los Angeles County, California, 90265, United States of America",
            "longitude": -118.8169488,
            "locType": "tertiary",
            "latitude": 34.0111964,
            "closest_to": "santa barbara"
        },
        "solvang": {
            "blogLinks": [
                "https://www.viator.com/tours/Los-Angeles/3-Day-California-Coast-Tour-Santa-Barbara-San-Francisco-and-Carmel/d645-3857SFOYOS"
            ],
            "address": "Solvang, Santa Barbara County, California, United States of America",
            "longitude": -120.1390893,
            "locType": "city",
            "latitude": 34.5958572,
            "closest_to": "santa barbara"
        },
        "state street": {
            "blogLinks": [
                "http://www.minitime.com/trip-tips/Iconic-California-Coastal-Road-Trip-from-LA-to-San-Francisco-article",
                "https://www.timeout.com/los-angeles/things-to-do/weekend-getaways-from-los-angeles-to-santa-barbara"
            ],
            "address": "State Street, San Bernardino, San Bernardino County, California, 92407, United States of America",
            "longitude": -117.3347322,
            "locType": "secondary",
            "latitude": 34.1572853,
            "closest_to": "anaheim"
        },
        "calico": {
            "blogLinks": [
                "http://www.travbuddy.com/California-travel-guide-p85"
            ],
            "address": "Calico, Kern County, California, United States of America",
            "longitude": -119.206496,
            "locType": "locality",
            "latitude": 35.6327332,
            "closest_to": "santa barbara"
        },
        "la quinta": {
            "blogLinks": [
                "https://www.viator.com/tours/Los-Angeles/3-Day-California-Coast-Tour-Santa-Barbara-San-Francisco-and-Carmel/d645-3857SFOYOS"
            ],
            "address": "La Quinta, Riverside County, California, United States of America",
            "longitude": -116.2958788,
            "locType": "city",
            "latitude": 33.677474,
            "closest_to": "anaheim"
        },
        "west coast": {
            "blogLinks": [
                "https://www.viator.com/tours/Los-Angeles/3-Day-California-Coast-Tour-Santa-Barbara-San-Francisco-and-Carmel/d645-3857SFOYOS",
                "https://blog.virgin-atlantic.com/t5/Our-Places/mini-road-trips-los-angeles-to-santa-barbara/ba-p/1216"
            ],
            "address": "West Coast, Motor Avenue, Palms, LA, Los Angeles County, California, 90034-5702, United States of America",
            "longitude": -118.4051087,
            "locType": "plumber",
            "latitude": 34.0222263,
            "closest_to": "santa barbara"
        },
        "maui": {
            "blogLinks": [
                "http://traveltips.usatoday.com/places-stop-way-disneyland-san-jose-california-109883.html"
            ],
            "address": "Maui, 1313, South Harbor Boulevard, Anaheim Resort District, Anaheim, Orange County, California, 217, United States of America",
            "longitude": -117.9195069,
            "locType": "artwork",
            "latitude": 33.8117742,
            "closest_to": "anaheim"
        },
        "northern california": {
            "blogLinks": [
                "http://www.minitime.com/trip-tips/Iconic-California-Coastal-Road-Trip-from-LA-to-San-Francisco-article"
            ],
            "address": "Northern Frontier, San Diego, San Diego County, California, United States of America",
            "longitude": -117.1545973,
            "locType": "locality",
            "latitude": 32.7349196,
            "closest_to": "anaheim"
        },
        "ventura freeway": {
            "blogLinks": [
                "https://blog.virgin-atlantic.com/t5/Our-Places/mini-road-trips-los-angeles-to-santa-barbara/ba-p/1216"
            ],
            "address": "Ventura Freeway, Highland Park, LA, Los Angeles County, California, 90041, United States of America",
            "longitude": -118.1918437,
            "locType": "motorway",
            "latitude": 34.1456804,
            "closest_to": "santa barbara"
        },
        "carlsbad": {
            "blogLinks": [
                "http://www.travbuddy.com/California-travel-guide-p85"
            ],
            "address": "Carlsbad, San Diego County, California, United States of America",
            "longitude": -117.3505938,
            "locType": "city",
            "latitude": 33.1580933,
            "closest_to": "anaheim"
        },
        "pacific coast highway": {
            "blogLinks": [
                "https://blog.virgin-atlantic.com/t5/Our-Places/mini-road-trips-los-angeles-to-santa-barbara/ba-p/1216",
                "http://www.hopper.com/articles/291/five-great-stops-between-los-angeles-and-san-francisco-on-the-pacific-coast-highway",
                "http://www.travbuddy.com/California-travel-guide-p85"
            ],
            "address": "Pacific Coast Highway, Huntington Beach, Orange County, California, 92648, United States of America",
            "longitude": -118.0051687,
            "locType": "primary",
            "latitude": 33.6595127,
            "closest_to": "anaheim"
        },
        "central coast": {
            "blogLinks": [
                "http://distancecalculator.globefeed.com/US_Distance_Calculator.asp?state=CA"
            ],
            "address": "Central Coast Street, Bakersfield, Kern County, California, 93314, United States of America",
            "longitude": -119.1665989,
            "locType": "residential",
            "latitude": 35.3611193,
            "closest_to": "santa barbara"
        },
        "burbank": {
            "blogLinks": [
                "http://www.travbuddy.com/California-travel-guide-p85"
            ],
            "address": "Burbank, Los Angeles County, California, United States of America",
            "longitude": -118.3258553,
            "locType": "city",
            "latitude": 34.1816482,
            "closest_to": "santa barbara"
        },
        "mission san luis obispo": {
            "blogLinks": [
                "http://traveltips.usatoday.com/places-stop-way-disneyland-san-jose-california-109883.html"
            ],
            "address": "Mission San Luis Obispo de Tolosa, 782, Chorro Street, San Luis Obispo, San Luis Obispo County, California, 93405, United States of America",
            "longitude": -120.664098712263,
            "locType": "place_of_worship",
            "latitude": 35.2807422,
            "closest_to": "santa barbara"
        },
        "santa barbara": {
            "blogLinks": [
                "http://www.edhat.com/site/tidbit.cfm?nid=139024",
                "http://www.trippy.com/question/California-Where-to-stay-half-way-between-S-F--and-L-A",
                "https://www.timeout.com/los-angeles/things-to-do/weekend-getaways-from-los-angeles-to-santa-barbara",
                "https://www.viator.com/tours/Los-Angeles/3-Day-California-Coast-Tour-Santa-Barbara-San-Francisco-and-Carmel/d645-3857SFOYOS",
                "https://blog.virgin-atlantic.com/t5/Our-Places/mini-road-trips-los-angeles-to-santa-barbara/ba-p/1216",
                "https://www.tripadvisor.com/ShowTopic-g28926-i29-k5984144-Best_place_to_overnight_between_San_Francisco_and_Los_Angele-California.html",
                "http://traveltips.usatoday.com/places-stop-way-disneyland-san-jose-california-109883.html",
                "http://www.hopper.com/articles/291/five-great-stops-between-los-angeles-and-san-francisco-on-the-pacific-coast-highway",
                "http://www.minitime.com/trip-tips/Iconic-California-Coastal-Road-Trip-from-LA-to-San-Francisco-article"
            ],
            "address": "Santa Barbara, Santa Barbara County, California, United States of America",
            "longitude": -119.7026672,
            "locType": "city",
            "latitude": 34.4221319,
            "closest_to": "santa barbara"
        },
        "avila beach": {
            "blogLinks": [
                "http://traveltips.usatoday.com/places-stop-way-disneyland-san-jose-california-109883.html"
            ],
            "address": "Avila Beach, San Luis Obispo County, California, United States of America",
            "longitude": -120.7318417,
            "locType": "hamlet",
            "latitude": 35.1799752,
            "closest_to": "santa barbara"
        },
        "lompoc": {
            "blogLinks": [
                "http://traveltips.usatoday.com/places-stop-way-disneyland-san-jose-california-109883.html"
            ],
            "address": "Lompoc, Santa Barbara County, California, United States of America",
            "longitude": -120.4579408,
            "locType": "city",
            "latitude": 34.6391501,
            "closest_to": "santa barbara"
        },
        "santa maria museum": {
            "blogLinks": [
                "http://www.edhat.com/site/tidbit.cfm?nid=139024"
            ],
            "address": "Santa Maria Museum of Flight, Airpark Drive, Santa Maria, Santa Barbara County, California, 93455, United States of America",
            "longitude": -120.4544454,
            "locType": "museum",
            "latitude": 34.90472,
            "closest_to": "santa barbara"
        },
        "culver city": {
            "blogLinks": [
                "https://www.viator.com/tours/Los-Angeles/3-Day-California-Coast-Tour-Santa-Barbara-San-Francisco-and-Carmel/d645-3857SFOYOS"
            ],
            "address": "Culver City, Los Angeles County, California, United States of America",
            "longitude": -118.3964664,
            "locType": "administrative",
            "latitude": 34.0211224,
            "closest_to": "santa barbara"
        },
        "state beach": {
            "blogLinks": [
                "http://www.trippy.com/question/California-Where-to-stay-half-way-between-S-F--and-L-A"
            ],
            "address": "Malibu Lagoon State Beach, Pacific Coast Highway, Malibu, Los Angeles County, California, 90265, United States of America",
            "longitude": -118.679064060789,
            "locType": "beach",
            "latitude": 34.03385755,
            "closest_to": "santa barbara"
        },
        "temecula": {
            "blogLinks": [
                "http://traveltips.usatoday.com/places-stop-way-disneyland-san-jose-california-109883.html"
            ],
            "address": "Temecula, Riverside County, California, United States of America",
            "longitude": -117.147366,
            "locType": "city",
            "latitude": 33.4946353,
            "closest_to": "anaheim"
        },
        "long beach": {
            "blogLinks": [
                "http://www.travbuddy.com/California-travel-guide-p85"
            ],
            "address": "Long Beach, Los Angeles County, California, United States of America",
            "longitude": -118.158049215311,
            "locType": "city",
            "latitude": 33.78538945,
            "closest_to": "santa barbara"
        },
        "san fran": {
            "blogLinks": [
                "https://www.tripadvisor.com/ShowTopic-g28926-i29-k5984144-Best_place_to_overnight_between_San_Francisco_and_Los_Angele-California.html"
            ],
            "address": "Golden Hills, Kern County, California, United States of America",
            "longitude": -118.4903642,
            "locType": "village",
            "latitude": 35.142465,
            "closest_to": "santa barbara"
        },
        "san luis obispo": {
            "blogLinks": [
                "https://www.tripadvisor.com/ShowTopic-g28926-i29-k5984144-Best_place_to_overnight_between_San_Francisco_and_Los_Angele-California.html",
                "http://traveltips.usatoday.com/places-stop-way-disneyland-san-jose-california-109883.html",
                "http://www.trippy.com/question/California-Where-to-stay-half-way-between-S-F--and-L-A",
                "http://www.minitime.com/trip-tips/Iconic-California-Coastal-Road-Trip-from-LA-to-San-Francisco-article"
            ],
            "address": "San Luis Obispo, San Luis Obispo County, California, United States of America",
            "longitude": -120.6596155,
            "locType": "city",
            "latitude": 35.2827525,
            "closest_to": "santa barbara"
        },
        "topanga canyon boulevard": {
            "blogLinks": [
                "https://blog.virgin-atlantic.com/t5/Our-Places/mini-road-trips-los-angeles-to-santa-barbara/ba-p/1216"
            ],
            "address": "Topanga Canyon Boulevard, Canoga Park, LA, Los Angeles County, California, 91303, United States of America",
            "longitude": -118.6059598,
            "locType": "primary",
            "latitude": 34.2091793,
            "closest_to": "santa barbara"
        },
        "ventura beach": {
            "blogLinks": [
                "https://blog.virgin-atlantic.com/t5/Our-Places/mini-road-trips-los-angeles-to-santa-barbara/ba-p/1216"
            ],
            "address": "Ventura Place, Pacific Beach, San Diego, San Diego County, California, 92109, United States of America",
            "longitude": -117.2514716,
            "locType": "unclassified",
            "latitude": 32.772073,
            "closest_to": "anaheim"
        },
        "san miguel": {
            "blogLinks": [
                "http://traveltips.usatoday.com/places-stop-way-disneyland-san-jose-california-109883.html"
            ],
            "address": "San Miguel, San Luis Obispo County, California, United States of America",
            "longitude": -120.6962825,
            "locType": "village",
            "latitude": 35.7524679,
            "closest_to": "santa barbara"
        },
        "san fernando valley": {
            "blogLinks": [
                "https://blog.virgin-atlantic.com/t5/Our-Places/mini-road-trips-los-angeles-to-santa-barbara/ba-p/1216"
            ],
            "address": "San Fernando, Los Angeles County, California, United States of America",
            "longitude": -118.4389718,
            "locType": "administrative",
            "latitude": 34.2819461,
            "closest_to": "santa barbara"
        },
        "paso robles": {
            "blogLinks": [
                "http://traveltips.usatoday.com/places-stop-way-disneyland-san-jose-california-109883.html"
            ],
            "address": "Paso Robles, San Luis Obispo County, California, United States of America",
            "longitude": -120.6912455,
            "locType": "city",
            "latitude": 35.6267654,
            "closest_to": "santa barbara"
        },
        "oxnard": {
            "blogLinks": [
                "https://blog.virgin-atlantic.com/t5/Our-Places/mini-road-trips-los-angeles-to-santa-barbara/ba-p/1216"
            ],
            "address": "Oxnard, Ventura County, California, United States of America",
            "longitude": -119.1803817,
            "locType": "city",
            "latitude": 34.1976308,
            "closest_to": "santa barbara"
        },
        "newport beach": {
            "blogLinks": [
                "http://www.travbuddy.com/California-travel-guide-p85"
            ],
            "address": "Newport Beach, Orange County, California, United States of America",
            "longitude": -117.92944,
            "locType": "city",
            "latitude": 33.6170092,
            "closest_to": "anaheim"
        },
        "southern california": {
            "blogLinks": [
                "https://www.viator.com/tours/Los-Angeles/3-Day-California-Coast-Tour-Santa-Barbara-San-Francisco-and-Carmel/d645-3857SFOYOS",
                "http://www.hopper.com/articles/291/five-great-stops-between-los-angeles-and-san-francisco-on-the-pacific-coast-highway"
            ],
            "address": "University of Southern California, Watt Way, Saint James Park, LA, Los Angeles County, California, 90089, United States of America",
            "longitude": -118.286343973446,
            "locType": "university",
            "latitude": 34.0224149,
            "closest_to": "santa barbara"
        },
        "pismo beach": {
            "blogLinks": [
                "http://www.hopper.com/articles/291/five-great-stops-between-los-angeles-and-san-francisco-on-the-pacific-coast-highway",
                "http://www.trippy.com/question/California-Where-to-stay-half-way-between-S-F--and-L-A"
            ],
            "address": "Pismo Beach, San Luis Obispo County, California, United States of America",
            "longitude": -120.6412826,
            "locType": "city",
            "latitude": 35.1427533,
            "closest_to": "santa barbara"
        },
        "hollywood": {
            "blogLinks": [
                "https://blog.virgin-atlantic.com/t5/Our-Places/mini-road-trips-los-angeles-to-santa-barbara/ba-p/1216",
                "http://www.travbuddy.com/California-travel-guide-p85"
            ],
            "address": "Hollywood, LA, Los Angeles County, California, United States of America",
            "longitude": -118.3299898,
            "locType": "suburb",
            "latitude": 34.1028268,
            "closest_to": "santa barbara"
        },
        "las angeles": {
            "blogLinks": [
                "http://www.travbuddy.com/California-travel-guide-p85"
            ],
            "address": "California, Obregon Street, West Whittier, Rosemead, Los Angeles County, California, 90606, United States of America",
            "longitude": -118.0668337,
            "locType": "abandoned",
            "latitude": 33.9995929,
            "closest_to": "santa barbara"
        },
        "channel islands national park": {
            "blogLinks": [
                "https://blog.virgin-atlantic.com/t5/Our-Places/mini-road-trips-los-angeles-to-santa-barbara/ba-p/1216"
            ],
            "address": "Channel Islands National Park, Spinnaker Drive, Ventura, Ventura County, California, 93006, United States of America",
            "longitude": -119.266377755078,
            "locType": "national_park",
            "latitude": 34.248597,
            "closest_to": "santa barbara"
        },
        "santa barbara museum of art": {
            "blogLinks": [
                "https://www.timeout.com/los-angeles/things-to-do/weekend-getaways-from-los-angeles-to-santa-barbara"
            ],
            "address": "Santa Barbara Museum of Art, 1130, State Street, Santa Barbara, Santa Barbara County, California, 93101, United States of America",
            "longitude": -119.7040239,
            "locType": "museum",
            "latitude": 34.4233305,
            "closest_to": "santa barbara"
        },
        "disneyland": {
            "blogLinks": [
                "http://traveltips.usatoday.com/places-stop-way-disneyland-san-jose-california-109883.html",
                "http://www.travbuddy.com/California-travel-guide-p85"
            ],
            "address": "DL, 1313, South Harbor Boulevard, Anaheim Resort District, Anaheim, Orange County, California, 92805, United States of America",
            "longitude": -117.91971186569,
            "locType": "theme_park",
            "latitude": 33.8136367,
            "closest_to": "anaheim"
        },
        "san luis obispo county": {
            "blogLinks": [
                "http://www.hopper.com/articles/291/five-great-stops-between-los-angeles-and-san-francisco-on-the-pacific-coast-highway",
                "http://www.travbuddy.com/California-travel-guide-p85"
            ],
            "address": "San Luis Obispo County, California, United States of America",
            "longitude": -120.3757162,
            "locType": "administrative",
            "latitude": 35.3540209,
            "closest_to": "santa barbara"
        },
        "castaic": {
            "blogLinks": [
                "http://traveltips.usatoday.com/places-stop-way-disneyland-san-jose-california-109883.html"
            ],
            "address": "Castaic, Los Angeles County, California, United States of America",
            "longitude": -118.6228655,
            "locType": "hamlet",
            "latitude": 34.4888822,
            "closest_to": "santa barbara"
        },
        "highway 101": {
            "blogLinks": [
                "http://traveltips.usatoday.com/places-stop-way-disneyland-san-jose-california-109883.html"
            ],
            "address": "Highway 101, Solana Beach, San Diego County, California, 92075, United States of America",
            "longitude": -117.2731974,
            "locType": "primary",
            "latitude": 32.9967358,
            "closest_to": "anaheim"
        },
        "santa maria": {
            "blogLinks": [
                "http://traveltips.usatoday.com/places-stop-way-disneyland-san-jose-california-109883.html",
                "http://www.edhat.com/site/tidbit.cfm?nid=139024"
            ],
            "address": "Santa Maria, Santa Barbara County, California, United States of America",
            "longitude": -120.4358576,
            "locType": "city",
            "latitude": 34.9531295,
            "closest_to": "santa barbara"
        },
        "ventura": {
            "blogLinks": [
                "https://blog.virgin-atlantic.com/t5/Our-Places/mini-road-trips-los-angeles-to-santa-barbara/ba-p/1216"
            ],
            "address": "Ventura County, California, United States of America",
            "longitude": -119.0779358,
            "locType": "administrative",
            "latitude": 34.4458248,
            "closest_to": "santa barbara"
        },
        "malibu": {
            "blogLinks": [
                "https://blog.virgin-atlantic.com/t5/Our-Places/mini-road-trips-los-angeles-to-santa-barbara/ba-p/1216",
                "http://www.travbuddy.com/California-travel-guide-p85"
            ],
            "address": "Malibu, Palm Springs, Riverside County, California, 92264, United States of America",
            "longitude": -116.5023561,
            "locType": "residential",
            "latitude": 33.7932142,
            "closest_to": "anaheim"
        },
        "old town orcutt": {
            "blogLinks": [
                "http://www.edhat.com/site/tidbit.cfm?nid=139024"
            ],
            "address": "Orcutt, Santa Barbara County, California, United States of America",
            "longitude": -120.4366903,
            "locType": "town",
            "latitude": 34.8650717,
            "closest_to": "santa barbara"
        },
        "beverly hills": {
            "blogLinks": [
                "http://www.travbuddy.com/California-travel-guide-p85"
            ],
            "address": "Beverly Hills, Los Angeles County, California, United States of America",
            "longitude": -118.4003562,
            "locType": "city",
            "latitude": 34.0736204,
            "closest_to": "santa barbara"
        },
        "betteravia": {
            "blogLinks": [
                "http://www.edhat.com/site/tidbit.cfm?nid=139024"
            ],
            "address": "Betteravia, Santa Barbara County, California, United States of America",
            "longitude": -120.5148892,
            "locType": "hamlet",
            "latitude": 34.9177564,
            "closest_to": "santa barbara"
        },
        "dana point": {
            "blogLinks": [
                "https://blog.virgin-atlantic.com/t5/Our-Places/mini-road-trips-los-angeles-to-santa-barbara/ba-p/1216"
            ],
            "address": "Dana Point, Orange County, California, United States of America",
            "longitude": -117.6981074,
            "locType": "city",
            "latitude": 33.4669721,
            "closest_to": "anaheim"
        },
        "san diego": {
            "blogLinks": [
                "http://www.travbuddy.com/California-travel-guide-p85"
            ],
            "address": "San Diego, San Diego County, California, United States of America",
            "longitude": -117.1627713,
            "locType": "city",
            "latitude": 32.7174209,
            "closest_to": "anaheim"
        },
        "orange county": {
            "blogLinks": [
                "https://blog.virgin-atlantic.com/t5/Our-Places/mini-road-trips-los-angeles-to-santa-barbara/ba-p/1216",
                "http://www.travbuddy.com/California-travel-guide-p85"
            ],
            "address": "Orange County, California, United States of America",
            "longitude": -117.870493,
            "locType": "administrative",
            "latitude": 33.7500378,
            "closest_to": "anaheim"
        },
        "santa monica": {
            "blogLinks": [
                "https://blog.virgin-atlantic.com/t5/Our-Places/mini-road-trips-los-angeles-to-santa-barbara/ba-p/1216"
            ],
            "address": "Santa Monica, Los Angeles County, California, United States of America",
            "longitude": -118.4869738,
            "locType": "city",
            "latitude": 34.0195598,
            "closest_to": "santa barbara"
        },
        "manhattan beach": {
            "blogLinks": [
                "https://www.timeout.com/los-angeles/things-to-do/weekend-getaways-from-los-angeles-to-santa-barbara"
            ],
            "address": "Manhattan Beach, Los Angeles County, California, United States of America",
            "longitude": -118.4000146,
            "locType": "city",
            "latitude": 33.8950839,
            "closest_to": "santa barbara"
        },
        "ty warner sea center": {
            "blogLinks": [
                "http://traveltips.usatoday.com/places-stop-way-disneyland-san-jose-california-109883.html"
            ],
            "address": "Santa Barbara Museum of Natural History Sea Center, 211, Stearns Wharf, Santa Barbara, Santa Barbara County, California, 93101, United States of America",
            "longitude": -119.685686,
            "locType": "aquarium",
            "latitude": 34.4104258,
            "closest_to": "santa barbara"
        }
    },
    "anaheim": {
        "osm_type": "relation",
        "lon": "-117.9117319",
        "type": "city",
        "boundingbox": [
            "33.7889241",
            "33.8790572",
            "-118.017421",
            "-117.6735594"
        ],
        "class": "place",
        "place_id": "159226845",
        "osm_id": "253985",
        "lat": "33.8347516",
        "licence": "Data \u00a9 OpenStreetMap contributors, ODbL 1.0. http://www.openstreetmap.org/copyright",
        "icon": "https://nominatim.openstreetmap.org/images/mapicons/poi_place_city.p.20.png",
        "importance": 0.79164393262363,
        "display_name": "Anaheim, Orange County, California, United States of America"
    },
    "santa barbara": {
        "osm_type": "way",
        "lon": "-119.7026672",
        "type": "city",
        "boundingbox": [
            "34.336029",
            "34.463922",
            "-119.8597817",
            "-119.6399339"
        ],
        "class": "place",
        "place_id": "71537873",
        "osm_id": "33113642",
        "lat": "34.4221319",
        "licence": "Data \u00a9 OpenStreetMap contributors, ODbL 1.0. http://www.openstreetmap.org/copyright",
        "icon": "https://nominatim.openstreetmap.org/images/mapicons/poi_place_city.p.20.png",
        "importance": 0.84553400574646,
        "display_name": "Santa Barbara, Santa Barbara County, California, United States of America"
    }
}