{
    "bakersfield": {
        "boundingbox": [
            "35.193979",
            "35.447975",
            "-119.2650329",
            "-118.7723409"
        ],
        "lon": "-119.0194638",
        "class": "place",
        "licence": "Data \u00a9 OpenStreetMap contributors, ODbL 1.0. http://www.openstreetmap.org/copyright",
        "importance": 0.74358237824296,
        "icon": "https://nominatim.openstreetmap.org/images/mapicons/poi_place_city.p.20.png",
        "lat": "35.3738712",
        "osm_id": "113006",
        "type": "city",
        "osm_type": "relation",
        "place_id": "158454478",
        "display_name": "Bakersfield, Kern County, California, United States of America"
    },
    "mentions": {
        "san miguel drive": {
            "longitude": "-117.3363879",
            "blogLinks": [
                "http://losangeles.cbslocal.com/guide/a-guide-to-socals-best-trick-or-treating-neighborhoods/"
            ],
            "closest_to": "santa monica",
            "latitude": "34.528094",
            "address": "San Miguel Drive, Victorville, San Bernardino County, California, 92394, United States of America",
            "locType": "residential"
        },
        "oildale": {
            "longitude": "-119.023994307757",
            "blogLinks": [
                "https://www.yelp.com/biz/bakersfield-city-bakersfield"
            ],
            "closest_to": "bakersfield",
            "latitude": "35.42831395",
            "address": "Oildale, Galaxy Avenue, Oildale, Kern County, California, 93308, United States of America",
            "locType": "administrative"
        },
        "los angeles metropolitan": {
            "longitude": "-118.235200794058",
            "blogLinks": [
                "http://wikitravel.org/en/Los_Angeles"
            ],
            "closest_to": "santa monica",
            "latitude": "34.0498841",
            "address": "Metropolitan Fire Communications, 500, East Temple Street, Skid Row, Little Tokyo Historic District, LA, Los Angeles County, California, 90012, United States of America",
            "locType": "dispatch_center"
        },
        "el monte station": {
            "longitude": "-118.0368489",
            "blogLinks": [
                "http://wikitravel.org/en/Los_Angeles"
            ],
            "closest_to": "santa monica",
            "latitude": "34.0751571",
            "address": "El Monte, Los Angeles County, California, United States of America",
            "locType": "city"
        },
        "long beach airport": {
            "longitude": "-118.153407224598",
            "blogLinks": [
                "http://wikitravel.org/en/Los_Angeles"
            ],
            "closest_to": "santa monica",
            "latitude": "33.81682825",
            "address": "Long Beach Airport (LGB), Globemaster Avenue, California Heights, Long Beach, Los Angeles County, California, 90712:90807, United States of America",
            "locType": "aerodrome"
        },
        "los angeles state historic park": {
            "longitude": "-118.231707087605",
            "blogLinks": [
                "http://wikitravel.org/en/Los_Angeles"
            ],
            "closest_to": "santa monica",
            "latitude": "34.06847185",
            "address": "Los Angeles State Historic Park, North Spring Street, Naud Junction, Little Tokyo Historic District, LA, Los Angeles County, California, 90012, United States of America",
            "locType": "park"
        },
        "red bridge": {
            "longitude": "-117.1146692",
            "blogLinks": [
                "https://www.yelp.com/biz/bakersfield-city-bakersfield"
            ],
            "closest_to": "santa monica",
            "latitude": "33.555527",
            "address": "Red Bridge Road, Valdemosa, Rancho Bella Vista, Riverside County, California, 92596, United States of America",
            "locType": "residential"
        },
        "la": {
            "longitude": "-118.7559973",
            "blogLinks": [
                "http://www.travbuddy.com/California-travel-guide-p85",
                "http://www.heleninwonderlust.co.uk/2014/03/ultimate-california-road-trip-itinerary-las-vegas/",
                "http://wikitravel.org/en/Los_Angeles",
                "https://www.yelp.com/biz/bakersfield-city-bakersfield",
                "https://www.tripadvisor.com/ShowTopic-g28926-i29-k3555418-What_to_see_what_to_do_between_las_Vegas_and_Los_Angeles-California.html",
                "https://www.yelp.com/biz/city-of-solvang-solvang"
            ],
            "closest_to": "bakersfield",
            "latitude": "36.7014631",
            "address": "California, United States of America",
            "locType": "administrative"
        },
        "state route 126": {
            "longitude": "-118.5296555",
            "blogLinks": [
                "http://traveltips.usatoday.com/beaches-close-bakersfield-california-110095.html"
            ],
            "closest_to": "santa monica",
            "latitude": "34.3826735",
            "address": "Railroad Avenue, Newhall, Santa Clarita, Los Angeles County, California, 91321, United States of America",
            "locType": "secondary"
        },
        "westchester": {
            "longitude": "-118.4006321",
            "blogLinks": [
                "http://traveltips.usatoday.com/things-driving-los-angeles-55213.html"
            ],
            "closest_to": "santa monica",
            "latitude": "33.9597349",
            "address": "Westchester, Playa Vista, LA, Los Angeles County, California, 90045, United States of America",
            "locType": "neighbourhood"
        },
        "echo park": {
            "longitude": "-118.2608734",
            "blogLinks": [
                "http://wikitravel.org/en/Los_Angeles"
            ],
            "closest_to": "santa monica",
            "latitude": "34.074",
            "address": "Echo Park, Angelino Heights, LA, Los Angeles County, California, 90026, United States of America",
            "locType": "neighbourhood"
        },
        "san antonio heights": {
            "longitude": "-117.65997967193",
            "blogLinks": [
                "http://losangeles.cbslocal.com/guide/a-guide-to-socals-best-trick-or-treating-neighborhoods/"
            ],
            "closest_to": "santa monica",
            "latitude": "34.153107",
            "address": "San Antonio Heights, San Antonio Crescent East, San Antonio Heights, San Bernardino County, California, 91784, United States of America",
            "locType": "administrative"
        },
        "madonna inn": {
            "longitude": "-120.674725246222",
            "blogLinks": [
                "http://www.heleninwonderlust.co.uk/2014/03/ultimate-california-road-trip-itinerary-las-vegas/"
            ],
            "closest_to": "bakersfield",
            "latitude": "35.2673282",
            "address": "Madonna Inn, 100, Madonna Road, San Luis Obispo, San Luis Obispo County, California, 93405, United States of America",
            "locType": "hotel"
        },
        "buellton": {
            "longitude": "-120.1936691",
            "blogLinks": [
                "https://www.yelp.com/biz/city-of-solvang-solvang"
            ],
            "closest_to": "bakersfield",
            "latitude": "34.6134727",
            "address": "Buellton, Santa Barbara County, California, United States of America",
            "locType": "city"
        },
        "hollywood blvd": {
            "longitude": "-118.32684",
            "blogLinks": [
                "https://www.virtualtourist.com/travel/North_America/United_States_of_America/California/Things_To_Do-California-TG-C-1.html",
                "http://wikitravel.org/en/Los_Angeles"
            ],
            "closest_to": "santa monica",
            "latitude": "34.1016312",
            "address": "Hollywood Boulevard, Hollywood, LA, Los Angeles County, California, 90028, United States of America",
            "locType": "secondary"
        },
        "tahoe": {
            "longitude": "-117.8193574",
            "blogLinks": [
                "https://www.yelp.com/biz/bakersfield-city-bakersfield"
            ],
            "closest_to": "santa monica",
            "latitude": "33.659221",
            "address": "Tahoe, Turtle Rock, Irvine, Orange County, California, 92612, United States of America",
            "locType": "residential"
        },
        "west": {
            "longitude": "-118.4108078",
            "blogLinks": [
                "https://www.yelp.com/biz/bakersfield-city-bakersfield"
            ],
            "closest_to": "santa monica",
            "latitude": "33.9492548",
            "address": "W, Service road S, Westchester, Playa del Rey, LA, Los Angeles County, California, 90245, United States of America",
            "locType": "taxiway"
        },
        "tokyo": {
            "longitude": "-118.2328066",
            "blogLinks": [
                "http://wikitravel.org/en/Los_Angeles"
            ],
            "closest_to": "santa monica",
            "latitude": "34.0431787",
            "address": "Southern California Institute of Architecture, 960, East 3rd Street, Arts District, Little Tokyo Historic District, LA, Los Angeles County, California, 90013, United States of America",
            "locType": "school"
        },
        "los angeles county": {
            "longitude": "-118.2096813",
            "blogLinks": [
                "http://www.travbuddy.com/California-travel-guide-p85",
                "http://traveltips.usatoday.com/things-driving-los-angeles-55213.html",
                "http://traveltips.usatoday.com/beaches-close-bakersfield-california-110095.html",
                "http://wikitravel.org/en/Los_Angeles"
            ],
            "closest_to": "santa monica",
            "latitude": "34.3155072",
            "address": "Los Angeles County, California, United States of America",
            "locType": "administrative"
        },
        "east bakersfield": {
            "longitude": "-118.9773219",
            "blogLinks": [
                "https://www.yelp.com/biz/bakersfield-city-bakersfield"
            ],
            "closest_to": "bakersfield",
            "latitude": "35.386625",
            "address": "East Bakersfield, Kern County, California, United States of America",
            "locType": "hamlet"
        },
        "japan": {
            "longitude": "-118.3494693",
            "blogLinks": [
                "http://wikitravel.org/en/Los_Angeles"
            ],
            "closest_to": "santa monica",
            "latitude": "34.0833889",
            "address": "Japan LA, Melrose Avenue, Park La Brea, Hollywood, LA, Los Angeles County, California, 90069, United States of America",
            "locType": "clothes"
        },
        "hermosa beach": {
            "longitude": "-118.3959099",
            "blogLinks": [
                "http://wikitravel.org/en/Los_Angeles"
            ],
            "closest_to": "santa monica",
            "latitude": "33.86428",
            "address": "Hermosa Beach, Los Angeles County, California, United States of America",
            "locType": "city"
        },
        "getty center drive": {
            "longitude": "-118.4749678",
            "blogLinks": [
                "http://wikitravel.org/en/Los_Angeles"
            ],
            "closest_to": "santa monica",
            "latitude": "34.0886759",
            "address": "Getty Center Drive, Brentwood, LA, Los Angeles County, California, 90049, United States of America",
            "locType": "residential"
        },
        "phoenix": {
            "longitude": "-117.7764481",
            "blogLinks": [
                "http://www.dodlodging.net/search.aspx?ByCity=true&s=bakersfield,%20ca&AirForceInns=true&ArmyLodging=true&NavyGetaways=true&NGIS=true"
            ],
            "closest_to": "santa monica",
            "latitude": "33.6988015",
            "address": "Phoenix, Heritage Park Apartments, El Camino Real, Irvine, Orange County, California, 92604, United States of America",
            "locType": "residential"
        },
        "grand park": {
            "longitude": "-118.245571530652",
            "blogLinks": [
                "http://wikitravel.org/en/Los_Angeles"
            ],
            "closest_to": "santa monica",
            "latitude": "34.05545105",
            "address": "Grand Park, North Hill Street, Civic Center, Bunker Hill, LA, Los Angeles County, California, 90012, United States of America",
            "locType": "park"
        },
        "ventura": {
            "longitude": "-119.0779358",
            "blogLinks": [
                "http://traveltips.usatoday.com/beaches-close-bakersfield-california-110095.html",
                "http://wikitravel.org/en/Los_Angeles"
            ],
            "closest_to": "santa monica",
            "latitude": "34.4458248",
            "address": "Ventura County, California, United States of America",
            "locType": "administrative"
        },
        "mexico city": {
            "longitude": "-118.2876599",
            "blogLinks": [
                "http://wikitravel.org/en/Los_Angeles"
            ],
            "closest_to": "santa monica",
            "latitude": "34.1106298",
            "address": "Mexico City, Avocado Street, Los Feliz, Atwater, LA, Los Angeles County, California, 90027, United States of America",
            "locType": "restaurant"
        },
        "san bernardino/ontario": {
            "longitude": "-117.562830625981",
            "blogLinks": [
                "http://wikitravel.org/en/Los_Angeles"
            ],
            "closest_to": "santa monica",
            "latitude": "34.05055885",
            "address": "California Commerce Center, Ontario, San Bernardino County, California, 91761, United States of America",
            "locType": "commercial;light_industrial;retail"
        },
        "grapevine": {
            "longitude": "-118.9301003",
            "blogLinks": [
                "https://www.yelp.com/biz/bakersfield-city-bakersfield"
            ],
            "closest_to": "santa monica",
            "latitude": "34.9416383",
            "address": "Grapevine, Kern County, California, United States of America",
            "locType": "hamlet"
        },
        "union station": {
            "longitude": "-118.235796451972",
            "blogLinks": [
                "http://wikitravel.org/en/Los_Angeles"
            ],
            "closest_to": "santa monica",
            "latitude": "34.0560576",
            "address": "Union Station, 800, Alameda Street, Naud Junction, Little Tokyo Historic District, LA, Los Angeles County, California, 90012, United States of America",
            "locType": "yes"
        },
        "lummis home": {
            "longitude": "-118.206958254434",
            "blogLinks": [
                "http://wikitravel.org/en/Los_Angeles"
            ],
            "closest_to": "santa monica",
            "latitude": "34.09317445",
            "address": "Lummis Home, Carlota Boulevard, Rose Hill, Highland Park, LA, Los Angeles County, California, 90031, United States of America",
            "locType": "yes"
        },
        "hollywood bowl": {
            "longitude": "-118.339277261641",
            "blogLinks": [
                "http://wikitravel.org/en/Los_Angeles"
            ],
            "closest_to": "santa monica",
            "latitude": "34.1121836",
            "address": "Hollywood Bowl, Los Tilos Road, Whitley Heights, LA, Los Angeles County, California, 90068, United States of America",
            "locType": "theatre"
        },
        "minneapolis": {
            "longitude": "-118.2520117",
            "blogLinks": [
                "https://www.yelp.com/biz/bakersfield-city-bakersfield"
            ],
            "closest_to": "santa monica",
            "latitude": "34.1135807",
            "address": "Minneapolis Street, Atwater, LA, Los Angeles County, California, 90039, United States of America",
            "locType": "residential"
        },
        "kenya": {
            "longitude": "-118.5402675",
            "blogLinks": [
                "http://wikitravel.org/en/Los_Angeles"
            ],
            "closest_to": "santa monica",
            "latitude": "34.2713528",
            "address": "Kenya Street, Granada Hills, Northridge, LA, Los Angeles County, California, 91326, United States of America",
            "locType": "tertiary"
        },
        "wilshire blvd.": {
            "longitude": "-118.3036614",
            "blogLinks": [
                "http://wikitravel.org/en/Los_Angeles"
            ],
            "closest_to": "santa monica",
            "latitude": "34.0617231",
            "address": "Wilshire Boulevard, Koreatown, Saint James Park, LA, Los Angeles County, California, 90005, United States of America",
            "locType": "primary"
        },
        "cholame": {
            "longitude": "-120.2965383",
            "blogLinks": [
                "https://www.tripadvisor.com/ShowTopic-g28926-i29-k5349841-Bakersfield_to_San_Fransico_drive-California.html"
            ],
            "closest_to": "bakersfield",
            "latitude": "35.7238556",
            "address": "Cholame, San Luis Obispo County, California, United States of America",
            "locType": "hamlet"
        },
        "santa barbara": {
            "longitude": "-119.7026672",
            "blogLinks": [
                "http://travel-to-bakersfield.blogspot.com/2011/11/about-best-beach-near-bakersfield-ca.html",
                "http://www.heleninwonderlust.co.uk/2014/03/ultimate-california-road-trip-itinerary-las-vegas/",
                "http://www.dodlodging.net/search.aspx?ByCity=true&s=bakersfield,%20ca&AirForceInns=true&ArmyLodging=true&NavyGetaways=true&NGIS=true",
                "http://traveltips.usatoday.com/beaches-close-bakersfield-california-110095.html",
                "http://wikitravel.org/en/Los_Angeles",
                "http://traveltips.usatoday.com/things-driving-los-angeles-55213.html",
                "https://www.yelp.com/biz/city-of-solvang-solvang"
            ],
            "closest_to": "santa monica",
            "latitude": "34.4221319",
            "address": "Santa Barbara, Santa Barbara County, California, United States of America",
            "locType": "city"
        },
        "bus bay": {
            "longitude": "-118.364393154677",
            "blogLinks": [
                "http://wikitravel.org/en/Los_Angeles"
            ],
            "closest_to": "santa monica",
            "latitude": "33.88803365",
            "address": "2601-2641, West Bay Business Park, Redondo Beach, Los Angeles County, California, 90260, United States of America",
            "locType": "commercial"
        },
        "serfas club drive": {
            "longitude": "-117.6148918",
            "blogLinks": [
                "http://losangeles.cbslocal.com/guide/a-guide-to-socals-best-trick-or-treating-neighborhoods/"
            ],
            "closest_to": "santa monica",
            "latitude": "33.8777357",
            "address": "Serfas Club Drive, Eastvale, Riverside County, California, 92882, United States of America",
            "locType": "secondary"
        },
        "mission san luis rey": {
            "longitude": "-117.3235506",
            "blogLinks": [
                "https://www.virtualtourist.com/travel/North_America/United_States_of_America/California/Things_To_Do-California-TG-C-1.html"
            ],
            "closest_to": "santa monica",
            "latitude": "33.22648",
            "address": "San Luis Rey Mission Expressway, Oceanside, San Diego County, California, 92057, United States of America",
            "locType": "trunk"
        },
        "lancaster": {
            "longitude": "-118.1366152",
            "blogLinks": [
                "http://wikitravel.org/en/Los_Angeles"
            ],
            "closest_to": "santa monica",
            "latitude": "34.6981064",
            "address": "Lancaster, Los Angeles County, California, United States of America",
            "locType": "city"
        },
        "springville": {
            "longitude": "-118.839739899248",
            "blogLinks": [
                "https://www.tripadvisor.com/ShowTopic-g28926-i29-k5349841-Bakersfield_to_San_Fransico_drive-California.html"
            ],
            "closest_to": "bakersfield",
            "latitude": "36.123081",
            "address": "Springville, Wilson Drive, Springville, Tulare County, California, United States of America",
            "locType": "administrative"
        },
        "paso robles": {
            "longitude": "-120.6912455",
            "blogLinks": [
                "https://www.tripadvisor.com/ShowTopic-g28926-i29-k5349841-Bakersfield_to_San_Fransico_drive-California.html"
            ],
            "closest_to": "bakersfield",
            "latitude": "35.6267654",
            "address": "Paso Robles, San Luis Obispo County, California, United States of America",
            "locType": "city"
        },
        "san fernando valley": {
            "longitude": "-118.4389718",
            "blogLinks": [
                "http://wikitravel.org/en/Los_Angeles"
            ],
            "closest_to": "santa monica",
            "latitude": "34.2819461",
            "address": "San Fernando, Los Angeles County, California, United States of America",
            "locType": "administrative"
        },
        "pico blvd": {
            "longitude": "-118.3859303",
            "blogLinks": [
                "http://wikitravel.org/en/Los_Angeles"
            ],
            "closest_to": "santa monica",
            "latitude": "34.0551848",
            "address": "Pico Boulevard, South Carthay, The Village Green, LA, Los Angeles County, California, 90035, United States of America",
            "locType": "primary"
        },
        "venice beach": {
            "longitude": "-118.4739815",
            "blogLinks": [
                "http://www.heleninwonderlust.co.uk/2014/03/ultimate-california-road-trip-itinerary-las-vegas/",
                "http://wikitravel.org/en/Los_Angeles"
            ],
            "closest_to": "santa monica",
            "latitude": "33.9862012",
            "address": "Venice Beach, Venice Beach Bike Path, Venice, LA, Los Angeles County, California, 90405, United States of America",
            "locType": "police"
        },
        "santa monica state beach park": {
            "longitude": "-118.498714745971",
            "blogLinks": [
                "http://traveltips.usatoday.com/beaches-close-bakersfield-california-110095.html"
            ],
            "closest_to": "santa monica",
            "latitude": "34.0101407",
            "address": "Santa Monica State Beach, Santa Monica Beach Path, Santa Monica, Los Angeles County, California, 90401, United States of America",
            "locType": "nature_reserve"
        },
        "pomona": {
            "longitude": "-117.7517495",
            "blogLinks": [
                "http://wikitravel.org/en/Los_Angeles"
            ],
            "closest_to": "santa monica",
            "latitude": "34.0553813",
            "address": "Pomona, Los Angeles County, California, United States of America",
            "locType": "city"
        },
        "pacific design center": {
            "longitude": "-118.3823003",
            "blogLinks": [
                "http://wikitravel.org/en/Los_Angeles"
            ],
            "closest_to": "santa monica",
            "latitude": "34.0825092",
            "address": "Pacific Design Center, Melrose Avenue, West Hollywood, Los Angeles County, California, 90069, United States of America",
            "locType": "yes"
        },
        "la cienega boulevard": {
            "longitude": "-118.376447",
            "blogLinks": [
                "http://wikitravel.org/en/Los_Angeles"
            ],
            "closest_to": "santa monica",
            "latitude": "34.0459813",
            "address": "La Cienega Boulevard, South Carthay, The Village Green, LA, Los Angeles County, California, 90035, United States of America",
            "locType": "primary"
        },
        "santa ana": {
            "longitude": "-117.8732212",
            "blogLinks": [
                "http://wikitravel.org/en/Los_Angeles"
            ],
            "closest_to": "santa monica",
            "latitude": "33.7494951",
            "address": "Santa Ana, Orange County, California, United States of America",
            "locType": "city"
        },
        "bakersfield city": {
            "longitude": "-119.103325666467",
            "blogLinks": [
                "https://www.yelp.com/biz/bakersfield-city-bakersfield",
                "http://www.heleninwonderlust.co.uk/2014/03/ultimate-california-road-trip-itinerary-las-vegas/"
            ],
            "closest_to": "santa monica",
            "latitude": "35.34926755",
            "address": "California State University Bakersfield, Student Way, Bakersfield, Kern County, California, 93311, United States of America",
            "locType": "university"
        },
        "encino": {
            "longitude": "-118.5016165",
            "blogLinks": [
                "http://wikitravel.org/en/Los_Angeles"
            ],
            "closest_to": "santa monica",
            "latitude": "34.1591324",
            "address": "Encino, LA, Los Angeles County, California, United States of America",
            "locType": "suburb"
        },
        "south korea": {
            "longitude": "-118.29270769528",
            "blogLinks": [
                "http://wikitravel.org/en/Los_Angeles"
            ],
            "closest_to": "santa monica",
            "latitude": "34.0621061",
            "address": "Consulate of the ROK (South Korea) in Los Angeles, South New Hampshire Avenue, Koreatown, Saint James Park, LA, Los Angeles County, California, 90005, United States of America",
            "locType": "embassy"
        },
        "pismo beach": {
            "longitude": "-120.6412826",
            "blogLinks": [
                "https://www.tripadvisor.com/ShowTopic-g28926-i29-k5349841-Bakersfield_to_San_Fransico_drive-California.html",
                "http://www.heleninwonderlust.co.uk/2014/03/ultimate-california-road-trip-itinerary-las-vegas/",
                "http://travel-to-bakersfield.blogspot.com/2011/11/about-best-beach-near-bakersfield-ca.html",
                "http://traveltips.usatoday.com/beaches-close-bakersfield-california-110095.html"
            ],
            "closest_to": "bakersfield",
            "latitude": "35.1427533",
            "address": "Pismo Beach, San Luis Obispo County, California, United States of America",
            "locType": "city"
        },
        "magnolia boulevard": {
            "longitude": "-118.4618115",
            "blogLinks": [
                "http://wikitravel.org/en/Los_Angeles"
            ],
            "closest_to": "santa monica",
            "latitude": "34.1648556",
            "address": "Magnolia Boulevard, Sherman Oaks, LA, Los Angeles County, California, 91411, United States of America",
            "locType": "secondary"
        },
        "alhambra": {
            "longitude": "-118.1268241",
            "blogLinks": [
                "http://wikitravel.org/en/Los_Angeles"
            ],
            "closest_to": "santa monica",
            "latitude": "34.0927361",
            "address": "Alhambra, Los Angeles County, California, United States of America",
            "locType": "city"
        },
        "metro rail": {
            "longitude": "-118.232247773529",
            "blogLinks": [
                "http://wikitravel.org/en/Los_Angeles"
            ],
            "closest_to": "santa monica",
            "latitude": "34.0474747",
            "address": "Metro Rail Maintenance of Way Building, 284, Santa Fe Avenue, Arts District, Little Tokyo Historic District, LA, Los Angeles County, California, 90013, United States of America",
            "locType": "yes"
        },
        "west pico blvd": {
            "longitude": "-118.2825284",
            "blogLinks": [
                "http://wikitravel.org/en/Los_Angeles"
            ],
            "closest_to": "santa monica",
            "latitude": "34.0472003",
            "address": "West Pico Boulevard, Saint James Park, LA, Los Angeles County, California, 90006, United States of America",
            "locType": "primary"
        },
        "santa monica": {
            "longitude": "-118.4869738",
            "blogLinks": [
                "http://travel-to-bakersfield.blogspot.com/2011/11/about-best-beach-near-bakersfield-ca.html",
                "http://www.heleninwonderlust.co.uk/2014/03/ultimate-california-road-trip-itinerary-las-vegas/",
                "http://traveltips.usatoday.com/beaches-close-bakersfield-california-110095.html",
                "http://losangeles.cbslocal.com/guide/a-guide-to-socals-best-trick-or-treating-neighborhoods/",
                "http://wikitravel.org/en/Los_Angeles",
                "http://traveltips.usatoday.com/things-driving-los-angeles-55213.html"
            ],
            "closest_to": "santa monica",
            "latitude": "34.0195598",
            "address": "Santa Monica, Los Angeles County, California, United States of America",
            "locType": "city"
        },
        "figueroa street": {
            "longitude": "-118.2827087",
            "blogLinks": [
                "http://wikitravel.org/en/Los_Angeles"
            ],
            "closest_to": "santa monica",
            "latitude": "34.0006694",
            "address": "Figueroa Street, Jefferson, LA, Los Angeles County, California, 90037, United States of America",
            "locType": "primary"
        },
        "santa ynez": {
            "longitude": "-120.104677321497",
            "blogLinks": [
                "https://www.yelp.com/biz/city-of-solvang-solvang"
            ],
            "closest_to": "bakersfield",
            "latitude": "34.608637",
            "address": "Santa Ynez, Stadium Place, Santa Ynez, Santa Barbara County, California, 93463, United States of America",
            "locType": "administrative"
        },
        "south alameda street": {
            "longitude": "-118.2383577",
            "blogLinks": [
                "http://wikitravel.org/en/Los_Angeles"
            ],
            "closest_to": "santa monica",
            "latitude": "34.0391306",
            "address": "South Alameda Street, Arts District, Little Tokyo Historic District, LA, Los Angeles County, California, 90013, United States of America",
            "locType": "primary"
        },
        "south": {
            "longitude": "-118.3432299",
            "blogLinks": [
                "https://www.yelp.com/biz/city-of-solvang-solvang"
            ],
            "closest_to": "santa monica",
            "latitude": "33.3054766",
            "address": "South, Los Angeles County, California, United States of America",
            "locType": "peak"
        },
        "alvarado street": {
            "longitude": "-118.2767489",
            "blogLinks": [
                "http://wikitravel.org/en/Los_Angeles"
            ],
            "closest_to": "santa monica",
            "latitude": "34.0565614",
            "address": "Alvarado Street, Bunker Hill, LA, Los Angeles County, California, 90057-4101, United States of America",
            "locType": "secondary"
        },
        "macarthur park": {
            "longitude": "-118.27767170166",
            "blogLinks": [
                "http://wikitravel.org/en/Los_Angeles"
            ],
            "closest_to": "santa monica",
            "latitude": "34.058874",
            "address": "MacArthur Park, Wilshire Boulevard, Angelino Heights, LA, Los Angeles County, California, 90057, United States of America",
            "locType": "park"
        },
        "kern county": {
            "longitude": "-118.7538221",
            "blogLinks": [
                "https://www.yelp.com/biz/bakersfield-city-bakersfield",
                "http://www.visitbakersfield.com/visitors/"
            ],
            "closest_to": "santa monica",
            "latitude": "35.3145701",
            "address": "Kern County, California, United States of America",
            "locType": "administrative"
        },
        "lax": {
            "longitude": "-118.407057290249",
            "blogLinks": [
                "http://wikitravel.org/en/Los_Angeles"
            ],
            "closest_to": "santa monica",
            "latitude": "33.94211345",
            "address": "Los Angeles International Airport, Gate 41, Westchester, Playa del Rey, LA, Los Angeles County, California, 90245, United States of America",
            "locType": "aerodrome"
        },
        "ontario": {
            "longitude": "-117.6484303",
            "blogLinks": [
                "http://wikitravel.org/en/Los_Angeles"
            ],
            "closest_to": "santa monica",
            "latitude": "34.065846",
            "address": "Ontario, San Bernardino County, California, United States of America",
            "locType": "city"
        },
        "west covina": {
            "longitude": "-117.9389525",
            "blogLinks": [
                "http://wikitravel.org/en/Los_Angeles"
            ],
            "closest_to": "santa monica",
            "latitude": "34.0686208",
            "address": "West Covina, Los Angeles County, California, United States of America",
            "locType": "city"
        },
        "vermont avenue": {
            "longitude": "-118.2914818",
            "blogLinks": [
                "http://wikitravel.org/en/Los_Angeles"
            ],
            "closest_to": "santa monica",
            "latitude": "33.9890027",
            "address": "Vermont Avenue, Wildasin, Florence, LA, Los Angeles County, California, 90044, United States of America",
            "locType": "secondary"
        },
        "toontown": {
            "longitude": "-117.91869601046",
            "blogLinks": [
                "http://wikitravel.org/en/Los_Angeles"
            ],
            "closest_to": "santa monica",
            "latitude": "33.81511155",
            "address": "Mickey's Toontown, Anaheim, Orange County, California, United States of America",
            "locType": "locality"
        },
        "mulholland drive": {
            "longitude": "-118.4396261",
            "blogLinks": [
                "http://wikitravel.org/en/Los_Angeles"
            ],
            "closest_to": "santa monica",
            "latitude": "34.1315268",
            "address": "Mulholland Drive, Sherman Oaks, LA, Los Angeles County, California, 90210-1054, United States of America",
            "locType": "secondary"
        },
        "n. euclid avenue": {
            "longitude": "-118.1429385",
            "blogLinks": [
                "http://losangeles.cbslocal.com/guide/a-guide-to-socals-best-trick-or-treating-neighborhoods/"
            ],
            "closest_to": "santa monica",
            "latitude": "34.1462048",
            "address": "North Euclid Avenue, Pasadena, Los Angeles County, California, 91101, United States of America",
            "locType": "tertiary"
        },
        "rosedale": {
            "longitude": "-119.198810353292",
            "blogLinks": [
                "https://www.yelp.com/biz/bakersfield-city-bakersfield"
            ],
            "closest_to": "bakersfield",
            "latitude": "35.3919202",
            "address": "Rosedale, Nord Avenue, Kern County, California, 93314, United States of America",
            "locType": "administrative"
        },
        "arizona": {
            "longitude": "-117.5060679",
            "blogLinks": [
                "http://wikitravel.org/en/Los_Angeles"
            ],
            "closest_to": "santa monica",
            "latitude": "34.4631398",
            "address": "Arizona, San Bernardino County, California, 92371, United States of America",
            "locType": "track"
        },
        "cabot road": {
            "longitude": "-117.3663633",
            "blogLinks": [
                "http://losangeles.cbslocal.com/guide/a-guide-to-socals-best-trick-or-treating-neighborhoods/"
            ],
            "closest_to": "santa monica",
            "latitude": "34.0116393",
            "address": "Cabot road, Riverside, Riverside County, California, 92501, United States of America",
            "locType": "residential"
        },
        "us": {
            "longitude": "-118.7559973",
            "blogLinks": [
                "http://www.travbuddy.com/California-travel-guide-p85",
                "https://www.tripadvisor.com/ShowTopic-g28926-i29-k5349841-Bakersfield_to_San_Fransico_drive-California.html",
                "http://www.heleninwonderlust.co.uk/2014/03/ultimate-california-road-trip-itinerary-las-vegas/",
                "http://www.dodlodging.net/search.aspx?ByCity=true&s=bakersfield,%20ca&AirForceInns=true&ArmyLodging=true&NavyGetaways=true&NGIS=true",
                "http://wikitravel.org/en/Los_Angeles",
                "https://www.virtualtourist.com/travel/North_America/United_States_of_America/California/Things_To_Do-California-TG-C-1.html",
                "https://www.yelp.com/biz/city-of-solvang-solvang"
            ],
            "closest_to": "bakersfield",
            "latitude": "36.7014631",
            "address": "California, United States of America",
            "locType": "administrative"
        },
        "huntington beach": {
            "longitude": "-118.0000165",
            "blogLinks": [
                "https://www.virtualtourist.com/travel/North_America/United_States_of_America/California/Things_To_Do-California-TG-C-1.html",
                "http://losangeles.cbslocal.com/guide/a-guide-to-socals-best-trick-or-treating-neighborhoods/",
                "http://wikitravel.org/en/Los_Angeles"
            ],
            "closest_to": "santa monica",
            "latitude": "33.6783336",
            "address": "Huntington Beach, Orange County, California, United States of America",
            "locType": "city"
        },
        "hancock park": {
            "longitude": "-118.356103459582",
            "blogLinks": [
                "http://wikitravel.org/en/Los_Angeles"
            ],
            "closest_to": "santa monica",
            "latitude": "34.06372875",
            "address": "Hancock Park, West 6th Street, Park La Brea, The Village Green, LA, Los Angeles County, California, 90036, United States of America",
            "locType": "park"
        },
        "chester ave.": {
            "longitude": "-119.0188577",
            "blogLinks": [
                "http://traveltips.usatoday.com/things-driving-los-angeles-55213.html"
            ],
            "closest_to": "santa monica",
            "latitude": "35.3549745",
            "address": "Chester Avenue, Bakersfield, Kern County, California, 93301, United States of America",
            "locType": "secondary"
        },
        "artesia": {
            "longitude": "-118.0796194",
            "blogLinks": [
                "http://wikitravel.org/en/Los_Angeles"
            ],
            "closest_to": "santa monica",
            "latitude": "33.8690197",
            "address": "Artesia, Los Angeles County, California, United States of America",
            "locType": "city"
        },
        "san jacinto": {
            "longitude": "-116.9586349",
            "blogLinks": [
                "https://www.virtualtourist.com/travel/North_America/United_States_of_America/California/Things_To_Do-California-TG-C-1.html"
            ],
            "closest_to": "santa monica",
            "latitude": "33.7839084",
            "address": "San Jacinto, Riverside County, California, United States of America",
            "locType": "city"
        },
        "arleta": {
            "longitude": "-118.4406399",
            "blogLinks": [
                "http://wikitravel.org/en/Los_Angeles"
            ],
            "closest_to": "santa monica",
            "latitude": "34.2558348",
            "address": "Arleta Avenue, Pacoima, LA, Los Angeles County, California, 91331, United States of America",
            "locType": "primary"
        },
        "philadelphia": {
            "longitude": "-117.4828685",
            "blogLinks": [
                "http://www.heleninwonderlust.co.uk/2014/03/ultimate-california-road-trip-itinerary-las-vegas/"
            ],
            "closest_to": "santa monica",
            "latitude": "33.8943097",
            "address": "Philadelphia Court, Riverside, Riverside County, California, 92503, United States of America",
            "locType": "residential"
        },
        "california - bakersfield": {
            "longitude": "-119.103325666467",
            "blogLinks": [
                "https://www.yelp.com/biz/bakersfield-city-bakersfield"
            ],
            "closest_to": "santa monica",
            "latitude": "35.34926755",
            "address": "California State University Bakersfield, Student Way, Bakersfield, Kern County, California, 93311, United States of America",
            "locType": "university"
        },
        "channel islands harbor": {
            "longitude": "-119.2242751",
            "blogLinks": [
                "http://www.dodlodging.net/search.aspx?ByCity=true&s=bakersfield,%20ca&AirForceInns=true&ArmyLodging=true&NavyGetaways=true&NGIS=true"
            ],
            "closest_to": "santa monica",
            "latitude": "34.1641716",
            "address": "Channel Islands Harbor, Ventura County, California, United States of America",
            "locType": "dock"
        },
        "victorville": {
            "longitude": "-117.2911564",
            "blogLinks": [
                "https://www.tripadvisor.com/ShowTopic-g28926-i29-k3555418-What_to_see_what_to_do_between_las_Vegas_and_Los_Angeles-California.html"
            ],
            "closest_to": "santa monica",
            "latitude": "34.5361067",
            "address": "Victorville, San Bernardino County, California, United States of America",
            "locType": "city"
        },
        "santa monica mountains": {
            "longitude": "-118.789983284662",
            "blogLinks": [
                "http://wikitravel.org/en/Los_Angeles"
            ],
            "closest_to": "santa monica",
            "latitude": "34.11008435",
            "address": "Santa Monica Mountains National Recreation Area, Simes Lane, Seminole Hot Springs, Los Angeles County, California, 91301, United States of America",
            "locType": "protected_area"
        },
        "azusa": {
            "longitude": "-117.9056045",
            "blogLinks": [
                "http://traveltips.usatoday.com/things-driving-los-angeles-55213.html"
            ],
            "closest_to": "santa monica",
            "latitude": "34.1338751",
            "address": "Azusa, Los Angeles County, California, United States of America",
            "locType": "city"
        },
        "santa monica blvd": {
            "longitude": "-118.317943",
            "blogLinks": [
                "http://losangeles.cbslocal.com/guide/a-guide-to-socals-best-trick-or-treating-neighborhoods/",
                "http://wikitravel.org/en/Los_Angeles"
            ],
            "closest_to": "santa monica",
            "latitude": "34.0907545",
            "address": "Santa Monica Boulevard, Little Armenia, LA, Los Angeles County, California, Ca 90038, United States of America",
            "locType": "primary"
        },
        "port of los angeles": {
            "longitude": "-118.2620149",
            "blogLinks": [
                "http://wikitravel.org/en/Los_Angeles"
            ],
            "closest_to": "santa monica",
            "latitude": "33.7291858",
            "address": "Port of Los Angeles, LA, Los Angeles County, California, United States of America",
            "locType": "dock"
        },
        "wilshire": {
            "longitude": "-117.9034923",
            "blogLinks": [
                "http://losangeles.cbslocal.com/guide/a-guide-to-socals-best-trick-or-treating-neighborhoods/",
                "http://wikitravel.org/en/Los_Angeles"
            ],
            "closest_to": "santa monica",
            "latitude": "33.7805094",
            "address": "Wilshire, Garden Grove, Orange County, California, 92868, United States of America",
            "locType": "service"
        },
        "southern california": {
            "longitude": "-118.286343973446",
            "blogLinks": [
                "https://www.yelp.com/biz/city-of-solvang-solvang",
                "https://www.yelp.com/biz/bakersfield-city-bakersfield",
                "http://traveltips.usatoday.com/beaches-close-bakersfield-california-110095.html",
                "http://wikitravel.org/en/Los_Angeles"
            ],
            "closest_to": "santa monica",
            "latitude": "34.0224149",
            "address": "University of Southern California, Watt Way, Saint James Park, LA, Los Angeles County, California, 90089, United States of America",
            "locType": "university"
        },
        "solvang village": {
            "longitude": "-118.4087084",
            "blogLinks": [
                "https://www.yelp.com/biz/city-of-solvang-solvang"
            ],
            "closest_to": "santa monica",
            "latitude": "34.210473",
            "address": "Solvang Street, Van Nuys, LA, Los Angeles County, California, 91605, United States of America",
            "locType": "residential"
        },
        "rose bowl": {
            "longitude": "-118.167655462606",
            "blogLinks": [
                "http://wikitravel.org/en/Los_Angeles"
            ],
            "closest_to": "santa monica",
            "latitude": "34.1613231",
            "address": "Rose Bowl, Rose Bowl Drive, Pasadena, Los Angeles County, California, 91103, United States of America",
            "locType": "stadium"
        },
        "las angeles": {
            "longitude": "-118.0668337",
            "blogLinks": [
                "http://www.travbuddy.com/California-travel-guide-p85"
            ],
            "closest_to": "santa monica",
            "latitude": "33.9995929",
            "address": "California, Obregon Street, West Whittier, Rosemead, Los Angeles County, California, 90606, United States of America",
            "locType": "abandoned"
        },
        "grapevine hill": {
            "longitude": "-118.9301003",
            "blogLinks": [
                "https://www.yelp.com/biz/bakersfield-city-bakersfield"
            ],
            "closest_to": "santa monica",
            "latitude": "34.9416383",
            "address": "Grapevine, Kern County, California, United States of America",
            "locType": "hamlet"
        },
        "los angeles california temple": {
            "longitude": "-118.434179759967",
            "blogLinks": [
                "http://wikitravel.org/en/Los_Angeles"
            ],
            "closest_to": "santa monica",
            "latitude": "34.0525886",
            "address": "Los Angeles California Temple, North Temple Way, Westwood, LA, Los Angeles County, California, 90024, United States of America",
            "locType": "place_of_worship"
        },
        "staples center": {
            "longitude": "-118.267052502794",
            "blogLinks": [
                "http://wikitravel.org/en/Los_Angeles"
            ],
            "closest_to": "santa monica",
            "latitude": "34.0430046",
            "address": "Staples Center, Figueroa Street, South Park, Saint James Park, LA, Los Angeles County, California, 90015, United States of America",
            "locType": "stadium"
        },
        "baker": {
            "longitude": "-117.6675603",
            "blogLinks": [
                "https://www.tripadvisor.com/ShowTopic-g28926-i29-k3555418-What_to_see_what_to_do_between_las_Vegas_and_Los_Angeles-California.html"
            ],
            "closest_to": "santa monica",
            "latitude": "35.0421963",
            "address": "Baker, Kern County, California, United States of America",
            "locType": "hamlet"
        },
        "muscle beach": {
            "longitude": "-118.4725820875",
            "blogLinks": [
                "http://www.heleninwonderlust.co.uk/2014/03/ultimate-california-road-trip-itinerary-las-vegas/"
            ],
            "closest_to": "santa monica",
            "latitude": "33.985446",
            "address": "Muscle Beach, Ocean Front Walk, Venice, LA, Los Angeles County, California, 90292, United States of America",
            "locType": "sports_centre"
        },
        "tongva park": {
            "longitude": "-118.493136498643",
            "blogLinks": [
                "http://wikitravel.org/en/Los_Angeles"
            ],
            "closest_to": "santa monica",
            "latitude": "34.0111636",
            "address": "Tongva Park, Pacific Coast Highway, Santa Monica, Los Angeles County, California, CA 90401, United States of America",
            "locType": "park"
        },
        "canoga park": {
            "longitude": "-118.5978258",
            "blogLinks": [
                "http://wikitravel.org/en/Los_Angeles"
            ],
            "closest_to": "santa monica",
            "latitude": "34.2010776",
            "address": "Canoga Park, LA, Los Angeles County, California, United States of America",
            "locType": "suburb"
        },
        "manhattan beach": {
            "longitude": "-118.4000146",
            "blogLinks": [
                "http://wikitravel.org/en/Los_Angeles"
            ],
            "closest_to": "santa monica",
            "latitude": "33.8950839",
            "address": "Manhattan Beach, Los Angeles County, California, United States of America",
            "locType": "city"
        },
        "metro": {
            "longitude": "-118.4710141",
            "blogLinks": [
                "http://wikitravel.org/en/Los_Angeles"
            ],
            "closest_to": "santa monica",
            "latitude": "33.9880063",
            "address": "Metro, Windward Circle, Venice, LA, Los Angeles County, California, 90291, United States of America",
            "locType": "bus_station"
        },
        "hollywood hills": {
            "longitude": "-118.3355473",
            "blogLinks": [
                "http://www.heleninwonderlust.co.uk/2014/03/ultimate-california-road-trip-itinerary-las-vegas/",
                "http://wikitravel.org/en/Los_Angeles"
            ],
            "closest_to": "santa monica",
            "latitude": "34.1311792",
            "address": "Hollywood Hills, LA, Los Angeles County, California, United States of America",
            "locType": "suburb"
        },
        "south los angeles": {
            "longitude": "-118.2781287",
            "blogLinks": [
                "http://wikitravel.org/en/Los_Angeles"
            ],
            "closest_to": "santa monica",
            "latitude": "33.9275152",
            "address": "South Los Angeles, LA, Los Angeles County, California, United States of America",
            "locType": "suburb"
        },
        "nokia theatre": {
            "longitude": "-118.2655019",
            "blogLinks": [
                "http://wikitravel.org/en/Los_Angeles"
            ],
            "closest_to": "santa monica",
            "latitude": "34.0444711",
            "address": "Club Nokia, Chick Hearn Court, South Park, Bunker Hill, LA, Los Angeles County, California, 90015, United States of America",
            "locType": "theatre"
        },
        "calico": {
            "longitude": "-119.206496",
            "blogLinks": [
                "http://www.travbuddy.com/California-travel-guide-p85"
            ],
            "closest_to": "bakersfield",
            "latitude": "35.6327332",
            "address": "Calico, Kern County, California, United States of America",
            "locType": "locality"
        },
        "beach": {
            "longitude": "-120.6345489",
            "blogLinks": [
                "https://www.yelp.com/biz/bakersfield-city-bakersfield"
            ],
            "closest_to": "bakersfield",
            "latitude": "35.13738",
            "address": "Beach, Pismo Beach Senior Mobile Home Park, Pismo Beach, San Luis Obispo County, California, 93449, United States of America",
            "locType": "service"
        },
        "radford avenue studio city": {
            "longitude": "-118.3925972",
            "blogLinks": [
                "http://losangeles.cbslocal.com/guide/a-guide-to-socals-best-trick-or-treating-neighborhoods/"
            ],
            "closest_to": "santa monica",
            "latitude": "34.1447608",
            "address": "Radford Avenue, Studio City, Valley Village, LA, Los Angeles County, California, 91604, United States of America",
            "locType": "residential"
        },
        "anaheim": {
            "longitude": "-117.9117319",
            "blogLinks": [
                "http://traveltips.usatoday.com/beaches-close-bakersfield-california-110095.html",
                "http://wikitravel.org/en/Los_Angeles"
            ],
            "closest_to": "santa monica",
            "latitude": "33.8347516",
            "address": "Anaheim, Orange County, California, United States of America",
            "locType": "city"
        },
        "n. highland ave.": {
            "longitude": "-118.3386099",
            "blogLinks": [
                "http://wikitravel.org/en/Los_Angeles"
            ],
            "closest_to": "santa monica",
            "latitude": "34.088909",
            "address": "North Highland Avenue, Hollywood, LA, Los Angeles County, California, 90068, United States of America",
            "locType": "primary"
        },
        "pacoima": {
            "longitude": "-118.4270269",
            "blogLinks": [
                "http://wikitravel.org/en/Los_Angeles"
            ],
            "closest_to": "santa monica",
            "latitude": "34.2625025",
            "address": "Pacoima, LA, Los Angeles County, California, United States of America",
            "locType": "suburb"
        },
        "san joaquin hills": {
            "longitude": "-117.8367223",
            "blogLinks": [
                "http://losangeles.cbslocal.com/guide/a-guide-to-socals-best-trick-or-treating-neighborhoods/"
            ],
            "closest_to": "santa monica",
            "latitude": "33.611689",
            "address": "San Joaquin Hills, Orange County, California, United States of America",
            "locType": "hamlet"
        },
        "baldwin park": {
            "longitude": "-117.961176",
            "blogLinks": [
                "http://traveltips.usatoday.com/things-driving-los-angeles-55213.html"
            ],
            "closest_to": "santa monica",
            "latitude": "34.0854739",
            "address": "Baldwin Park, Los Angeles County, California, United States of America",
            "locType": "city"
        },
        "solvang": {
            "longitude": "-120.1390893",
            "blogLinks": [
                "http://www.visitbakersfield.com/visitors/",
                "https://www.yelp.com/biz/city-of-solvang-solvang"
            ],
            "closest_to": "bakersfield",
            "latitude": "34.5958572",
            "address": "Solvang, Santa Barbara County, California, United States of America",
            "locType": "city"
        },
        "santa clarita": {
            "longitude": "-118.5425859",
            "blogLinks": [
                "http://traveltips.usatoday.com/beaches-close-bakersfield-california-110095.html",
                "http://wikitravel.org/en/Los_Angeles"
            ],
            "closest_to": "santa monica",
            "latitude": "34.3916641",
            "address": "Santa Clarita, Los Angeles County, California, United States of America",
            "locType": "city"
        },
        "covina": {
            "longitude": "-117.8891163",
            "blogLinks": [
                "http://wikitravel.org/en/Los_Angeles"
            ],
            "closest_to": "santa monica",
            "latitude": "34.0877926",
            "address": "Covina, Los Angeles County, California, United States of America",
            "locType": "city"
        },
        "north santa anita ave.": {
            "longitude": "-118.0317757",
            "blogLinks": [
                "http://wikitravel.org/en/Los_Angeles"
            ],
            "closest_to": "santa monica",
            "latitude": "34.161979",
            "address": "North Santa Anita Avenue, Arcadia, Los Angeles County, California, 91024, United States of America",
            "locType": "tertiary"
        },
        "sweden": {
            "longitude": "-118.4974999",
            "blogLinks": [
                "https://www.yelp.com/biz/city-of-solvang-solvang",
                "http://wikitravel.org/en/Los_Angeles"
            ],
            "closest_to": "santa monica",
            "latitude": "34.1997222",
            "address": "Saint Bridget of Sweden Church, Whitaker Avenue, Reseda, LA, Los Angeles County, California, 91406, United States of America",
            "locType": "place_of_worship"
        },
        "torrance": {
            "longitude": "-118.3406287",
            "blogLinks": [
                "http://wikitravel.org/en/Los_Angeles"
            ],
            "closest_to": "santa monica",
            "latitude": "33.8358492",
            "address": "Torrance, Los Angeles County, California, United States of America",
            "locType": "city"
        },
        "hollywood forever cemetery": {
            "longitude": "-118.319048274551",
            "blogLinks": [
                "http://wikitravel.org/en/Los_Angeles"
            ],
            "closest_to": "santa monica",
            "latitude": "34.08846395",
            "address": "Hollywood Forever Cemetery and Funeral Home, 12th Street, Paramount Studios, Little Armenia, LA, Los Angeles County, California, 90038, United States of America",
            "locType": "grave_yard"
        },
        "old town": {
            "longitude": "-118.4954422",
            "blogLinks": [
                "http://losangeles.cbslocal.com/guide/a-guide-to-socals-best-trick-or-treating-neighborhoods/"
            ],
            "closest_to": "santa monica",
            "latitude": "35.142943",
            "address": "Old Town, Golden Hills, Kern County, California, United States of America",
            "locType": "locality"
        },
        "pismo state beach pismo state beach": {
            "longitude": "-120.62834686522",
            "blogLinks": [
                "http://traveltips.usatoday.com/beaches-close-bakersfield-california-110095.html"
            ],
            "closest_to": "bakersfield",
            "latitude": "35.1061627",
            "address": "Pismo State Beach, San Luis Obispo County, California, United States of America",
            "locType": "national_park"
        },
        "vermont ave.": {
            "longitude": "-118.2914818",
            "blogLinks": [
                "http://wikitravel.org/en/Los_Angeles"
            ],
            "closest_to": "santa monica",
            "latitude": "33.9890027",
            "address": "Vermont Avenue, Wildasin, Florence, LA, Los Angeles County, California, 90044, United States of America",
            "locType": "secondary"
        },
        "los angeles river": {
            "longitude": "-118.4421904",
            "blogLinks": [
                "http://wikitravel.org/en/Los_Angeles"
            ],
            "closest_to": "santa monica",
            "latitude": "34.1557816",
            "address": "Los Angeles River, LA, Los Angeles County, California, United States of America",
            "locType": "river"
        },
        "main street u.s.a.": {
            "longitude": "-117.918860079647",
            "blogLinks": [
                "http://wikitravel.org/en/Los_Angeles"
            ],
            "closest_to": "santa monica",
            "latitude": "33.8112564",
            "address": "MS, Anaheim, Orange County, California, United States of America",
            "locType": "locality"
        },
        "san gabriel": {
            "longitude": "-118.108604",
            "blogLinks": [
                "http://wikitravel.org/en/Los_Angeles"
            ],
            "closest_to": "santa monica",
            "latitude": "34.0991325",
            "address": "San Gabriel, Los Angeles County, California, United States of America",
            "locType": "city"
        },
        "burbank": {
            "longitude": "-118.3258553",
            "blogLinks": [
                "http://www.travbuddy.com/California-travel-guide-p85",
                "http://www.heleninwonderlust.co.uk/2014/03/ultimate-california-road-trip-itinerary-las-vegas/",
                "http://wikitravel.org/en/Los_Angeles"
            ],
            "closest_to": "santa monica",
            "latitude": "34.1816482",
            "address": "Burbank, Los Angeles County, California, United States of America",
            "locType": "city"
        },
        "los olivos": {
            "longitude": "-120.1148469",
            "blogLinks": [
                "https://www.yelp.com/biz/city-of-solvang-solvang"
            ],
            "closest_to": "bakersfield",
            "latitude": "34.6677646",
            "address": "Los Olivos, Santa Barbara County, California, United States of America",
            "locType": "village"
        },
        "los feliz": {
            "longitude": "-118.289935811004",
            "blogLinks": [
                "http://wikitravel.org/en/Los_Angeles"
            ],
            "closest_to": "santa monica",
            "latitude": "34.10815355",
            "address": "Los Feliz, Little Armenia, LA, Los Angeles County, California, 90027, United States of America",
            "locType": "neighbourhood"
        },
        "highland ave": {
            "longitude": "-117.1953088",
            "blogLinks": [
                "http://wikitravel.org/en/Los_Angeles"
            ],
            "closest_to": "santa monica",
            "latitude": "34.135757",
            "address": "Highland Avenue, San Bernardino, San Bernardino County, California, 92346, United States of America",
            "locType": "primary"
        },
        "temecula": {
            "longitude": "-117.147366",
            "blogLinks": [
                "http://losangeles.cbslocal.com/guide/a-guide-to-socals-best-trick-or-treating-neighborhoods/"
            ],
            "closest_to": "santa monica",
            "latitude": "33.4946353",
            "address": "Temecula, Riverside County, California, United States of America",
            "locType": "city"
        },
        "grand canyon": {
            "longitude": "-117.8915409",
            "blogLinks": [
                "http://wikitravel.org/en/Los_Angeles"
            ],
            "closest_to": "santa monica",
            "latitude": "33.9332326",
            "address": "Grand Canyon, Downtown Brea, Brea, Orange County, California, 92821, United States of America",
            "locType": "residential"
        },
        "long beach": {
            "longitude": "-118.158049215311",
            "blogLinks": [
                "http://www.travbuddy.com/California-travel-guide-p85",
                "https://www.yelp.com/biz/bakersfield-city-bakersfield",
                "http://wikitravel.org/en/Los_Angeles"
            ],
            "closest_to": "santa monica",
            "latitude": "33.78538945",
            "address": "Long Beach, Los Angeles County, California, United States of America",
            "locType": "city"
        },
        "los angeles": {
            "longitude": "-118.2439408",
            "blogLinks": [
                "http://www.travbuddy.com/California-travel-guide-p85",
                "https://www.tripadvisor.com/ShowTopic-g28926-i29-k5349841-Bakersfield_to_San_Fransico_drive-California.html",
                "http://losangeles.cbslocal.com/guide/a-guide-to-socals-best-trick-or-treating-neighborhoods/",
                "http://wikitravel.org/en/Los_Angeles",
                "https://www.tripit.com/blog/2016/01/california-driving-distances-and-times.html",
                "https://www.yelp.com/biz/bakersfield-city-bakersfield",
                "http://traveltips.usatoday.com/things-driving-los-angeles-55213.html"
            ],
            "closest_to": "santa monica",
            "latitude": "34.0543942",
            "address": "LA, Los Angeles County, California, United States of America",
            "locType": "city"
        },
        "green river road": {
            "longitude": "-117.3493659",
            "blogLinks": [
                "http://losangeles.cbslocal.com/guide/a-guide-to-socals-best-trick-or-treating-neighborhoods/"
            ],
            "closest_to": "santa monica",
            "latitude": "34.51688",
            "address": "Green River Road, Victorville, San Bernardino County, California, 92394, United States of America",
            "locType": "residential"
        },
        "greater los angeles": {
            "longitude": "-118.2822963",
            "blogLinks": [
                "http://wikitravel.org/en/Los_Angeles"
            ],
            "closest_to": "santa monica",
            "latitude": "33.9864031",
            "address": "Greater Cornerstone Baptist Church, Figueroa Street, Wildasin, Florence, LA, Los Angeles County, California, 90044, United States of America",
            "locType": "place_of_worship"
        },
        "new orleans": {
            "longitude": "-117.9206364",
            "blogLinks": [
                "https://www.yelp.com/biz/bakersfield-city-bakersfield",
                "http://wikitravel.org/en/Los_Angeles"
            ],
            "closest_to": "santa monica",
            "latitude": "33.8116219",
            "address": "New Orleans Square, Anaheim, Orange County, California, United States of America",
            "locType": "locality"
        },
        "sierra madre": {
            "longitude": "-118.0528455",
            "blogLinks": [
                "http://wikitravel.org/en/Los_Angeles"
            ],
            "closest_to": "santa monica",
            "latitude": "34.1616729",
            "address": "Sierra Madre, Los Angeles County, California, United States of America",
            "locType": "city"
        },
        "disneyland": {
            "longitude": "-117.91971186569",
            "blogLinks": [
                "https://www.yelp.com/biz/city-of-solvang-solvang",
                "http://wikitravel.org/en/Los_Angeles"
            ],
            "closest_to": "santa monica",
            "latitude": "33.8136367",
            "address": "DL, 1313, South Harbor Boulevard, Anaheim Resort District, Anaheim, Orange County, California, 92805, United States of America",
            "locType": "theme_park"
        },
        "oceanside": {
            "longitude": "-117.3794833",
            "blogLinks": [
                "https://www.virtualtourist.com/travel/North_America/United_States_of_America/California/Things_To_Do-California-TG-C-1.html",
                "http://wikitravel.org/en/Los_Angeles"
            ],
            "closest_to": "santa monica",
            "latitude": "33.1958696",
            "address": "Oceanside, San Diego County, California, United States of America",
            "locType": "city"
        },
        "santa ynez valley": {
            "longitude": "-120.104677321497",
            "blogLinks": [
                "https://www.yelp.com/biz/city-of-solvang-solvang"
            ],
            "closest_to": "bakersfield",
            "latitude": "34.608637",
            "address": "Santa Ynez, Stadium Place, Santa Ynez, Santa Barbara County, California, 93463, United States of America",
            "locType": "administrative"
        },
        "north cahuenga boulevard": {
            "longitude": "-118.3305981",
            "blogLinks": [
                "http://wikitravel.org/en/Los_Angeles"
            ],
            "closest_to": "santa monica",
            "latitude": "34.1055777",
            "address": "North Cahuenga Boulevard, Hollywood, LA, Los Angeles County, California, 90028, United States of America",
            "locType": "primary"
        },
        "culver city": {
            "longitude": "-118.3964664",
            "blogLinks": [
                "http://wikitravel.org/en/Los_Angeles"
            ],
            "closest_to": "santa monica",
            "latitude": "34.0211224",
            "address": "Culver City, Los Angeles County, California, United States of America",
            "locType": "administrative"
        },
        "disney california": {
            "longitude": "-117.91971186569",
            "blogLinks": [
                "http://wikitravel.org/en/Los_Angeles"
            ],
            "closest_to": "santa monica",
            "latitude": "33.8136367",
            "address": "DL, 1313, South Harbor Boulevard, Anaheim Resort District, Anaheim, Orange County, California, 92805, United States of America",
            "locType": "theme_park"
        },
        "olvera street": {
            "longitude": "-118.2373201",
            "blogLinks": [
                "http://wikitravel.org/en/Los_Angeles"
            ],
            "closest_to": "santa monica",
            "latitude": "34.0581578",
            "address": "Olvera Street, Naud Junction, Little Tokyo Historic District, LA, Los Angeles County, California, 90012, United States of America",
            "locType": "pedestrian"
        },
        "carpinteria state beach": {
            "longitude": "-119.5197244",
            "blogLinks": [
                "http://traveltips.usatoday.com/beaches-close-bakersfield-california-110095.html"
            ],
            "closest_to": "santa monica",
            "latitude": "34.3920274",
            "address": "Carpinteria State Beach, 4th Street, Carpinteria, Santa Barbara County, California, 93013, United States of America",
            "locType": "sanitary_dump_station"
        },
        "santa monica pier": {
            "longitude": "-118.4960541",
            "blogLinks": [
                "http://www.heleninwonderlust.co.uk/2014/03/ultimate-california-road-trip-itinerary-las-vegas/",
                "http://traveltips.usatoday.com/beaches-close-bakersfield-california-110095.html",
                "http://wikitravel.org/en/Los_Angeles"
            ],
            "closest_to": "santa monica",
            "latitude": "34.0104809",
            "address": "Santa Monica Pier, Santa Monica, Los Angeles County, California, CA 90401, United States of America",
            "locType": "service"
        },
        "argyle avenue": {
            "longitude": "-118.3252194",
            "blogLinks": [
                "http://wikitravel.org/en/Los_Angeles"
            ],
            "closest_to": "santa monica",
            "latitude": "34.1037188",
            "address": "Argyle Avenue, Hollywood, LA, Los Angeles County, California, 90068, United States of America",
            "locType": "secondary"
        },
        "san luis obispo county": {
            "longitude": "-120.3757162",
            "blogLinks": [
                "http://www.travbuddy.com/California-travel-guide-p85"
            ],
            "closest_to": "bakersfield",
            "latitude": "35.3540209",
            "address": "San Luis Obispo County, California, United States of America",
            "locType": "administrative"
        },
        "south orange county": {
            "longitude": "-117.667997530973",
            "blogLinks": [
                "http://losangeles.cbslocal.com/guide/a-guide-to-socals-best-trick-or-treating-neighborhoods/"
            ],
            "closest_to": "santa monica",
            "latitude": "33.6589297",
            "address": "S, Bellecour Way, Bellecour Way Apartments, Foothill Ranch, Lake Forest, Orange County, California, 92630, United States of America",
            "locType": "yes"
        },
        "west hollywood": {
            "longitude": "-118.3617442",
            "blogLinks": [
                "http://wikitravel.org/en/Los_Angeles"
            ],
            "closest_to": "santa monica",
            "latitude": "34.0900091",
            "address": "West Hollywood, Los Angeles County, California, United States of America",
            "locType": "city"
        },
        "larchmont blvd": {
            "longitude": "-118.3237279",
            "blogLinks": [
                "http://wikitravel.org/en/Los_Angeles"
            ],
            "closest_to": "santa monica",
            "latitude": "34.0820671",
            "address": "North Larchmont Boulevard, Hancock Park, Hollywood, LA, Los Angeles County, California, 90038, United States of America",
            "locType": "tertiary"
        },
        "los angeles airport": {
            "longitude": "-118.385011876892",
            "blogLinks": [
                "http://wikitravel.org/en/Los_Angeles"
            ],
            "closest_to": "santa monica",
            "latitude": "33.95203015",
            "address": "Super 8 Motel, 9250, Airport Boulevard, Westchester, Playa Vista, LA, Los Angeles County, California, 90045, United States of America",
            "locType": "motel"
        },
        "pacific coast highway": {
            "longitude": "-118.0051687",
            "blogLinks": [
                "http://www.travbuddy.com/California-travel-guide-p85",
                "http://www.heleninwonderlust.co.uk/2014/03/ultimate-california-road-trip-itinerary-las-vegas/",
                "http://www.dodlodging.net/search.aspx?ByCity=true&s=bakersfield,%20ca&AirForceInns=true&ArmyLodging=true&NavyGetaways=true&NGIS=true",
                "http://traveltips.usatoday.com/beaches-close-bakersfield-california-110095.html",
                "http://wikitravel.org/en/Los_Angeles",
                "https://www.tripit.com/blog/2016/01/california-driving-distances-and-times.html",
                "http://traveltips.usatoday.com/things-driving-los-angeles-55213.html"
            ],
            "closest_to": "santa monica",
            "latitude": "33.6595127",
            "address": "Pacific Coast Highway, Huntington Beach, Orange County, California, 92648, United States of America",
            "locType": "primary"
        },
        "riverside": {
            "longitude": "-117.3961622",
            "blogLinks": [
                "http://wikitravel.org/en/Los_Angeles"
            ],
            "closest_to": "santa monica",
            "latitude": "33.9533546",
            "address": "Riverside, Riverside County, California, United States of America",
            "locType": "city"
        },
        "ontario airport": {
            "longitude": "-117.566879247477",
            "blogLinks": [
                "http://wikitravel.org/en/Los_Angeles"
            ],
            "closest_to": "santa monica",
            "latitude": "34.0417312",
            "address": "Prologis Park Ontario Airport, Ontario, San Bernardino County, California, 91761, United States of America",
            "locType": "commercial"
        },
        "inglewood": {
            "longitude": "-118.353131",
            "blogLinks": [
                "http://losangeles.cbslocal.com/guide/a-guide-to-socals-best-trick-or-treating-neighborhoods/"
            ],
            "closest_to": "santa monica",
            "latitude": "33.9616801",
            "address": "Inglewood, Los Angeles County, California, United States of America",
            "locType": "city"
        },
        "honolulu": {
            "longitude": "-118.2700871",
            "blogLinks": [
                "https://www.yelp.com/biz/bakersfield-city-bakersfield"
            ],
            "closest_to": "santa monica",
            "latitude": "34.2337712",
            "address": "Honolulu Avenue, LA, Los Angeles County, California, 91042, United States of America",
            "locType": "secondary"
        },
        "panorama city": {
            "longitude": "-118.4498051",
            "blogLinks": [
                "http://wikitravel.org/en/Los_Angeles"
            ],
            "closest_to": "santa monica",
            "latitude": "34.224726",
            "address": "Panorama City, Sepulveda, LA, Los Angeles County, California, 91402, United States of America",
            "locType": "neighbourhood"
        },
        "east 7th street": {
            "longitude": "-118.2505375",
            "blogLinks": [
                "http://wikitravel.org/en/Los_Angeles"
            ],
            "closest_to": "santa monica",
            "latitude": "34.0433328",
            "address": "East 7th Street, Skid Row, Bunker Hill, LA, Los Angeles County, California, 90014, United States of America",
            "locType": "primary"
        },
        "seraphina road": {
            "longitude": "-117.1211377",
            "blogLinks": [
                "http://losangeles.cbslocal.com/guide/a-guide-to-socals-best-trick-or-treating-neighborhoods/"
            ],
            "closest_to": "santa monica",
            "latitude": "33.5438866",
            "address": "Seraphina Road, Avondale, Nicolas Valley, Temecula, Riverside County, California, 92591, United States of America",
            "locType": "tertiary"
        },
        "green line": {
            "longitude": "-119.7129779",
            "blogLinks": [
                "http://wikitravel.org/en/Los_Angeles"
            ],
            "closest_to": "santa monica",
            "latitude": "34.432429",
            "address": "Green Lane, Santa Barbara, Santa Barbara County, California, 93105, United States of America",
            "locType": "residential"
        },
        "colorado blvd.": {
            "longitude": "-118.2001327",
            "blogLinks": [
                "http://wikitravel.org/en/Los_Angeles"
            ],
            "closest_to": "santa monica",
            "latitude": "34.1394485",
            "address": "Colorado Boulevard, Eagle Rock, Highland Park, LA, Los Angeles County, California, 90041, United States of America",
            "locType": "primary"
        },
        "angelino heights": {
            "longitude": "-118.2547964",
            "blogLinks": [
                "http://losangeles.cbslocal.com/guide/a-guide-to-socals-best-trick-or-treating-neighborhoods/"
            ],
            "closest_to": "santa monica",
            "latitude": "34.0702889",
            "address": "Angelino Heights, LA, Los Angeles County, California, United States of America",
            "locType": "suburb"
        },
        "malibu canyon": {
            "longitude": "-117.7645118",
            "blogLinks": [
                "http://wikitravel.org/en/Los_Angeles"
            ],
            "closest_to": "santa monica",
            "latitude": "33.7311196",
            "address": "Malibu, Lower Peters Canyon, Irvine, Orange County, California, 92602, United States of America",
            "locType": "residential"
        },
        "valencia": {
            "longitude": "-117.2725426",
            "blogLinks": [
                "http://wikitravel.org/en/Los_Angeles"
            ],
            "closest_to": "santa monica",
            "latitude": "34.1466768",
            "address": "Valencia, San Bernardino County, California, United States of America",
            "locType": "hamlet"
        },
        "compton station": {
            "longitude": "-118.2260433",
            "blogLinks": [
                "http://wikitravel.org/en/Los_Angeles"
            ],
            "closest_to": "santa monica",
            "latitude": "33.8948824",
            "address": "Compton, Los Angeles County, California, United States of America",
            "locType": "city"
        },
        "alvarado terrace park": {
            "longitude": "-118.2818333",
            "blogLinks": [
                "http://wikitravel.org/en/Los_Angeles"
            ],
            "closest_to": "santa monica",
            "latitude": "34.0449762",
            "address": "Alvarado Terrace, Saint James Park, LA, Los Angeles County, California, 90006, United States of America",
            "locType": "residential"
        },
        "san gabriel valley": {
            "longitude": "-118.108604",
            "blogLinks": [
                "http://wikitravel.org/en/Los_Angeles"
            ],
            "closest_to": "santa monica",
            "latitude": "34.0991325",
            "address": "San Gabriel, Los Angeles County, California, United States of America",
            "locType": "city"
        },
        "san bernardino": {
            "longitude": "-117.2897651",
            "blogLinks": [
                "http://wikitravel.org/en/Los_Angeles"
            ],
            "closest_to": "santa monica",
            "latitude": "34.1083449",
            "address": "San Bernardino, San Bernardino County, California, United States of America",
            "locType": "city"
        },
        "downtown los angeles": {
            "longitude": "-118.312628",
            "blogLinks": [
                "http://wikitravel.org/en/Los_Angeles"
            ],
            "closest_to": "santa monica",
            "latitude": "34.1789188",
            "address": "Downtown Burbank, Front Street, Burbank, Los Angeles County, California, 91502, United States of America",
            "locType": "station"
        },
        "sylmar": {
            "longitude": "-118.4492147",
            "blogLinks": [
                "http://traveltips.usatoday.com/beaches-close-bakersfield-california-110095.html",
                "http://wikitravel.org/en/Los_Angeles"
            ],
            "closest_to": "santa monica",
            "latitude": "34.3076252",
            "address": "Sylmar, LA, Los Angeles County, California, United States of America",
            "locType": "suburb"
        },
        "buena park": {
            "longitude": "-117.9962164",
            "blogLinks": [
                "http://wikitravel.org/en/Los_Angeles"
            ],
            "closest_to": "santa monica",
            "latitude": "33.870413",
            "address": "Buena Park, Orange County, California, United States of America",
            "locType": "city"
        },
        "baldwin hills": {
            "longitude": "-118.3367947541",
            "blogLinks": [
                "http://wikitravel.org/en/Los_Angeles"
            ],
            "closest_to": "santa monica",
            "latitude": "34.01164725",
            "address": "Baldwin Hills Mall, Leimert Park, LA, Los Angeles County, California, 90008, United States of America",
            "locType": "retail"
        },
        "north tamarind ave.": {
            "longitude": "-118.222759",
            "blogLinks": [
                "http://wikitravel.org/en/Los_Angeles"
            ],
            "closest_to": "santa monica",
            "latitude": "33.9055756",
            "address": "North Tamarind Avenue, Compton, Los Angeles County, California, 90222, United States of America",
            "locType": "residential"
        },
        "santa monica beach": {
            "longitude": "-119.2203179",
            "blogLinks": [
                "http://traveltips.usatoday.com/beaches-close-bakersfield-california-110095.html"
            ],
            "closest_to": "santa monica",
            "latitude": "34.159111",
            "address": "Santa Monica Drive, Channel Islands Beach, Ventura County, California, 93035, United States of America",
            "locType": "residential"
        },
        "kern river": {
            "longitude": "-118.4124188",
            "blogLinks": [
                "https://www.yelp.com/biz/bakersfield-city-bakersfield"
            ],
            "closest_to": "bakersfield",
            "latitude": "36.6816956",
            "address": "Kern River, Tulare County, California, United States of America",
            "locType": "river"
        },
        "exposition boulevard": {
            "longitude": "-118.2828118",
            "blogLinks": [
                "http://wikitravel.org/en/Los_Angeles"
            ],
            "closest_to": "santa monica",
            "latitude": "34.0181607",
            "address": "Exposition Boulevard, Jefferson, LA, Los Angeles County, California, 90089-0374, United States of America",
            "locType": "secondary"
        },
        "los angeles pueblo": {
            "longitude": "-118.2439408",
            "blogLinks": [
                "http://wikitravel.org/en/Los_Angeles"
            ],
            "closest_to": "santa monica",
            "latitude": "34.0543942",
            "address": "LA, Los Angeles County, California, United States of America",
            "locType": "city"
        },
        "santa barbara county": {
            "longitude": "-119.9858231",
            "blogLinks": [
                "https://www.yelp.com/biz/city-of-solvang-solvang"
            ],
            "closest_to": "santa monica",
            "latitude": "34.7136533",
            "address": "Santa Barbara County, California, United States of America",
            "locType": "administrative"
        },
        "orange county": {
            "longitude": "-117.870493",
            "blogLinks": [
                "http://www.travbuddy.com/California-travel-guide-p85",
                "http://losangeles.cbslocal.com/guide/a-guide-to-socals-best-trick-or-treating-neighborhoods/",
                "http://wikitravel.org/en/Los_Angeles"
            ],
            "closest_to": "santa monica",
            "latitude": "33.7500378",
            "address": "Orange County, California, United States of America",
            "locType": "administrative"
        },
        "west coast": {
            "longitude": "-118.4051087",
            "blogLinks": [
                "https://www.virtualtourist.com/travel/North_America/United_States_of_America/California/Things_To_Do-California-TG-C-1.html"
            ],
            "closest_to": "santa monica",
            "latitude": "34.0222263",
            "address": "West Coast, Motor Avenue, Palms, LA, Los Angeles County, California, 90034-5702, United States of America",
            "locType": "plumber"
        },
        "bakersfield ca": {
            "longitude": "-119.0194638",
            "blogLinks": [
                "http://travel-to-bakersfield.blogspot.com/2011/11/about-best-beach-near-bakersfield-ca.html"
            ],
            "closest_to": "bakersfield",
            "latitude": "35.3738712",
            "address": "Bakersfield, Kern County, California, United States of America",
            "locType": "city"
        },
        "oxnard": {
            "longitude": "-119.1803817",
            "blogLinks": [
                "http://wikitravel.org/en/Los_Angeles"
            ],
            "closest_to": "santa monica",
            "latitude": "34.1976308",
            "address": "Oxnard, Ventura County, California, United States of America",
            "locType": "city"
        },
        "canada": {
            "longitude": "-117.7641381",
            "blogLinks": [
                "http://wikitravel.org/en/Los_Angeles"
            ],
            "closest_to": "santa monica",
            "latitude": "33.7298842",
            "address": "La Canada, Lower Peters Canyon, Irvine, Orange County, California, 92602, United States of America",
            "locType": "residential"
        },
        "la hoya": {
            "longitude": "-117.4332691",
            "blogLinks": [
                "http://www.heleninwonderlust.co.uk/2014/03/ultimate-california-road-trip-itinerary-las-vegas/"
            ],
            "closest_to": "santa monica",
            "latitude": "33.91386",
            "address": "Hoya Place, Riverside, Riverside County, California, 92503, United States of America",
            "locType": "residential"
        },
        "gardena": {
            "longitude": "-118.3070891",
            "blogLinks": [
                "http://wikitravel.org/en/Los_Angeles"
            ],
            "closest_to": "santa monica",
            "latitude": "33.8883302",
            "address": "Gardena, Los Angeles County, California, United States of America",
            "locType": "city"
        },
        "united states": {
            "longitude": "-118.7559973",
            "blogLinks": [
                "https://www.tripadvisor.com/ShowTopic-g28926-i29-k3555418-What_to_see_what_to_do_between_las_Vegas_and_Los_Angeles-California.html",
                "http://wikitravel.org/en/Los_Angeles"
            ],
            "closest_to": "bakersfield",
            "latitude": "36.7014631",
            "address": "California, United States of America",
            "locType": "administrative"
        },
        "sierra del oro": {
            "longitude": "-117.627095528354",
            "blogLinks": [
                "http://losangeles.cbslocal.com/guide/a-guide-to-socals-best-trick-or-treating-neighborhoods/"
            ],
            "closest_to": "santa monica",
            "latitude": "33.8738996",
            "address": "The Terraces at Sierra Del Oro, Corona, Riverside County, California, 92882, United States of America",
            "locType": "residential"
        },
        "bel-air": {
            "longitude": "-118.4479801",
            "blogLinks": [
                "http://wikitravel.org/en/Los_Angeles"
            ],
            "closest_to": "santa monica",
            "latitude": "34.0827278",
            "address": "Bel Air, Westwood, LA, Los Angeles County, California, 90095, United States of America",
            "locType": "neighbourhood"
        },
        "big bear lake": {
            "longitude": "-116.932209587315",
            "blogLinks": [
                "http://www.travbuddy.com/California-travel-guide-p85"
            ],
            "closest_to": "santa monica",
            "latitude": "34.253293",
            "address": "Big Bear Lake, Lagunita Lane, Big Bear Lake, San Bernardino County, California, 92315, United States of America",
            "locType": "water"
        },
        "carlsbad": {
            "longitude": "-117.3505938",
            "blogLinks": [
                "http://www.travbuddy.com/California-travel-guide-p85",
                "https://www.yelp.com/biz/city-of-solvang-solvang"
            ],
            "closest_to": "santa monica",
            "latitude": "33.1580933",
            "address": "Carlsbad, San Diego County, California, United States of America",
            "locType": "city"
        },
        "exposition park": {
            "longitude": "-118.287178776841",
            "blogLinks": [
                "http://wikitravel.org/en/Los_Angeles"
            ],
            "closest_to": "santa monica",
            "latitude": "34.01496305",
            "address": "Exposition Park, Exposition Park Drive, Jefferson, LA, Los Angeles County, California, 90037, United States of America",
            "locType": "park"
        },
        "dodger stadium": {
            "longitude": "-118.238969292435",
            "blogLinks": [
                "http://wikitravel.org/en/Los_Angeles"
            ],
            "closest_to": "santa monica",
            "latitude": "34.0736255",
            "address": "Dodger Stadium, 1000, Vin Scully Avenue, New Chinatown, Angelino Heights, LA, Los Angeles County, California, 90012, United States of America",
            "locType": "stadium"
        },
        "santa maria": {
            "longitude": "-120.4358576",
            "blogLinks": [
                "http://traveltips.usatoday.com/beaches-close-bakersfield-california-110095.html"
            ],
            "closest_to": "bakersfield",
            "latitude": "34.9531295",
            "address": "Santa Maria, Santa Barbara County, California, United States of America",
            "locType": "city"
        },
        "city of los angeles": {
            "longitude": "-118.2439408",
            "blogLinks": [
                "http://wikitravel.org/en/Los_Angeles"
            ],
            "closest_to": "santa monica",
            "latitude": "34.0543942",
            "address": "LA, Los Angeles County, California, United States of America",
            "locType": "city"
        },
        "new stine": {
            "longitude": "-119.0592842",
            "blogLinks": [
                "http://wikitravel.org/en/Los_Angeles"
            ],
            "closest_to": "santa monica",
            "latitude": "35.3349675",
            "address": "New Stine Road, Bakersfield, Kern County, California, 93309, United States of America",
            "locType": "secondary"
        },
        "beverly hills": {
            "longitude": "-118.4003562",
            "blogLinks": [
                "http://www.travbuddy.com/California-travel-guide-p85",
                "http://www.heleninwonderlust.co.uk/2014/03/ultimate-california-road-trip-itinerary-las-vegas/",
                "http://losangeles.cbslocal.com/guide/a-guide-to-socals-best-trick-or-treating-neighborhoods/",
                "http://wikitravel.org/en/Los_Angeles"
            ],
            "closest_to": "santa monica",
            "latitude": "34.0736204",
            "address": "Beverly Hills, Los Angeles County, California, United States of America",
            "locType": "city"
        },
        "los angeles county museum of art": {
            "longitude": "-118.357997654056",
            "blogLinks": [
                "http://wikitravel.org/en/Los_Angeles"
            ],
            "closest_to": "santa monica",
            "latitude": "34.0634357",
            "address": "Los Angeles County Museum of Art, Wilshire Boulevard, Park La Brea, The Village Green, LA, Los Angeles County, California, 90036, United States of America",
            "locType": "museum"
        },
        "venice": {
            "longitude": "-118.4668874",
            "blogLinks": [
                "http://www.heleninwonderlust.co.uk/2014/03/ultimate-california-road-trip-itinerary-las-vegas/"
            ],
            "closest_to": "santa monica",
            "latitude": "33.995044",
            "address": "Venice, LA, Los Angeles County, California, United States of America",
            "locType": "suburb"
        },
        "camarillo": {
            "longitude": "-119.0376023",
            "blogLinks": [
                "http://www.dodlodging.net/search.aspx?ByCity=true&s=bakersfield,%20ca&AirForceInns=true&ArmyLodging=true&NavyGetaways=true&NGIS=true"
            ],
            "closest_to": "santa monica",
            "latitude": "34.2163939",
            "address": "Camarillo, Ventura County, California, United States of America",
            "locType": "city"
        },
        "miracle mile": {
            "longitude": "-117.3513806",
            "blogLinks": [
                "http://wikitravel.org/en/Los_Angeles"
            ],
            "closest_to": "santa monica",
            "latitude": "33.9185709",
            "address": "Miracle Mile, Hawarden Meadows, Riverside, Riverside County, California, 92506, United States of America",
            "locType": "residential"
        },
        "los alamos": {
            "longitude": "-120.26591036241",
            "blogLinks": [
                "https://www.yelp.com/biz/city-of-solvang-solvang"
            ],
            "closest_to": "bakersfield",
            "latitude": "34.7379311",
            "address": "Los Alamos, Bell Street, Los Alamos, Santa Barbara County, California, 93455, United States of America",
            "locType": "administrative"
        },
        "playboy mansion": {
            "longitude": "-118.429529173368",
            "blogLinks": [
                "http://www.heleninwonderlust.co.uk/2014/03/ultimate-california-road-trip-itinerary-las-vegas/"
            ],
            "closest_to": "santa monica",
            "latitude": "34.07646035",
            "address": "The Playboy Mansion, Charing Cross Road, Bel Air, Westwood, LA, Los Angeles County, California, 90024, United States of America",
            "locType": "attraction"
        },
        "newport beach": {
            "longitude": "-117.92944",
            "blogLinks": [
                "http://www.travbuddy.com/California-travel-guide-p85",
                "http://losangeles.cbslocal.com/guide/a-guide-to-socals-best-trick-or-treating-neighborhoods/",
                "http://wikitravel.org/en/Los_Angeles"
            ],
            "closest_to": "santa monica",
            "latitude": "33.6170092",
            "address": "Newport Beach, Orange County, California, United States of America",
            "locType": "city"
        },
        "kern county soccer park": {
            "longitude": "-118.898350649274",
            "blogLinks": [
                "https://www.yelp.com/biz/bakersfield-city-bakersfield"
            ],
            "closest_to": "bakersfield",
            "latitude": "35.43713855",
            "address": "Kern County Soccer Park, Alfred Harrell Highway, Bakersfield, Kern County, California, United States of America",
            "locType": "park"
        },