{
    "bakersfield": {
        "boundingbox": [
            "35.193979",
            "35.447975",
            "-119.2650329",
            "-118.7723409"
        ],
        "lon": "-119.0194638",
        "class": "place",
        "licence": "Data \u00a9 OpenStreetMap contributors, ODbL 1.0. http://www.openstreetmap.org/copyright",
        "importance": 0.74358237824296,
        "icon": "https://nominatim.openstreetmap.org/images/mapicons/poi_place_city.p.20.png",
        "lat": "35.3738712",
        "osm_id": "113006",
        "type": "city",
        "osm_type": "relation",
        "place_id": "158454478",
        "display_name": "Bakersfield, Kern County, California, United States of America"
    },
    "monterey": {
        "boundingbox": [
            "36.583508",
            "36.585509",
            "-121.8673379",
            "-121.8661949"
        ],
        "lon": "-121.866792846206",
        "class": "place",
        "licence": "Data \u00a9 OpenStreetMap contributors, ODbL 1.0. http://www.openstreetmap.org/copyright",
        "importance": 0.71088018078768,
        "icon": "https://nominatim.openstreetmap.org/images/mapicons/poi_place_city.p.20.png",
        "lat": "36.5844165",
        "osm_id": "33117009",
        "type": "city",
        "osm_type": "way",
        "place_id": "72265425",
        "display_name": "Monterey, Monterey County, California, United States of America"
    },
    "mentions": {
        "del rey oaks": {
            "longitude": "-121.8349514",
            "blogLinks": [
                "https://www.seemonterey.com/"
            ],
            "closest_to": "monterey",
            "latitude": "36.5932934",
            "address": "Del Rey Oaks, Monterey County, California, United States of America",
            "locType": "city"
        },
        "embarcadero": {
            "longitude": "-122.396892",
            "blogLinks": [
                "http://www.heleninwonderlust.co.uk/2014/03/ultimate-california-road-trip-itinerary-las-vegas/"
            ],
            "closest_to": "monterey",
            "latitude": "37.7928455",
            "address": "Embarcadero, Market Street, Financial District, SF, California, 94111, United States of America",
            "locType": "station"
        },
        "moonstone beach drive": {
            "longitude": "-121.1189249",
            "blogLinks": [
                "https://www.tripadvisor.co.uk/ShowTopic-g32737-i159-k1903587-Driving_from_Monterey_to_Santa_Barbara-Monterey_Monterey_Peninsula_California.html"
            ],
            "closest_to": "monterey",
            "latitude": "35.581633",
            "address": "Moonstone Beach Drive, Cambria, San Luis Obispo County, California, 93428, United States of America",
            "locType": "tertiary"
        },
        "mount san gorgonio ca": {
            "longitude": "-116.8766731",
            "blogLinks": [
                "http://www.california-blog.com/"
            ],
            "closest_to": "bakersfield",
            "latitude": "33.9121294",
            "address": "San Gorgonio Avenue, Banning, Riverside County, California, 92220, United States of America",
            "locType": "secondary"
        },
        "burbank": {
            "longitude": "-118.3258553",
            "blogLinks": [
                "http://www.roadsideamerica.com/location/ca",
                "http://www.heleninwonderlust.co.uk/2014/03/ultimate-california-road-trip-itinerary-las-vegas/"
            ],
            "closest_to": "bakersfield",
            "latitude": "34.1816482",
            "address": "Burbank, Los Angeles County, California, United States of America",
            "locType": "city"
        },
        "richmond": {
            "longitude": "-122.3477485",
            "blogLinks": [
                "http://www.roadsideamerica.com/location/ca"
            ],
            "closest_to": "monterey",
            "latitude": "37.9357576",
            "address": "Richmond, Contra Costa County, California, United States of America",
            "locType": "city"
        },
        "shaver lake": {
            "longitude": "-119.320258225573",
            "blogLinks": [
                "https://www.tripadvisor.com/ShowTopic-g28926-i29-k5349841-Bakersfield_to_San_Fransico_drive-California.html"
            ],
            "closest_to": "monterey",
            "latitude": "37.09684",
            "address": "Shaver Lake, Huntington Lake Road, Rock Haven, Fresno County, California, 93664, United States of America",
            "locType": "administrative"
        },
        "springville": {
            "longitude": "-118.839739899248",
            "blogLinks": [
                "https://www.tripadvisor.com/ShowTopic-g28926-i29-k5349841-Bakersfield_to_San_Fransico_drive-California.html"
            ],
            "closest_to": "monterey",
            "latitude": "36.123081",
            "address": "Springville, Wilson Drive, Springville, Tulare County, California, United States of America",
            "locType": "administrative"
        },
        "la": {
            "longitude": "-118.7559973",
            "blogLinks": [
                "http://www.heleninwonderlust.co.uk/2014/03/ultimate-california-road-trip-itinerary-las-vegas/",
                "http://traveltips.usatoday.com/fun-things-los-angeles-san-francisco-14664.html",
                "https://www.tripadvisor.ca/ShowTopic-g28926-i29-k5984144-Best_place_to_overnight_between_San_Francisco_and_Los_Angele-California.html",
                "https://www.tripadvisor.com/Travel-g28926-c200326/California:United-States:Road.Trip.San.Francisco.To.Las.Vegas.html"
            ],
            "closest_to": "monterey",
            "latitude": "36.7014631",
            "address": "California, United States of America",
            "locType": "administrative"
        },
        "san rafael": {
            "longitude": "-122.5310873",
            "blogLinks": [
                "http://www.roadsideamerica.com/location/ca"
            ],
            "closest_to": "monterey",
            "latitude": "37.9735346",
            "address": "San Rafael, Marin County, California, United States of America",
            "locType": "city"
        },
        "buena park": {
            "longitude": "-117.9962164",
            "blogLinks": [
                "http://www.roadsideamerica.com/location/ca"
            ],
            "closest_to": "bakersfield",
            "latitude": "33.870413",
            "address": "Buena Park, Orange County, California, United States of America",
            "locType": "city"
        },
        "monterey presidio": {
            "longitude": "-121.823572839106",
            "blogLinks": [
                "https://en.wikipedia.org/wiki/List_of_National_Historic_Landmarks_in_California"
            ],
            "closest_to": "monterey",
            "latitude": "36.63696865",
            "address": "Presidio of Monterey, Seaside, Monterey County, California, 93955, United States of America",
            "locType": "military"
        },
        "pacific ocean": {
            "longitude": "-121.678715787326",
            "blogLinks": [
                "http://www.heleninwonderlust.co.uk/2014/03/ultimate-california-road-trip-itinerary-las-vegas/",
                "http://www.hopper.com/articles/291/five-great-stops-between-los-angeles-and-san-francisco-on-the-pacific-coast-highway"
            ],
            "closest_to": "monterey",
            "latitude": "36.16305775",
            "address": "Pacific Ocean, Cabrillo Highway, Monterey County, California, 93920, United States of America",
            "locType": "cliff"
        },
        "san pedro": {
            "longitude": "-118.2922933",
            "blogLinks": [
                "http://www.roadsideamerica.com/location/ca"
            ],
            "closest_to": "bakersfield",
            "latitude": "33.7358518",
            "address": "San Pedro, LA, Los Angeles County, California, United States of America",
            "locType": "suburb"
        },
        "pebble beach golf course": {
            "longitude": "-121.937790801787",
            "blogLinks": [
                "http://traveltips.usatoday.com/fun-things-los-angeles-san-francisco-14664.html"
            ],
            "closest_to": "monterey",
            "latitude": "36.56413635",
            "address": "Pebble Beach Golf Course, Live Oak Meadow Road, Del Monte Forest, Monterey County, California, 93953, United States of America",
            "locType": "golf_course"
        },
        "norco": {
            "longitude": "-117.55089",
            "blogLinks": [
                "http://www.roadsideamerica.com/location/ca"
            ],
            "closest_to": "bakersfield",
            "latitude": "33.9323307",
            "address": "Norco, Riverside County, California, 92860, United States of America",
            "locType": "city"
        },
        "yosemite valley": {
            "longitude": "-119.6064673",
            "blogLinks": [
                "https://answers.yahoo.com/question/index?qid=20100720110201AARismL",
                "https://www.tripadvisor.com/Travel-g28926-c200326/California:United-States:Road.Trip.San.Francisco.To.Las.Vegas.html"
            ],
            "closest_to": "monterey",
            "latitude": "37.734435",
            "address": "Yosemite Valley, Mariposa County, California, United States of America",
            "locType": "town"
        },
        "madonna inn": {
            "longitude": "-120.674725246222",
            "blogLinks": [
                "http://www.heleninwonderlust.co.uk/2014/03/ultimate-california-road-trip-itinerary-las-vegas/",
                "http://traveltips.usatoday.com/fun-things-los-angeles-san-francisco-14664.html"
            ],
            "closest_to": "monterey",
            "latitude": "35.2673282",
            "address": "Madonna Inn, 100, Madonna Road, San Luis Obispo, San Luis Obispo County, California, 93405, United States of America",
            "locType": "hotel"
        },
        "tioga pass": {
            "longitude": "-119.2578542",
            "blogLinks": [
                "https://www.tripadvisor.com/Travel-g28926-c200326/California:United-States:Road.Trip.San.Francisco.To.Las.Vegas.html"
            ],
            "closest_to": "monterey",
            "latitude": "37.9109049",
            "address": "Tioga Pass, Tuolumne County, California, United States of America",
            "locType": "yes"
        },
        "buellton": {
            "longitude": "-120.1936691",
            "blogLinks": [
                "http://www.roadsideamerica.com/location/ca",
                "http://traveltips.usatoday.com/fun-things-los-angeles-san-francisco-14664.html"
            ],
            "closest_to": "monterey",
            "latitude": "34.6134727",
            "address": "Buellton, Santa Barbara County, California, United States of America",
            "locType": "city"
        },
        "hawthorne st.": {
            "longitude": "-121.4581839",
            "blogLinks": [
                "http://moon.com/2015/04/best-places-to-stay-on-a-california-coast-road-trip/"
            ],
            "closest_to": "monterey",
            "latitude": "38.607856",
            "address": "Hawthorne Street, Sacramento, Sacramento County, California, 95815, United States of America",
            "locType": "residential"
        },
        "sebastopol": {
            "longitude": "-122.8238805",
            "blogLinks": [
                "http://www.roadsideamerica.com/location/ca"
            ],
            "closest_to": "monterey",
            "latitude": "38.4021359",
            "address": "Sebastopol, Sonoma County, California, United States of America",
            "locType": "city"
        },
        "arroyo seco": {
            "longitude": "-118.176531",
            "blogLinks": [
                "https://www.tripadvisor.co.uk/ShowTopic-g32737-i159-k1903587-Driving_from_Monterey_to_Santa_Barbara-Monterey_Monterey_Peninsula_California.html"
            ],
            "closest_to": "bakersfield",
            "latitude": "34.1129526",
            "address": "Arroyo Seco, LA, Los Angeles County, California, United States of America",
            "locType": "drain"
        },
        "sequoia national park": {
            "longitude": "-118.559919284386",
            "blogLinks": [
                "http://www.roadsideamerica.com/location/ca"
            ],
            "closest_to": "bakersfield",
            "latitude": "36.49584065",
            "address": "Sequoia National Park, Black Rock Pass Trail, Mineral King, Tulare County, California, United States of America",
            "locType": "national_park"
        },
        "glendora": {
            "longitude": "-117.8653389",
            "blogLinks": [
                "http://www.roadsideamerica.com/location/ca"
            ],
            "closest_to": "bakersfield",
            "latitude": "34.1361187",
            "address": "Glendora, Los Angeles County, California, United States of America",
            "locType": "city"
        },
        "clovis": {
            "longitude": "-119.7029193",
            "blogLinks": [
                "https://www.tripadvisor.com/Travel-g28926-c200326/California:United-States:Road.Trip.San.Francisco.To.Las.Vegas.html"
            ],
            "closest_to": "monterey",
            "latitude": "36.8252277",
            "address": "Clovis, Fresno County, California, United States of America",
            "locType": "city"
        },
        "japan": {
            "longitude": "-118.3494693",
            "blogLinks": [
                "https://en.wikipedia.org/wiki/List_of_National_Historic_Landmarks_in_California"
            ],
            "closest_to": "bakersfield",
            "latitude": "34.0833889",
            "address": "Japan LA, Melrose Avenue, Park La Brea, Hollywood, LA, Los Angeles County, California, 90069, United States of America",
            "locType": "clothes"
        },
        "pfeiffer beach": {
            "longitude": "-121.81778571416",
            "blogLinks": [
                "https://www.tripadvisor.ca/ShowTopic-g28926-i29-k5984144-Best_place_to_overnight_between_San_Francisco_and_Los_Angele-California.html"
            ],
            "closest_to": "monterey",
            "latitude": "36.23934855",
            "address": "Pfeiffer Beach, Sycamore Canyon Road, Big Sur, Monterey County, California, 93920, United States of America",
            "locType": "beach"
        },
        "hearst castle": {
            "longitude": "-121.167587299509",
            "blogLinks": [
                "http://traveltips.usatoday.com/fun-things-los-angeles-san-francisco-14664.html"
            ],
            "closest_to": "monterey",
            "latitude": "35.6853689",
            "address": "Hearst Castle, 750, Hearst Castle Road, San Simeon, San Luis Obispo County, California, 93452, United States of America",
            "locType": "museum"
        },
        "monterey county": {
            "longitude": "-121.3877427",
            "blogLinks": [
                "https://www.seemonterey.com/"
            ],
            "closest_to": "monterey",
            "latitude": "36.2231079",
            "address": "Monterey County, California, United States of America",
            "locType": "administrative"
        },
        "ventura": {
            "longitude": "-119.0779358",
            "blogLinks": [
                "http://traveltips.usatoday.com/fun-things-los-angeles-san-francisco-14664.html"
            ],
            "closest_to": "bakersfield",
            "latitude": "34.4458248",
            "address": "Ventura County, California, United States of America",
            "locType": "administrative"
        },
        "oregon": {
            "longitude": "-117.7911567",
            "blogLinks": [
                "https://en.wikipedia.org/wiki/List_of_National_Historic_Landmarks_in_California"
            ],
            "closest_to": "bakersfield",
            "latitude": "33.7123207",
            "address": "Oregon, Walnut, Irvine, Orange County, California, 92606, United States of America",
            "locType": "residential"
        },
        "nepenthe": {
            "longitude": "-121.7596564",
            "blogLinks": [
                "https://www.tripadvisor.co.uk/ShowTopic-g32737-i159-k1903587-Driving_from_Monterey_to_Santa_Barbara-Monterey_Monterey_Peninsula_California.html",
                "http://www.heleninwonderlust.co.uk/2014/03/ultimate-california-road-trip-itinerary-las-vegas/"
            ],
            "closest_to": "monterey",
            "latitude": "36.2218116",
            "address": "Nepenthe, 48510, Cabrillo Highway, Posts, Monterey County, California, 93920-9549, United States of America",
            "locType": "restaurant"
        },
        "almaden quicksilver county park": {
            "longitude": "-121.846334668715",
            "blogLinks": [
                "https://en.wikipedia.org/wiki/List_of_National_Historic_Landmarks_in_California"
            ],
            "closest_to": "monterey",
            "latitude": "37.1850743",
            "address": "Almaden Quicksilver County Park, Santa Isabel Trail, Almaden, New Almaden, Santa Clara County, California, 95120, United States of America",
            "locType": "park"
        },
        "new york": {
            "longitude": "-117.8984509",
            "blogLinks": [
                "http://www.heleninwonderlust.co.uk/2014/03/ultimate-california-road-trip-itinerary-las-vegas/"
            ],
            "closest_to": "bakersfield",
            "latitude": "34.0143928",
            "address": "New York, West Covina, Los Angeles County, California, 91792, United States of America",
            "locType": "service"
        },
        "yosemite": {
            "longitude": "-119.5893389",
            "blogLinks": [
                "https://www.tripadvisor.com/ShowTopic-g28926-i29-k5349841-Bakersfield_to_San_Fransico_drive-California.html",
                "http://www.heleninwonderlust.co.uk/2014/03/ultimate-california-road-trip-itinerary-las-vegas/",
                "https://www.tripadvisor.com/Travel-g28926-c200326/California:United-States:Road.Trip.San.Francisco.To.Las.Vegas.html"
            ],
            "closest_to": "monterey",
            "latitude": "37.7488554",
            "address": "Yosemite, Village Drive, Yosemite Village, Yosemite Valley, Mariposa County, California, United States of America",
            "locType": "attraction"
        },
        "san fran": {
            "longitude": "-118.4903642",
            "blogLinks": [
                "https://www.tripadvisor.ca/ShowTopic-g28926-i29-k5984144-Best_place_to_overnight_between_San_Francisco_and_Los_Angele-California.html"
            ],
            "closest_to": "bakersfield",
            "latitude": "35.142465",
            "address": "Golden Hills, Kern County, California, United States of America",
            "locType": "village"
        },
        "napa valley ca": {
            "longitude": "-122.3002947",
            "blogLinks": [
                "http://www.california-blog.com/"
            ],
            "closest_to": "monterey",
            "latitude": "38.2972603",
            "address": "California Boulevard, Napa, Napa County, California, 94558, United States of America",
            "locType": "secondary"
        },
        "paso robles": {
            "longitude": "-120.6912455",
            "blogLinks": [
                "https://www.tripadvisor.com/ShowTopic-g28926-i29-k5349841-Bakersfield_to_San_Fransico_drive-California.html"
            ],
            "closest_to": "monterey",
            "latitude": "35.6267654",
            "address": "Paso Robles, San Luis Obispo County, California, United States of America",
            "locType": "city"
        },
        "bixby creek bridge": {
            "longitude": "-121.9017572",
            "blogLinks": [
                "http://www.heleninwonderlust.co.uk/2014/03/ultimate-california-road-trip-itinerary-las-vegas/"
            ],
            "closest_to": "monterey",
            "latitude": "36.3710197",
            "address": "Bixby Creek Bridge, Notleys Landing, Monterey County, California, 93923, United States of America",
            "locType": "primary"
        },
        "tuolumne meadows": {
            "longitude": "-119.3575555",
            "blogLinks": [
                "https://www.tripadvisor.com/Travel-g28926-c200326/California:United-States:Road.Trip.San.Francisco.To.Las.Vegas.html"
            ],
            "closest_to": "monterey",
            "latitude": "37.8741952",
            "address": "Tuolumne Meadows, Tuolumne County, California, United States of America",
            "locType": "suburb"
        },
        "tioga road": {
            "longitude": "-122.0821668",
            "blogLinks": [
                "https://www.tripadvisor.com/Travel-g28926-c200326/California:United-States:Road.Trip.San.Francisco.To.Las.Vegas.html"
            ],
            "closest_to": "monterey",
            "latitude": "37.6577485",
            "address": "Tioga Road, Hayward, Alameda County, California, 94544, United States of America",
            "locType": "residential"
        },
        "glendale": {
            "longitude": "-118.248367",
            "blogLinks": [
                "http://www.roadsideamerica.com/location/ca"
            ],
            "closest_to": "bakersfield",
            "latitude": "34.1423455",
            "address": "Glendale, Los Angeles County, California, United States of America",
            "locType": "city"
        },
        "venice beach": {
            "longitude": "-118.4739815",
            "blogLinks": [
                "http://www.heleninwonderlust.co.uk/2014/03/ultimate-california-road-trip-itinerary-las-vegas/"
            ],
            "closest_to": "bakersfield",
            "latitude": "33.9862012",
            "address": "Venice Beach, Venice Beach Bike Path, Venice, LA, Los Angeles County, California, 90405, United States of America",
            "locType": "police"
        },
        "hollywood boulevard": {
            "longitude": "-118.32684",
            "blogLinks": [
                "http://www.heleninwonderlust.co.uk/2014/03/ultimate-california-road-trip-itinerary-las-vegas/"
            ],
            "closest_to": "bakersfield",
            "latitude": "34.1016312",
            "address": "Hollywood Boulevard, Hollywood, LA, Los Angeles County, California, 90028, United States of America",
            "locType": "secondary"
        },
        "yermo": {
            "longitude": "-116.8203126",
            "blogLinks": [
                "http://www.roadsideamerica.com/location/ca"
            ],
            "closest_to": "bakersfield",
            "latitude": "34.9049849",
            "address": "Yermo, San Bernardino County, California, United States of America",
            "locType": "hamlet"
        },
        "dublin": {
            "longitude": "-121.9357917",
            "blogLinks": [
                "http://www.heleninwonderlust.co.uk/2014/03/ultimate-california-road-trip-itinerary-las-vegas/"
            ],
            "closest_to": "monterey",
            "latitude": "37.7021521",
            "address": "Dublin, Alameda County, California, United States of America",
            "locType": "city"
        },
        "jamestown": {
            "longitude": "-120.404431068133",
            "blogLinks": [
                "https://www.tripadvisor.com/ShowTopic-g28926-i29-k5349841-Bakersfield_to_San_Fransico_drive-California.html"
            ],
            "closest_to": "monterey",
            "latitude": "37.9588565",
            "address": "Jamestown, Golden Oaks Drive, Volponi Acres, Tuolumne County, California, 95327, United States of America",
            "locType": "administrative"
        },
        "santa cruz": {
            "longitude": "-122.0260569",
            "blogLinks": [
                "http://moon.com/2015/04/best-places-to-stay-on-a-california-coast-road-trip/",
                "https://www.tripadvisor.com/ShowTopic-g28926-i29-k5349841-Bakersfield_to_San_Fransico_drive-California.html",
                "http://www.heleninwonderlust.co.uk/2014/03/ultimate-california-road-trip-itinerary-las-vegas/",
                "http://www.roadsideamerica.com/location/ca",
                "http://traveltips.usatoday.com/fun-things-los-angeles-san-francisco-14664.html",
                "https://www.tripadvisor.ca/ShowTopic-g28926-i29-k5984144-Best_place_to_overnight_between_San_Francisco_and_Los_Angele-California.html"
            ],
            "closest_to": "monterey",
            "latitude": "36.9735903",
            "address": "Santa Cruz, Santa Cruz County, California, United States of America",
            "locType": "city"
        },
        "santa monica": {
            "longitude": "-118.4869738",
            "blogLinks": [
                "http://www.heleninwonderlust.co.uk/2014/03/ultimate-california-road-trip-itinerary-las-vegas/"
            ],
            "closest_to": "bakersfield",
            "latitude": "34.0195598",
            "address": "Santa Monica, Los Angeles County, California, United States of America",
            "locType": "city"
        },
        "kettleman city": {
            "longitude": "-119.962676860725",
            "blogLinks": [
                "http://www.roadsideamerica.com/location/ca"
            ],
            "closest_to": "monterey",
            "latitude": "36.008937",
            "address": "Kettleman City, 7th Street, Kettleman City, Kings County, California, 93239, United States of America",
            "locType": "administrative"
        },
        "morro st.": {
            "longitude": "-120.6593818",
            "blogLinks": [
                "http://moon.com/2015/04/best-places-to-stay-on-a-california-coast-road-trip/"
            ],
            "closest_to": "monterey",
            "latitude": "35.277999",
            "address": "Morro Street, San Luis Obispo, San Luis Obispo County, California, 93401, United States of America",
            "locType": "residential"
        },
        "fort irwin": {
            "longitude": "-116.6847523",
            "blogLinks": [
                "http://www.roadsideamerica.com/location/ca"
            ],
            "closest_to": "bakersfield",
            "latitude": "35.2627527",
            "address": "Fort Irwin, San Bernardino County, California, United States of America",
            "locType": "hamlet"
        },
        "pismo beach": {
            "longitude": "-120.6412826",
            "blogLinks": [
                "https://www.tripadvisor.com/ShowTopic-g28926-i29-k5349841-Bakersfield_to_San_Fransico_drive-California.html",
                "https://www.tripadvisor.co.uk/ShowTopic-g32737-i159-k1903587-Driving_from_Monterey_to_Santa_Barbara-Monterey_Monterey_Peninsula_California.html",
                "http://traveltips.usatoday.com/fun-things-los-angeles-san-francisco-14664.html",
                "http://www.heleninwonderlust.co.uk/2014/03/ultimate-california-road-trip-itinerary-las-vegas/",
                "http://www.hopper.com/articles/291/five-great-stops-between-los-angeles-and-san-francisco-on-the-pacific-coast-highway"
            ],
            "closest_to": "monterey",
            "latitude": "35.1427533",
            "address": "Pismo Beach, San Luis Obispo County, California, United States of America",
            "locType": "city"
        },
        "madonna rd.": {
            "longitude": "-120.6707001",
            "blogLinks": [
                "http://moon.com/2015/04/best-places-to-stay-on-a-california-coast-road-trip/"
            ],
            "closest_to": "monterey",
            "latitude": "35.2681037",
            "address": "Madonna Road, San Luis Obispo, San Luis Obispo County, California, 93405, United States of America",
            "locType": "primary"
        },
        "turlock": {
            "longitude": "-120.846594",
            "blogLinks": [
                "http://www.roadsideamerica.com/location/ca"
            ],
            "closest_to": "monterey",
            "latitude": "37.4946568",
            "address": "Turlock, Stanislaus County, California, United States of America",
            "locType": "city"
        },
        "redwood city": {
            "longitude": "-122.2363547",
            "blogLinks": [
                "http://www.roadsideamerica.com/location/ca"
            ],
            "closest_to": "monterey",
            "latitude": "37.4852152",
            "address": "Redwood City, San Mateo County, California, United States of America",
            "locType": "city"
        },
        "forestville": {
            "longitude": "-122.861584174866",
            "blogLinks": [
                "http://www.roadsideamerica.com/location/ca"
            ],
            "closest_to": "monterey",
            "latitude": "38.4833405",
            "address": "Forestville, Trenton Road, Trenton, Sonoma County, California, 95436, United States of America",
            "locType": "administrative"
        },
        "geyserville": {
            "longitude": "-122.9024963",
            "blogLinks": [
                "http://www.roadsideamerica.com/location/ca"
            ],
            "closest_to": "monterey",
            "latitude": "38.707687",
            "address": "Geyserville, Sonoma County, California, United States of America",
            "locType": "hamlet"
        },
        "bradley": {
            "longitude": "-120.803695455663",
            "blogLinks": [
                "https://www.tripadvisor.com/ShowTopic-g28926-i29-k5349841-Bakersfield_to_San_Fransico_drive-California.html"
            ],
            "closest_to": "monterey",
            "latitude": "35.862856",
            "address": "Bradley, Dixie Street, Bradley, Monterey County, California, United States of America",
            "locType": "administrative"
        },
        "coalinga": {
            "longitude": "-120.245046293019",
            "blogLinks": [
                "http://www.roadsideamerica.com/location/ca"
            ],
            "closest_to": "monterey",
            "latitude": "36.1298952",
            "address": "Coalinga, Fresno County, California, United States of America",
            "locType": "city"
        },
        "kern county": {
            "longitude": "-118.7538221",
            "blogLinks": [
                "http://www.visitbakersfield.com/visitors/"
            ],
            "closest_to": "bakersfield",
            "latitude": "35.3145701",
            "address": "Kern County, California, United States of America",
            "locType": "administrative"
        },
        "mariposa": {
            "longitude": "-119.9036591",
            "blogLinks": [
                "https://www.tripadvisor.com/ShowTopic-g28926-i29-k5349841-Bakersfield_to_San_Fransico_drive-California.html"
            ],
            "closest_to": "monterey",
            "latitude": "37.570148",
            "address": "Mariposa County, California, United States of America",
            "locType": "administrative"
        },
        "pacifica": {
            "longitude": "-122.4869193",
            "blogLinks": [
                "http://www.roadsideamerica.com/location/ca"
            ],
            "closest_to": "monterey",
            "latitude": "37.6138253",
            "address": "Pacifica, San Mateo County, California, United States of America",
            "locType": "city"
        },
        "ontario": {
            "longitude": "-117.6484303",
            "blogLinks": [
                "http://www.california-blog.com/"
            ],
            "closest_to": "bakersfield",
            "latitude": "34.065846",
            "address": "Ontario, San Bernardino County, California, United States of America",
            "locType": "city"
        },
        "sylmar": {
            "longitude": "-118.4492147",
            "blogLinks": [
                "http://www.roadsideamerica.com/location/ca"
            ],
            "closest_to": "bakersfield",
            "latitude": "34.3076252",
            "address": "Sylmar, LA, Los Angeles County, California, United States of America",
            "locType": "suburb"
        },
        "woodland hills": {
            "longitude": "-118.6059196",
            "blogLinks": [
                "http://www.roadsideamerica.com/location/ca"
            ],
            "closest_to": "bakersfield",
            "latitude": "34.1683386",
            "address": "Woodland Hills, LA, Los Angeles County, California, United States of America",
            "locType": "suburb"
        },
        "la hoya": {
            "longitude": "-117.4332691",
            "blogLinks": [
                "http://www.heleninwonderlust.co.uk/2014/03/ultimate-california-road-trip-itinerary-las-vegas/"
            ],
            "closest_to": "bakersfield",
            "latitude": "33.91386",
            "address": "Hoya Place, Riverside, Riverside County, California, 92503, United States of America",
            "locType": "residential"
        },
        "ireland": {
            "longitude": "-119.2896473",
            "blogLinks": [
                "http://www.heleninwonderlust.co.uk/2014/03/ultimate-california-road-trip-itinerary-las-vegas/"
            ],
            "closest_to": "monterey",
            "latitude": "37.7992191",
            "address": "Ireland Creek, Tuolumne County, California, United States of America",
            "locType": "stream"
        },
        "barstow": {
            "longitude": "-117.0172076",
            "blogLinks": [
                "http://www.roadsideamerica.com/location/ca"
            ],
            "closest_to": "bakersfield",
            "latitude": "34.8957684",
            "address": "Barstow, San Bernardino County, California, United States of America",
            "locType": "administrative"
        },
        "arizona": {
            "longitude": "-117.5060679",
            "blogLinks": [
                "https://en.wikipedia.org/wiki/List_of_National_Historic_Landmarks_in_California"
            ],
            "closest_to": "bakersfield",
            "latitude": "34.4631398",
            "address": "Arizona, San Bernardino County, California, 92371, United States of America",
            "locType": "track"
        },
        "us": {
            "longitude": "-118.7559973",
            "blogLinks": [
                "https://www.tripadvisor.com/ShowTopic-g28926-i29-k5349841-Bakersfield_to_San_Fransico_drive-California.html",
                "http://www.heleninwonderlust.co.uk/2014/03/ultimate-california-road-trip-itinerary-las-vegas/",
                "https://en.wikipedia.org/wiki/List_of_National_Historic_Landmarks_in_California"
            ],
            "closest_to": "monterey",
            "latitude": "36.7014631",
            "address": "California, United States of America",
            "locType": "administrative"
        },
        "huntington beach": {
            "longitude": "-118.0000165",
            "blogLinks": [
                "http://www.roadsideamerica.com/location/ca"
            ],
            "closest_to": "bakersfield",
            "latitude": "33.6783336",
            "address": "Huntington Beach, Orange County, California, United States of America",
            "locType": "city"
        },
        "national park": {
            "longitude": "-119.5893389",
            "blogLinks": [
                "https://en.wikipedia.org/wiki/List_of_National_Historic_Landmarks_in_California"
            ],
            "closest_to": "monterey",
            "latitude": "37.7488554",
            "address": "Yosemite, Village Drive, Yosemite Village, Yosemite Valley, Mariposa County, California, United States of America",
            "locType": "attraction"
        },
        "moonstone beach dr.": {
            "longitude": "-121.1189249",
            "blogLinks": [
                "http://moon.com/2015/04/best-places-to-stay-on-a-california-coast-road-trip/"
            ],
            "closest_to": "monterey",
            "latitude": "35.581633",
            "address": "Moonstone Beach Drive, Cambria, San Luis Obispo County, California, 93428, United States of America",
            "locType": "tertiary"
        },
        "philadelphia": {
            "longitude": "-117.4828685",
            "blogLinks": [
                "http://www.heleninwonderlust.co.uk/2014/03/ultimate-california-road-trip-itinerary-las-vegas/"
            ],
            "closest_to": "bakersfield",
            "latitude": "33.8943097",
            "address": "Philadelphia Court, Riverside, Riverside County, California, 92503, United States of America",
            "locType": "residential"
        },
        "ojai valley": {
            "longitude": "-119.2428889",
            "blogLinks": [
                "http://www.california-blog.com/"
            ],
            "closest_to": "bakersfield",
            "latitude": "34.4480495",
            "address": "Ojai, Ventura County, California, United States of America",
            "locType": "city"
        },
        "santa barbara mission": {
            "longitude": "-119.6779962",
            "blogLinks": [
                "http://moon.com/2015/04/best-places-to-stay-on-a-california-coast-road-trip/",
                "http://traveltips.usatoday.com/fun-things-los-angeles-san-francisco-14664.html"
            ],
            "closest_to": "bakersfield",
            "latitude": "34.4662154",
            "address": "KDB-FM (Santa Barbara), Gibraltar Road, Santa Barbara County, California, 93103, United States of America",
            "locType": "tower"
        },
        "glacier point road": {
            "longitude": "-119.6363454",
            "blogLinks": [
                "https://www.tripadvisor.com/Travel-g28926-c200326/California:United-States:Road.Trip.San.Francisco.To.Las.Vegas.html"
            ],
            "closest_to": "monterey",
            "latitude": "37.6734831",
            "address": "Glacier Point Road, Mariposa County, California, United States of America",
            "locType": "tertiary"
        },
        "north lake ca": {
            "longitude": "-122.501983281136",
            "blogLinks": [
                "http://www.california-blog.com/"
            ],
            "closest_to": "monterey",
            "latitude": "37.76958295",
            "address": "North Lake, Chain of Lakes Drive East, Sunset District, SF, California, 94122, United States of America",
            "locType": "water"
        },
        "arkansas": {
            "longitude": "-122.2896721",
            "blogLinks": [
                "https://en.wikipedia.org/wiki/List_of_National_Historic_Landmarks_in_California"
            ],
            "closest_to": "monterey",
            "latitude": "37.7867077",
            "address": "Arkansas, Woodstock, Alameda, Alameda County, California, 94501, United States of America",
            "locType": "residential"
        },
        "newport beach ca": {
            "longitude": "-117.92944",
            "blogLinks": [
                "http://www.california-blog.com/"
            ],
            "closest_to": "bakersfield",
            "latitude": "33.6170092",
            "address": "Newport Beach, Orange County, California, United States of America",
            "locType": "city"
        },
        "palm springs air museum ca": {
            "longitude": "-116.504677958796",
            "blogLinks": [
                "http://www.california-blog.com/"
            ],
            "closest_to": "bakersfield",
            "latitude": "33.83250375",
            "address": "Palm Springs Air Museum, 745, North Gene Autry Trail, Palm Springs, Riverside County, California, 92262, United States of America",
            "locType": "museum"
        },
        "ridgecrest": {
            "longitude": "-117.6699413",
            "blogLinks": [
                "https://www.tripadvisor.com/Travel-g28926-c200326/California:United-States:Road.Trip.San.Francisco.To.Las.Vegas.html"
            ],
            "closest_to": "bakersfield",
            "latitude": "35.6225064",
            "address": "Ridgecrest, Kern County, California, United States of America",
            "locType": "city"
        },
        "bay area": {
            "longitude": "-122.3558472",
            "blogLinks": [
                "https://en.wikipedia.org/wiki/List_of_National_Historic_Landmarks_in_California"
            ],
            "closest_to": "monterey",
            "latitude": "37.7884969",
            "address": "San Francisco Bay Area, SF, California, United States of America",
            "locType": "region"
        },
        "califia": {
            "longitude": "-119.8065791",
            "blogLinks": [
                "http://www.roadsideamerica.com/location/ca"
            ],
            "closest_to": "bakersfield",
            "latitude": "34.4290422",
            "address": "Califia Court, Santa Barbara County, California, 93111, United States of America",
            "locType": "residential"
        },
        "southern california": {
            "longitude": "-118.286343973446",
            "blogLinks": [
                "http://www.hopper.com/articles/291/five-great-stops-between-los-angeles-and-san-francisco-on-the-pacific-coast-highway"
            ],
            "closest_to": "bakersfield",
            "latitude": "34.0224149",
            "address": "University of Southern California, Watt Way, Saint James Park, LA, Los Angeles County, California, 90089, United States of America",
            "locType": "university"
        },
        "morro bay": {
            "longitude": "-120.8499012",
            "blogLinks": [
                "https://www.tripadvisor.co.uk/ShowTopic-g32737-i159-k1903587-Driving_from_Monterey_to_Santa_Barbara-Monterey_Monterey_Peninsula_California.html",
                "http://traveltips.usatoday.com/fun-things-los-angeles-san-francisco-14664.html"
            ],
            "closest_to": "monterey",
            "latitude": "35.3658075",
            "address": "Morro Bay, San Luis Obispo County, California, United States of America",
            "locType": "city"
        },
        "monrovia": {
            "longitude": "-118.0014516",
            "blogLinks": [
                "http://www.california-blog.com/"
            ],
            "closest_to": "bakersfield",
            "latitude": "34.1483499",
            "address": "Monrovia, Los Angeles County, California, United States of America",
            "locType": "city"
        },
        "oakhurst": {
            "longitude": "-119.657244022836",
            "blogLinks": [
                "https://www.tripadvisor.com/Travel-g28926-c200326/California:United-States:Road.Trip.San.Francisco.To.Las.Vegas.html"
            ],
            "closest_to": "monterey",
            "latitude": "37.333178",
            "address": "Oakhurst, Junction Drive, Oakhurst, Madera County, California, 93644, United States of America",
            "locType": "administrative"
        },
        "san francisco": {
            "longitude": "-122.4192362",
            "blogLinks": [
                "http://moon.com/2015/04/best-places-to-stay-on-a-california-coast-road-trip/",
                "https://answers.yahoo.com/question/index?qid=20100720110201AARismL",
                "https://www.tripadvisor.com/ShowTopic-g28926-i29-k5349841-Bakersfield_to_San_Fransico_drive-California.html",
                "http://www.heleninwonderlust.co.uk/2014/03/ultimate-california-road-trip-itinerary-las-vegas/",
                "https://www.seemonterey.com/things-to-do/attractions/",
                "https://www.tripadvisor.com/Travel-g28926-c200326/California:United-States:Road.Trip.San.Francisco.To.Las.Vegas.html",
                "http://www.roadsideamerica.com/location/ca",
                "http://traveltips.usatoday.com/fun-things-los-angeles-san-francisco-14664.html",
                "https://en.wikipedia.org/wiki/List_of_National_Historic_Landmarks_in_California",
                "http://www.hopper.com/articles/291/five-great-stops-between-los-angeles-and-san-francisco-on-the-pacific-coast-highway"
            ],
            "closest_to": "monterey",
            "latitude": "37.7792808",
            "address": "SF, California, United States of America",
            "locType": "city"
        },
        "mission soledad": {
            "longitude": "-121.3560421",
            "blogLinks": [
                "https://www.tripadvisor.com/ShowTopic-g28926-i29-k5349841-Bakersfield_to_San_Fransico_drive-California.html"
            ],
            "closest_to": "monterey",
            "latitude": "36.4046865",
            "address": "Mission Soledad, 36641, Fort Romie Road, Los Coche Adobe, Fort Romie, Monterey County, California, 93960, United States of America",
            "locType": "place_of_worship"
        },
        "sonora": {
            "longitude": "-120.382138",
            "blogLinks": [
                "https://www.tripadvisor.com/ShowTopic-g28926-i29-k5349841-Bakersfield_to_San_Fransico_drive-California.html"
            ],
            "closest_to": "monterey",
            "latitude": "37.9840911",
            "address": "Sonora, Tuolumne County, California, United States of America",
            "locType": "city"
        },
        "san francisco bay": {
            "longitude": "-122.2802469",
            "blogLinks": [
                "https://en.wikipedia.org/wiki/List_of_National_Historic_Landmarks_in_California"
            ],
            "closest_to": "monterey",
            "latitude": "37.708264",
            "address": "San Francisco Bay, Ferry Landing, Alameda, Alameda County, California, 94502, United States of America",
            "locType": "bay"
        },
        "moreno valley ca": {
            "longitude": "-117.2305943",
            "blogLinks": [
                "http://www.california-blog.com/"
            ],
            "closest_to": "bakersfield",
            "latitude": "33.937517",
            "address": "Moreno Valley, Riverside County, California, United States of America",
            "locType": "city"
        },
        "apple valley": {
            "longitude": "-117.1858758",
            "blogLinks": [
                "http://www.roadsideamerica.com/location/ca"
            ],
            "closest_to": "bakersfield",
            "latitude": "34.5008311",
            "address": "Apple Valley, San Bernardino County, California, United States of America",
            "locType": "administrative"
        },
        "santa clara": {
            "longitude": "-121.9551743",
            "blogLinks": [
                "http://www.roadsideamerica.com/location/ca"
            ],
            "closest_to": "monterey",
            "latitude": "37.3541132",
            "address": "Santa Clara, Santa Clara County, California, United States of America",
            "locType": "city"
        },
        "muscle beach": {
            "longitude": "-118.4725820875",
            "blogLinks": [
                "http://www.heleninwonderlust.co.uk/2014/03/ultimate-california-road-trip-itinerary-las-vegas/"
            ],
            "closest_to": "bakersfield",
            "latitude": "33.985446",
            "address": "Muscle Beach, Ocean Front Walk, Venice, LA, Los Angeles County, California, 90292, United States of America",
            "locType": "sports_centre"
        },
        "santa monica pier": {
            "longitude": "-118.4960541",
            "blogLinks": [
                "http://www.heleninwonderlust.co.uk/2014/03/ultimate-california-road-trip-itinerary-las-vegas/"
            ],
            "closest_to": "bakersfield",
            "latitude": "34.0104809",
            "address": "Santa Monica Pier, Santa Monica, Los Angeles County, California, CA 90401, United States of America",
            "locType": "service"
        },
        "santa barbara": {
            "longitude": "-119.7026672",
            "blogLinks": [
                "http://moon.com/2015/04/best-places-to-stay-on-a-california-coast-road-trip/",
                "http://www.heleninwonderlust.co.uk/2014/03/ultimate-california-road-trip-itinerary-las-vegas/",
                "https://www.tripadvisor.co.uk/ShowTopic-g32737-i159-k1903587-Driving_from_Monterey_to_Santa_Barbara-Monterey_Monterey_Peninsula_California.html",
                "http://traveltips.usatoday.com/fun-things-los-angeles-san-francisco-14664.html",
                "https://en.wikipedia.org/wiki/List_of_National_Historic_Landmarks_in_California",
                "http://www.hopper.com/articles/291/five-great-stops-between-los-angeles-and-san-francisco-on-the-pacific-coast-highway",
                "https://www.tripadvisor.ca/ShowTopic-g28926-i29-k5984144-Best_place_to_overnight_between_San_Francisco_and_Los_Angele-California.html"
            ],
            "closest_to": "bakersfield",
            "latitude": "34.4221319",
            "address": "Santa Barbara, Santa Barbara County, California, United States of America",
            "locType": "city"
        },
        "jolon": {
            "longitude": "-121.1760321",
            "blogLinks": [
                "https://www.tripadvisor.com/ShowTopic-g28926-i29-k5349841-Bakersfield_to_San_Fransico_drive-California.html"
            ],
            "closest_to": "monterey",
            "latitude": "35.9708004",
            "address": "Jolon, Monterey County, California, United States of America",
            "locType": "hamlet"
        },
        "hollywood hills": {
            "longitude": "-118.3355473",
            "blogLinks": [
                "http://www.heleninwonderlust.co.uk/2014/03/ultimate-california-road-trip-itinerary-las-vegas/"
            ],
            "closest_to": "bakersfield",
            "latitude": "34.1311792",
            "address": "Hollywood Hills, LA, Los Angeles County, California, United States of America",
            "locType": "suburb"
        },
        "sacramento": {
            "longitude": "-121.4943995",
            "blogLinks": [
                "https://en.wikipedia.org/wiki/List_of_National_Historic_Landmarks_in_California"
            ],
            "closest_to": "monterey",
            "latitude": "38.5815719",
            "address": "Sacramento, Sacramento County, California, United States of America",
            "locType": "city"
        },
        "indian island": {
            "longitude": "-122.644707",
            "blogLinks": [
                "https://en.wikipedia.org/wiki/List_of_National_Historic_Landmarks_in_California"
            ],
            "closest_to": "monterey",
            "latitude": "38.940176",
            "address": "Indian Island, Lake County, California, United States of America",
            "locType": "island"
        },
        "whittier": {
            "longitude": "-118.0336974",
            "blogLinks": [
                "http://www.roadsideamerica.com/location/ca"
            ],
            "closest_to": "bakersfield",
            "latitude": "33.9748932",
            "address": "Whittier, Los Angeles County, California, United States of America",
            "locType": "city"
        },
        "gilroy": {
            "longitude": "-121.5631722",
            "blogLinks": [
                "http://traveltips.usatoday.com/fun-things-los-angeles-san-francisco-14664.html"
            ],
            "closest_to": "monterey",
            "latitude": "37.0065078",
            "address": "Gilroy, Santa Clara County, California, United States of America",
            "locType": "city"
        },
        "californio": {
            "longitude": "-122.0116874",
            "blogLinks": [
                "https://en.wikipedia.org/wiki/List_of_National_Historic_Landmarks_in_California"
            ],
            "closest_to": "monterey",
            "latitude": "37.5744603",
            "address": "Californio, Centerville District, Fremont, Alameda County, California, 94587, United States of America",
            "locType": "path"
        },
        "yosemite national park": {
            "longitude": "-119.516587698025",
            "blogLinks": [
                "http://www.heleninwonderlust.co.uk/2014/03/ultimate-california-road-trip-itinerary-las-vegas/"
            ],
            "closest_to": "monterey",
            "latitude": "37.84054795",
            "address": "Yosemite National Park, Mt. Hoffmann Trail, Mariposa County, California, United States of America",
            "locType": "national_park"
        },
        "fresno": {
            "longitude": "-119.714839601149",
            "blogLinks": [
                "https://www.tripadvisor.com/ShowTopic-g28926-i29-k5349841-Bakersfield_to_San_Fransico_drive-California.html",
                "http://www.roadsideamerica.com/location/ca",
                "https://www.tripadvisor.com/Travel-g28926-c200326/California:United-States:Road.Trip.San.Francisco.To.Las.Vegas.html"
            ],
            "closest_to": "monterey",
            "latitude": "36.748793",
            "address": "Fresno, Fresno County, California, United States of America",
            "locType": "city"
        },
        "houston": {
            "longitude": "-118.4777157",
            "blogLinks": [
                "https://en.wikipedia.org/wiki/List_of_National_Historic_Landmarks_in_California"
            ],
            "closest_to": "bakersfield",
            "latitude": "34.4422871",
            "address": "Houston, Plum Canyon, Canyon Country, Los Angeles County, California, 91351, United States of America",
            "locType": "residential"
        },
        "carmel": {
            "longitude": "-121.353308848273",
            "blogLinks": [
                "http://moon.com/2015/04/best-places-to-stay-on-a-california-coast-road-trip/",
                "http://www.heleninwonderlust.co.uk/2014/03/ultimate-california-road-trip-itinerary-las-vegas/",
                "https://www.tripadvisor.ca/ShowTopic-g28926-i29-k5984144-Best_place_to_overnight_between_San_Francisco_and_Los_Angele-California.html",
                "http://www.hopper.com/articles/291/five-great-stops-between-los-angeles-and-san-francisco-on-the-pacific-coast-highway"
            ],
            "closest_to": "monterey",
            "latitude": "38.75511285",
            "address": "Carmel, Roseville, Placer County, California, 95747, United States of America",
            "locType": "residential"
        },
        "cotati": {
            "longitude": "-122.706844",
            "blogLinks": [
                "http://www.roadsideamerica.com/location/ca"
            ],
            "closest_to": "monterey",
            "latitude": "38.3266798",
            "address": "Cotati, Sonoma County, California, United States of America",
            "locType": "city"
        },
        "mount san jacinto ca": {
            "longitude": "-116.9586349",
            "blogLinks": [
                "http://www.california-blog.com/"
            ],
            "closest_to": "bakersfield",
            "latitude": "33.7839084",
            "address": "San Jacinto, Riverside County, California, United States of America",
            "locType": "city"
        },
        "riverside national cemetery": {
            "longitude": "-117.270726607134",
            "blogLinks": [
                "http://www.california-blog.com/"
            ],
            "closest_to": "bakersfield",
            "latitude": "33.87692125",
            "address": "Riverside National Cemetery, 22495, Alessandro, Riverside County, California, 92518, United States of America",
            "locType": "cemetery"
        },
        "baldwin park": {
            "longitude": "-117.961176",
            "blogLinks": [
                "http://www.roadsideamerica.com/location/ca"
            ],
            "closest_to": "bakersfield",
            "latitude": "34.0854739",
            "address": "Baldwin Park, Los Angeles County, California, United States of America",
            "locType": "city"
        },
        "angels camp": {
            "longitude": "-120.5396455",
            "blogLinks": [
                "https://www.tripadvisor.com/ShowTopic-g28926-i29-k5349841-Bakersfield_to_San_Fransico_drive-California.html"
            ],
            "closest_to": "monterey",
            "latitude": "38.0682555",
            "address": "Angels Camp, Calaveras County, California, United States of America",
            "locType": "village"
        },
        "santa clarita": {
            "longitude": "-118.5425859",
            "blogLinks": [
                "http://www.roadsideamerica.com/location/ca"
            ],
            "closest_to": "bakersfield",
            "latitude": "34.3916641",
            "address": "Santa Clarita, Los Angeles County, California, United States of America",
            "locType": "city"
        },
        "pearl harbor": {
            "longitude": "-122.2948823",
            "blogLinks": [
                "https://en.wikipedia.org/wiki/List_of_National_Historic_Landmarks_in_California"
            ],
            "closest_to": "monterey",
            "latitude": "37.788139",
            "address": "Pearl Harbor Road, Woodstock, Alameda, Alameda County, California, 94501, United States of America",
            "locType": "residential"
        },
        "san jose": {
            "longitude": "-121.8905832",
            "blogLinks": [
                "http://www.roadsideamerica.com/location/ca"
            ],
            "closest_to": "monterey",
            "latitude": "37.3361905",
            "address": "San Jos\u00e9, Santa Clara County, California, United States of America",
            "locType": "city"
        },
        "columbia": {
            "longitude": "-120.402418618899",
            "blogLinks": [
                "https://www.tripadvisor.com/ShowTopic-g28926-i29-k5349841-Bakersfield_to_San_Fransico_drive-California.html"
            ],
            "closest_to": "monterey",
            "latitude": "38.03227005",
            "address": "Columbia, Maiden Lane, Columbia, Tuolumne County, California, 95310, United States of America",
            "locType": "administrative"
        },
        "cambria cafe": {
            "longitude": "-121.0817237",
            "blogLinks": [
                "http://www.heleninwonderlust.co.uk/2014/03/ultimate-california-road-trip-itinerary-las-vegas/"
            ],
            "closest_to": "monterey",
            "latitude": "35.564123",
            "address": "Cambria Cafe, 2282, Main Street, Fiscalini Ranch Preserve, Cambria, San Luis Obispo County, California, 93428, United States of America",
            "locType": "cafe"
        },
        "monterey": {
            "longitude": "-121.866792846206",
            "blogLinks": [
                "https://www.tripadvisor.com/ShowTopic-g28926-i29-k5349841-Bakersfield_to_San_Fransico_drive-California.html",
                "http://www.heleninwonderlust.co.uk/2014/03/ultimate-california-road-trip-itinerary-las-vegas/",
                "https://www.seemonterey.com/things-to-do/attractions/",
                "https://www.seemonterey.com/",
                "https://www.tripadvisor.com/Travel-g28926-c200326/California:United-States:Road.Trip.San.Francisco.To.Las.Vegas.html",
                "https://www.tripadvisor.co.uk/ShowTopic-g32737-i159-k1903587-Driving_from_Monterey_to_Santa_Barbara-Monterey_Monterey_Peninsula_California.html",
                "http://traveltips.usatoday.com/fun-things-los-angeles-san-francisco-14664.html",
                "https://en.wikipedia.org/wiki/List_of_National_Historic_Landmarks_in_California",
                "https://www.tripadvisor.ca/ShowTopic-g28926-i29-k5984144-Best_place_to_overnight_between_San_Francisco_and_Los_Angele-California.html"
            ],
            "closest_to": "monterey",
            "latitude": "36.5844165",
            "address": "Monterey, Monterey County, California, United States of America",
            "locType": "city"
        },
        "monterey bay aquarium ca": {
            "longitude": "-121.901680002002",
            "blogLinks": [
                "http://www.california-blog.com/"
            ],
            "closest_to": "monterey",
            "latitude": "36.61809095",
            "address": "MBA, 886, Cannery Row, Monterey, Monterey County, California, 93940, United States of America",
            "locType": "aquarium"
        },
        "pacific grove": {
            "longitude": "-121.9155905",
            "blogLinks": [
                "http://www.heleninwonderlust.co.uk/2014/03/ultimate-california-road-trip-itinerary-las-vegas/",
                "https://www.tripadvisor.ca/ShowTopic-g28926-i29-k5984144-Best_place_to_overnight_between_San_Francisco_and_Los_Angele-California.html"
            ],
            "closest_to": "monterey",
            "latitude": "36.6174432",
            "address": "Pacific Grove, Monterey County, California, United States of America",
            "locType": "city"
        },
        "los angeles maritime museum": {
            "longitude": "-118.278682",
            "blogLinks": [
                "https://en.wikipedia.org/wiki/List_of_National_Historic_Landmarks_in_California"
            ],
            "closest_to": "bakersfield",
            "latitude": "33.7389075",
            "address": "Los Angeles Maritime Museum, Sampson Way, San Pedro, LA, Los Angeles County, California, 90731, United States of America",
            "locType": "museum"
        },
        "king city": {
            "longitude": "-121.1260286",
            "blogLinks": [
                "https://www.tripadvisor.com/ShowTopic-g28926-i29-k5349841-Bakersfield_to_San_Fransico_drive-California.html",
                "http://traveltips.usatoday.com/fun-things-los-angeles-san-francisco-14664.html"
            ],
            "closest_to": "monterey",
            "latitude": "36.2127439",
            "address": "King City, Monterey County, California, United States of America",
            "locType": "city"
        },
        "mission bay ca": {
            "longitude": "-122.3911711",
            "blogLinks": [
                "http://www.california-blog.com/"
            ],
            "closest_to": "monterey",
            "latitude": "37.7707742",
            "address": "Mission Bay, SF, California, 94158, United States of America",
            "locType": "neighbourhood"
        },
        "temecula": {
            "longitude": "-117.147366",
            "blogLinks": [
                "http://www.roadsideamerica.com/location/ca"
            ],
            "closest_to": "bakersfield",
            "latitude": "33.4946353",
            "address": "Temecula, Riverside County, California, United States of America",
            "locType": "city"
        },
        "san quentin": {
            "longitude": "-122.4849738",
            "blogLinks": [
                "http://www.roadsideamerica.com/location/ca"
            ],
            "closest_to": "monterey",
            "latitude": "37.9413133",
            "address": "San Quentin, Marin County, California, United States of America",
            "locType": "hamlet"
        },
        "los angeles": {
            "longitude": "-118.2439408",
            "blogLinks": [
                "http://moon.com/2015/04/best-places-to-stay-on-a-california-coast-road-trip/",
                "https://answers.yahoo.com/question/index?qid=20100720110201AARismL",
                "https://www.tripadvisor.com/ShowTopic-g28926-i29-k5349841-Bakersfield_to_San_Fransico_drive-California.html",
                "http://www.roadsideamerica.com/location/ca",
                "http://traveltips.usatoday.com/fun-things-los-angeles-san-francisco-14664.html",
                "https://en.wikipedia.org/wiki/List_of_National_Historic_Landmarks_in_California",
                "http://www.hopper.com/articles/291/five-great-stops-between-los-angeles-and-san-francisco-on-the-pacific-coast-highway"
            ],
            "closest_to": "bakersfield",
            "latitude": "34.0543942",
            "address": "LA, Los Angeles County, California, United States of America",
            "locType": "city"
        },
        "south entrance": {
            "longitude": "-121.5138273",
            "blogLinks": [
                "https://www.tripadvisor.com/Travel-g28926-c200326/California:United-States:Road.Trip.San.Francisco.To.Las.Vegas.html"
            ],
            "closest_to": "monterey",
            "latitude": "38.6466133",
            "address": "South Entrance, Sacramento, Sacramento County, California, CA 95834, United States of America",
            "locType": "service"
        },
        "pebble beach ca": {
            "longitude": "-121.9466112",
            "blogLinks": [
                "http://www.california-blog.com/"
            ],
            "closest_to": "monterey",
            "latitude": "36.5664874",
            "address": "Pebble Beach, Monterey County, California, United States of America",
            "locType": "hamlet"
        },
        "san juan bautista historic district": {
            "longitude": "-121.5366084",
            "blogLinks": [
                "https://en.wikipedia.org/wiki/List_of_National_Historic_Landmarks_in_California"
            ],
            "closest_to": "monterey",
            "latitude": "36.8460482",
            "address": "San Juan Bautista Historic District, Polk Street, San Juan Bautista, San Benito County, California, 95045-0000, United States of America",
            "locType": "park"
        },
        "san juan bautista": {
            "longitude": "-121.5379893",
            "blogLinks": [
                "https://www.tripadvisor.com/ShowTopic-g28926-i29-k5349841-Bakersfield_to_San_Fransico_drive-California.html"
            ],
            "closest_to": "monterey",
            "latitude": "36.8455173",
            "address": "San Juan Bautista, San Benito County, California, United States of America",
            "locType": "city"
        },
        "mentone": {
            "longitude": "-117.109606374724",
            "blogLinks": [
                "http://www.roadsideamerica.com/location/ca"
            ],
            "closest_to": "bakersfield",
            "latitude": "34.05884",
            "address": "Mentone, Reservoir Canal Road, Crafton, San Bernardino County, California, 92374, United States of America",
            "locType": "administrative"
        },
        "monterey bay aquarium": {
            "longitude": "-121.901680002002",
            "blogLinks": [
                "http://moon.com/2015/04/best-places-to-stay-on-a-california-coast-road-trip/",
                "http://traveltips.usatoday.com/fun-things-los-angeles-san-francisco-14664.html",
                "http://www.hopper.com/articles/291/five-great-stops-between-los-angeles-and-san-francisco-on-the-pacific-coast-highway"
            ],
            "closest_to": "monterey",
            "latitude": "36.61809095",
            "address": "MBA, 886, Cannery Row, Monterey, Monterey County, California, 93940, United States of America",
            "locType": "aquarium"
        },
        "soledad": {
            "longitude": "-121.3272146",
            "blogLinks": [
                "http://traveltips.usatoday.com/fun-things-los-angeles-san-francisco-14664.html",
                "https://www.seemonterey.com/"
            ],
            "closest_to": "monterey",
            "latitude": "36.4269452",
            "address": "Soledad, Monterey County, California, United States of America",
            "locType": "city"
        },
        "santa ynez valley": {
            "longitude": "-120.104677321497",
            "blogLinks": [
                "https://www.tripadvisor.co.uk/ShowTopic-g32737-i159-k1903587-Driving_from_Monterey_to_Santa_Barbara-Monterey_Monterey_Peninsula_California.html"
            ],
            "closest_to": "monterey",
            "latitude": "34.608637",
            "address": "Santa Ynez, Stadium Place, Santa Ynez, Santa Barbara County, California, 93463, United States of America",
            "locType": "administrative"
        },
        "palos verdes peninsula ca": {
            "longitude": "-118.372196730215",
            "blogLinks": [
                "http://www.california-blog.com/"
            ],
            "closest_to": "bakersfield",
            "latitude": "33.77984925",
            "address": "Palos Verdes Peninsula High School, Hawthorne Boulevard, Rolling Hills Estates, Los Angeles County, California, 90274, United States of America",
            "locType": "school"
        },
        "placerville": {
            "longitude": "-120.7985459",
            "blogLinks": [
                "http://www.roadsideamerica.com/location/ca"
            ],
            "closest_to": "monterey",
            "latitude": "38.7296252",
            "address": "Placerville, El Dorado County, California, United States of America",
            "locType": "city"
        },
        "castroville": {
            "longitude": "-121.7580049",
            "blogLinks": [
                "http://www.roadsideamerica.com/location/ca",
                "http://www.heleninwonderlust.co.uk/2014/03/ultimate-california-road-trip-itinerary-las-vegas/"
            ],
            "closest_to": "monterey",
            "latitude": "36.7657904",
            "address": "Castroville, Monterey County, California, United States of America",
            "locType": "administrative"
        },
        "colma": {
            "longitude": "-122.4596949",
            "blogLinks": [
                "http://www.roadsideamerica.com/location/ca"
            ],
            "closest_to": "monterey",
            "latitude": "37.6768779",
            "address": "Colma, San Mateo County, California, United States of America",
            "locType": "administrative"
        },
        "san luis obispo county": {
            "longitude": "-120.3757162",
            "blogLinks": [
                "http://www.hopper.com/articles/291/five-great-stops-between-los-angeles-and-san-francisco-on-the-pacific-coast-highway"
            ],
            "closest_to": "monterey",
            "latitude": "35.3540209",
            "address": "San Luis Obispo County, California, United States of America",
            "locType": "administrative"
        },
        "monterey aquarium": {
            "longitude": "-121.901680002002",
            "blogLinks": [
                "https://www.tripadvisor.com/ShowTopic-g28926-i29-k5349841-Bakersfield_to_San_Fransico_drive-California.html"
            ],
            "closest_to": "monterey",
            "latitude": "36.61809095",
            "address": "MBA, 886, Cannery Row, Monterey, Monterey County, California, 93940, United States of America",
            "locType": "aquarium"
        },
        "san carlos": {
            "longitude": "-122.266149723864",
            "blogLinks": [
                "http://www.roadsideamerica.com/location/ca"
            ],
            "closest_to": "monterey",
            "latitude": "37.4982065",
            "address": "San Carlos, San Mateo County, California, United States of America",
            "locType": "city"
        },
        "emeryville": {
            "longitude": "-122.2865265",
            "blogLinks": [
                "http://www.roadsideamerica.com/location/ca"
            ],
            "closest_to": "monterey",
            "latitude": "37.8314089",
            "address": "Emeryville, Alameda County, California, United States of America",
            "locType": "administrative"
        },
        "guerneville": {
            "longitude": "-122.987128549631",
            "blogLinks": [
                "http://www.roadsideamerica.com/location/ca"
            ],
            "closest_to": "monterey",
            "latitude": "38.5116609",
            "address": "Guerneville, Orchard Road, El Bonita, Sonoma County, California, 95446, United States of America",
            "locType": "administrative"
        },
        "monterey regional airport": {
            "longitude": "-121.843618374407",
            "blogLinks": [
                "https://www.seemonterey.com/"
            ],
            "closest_to": "monterey",
            "latitude": "36.5878734",
            "address": "Monterey Regional Airport, Airport Road, Seaside, Del Monte Heights, Monterey County, California, 93940, United States of America",
            "locType": "aerodrome"
        },
        "kern river": {
            "longitude": "-118.4124188",
            "blogLinks": [
                "http://www.california-blog.com/"
            ],
            "closest_to": "bakersfield",
            "latitude": "36.6816956",
            "address": "Kern River, Tulare County, California, United States of America",
            "locType": "river"
        },
        "san joaquin valley": {
            "longitude": "-121.2773718",
            "blogLinks": [
                "https://www.tripadvisor.com/ShowTopic-g28926-i29-k5349841-Bakersfield_to_San_Fransico_drive-California.html"
            ],
            "closest_to": "monterey",
            "latitude": "37.9372901",
            "address": "San Joaquin County, California, United States of America",
            "locType": "administrative"
        },
        "monterey peninsula": {
            "longitude": "-121.843618374407",
            "blogLinks": [
                "https://www.tripadvisor.co.uk/ShowTopic-g32737-i159-k1903587-Driving_from_Monterey_to_Santa_Barbara-Monterey_Monterey_Peninsula_California.html"
            ],
            "closest_to": "monterey",
            "latitude": "36.5878734",
            "address": "Monterey Regional Airport, Airport Road, Seaside, Del Monte Heights, Monterey County, California, 93940, United States of America",
            "locType": "aerodrome"
        },
        "inglewood": {
            "longitude": "-118.353131",
            "blogLinks": [
                "http://www.roadsideamerica.com/location/ca"
            ],
            "closest_to": "bakersfield",
            "latitude": "33.9616801",
            "address": "Inglewood, Los Angeles County, California, United States of America",
            "locType": "city"
        },
        "san simeon": {
            "longitude": "-121.1907532",
            "blogLinks": [
                "http://moon.com/2015/04/best-places-to-stay-on-a-california-coast-road-trip/",
                "https://www.tripadvisor.com/ShowTopic-g28926-i29-k5349841-Bakersfield_to_San_Fransico_drive-California.html",
                "http://www.heleninwonderlust.co.uk/2014/03/ultimate-california-road-trip-itinerary-las-vegas/",
                "http://www.roadsideamerica.com/location/ca",
                "http://traveltips.usatoday.com/fun-things-los-angeles-san-francisco-14664.html",
                "http://www.hopper.com/articles/291/five-great-stops-between-los-angeles-and-san-francisco-on-the-pacific-coast-highway"
            ],
            "closest_to": "monterey",
            "latitude": "35.6438587",
            "address": "San Simeon, San Luis Obispo County, California, United States of America",
            "locType": "hamlet"
        },
        "santa fe springs": {
            "longitude": "-118.0676102",
            "blogLinks": [
                "http://www.roadsideamerica.com/location/ca"
            ],
            "closest_to": "bakersfield",
            "latitude": "33.9482434",
            "address": "Santa Fe Springs, Los Angeles County, California, United States of America",
            "locType": "city"
        },
        "old sacramento state historic park": {
            "longitude": "-121.505013401895",
            "blogLinks": [
                "https://en.wikipedia.org/wiki/List_of_National_Historic_Landmarks_in_California"
            ],
            "closest_to": "monterey",
            "latitude": "38.5891509",
            "address": "Old Sacramento State Historic Park, Sacramento River Parkway, Sacramento, Sacramento County, California, 95814, United States of America",
            "locType": "park"
        },
        "angel island state park": {
            "longitude": "-122.430363458873",
            "blogLinks": [
                "https://en.wikipedia.org/wiki/List_of_National_Historic_Landmarks_in_California"
            ],
            "closest_to": "monterey",
            "latitude": "37.8629304",
            "address": "Angel Island State Park, Perimeter Road, Tiburon, Marin County, California, 94920, United States of America",
            "locType": "park"
        },
        "grover beach": {
            "longitude": "-120.6218375",
            "blogLinks": [
                "https://www.tripadvisor.co.uk/ShowTopic-g32737-i159-k1903587-Driving_from_Monterey_to_Santa_Barbara-Monterey_Monterey_Peninsula_California.html"
            ],
            "closest_to": "monterey",
            "latitude": "35.1209452",
            "address": "Grover Beach, San Luis Obispo County, California, United States of America",
            "locType": "city"
        },
        "big sur valley": {
            "longitude": "-121.8074544",
            "blogLinks": [
                "http://moon.com/2015/04/best-places-to-stay-on-a-california-coast-road-trip/"
            ],
            "closest_to": "monterey",
            "latitude": "36.270241",
            "address": "Big Sur, Monterey County, California, United States of America",
            "locType": "village"
        },
        "sand city": {
            "longitude": "-121.8482854",
            "blogLinks": [
                "https://www.seemonterey.com/"
            ],
            "closest_to": "monterey",
            "latitude": "36.6171819",
            "address": "Sand City, Monterey County, California, United States of America",
            "locType": "city"
        },
        "point lobos state park": {
            "longitude": "-121.371560849992",
            "blogLinks": [
                "https://www.tripadvisor.ca/ShowTopic-g28926-i29-k5984144-Best_place_to_overnight_between_San_Francisco_and_Los_Angele-California.html",
                "https://www.tripadvisor.com/Travel-g28926-c200326/California:United-States:Road.Trip.San.Francisco.To.Las.Vegas.html"
            ],
            "closest_to": "monterey",
            "latitude": "38.77817125",
            "address": "Point Lobos State Park, Woodgate Way, Laureate, Roseville, Placer County, California, 95747, United States of America",
            "locType": "yes"
        },
        "sunol": {
            "longitude": "-121.8885682",
            "blogLinks": [
                "http://www.roadsideamerica.com/location/ca"
            ],
            "closest_to": "monterey",
            "latitude": "37.5943781",
            "address": "Sunol, Alameda County, California, United States of America",
            "locType": "hamlet"
        },
        "marina": {
            "longitude": "-121.800639730262",
            "blogLinks": [
                "http://www.roadsideamerica.com/location/ca",
                "https://www.seemonterey.com/"
            ],
            "closest_to": "monterey",
            "latitude": "36.6900785",
            "address": "Marina, Monterey County, California, United States of America",
            "locType": "city"
        },
        "berkeley": {
            "longitude": "-122.2728638",
            "blogLinks": [
                "http://www.roadsideamerica.com/location/ca"
            ],
            "closest_to": "monterey",
            "latitude": "37.8708393",
            "address": "Berkeley, Alameda County, California, United States of America",
            "locType": "city"
        },
        "julia pfeiffer burns state park": {
            "longitude": "-121.665388254615",
            "blogLinks": [
                "https://www.tripadvisor.co.uk/ShowTopic-g32737-i159-k1903587-Driving_from_Monterey_to_Santa_Barbara-Monterey_Monterey_Peninsula_California.html",
                "http://www.heleninwonderlust.co.uk/2014/03/ultimate-california-road-trip-itinerary-las-vegas/"
            ],
            "closest_to": "monterey",
            "latitude": "36.16998345",
            "address": "Julia Pfeiffer Burns State Park, Ewoldsen trail, Monterey County, California, United States of America",
            "locType": "park"
        },
        "lone pine": {
            "longitude": "-118.078359194897",
            "blogLinks": [
                "https://www.tripadvisor.com/Travel-g28926-c200326/California:United-States:Road.Trip.San.Francisco.To.Las.Vegas.html"
            ],
            "closest_to": "bakersfield",
            "latitude": "36.583176",
            "address": "Lone Pine, Tuttle Creek Road, Alabama Hills, Inyo County, California, 93545, United States of America",
            "locType": "administrative"
        },
        "london": {
            "longitude": "-119.4431784",
            "blogLinks": [
                "http://www.roadsideamerica.com/location/ca"
            ],
            "closest_to": "monterey",
            "latitude": "36.4760619",
            "address": "London, Tulare County, California, United States of America",
            "locType": "village"
        },
        "west coast": {
            "longitude": "-118.4051087",
            "blogLinks": [
                "https://en.wikipedia.org/wiki/List_of_National_Historic_Landmarks_in_California"
            ],
            "closest_to": "bakersfield",
            "latitude": "34.0222263",
            "address": "West Coast, Motor Avenue, Palms, LA, Los Angeles County, California, 90034-5702, United States of America",
            "locType": "plumber"
        },
        "costa mesa": {
            "longitude": "-117.9033169",
            "blogLinks": [
                "http://www.roadsideamerica.com/location/ca"
            ],
            "closest_to": "bakersfield",
            "latitude": "33.6633386",
            "address": "Costa Mesa, Orange County, California, United States of America",
            "locType": "city"
        },
        "big sur": {
            "longitude": "-121.8074544",
            "blogLinks": [
                "https://www.tripadvisor.co.uk/ShowTopic-g32737-i159-k1903587-Driving_from_Monterey_to_Santa_Barbara-Monterey_Monterey_Peninsula_California.html",
                "https://www.tripadvisor.ca/ShowTopic-g28926-i29-k5984144-Best_place_to_overnight_between_San_Francisco_and_Los_Angele-California.html"
            ],
            "closest_to": "monterey",
            "latitude": "36.270241",
            "address": "Big Sur, Monterey County, California, United States of America",
            "locType": "village"
        },
        "oxnard": {
            "longitude": "-119.1803817",
            "blogLinks": [
                "http://traveltips.usatoday.com/fun-things-los-angeles-san-francisco-14664.html"
            ],
            "closest_to": "bakersfield",
            "latitude": "34.1976308",
            "address": "Oxnard, Ventura County, California, United States of America",
            "locType": "city"
        },
        "pacific": {
            "longitude": "-120.507146",
            "blogLinks": [
                "https://en.wikipedia.org/wiki/List_of_National_Historic_Landmarks_in_California"
            ],
            "closest_to": "monterey",
            "latitude": "38.7601815",
            "address": "Pacific, El Dorado County, California, United States of America",
            "locType": "hamlet"
        },
        "wayfarer": {
            "longitude": "-121.378052951455",
            "blogLinks": [
                "http://moon.com/2015/04/best-places-to-stay-on-a-california-coast-road-trip/"
            ],
            "closest_to": "monterey",
            "latitude": "38.7794269",
            "address": "Wayfarer, Roseville, Placer County, California, 95747, United States of America",
            "locType": "residential"
        },
        "sonoma pueblo": {
            "longitude": "-118.5531494",
            "blogLinks": [
                "https://en.wikipedia.org/wiki/List_of_National_Historic_Landmarks_in_California"
            ],
            "closest_to": "bakersfield",
            "latitude": "34.2897295",
            "address": "Sonoma Way, Porter Ranch, LA, Los Angeles County, California, 91326, United States of America",
            "locType": "residential"
        },
        "morro rock ca": {
            "longitude": "-120.8676993",
            "blogLinks": [
                "http://www.california-blog.com/"
            ],
            "closest_to": "monterey",
            "latitude": "35.369669",
            "address": "Morro Rock, Morro Bay, San Luis Obispo County, California, United States of America",
            "locType": "peak"
        },
        "united states": {
            "longitude": "-118.7559973",
            "blogLinks": [
                "https://en.wikipedia.org/wiki/List_of_National_Historic_Landmarks_in_California"
            ],
            "closest_to": "monterey",
            "latitude": "36.7014631",
            "address": "California, United States of America",
            "locType": "administrative"
        },
        "san luis obispo": {
            "longitude": "-120.6596155",
            "blogLinks": [
                "http://moon.com/2015/04/best-places-to-stay-on-a-california-coast-road-trip/",
                "http://www.heleninwonderlust.co.uk/2014/03/ultimate-california-road-trip-itinerary-las-vegas/",
                "http://www.roadsideamerica.com/location/ca",
                "https://www.tripadvisor.co.uk/ShowTopic-g32737-i159-k1903587-Driving_from_Monterey_to_Santa_Barbara-Monterey_Monterey_Peninsula_California.html",
                "http://traveltips.usatoday.com/fun-things-los-angeles-san-francisco-14664.html",
                "https://www.tripadvisor.ca/ShowTopic-g28926-i29-k5984144-Best_place_to_overnight_between_San_Francisco_and_Los_Angele-California.html"
            ],
            "closest_to": "monterey",
            "latitude": "35.2827525",
            "address": "San Luis Obispo, San Luis Obispo County, California, United States of America",
            "locType": "city"
        },
        "monterey st.": {
            "longitude": "-118.2146689",
            "blogLinks": [
                "http://moon.com/2015/04/best-places-to-stay-on-a-california-coast-road-trip/"
            ],
            "closest_to": "bakersfield",
            "latitude": "34.097787",
            "address": "Monterey Street, Mount Washington, Highland Park, LA, Los Angeles County, California, 90065, United States of America",
            "locType": "residential"
        },
        "death valley national park": {
            "longitude": "-117.102293507719",
            "blogLinks": [
                "http://www.roadsideamerica.com/location/ca"
            ],
            "closest_to": "bakersfield",
            "latitude": "36.4914385",
            "address": "Death Valley National Park, Lucky Wash Road, Skidoo, Inyo County, California, United States of America",
            "locType": "national_park"
        },
        "oakland": {
            "longitude": "-122.2713562",
            "blogLinks": [
                "http://www.heleninwonderlust.co.uk/2014/03/ultimate-california-road-trip-itinerary-las-vegas/",
                "https://en.wikipedia.org/wiki/List_of_National_Historic_Landmarks_in_California"
            ],
            "closest_to": "monterey",
            "latitude": "37.8044557",
            "address": "Oakland, Alameda County, California, United States of America",
            "locType": "city"
        },
        "africa": {
            "longitude": "-122.3064005",
            "blogLinks": [
                "http://www.heleninwonderlust.co.uk/2014/03/ultimate-california-road-trip-itinerary-las-vegas/"
            ],
            "closest_to": "monterey",
            "latitude": "37.8212626",
            "address": "Africa Street, Lower Bottoms, Oakland, Alameda County, California, 94626, United States of America",
            "locType": "residential"
        },
        "healdsburg": {
            "longitude": "-122.8701379",
            "blogLinks": [
                "http://www.roadsideamerica.com/location/ca"
            ],
            "closest_to": "monterey",
            "latitude": "38.6106812",
            "address": "Healdsburg, Sonoma County, California, United States of America",
            "locType": "city"
        },
        "barnsdall art park": {
            "longitude": "-118.294214664916",
            "blogLinks": [
                "https://en.wikipedia.org/wiki/List_of_National_Historic_Landmarks_in_California"
            ],
            "closest_to": "bakersfield",
            "latitude": "34.1004417",
            "address": "Barnsdall Art Park, Upper Road, Little Armenia, LA, Los Angeles County, California, 90027, United States of America",
            "locType": "park"
        },
        "beverly hills": {
            "longitude": "-118.4003562",
            "blogLinks": [
                "http://www.heleninwonderlust.co.uk/2014/03/ultimate-california-road-trip-itinerary-las-vegas/"
            ],
            "closest_to": "bakersfield",
            "latitude": "34.0736204",
            "address": "Beverly Hills, Los Angeles County, California, United States of America",
            "locType": "city"
        },
        "venice": {
            "longitude": "-118.4668874",
            "blogLinks": [
                "http://www.roadsideamerica.com/location/ca",
                "http://www.heleninwonderlust.co.uk/2014/03/ultimate-california-road-trip-itinerary-las-vegas/"
            ],
            "closest_to": "bakersfield",
            "latitude": "33.995044",
            "address": "Venice, LA, Los Angeles County, California, United States of America",
            "locType": "suburb"
        },
        "pacific coast highway": {
            "longitude": "-118.0051687",
            "blogLinks": [
                "http://www.heleninwonderlust.co.uk/2014/03/ultimate-california-road-trip-itinerary-las-vegas/",
                "http://traveltips.usatoday.com/fun-things-los-angeles-san-francisco-14664.html",
                "http://www.hopper.com/articles/291/five-great-stops-between-los-angeles-and-san-francisco-on-the-pacific-coast-highway"
            ],
            "closest_to": "bakersfield",
            "latitude": "33.6595127",
            "address": "Pacific Coast Highway, Huntington Beach, Orange County, California, 92648, United States of America",
            "locType": "primary"
        },
        "monterey peninsula ca": {
            "longitude": "-121.843618374407",
            "blogLinks": [
                "http://www.california-blog.com/"
            ],
            "closest_to": "monterey",
            "latitude": "36.5878734",
            "address": "Monterey Regional Airport, Airport Road, Seaside, Del Monte Heights, Monterey County, California, 93940, United States of America",
            "locType": "aerodrome"
        },
        "state street": {
            "longitude": "-117.3347322",
            "blogLinks": [
                "http://moon.com/2015/04/best-places-to-stay-on-a-california-coast-road-trip/"
            ],
            "closest_to": "bakersfield",
            "latitude": "34.1572853",
            "address": "State Street, San Bernardino, San Bernardino County, California, 92407, United States of America",
            "locType": "secondary"
        },
        "sweeney ridge": {
            "longitude": "-122.463853421956",
            "blogLinks": [
                "https://en.wikipedia.org/wiki/List_of_National_Historic_Landmarks_in_California"
            ],
            "closest_to": "monterey",
            "latitude": "37.60933145",
            "address": "Sweeney Ridge (GGNRA), Sweeney Ridge Trail, Pacifica, San Mateo County, California, 94044, United States of America",
            "locType": "park"
        },
        "playboy mansion": {
            "longitude": "-118.429529173368",
            "blogLinks": [
                "http://www.heleninwonderlust.co.uk/2014/03/ultimate-california-road-trip-itinerary-las-vegas/"
            ],
            "closest_to": "bakersfield",
            "latitude": "34.07646035",
            "address": "The Playboy Mansion, Charing Cross Road, Bel Air, Westwood, LA, Los Angeles County, California, 90024, United States of America",
            "locType": "attraction"
        },
        "alta california": {
            "longitude": "-120.8579018",
            "blogLinks": [
                "https://en.wikipedia.org/wiki/List_of_National_Historic_Landmarks_in_California"
            ],
            "closest_to": "monterey",
            "latitude": "37.3964868",
            "address": "Alta California, 20421, Geer Avenue, Irwin, Merced County, California, 95324, United States of America",
            "locType": "house"
        },
        "harbor view inn": {
            "longitude": "-119.6902512",
            "blogLinks": [
                "https://www.tripadvisor.co.uk/ShowTopic-g32737-i159-k1903587-Driving_from_Monterey_to_Santa_Barbara-Monterey_Monterey_Peninsula_California.html"
            ],
            "closest_to": "bakersfield",
            "latitude": "34.4118126",
            "address": "Harbor View Inn, West Cabrillo Boulevard, Santa Barbara, Santa Barbara County, California, 93101, United States of America",
            "locType": "hotel"
        },
        "newport beach": {
            "longitude": "-117.92944",
            "blogLinks": [
                "http://www.roadsideamerica.com/location/ca"
            ],
            "closest_to": "bakersfield",
            "latitude": "33.6170092",
            "address": "Newport Beach, Orange County, California, United States of America",
            "locType": "city"
        },
        "pt sur lighthouse": {
            "longitude": "-121.901627042301",
            "blogLinks": [
                "https://www.tripadvisor.ca/ShowTopic-g28926-i29-k5984144-Best_place_to_overnight_between_San_Francisco_and_Los_Angele-California.html"
            ],
            "closest_to": "monterey",
            "latitude": "36.3063497",
            "address": "Point Sur Lighthouse, Cabrillo Highway, Big Sur, Monterey County, California, 93923, United States of America",
            "locType": "lighthouse"
        },
        "wawona road": {
            "longitude": "-119.6529251",
            "blogLinks": [
                "https://www.tripadvisor.com/Travel-g28926-c200326/California:United-States:Road.Trip.San.Francisco.To.Las.Vegas.html"
            ],
            "closest_to": "monterey",
            "latitude": "37.7162955",
            "address": "Wawona Road, Yosemite Valley, Mariposa County, California, United States of America",
            "locType": "primary"
        },
        "moonstone beach": {
            "longitude": "-121.1128747",
            "blogLinks": [
                "http://moon.com/2015/04/best-places-to-stay-on-a-california-coast-road-trip/",
                "https://www.tripadvisor.ca/ShowTopic-g28926-i29-k5984144-Best_place_to_overnight_between_San_Francisco_and_Los_Angele-California.html"
            ],
            "closest_to": "monterey",
            "latitude": "35.573855",
            "address": "Moonstone Beach, Cambria, San Luis Obispo County, California, CA 93428, United States of America",
            "locType": "path"
        },
        "glacier point": {
            "longitude": "-119.8282379",
            "blogLinks": [
                "https://www.tripadvisor.com/Travel-g28926-c200326/California:United-States:Road.Trip.San.Francisco.To.Las.Vegas.html"
            ],
            "closest_to": "monterey",
            "latitude": "37.499192",
            "address": "Glacier Point, Darrah, Mariposa County, California, 95338, United States of America",
            "locType": "residential"
        },
        "pasadena": {
            "longitude": "-118.1444778",
            "blogLinks": [
                "http://www.roadsideamerica.com/location/ca"
            ],
            "closest_to": "bakersfield",
            "latitude": "34.1476452",
            "address": "Pasadena, Los Angeles County, California, United States of America",
            "locType": "city"
        },
        "simi valley": {
            "longitude": "-118.7814819",
            "blogLinks": [
                "http://www.roadsideamerica.com/location/ca"
            ],
            "closest_to": "bakersfield",
            "latitude": "34.2694474",
            "address": "Simi Valley, Ventura County, California, United States of America",
            "locType": "city"
        },
        "salinas": {
            "longitude": "-121.6550371",
            "blogLinks": [
                "https://www.tripadvisor.com/ShowTopic-g28926-i29-k5349841-Bakersfield_to_San_Fransico_drive-California.html"
            ],
            "closest_to": "monterey",
            "latitude": "36.6744117",
            "address": "Salinas, Monterey County, California, United States of America",
            "locType": "city"
        },
        "hollywood": {
            "longitude": "-118.3299898",
            "blogLinks": [
                "http://www.roadsideamerica.com/location/ca",
                "http://www.heleninwonderlust.co.uk/2014/03/ultimate-california-road-trip-itinerary-las-vegas/"
            ],
            "closest_to": "bakersfield",
            "latitude": "34.1028268",
            "address": "Hollywood, LA, Los Angeles County, California, United States of America",
            "locType": "suburb"
        },