{
    "pasadena": {
        "type": "city",
        "osm_id": "3529725",
        "class": "place",
        "importance": 0.7778961552687,
        "lat": "34.1476452",
        "lon": "-118.1444778",
        "boundingbox": [
            "34.1172023",
            "34.251905",
            "-118.1981389",
            "-118.0654789"
        ],
        "display_name": "Pasadena, Los Angeles County, California, United States of America",
        "licence": "Data \u00a9 OpenStreetMap contributors, ODbL 1.0. http://www.openstreetmap.org/copyright",
        "icon": "https://nominatim.openstreetmap.org/images/mapicons/poi_place_city.p.20.png",
        "place_id": "159486921",
        "osm_type": "relation"
    },
    "mentions": {
        "orange grove boulevard": {
            "latitude": "34.1455771",
            "closest_to": "pasadena",
            "address": "Orange Grove Boulevard, Pasadena, Los Angeles County, California, 91123, United States of America",
            "locType": "secondary",
            "blogLinks": [
                "https://en.wikipedia.org/wiki/Arroyo_Seco,_Los_Angeles,_California"
            ],
            "longitude": "-118.1606048"
        },
        "pacific coast highway": {
            "latitude": "33.6595127",
            "closest_to": "santa ana",
            "address": "Pacific Coast Highway, Huntington Beach, Orange County, California, 92648, United States of America",
            "locType": "primary",
            "blogLinks": [
                "http://traveltips.usatoday.com/fun-things-los-angeles-san-francisco-14664.html",
                "https://blog.virgin-atlantic.com/t5/Our-Places/mini-road-trips-los-angeles-to-santa-barbara/ba-p/1216"
            ],
            "longitude": "-118.0051687"
        },
        "greenleaf": {
            "latitude": "33.6802757",
            "closest_to": "santa ana",
            "address": "Greenleaf, Woodbridge, Irvine, Orange County, California, 92604, United States of America",
            "locType": "residential",
            "blogLinks": [
                "http://www.greatamericancountry.com/living/at-home/10-great-neighborhoods-in-los-angeles"
            ],
            "longitude": "-117.8005007"
        },
        "arroyo seco": {
            "latitude": "34.1129526",
            "closest_to": "santa ana",
            "address": "Arroyo Seco, LA, Los Angeles County, California, United States of America",
            "locType": "drain",
            "blogLinks": [
                "https://en.wikipedia.org/wiki/Arroyo_Seco,_Los_Angeles,_California"
            ],
            "longitude": "-118.176531"
        },
        "yost theater": {
            "latitude": "33.7474458",
            "closest_to": "santa ana",
            "address": "Yost Theater, 307, North Spurgeon Street, Santa Ana, Orange County, California, 92706, United States of America",
            "locType": "theatre",
            "blogLinks": [
                "https://en.wikipedia.org/wiki/Santa_Ana,_California"
            ],
            "longitude": "-117.865247874694"
        },
        "culver city": {
            "latitude": "34.0211224",
            "closest_to": "pasadena",
            "address": "Culver City, Los Angeles County, California, United States of America",
            "locType": "administrative",
            "blogLinks": [
                "http://www.greatamericancountry.com/living/at-home/10-great-neighborhoods-in-los-angeles"
            ],
            "longitude": "-118.3964664"
        },
        "santa ana valley": {
            "latitude": "33.7494951",
            "closest_to": "santa ana",
            "address": "Santa Ana, Orange County, California, United States of America",
            "locType": "city",
            "blogLinks": [
                "https://en.wikipedia.org/wiki/Santa_Ana,_California"
            ],
            "longitude": "-117.8732212"
        },
        "pasadena freeway": {
            "latitude": "34.111387",
            "closest_to": "santa ana",
            "address": "Pasadena Freeway, Highland Park, LA, Los Angeles County, California, 90042, United States of America",
            "locType": "motorway",
            "blogLinks": [
                "https://en.wikipedia.org/wiki/Arroyo_Seco,_Los_Angeles,_California"
            ],
            "longitude": "-118.1834725"
        },
        "ventura freeway": {
            "latitude": "34.1456804",
            "closest_to": "pasadena",
            "address": "Ventura Freeway, Highland Park, LA, Los Angeles County, California, 90041, United States of America",
            "locType": "motorway",
            "blogLinks": [
                "https://en.wikipedia.org/wiki/Arroyo_Seco,_Los_Angeles,_California",
                "https://blog.virgin-atlantic.com/t5/Our-Places/mini-road-trips-los-angeles-to-santa-barbara/ba-p/1216"
            ],
            "longitude": "-118.1918437"
        },
        "old pasadena": {
            "latitude": "34.1476452",
            "closest_to": "pasadena",
            "address": "Pasadena, Los Angeles County, California, United States of America",
            "locType": "city",
            "blogLinks": [
                "http://www.greatamericancountry.com/living/at-home/10-great-neighborhoods-in-los-angeles"
            ],
            "longitude": "-118.1444778"
        },
        "huntington beach": {
            "latitude": "33.6783336",
            "closest_to": "santa ana",
            "address": "Huntington Beach, Orange County, California, United States of America",
            "locType": "city",
            "blogLinks": [
                "https://en.wikipedia.org/wiki/Santa_Ana,_California"
            ],
            "longitude": "-118.0000165"
        },
        "villa park": {
            "latitude": "33.8147541",
            "closest_to": "santa ana",
            "address": "Villa Park, Orange County, California, United States of America",
            "locType": "city",
            "blogLinks": [
                "https://en.wikipedia.org/wiki/Santa_Ana,_California"
            ],
            "longitude": "-117.8206234"
        },
        "highland park": {
            "latitude": "34.1099469",
            "closest_to": "santa ana",
            "address": "Highland Park, LA, Los Angeles County, California, United States of America",
            "locType": "suburb",
            "blogLinks": [
                "https://en.wikipedia.org/wiki/Arroyo_Seco,_Los_Angeles,_California"
            ],
            "longitude": "-118.1969827"
        },
        "venice": {
            "latitude": "33.995044",
            "closest_to": "pasadena",
            "address": "Venice, LA, Los Angeles County, California, United States of America",
            "locType": "suburb",
            "blogLinks": [
                "http://www.greatamericancountry.com/living/at-home/10-great-neighborhoods-in-los-angeles"
            ],
            "longitude": "-118.4668874"
        },
        "harbor freeway": {
            "latitude": "34.013624",
            "closest_to": "santa ana",
            "address": "Harbor Freeway, Jefferson, LA, Los Angeles County, California, 90037, United States of America",
            "locType": "motorway",
            "blogLinks": [
                "https://en.wikipedia.org/wiki/Arroyo_Seco,_Los_Angeles,_California"
            ],
            "longitude": "-118.2806329"
        },
        "old road": {
            "latitude": "34.3328446",
            "closest_to": "pasadena",
            "address": "The Old Road, LA, Los Angeles County, California, SCV, United States of America",
            "locType": "primary",
            "blogLinks": [
                "http://www.greatamericancountry.com/living/at-home/10-great-neighborhoods-in-los-angeles"
            ],
            "longitude": "-118.506284"
        },
        "el modena": {
            "latitude": "33.7901623",
            "closest_to": "santa ana",
            "address": "El Modena, La Paloma, Orange County, California, United States of America",
            "locType": "suburb",
            "blogLinks": [
                "https://en.wikipedia.org/wiki/Santa_Ana,_California"
            ],
            "longitude": "-117.8049275"
        },
        "topanga canyon boulevard": {
            "latitude": "34.2091793",
            "closest_to": "pasadena",
            "address": "Topanga Canyon Boulevard, Canoga Park, LA, Los Angeles County, California, 91303, United States of America",
            "locType": "primary",
            "blogLinks": [
                "https://blog.virgin-atlantic.com/t5/Our-Places/mini-road-trips-los-angeles-to-santa-barbara/ba-p/1216"
            ],
            "longitude": "-118.6059598"
        },
        "john wayne airport": {
            "latitude": "33.6742056",
            "closest_to": "santa ana",
            "address": "John Wayne Airport, Airport Way, Paularino, Orange County, California, 92707, United States of America",
            "locType": "aerodrome",
            "blogLinks": [
                "https://en.wikipedia.org/wiki/Santa_Ana,_California"
            ],
            "longitude": "-117.868014707705"
        },
        "garden grove freeway": {
            "latitude": "33.7755751",
            "closest_to": "santa ana",
            "address": "Garden Grove Freeway, Santa Ana, Orange County, California, 92866, United States of America",
            "locType": "motorway",
            "blogLinks": [
                "https://en.wikipedia.org/wiki/Santa_Ana,_California"
            ],
            "longitude": "-117.8468428"
        },
        "santa monica": {
            "latitude": "34.0195598",
            "closest_to": "pasadena",
            "address": "Santa Monica, Los Angeles County, California, United States of America",
            "locType": "city",
            "blogLinks": [
                "http://www.greatamericancountry.com/living/at-home/10-great-neighborhoods-in-los-angeles",
                "http://www.bestplaces.net/city/california/arcadia",
                "http://www.bestplaces.net/city/california/aliso_viejo",
                "https://blog.virgin-atlantic.com/t5/Our-Places/mini-road-trips-los-angeles-to-santa-barbara/ba-p/1216"
            ],
            "longitude": "-118.4869738"
        },
        "verdugo mountains": {
            "latitude": "34.23053615",
            "closest_to": "pasadena",
            "address": "Verdugo Mountains, Foothill Freeway, LA, Los Angeles County, California, 91042, United States of America",
            "locType": "park",
            "blogLinks": [
                "https://en.wikipedia.org/wiki/Arroyo_Seco,_Los_Angeles,_California"
            ],
            "longitude": "-118.269379957729"
        },
        "irvine": {
            "latitude": "33.6856969",
            "closest_to": "santa ana",
            "address": "Irvine, Orange County, California, United States of America",
            "locType": "city",
            "blogLinks": [
                "https://en.wikipedia.org/wiki/Santa_Ana,_California",
                "https://blog.virgin-atlantic.com/t5/Our-Places/mini-road-trips-los-angeles-to-santa-barbara/ba-p/1216"
            ],
            "longitude": "-117.8259818"
        },
        "santa fe railway": {
            "latitude": "33.868841",
            "closest_to": "santa ana",
            "address": "Santa Fe Railway Passenger and Freight Depot, East Santa Fe Avenue, Downtown Fullerton, Fullerton, Orange County, California, 92832, United States of America",
            "locType": "heritage",
            "blogLinks": [
                "https://en.wikipedia.org/wiki/Santa_Ana,_California"
            ],
            "longitude": "-117.9226086"
        },
        "san gabriel valley": {
            "latitude": "34.0991325",
            "closest_to": "santa ana",
            "address": "San Gabriel, Los Angeles County, California, United States of America",
            "locType": "city",
            "blogLinks": [
                "https://en.wikipedia.org/wiki/Arroyo_Seco,_Los_Angeles,_California"
            ],
            "longitude": "-118.108604"
        },
        "temescal canyon park": {
            "latitude": "34.0505642",
            "closest_to": "pasadena",
            "address": "Temescal Canyon Park, Temescal Canyon Park access road, Pacific Palisades, LA, Los Angeles County, California, 90272, United States of America",
            "locType": "park",
            "blogLinks": [
                "http://www.greatamericancountry.com/living/at-home/10-great-neighborhoods-in-los-angeles"
            ],
            "longitude": "-118.5298039"
        },
        "greyhound usa": {
            "latitude": "34.1087932",
            "closest_to": "santa ana",
            "address": "The Greyhound, 5570, N Figueroa Street, Highland Park, LA, Los Angeles County, California, 90042-4229, United States of America",
            "locType": "bar",
            "blogLinks": [
                "https://en.wikipedia.org/wiki/Santa_Ana,_California"
            ],
            "longitude": "-118.1940236"
        },
        "los angeles orange": {
            "latitude": "33.9282867",
            "closest_to": "santa ana",
            "address": "California Baptist University, Magnolia Avenue, Riverside, Riverside County, California, 92879, United States of America",
            "locType": "university",
            "blogLinks": [
                "http://www.greatamericancountry.com/living/at-home/10-great-neighborhoods-in-los-angeles"
            ],
            "longitude": "-117.427248540447"
        },
        "fourth street": {
            "latitude": "34.0456752",
            "closest_to": "santa ana",
            "address": "Fourth Street, Walnut Hills Mobile Home Park, Pomona, Los Angeles County, California, 91765, United States of America",
            "locType": "residential",
            "blogLinks": [
                "https://en.wikipedia.org/wiki/Santa_Ana,_California"
            ],
            "longitude": "-117.819163"
        },
        "southern california": {
            "latitude": "34.0224149",
            "closest_to": "santa ana",
            "address": "University of Southern California, Watt Way, Saint James Park, LA, Los Angeles County, California, 90089, United States of America",
            "locType": "university",
            "blogLinks": [
                "https://en.wikipedia.org/wiki/Santa_Ana,_California",
                "http://www.bestplaces.net/city/california/arcadia",
                "https://en.wikipedia.org/wiki/Arroyo_Seco,_Los_Angeles,_California",
                "http://www.bestplaces.net/city/california/aliso_viejo"
            ],
            "longitude": "-118.286343973446"
        },
        "tustin": {
            "latitude": "33.7458511",
            "closest_to": "santa ana",
            "address": "Tustin, Orange County, California, United States of America",
            "locType": "city",
            "blogLinks": [
                "https://en.wikipedia.org/wiki/Santa_Ana,_California"
            ],
            "longitude": "-117.8261659"
        },
        "los angeles county": {
            "latitude": "34.3155072",
            "closest_to": "pasadena",
            "address": "Los Angeles County, California, United States of America",
            "locType": "administrative",
            "blogLinks": [
                "https://en.wikipedia.org/wiki/Arroyo_Seco,_Los_Angeles,_California"
            ],
            "longitude": "-118.2096813"
        },
        "rose bowl stadium": {
            "latitude": "34.1613231",
            "closest_to": "pasadena",
            "address": "Rose Bowl, Rose Bowl Drive, Pasadena, Los Angeles County, California, 91103, United States of America",
            "locType": "stadium",
            "blogLinks": [
                "https://en.wikipedia.org/wiki/Arroyo_Seco,_Los_Angeles,_California"
            ],
            "longitude": "-118.167655462606"
        },
        "newport beach": {
            "latitude": "33.6170092",
            "closest_to": "santa ana",
            "address": "Newport Beach, Orange County, California, United States of America",
            "locType": "city",
            "blogLinks": [
                "https://en.wikipedia.org/wiki/Santa_Ana,_California"
            ],
            "longitude": "-117.92944"
        },
        "cerritos": {
            "latitude": "33.8644291",
            "closest_to": "santa ana",
            "address": "Cerritos, Los Angeles County, California, United States of America",
            "locType": "city",
            "blogLinks": [
                "http://www.greatamericancountry.com/living/at-home/10-great-neighborhoods-in-los-angeles"
            ],
            "longitude": "-118.0539322"
        },
        "montecito heights": {
            "latitude": "34.0809352",
            "closest_to": "santa ana",
            "address": "Montecito Street, Lincoln Heights, Highland Park, LA, Los Angeles County, California, 90031, United States of America",
            "locType": "residential",
            "blogLinks": [
                "https://en.wikipedia.org/wiki/Arroyo_Seco,_Los_Angeles,_California"
            ],
            "longitude": "-118.2076084"
        },
        "elysian park": {
            "latitude": "34.08289815",
            "closest_to": "santa ana",
            "address": "Elysian Park, Solano Canyon Drive, Dayton Avenue, Angelino Heights, LA, Los Angeles County, California, 90012, United States of America",
            "locType": "park",
            "blogLinks": [
                "https://en.wikipedia.org/wiki/Arroyo_Seco,_Los_Angeles,_California"
            ],
            "longitude": "-118.234413340192"
        },
        "costa mesa": {
            "latitude": "33.6633386",
            "closest_to": "santa ana",
            "address": "Costa Mesa, Orange County, California, United States of America",
            "locType": "city",
            "blogLinks": [
                "https://en.wikipedia.org/wiki/Santa_Ana,_California"
            ],
            "longitude": "-117.9033169"
        },
        "claremont": {
            "latitude": "34.0966764",
            "closest_to": "santa ana",
            "address": "Claremont, Los Angeles County, California, United States of America",
            "locType": "city",
            "blogLinks": [
                "http://www.greatamericancountry.com/living/at-home/10-great-neighborhoods-in-los-angeles"
            ],
            "longitude": "-117.7197784"
        },
        "santa ana regional transportation center": {
            "latitude": "33.7516479",
            "closest_to": "santa ana",
            "address": "Santa Ana Regional Transportation Center, East Fruit Street, Santa Ana, Orange County, California, 92701, United States of America",
            "locType": "station",
            "blogLinks": [
                "https://en.wikipedia.org/wiki/Santa_Ana,_California"
            ],
            "longitude": "-117.8559727"
        },
        "millard canyon": {
            "latitude": "34.2171737",
            "closest_to": "pasadena",
            "address": "Millard, Millard Canyon Road, Altadena, Los Angeles County, California, 91001, United States of America",
            "locType": "camp_site",
            "blogLinks": [
                "https://en.wikipedia.org/wiki/Arroyo_Seco,_Los_Angeles,_California"
            ],
            "longitude": "-118.1454"
        },
        "downtown santa ana": {
            "latitude": "33.7489063",
            "closest_to": "santa ana",
            "address": "Downtown Santa Ana Historic District, North Sycamore Street, Santa Ana, Orange County, California, 92701, United States of America",
            "locType": "park",
            "blogLinks": [
                "https://en.wikipedia.org/wiki/Santa_Ana,_California"
            ],
            "longitude": "-117.8686671"
        },
        "xb1ada flintridge": {
            "latitude": "33.6338013",
            "closest_to": "santa ana",
            "address": "Flintridge, Turtle Rock, Irvine, Orange County, California, 92603, United States of America",
            "locType": "residential",
            "blogLinks": [
                "https://en.wikipedia.org/wiki/Arroyo_Seco,_Los_Angeles,_California"
            ],
            "longitude": "-117.8111037"
        },
        "los angeles international": {
            "latitude": "33.94211345",
            "closest_to": "pasadena",
            "address": "Los Angeles International Airport, Gate 41, Westchester, Playa del Rey, LA, Los Angeles County, California, 90245, United States of America",
            "locType": "aerodrome",
            "blogLinks": [
                "http://www.bestplaces.net/city/california/arcadia",
                "http://www.bestplaces.net/city/california/aliso_viejo"
            ],
            "longitude": "-118.407057290249"
        },
        "santa clarita": {
            "latitude": "34.3916641",
            "closest_to": "pasadena",
            "address": "Santa Clarita, Los Angeles County, California, United States of America",
            "locType": "city",
            "blogLinks": [
                "http://www.greatamericancountry.com/living/at-home/10-great-neighborhoods-in-los-angeles"
            ],
            "longitude": "-118.5425859"
        },
        "west coast": {
            "latitude": "34.0222263",
            "closest_to": "pasadena",
            "address": "West Coast, Motor Avenue, Palms, LA, Los Angeles County, California, 90034-5702, United States of America",
            "locType": "plumber",
            "blogLinks": [
                "https://blog.virgin-atlantic.com/t5/Our-Places/mini-road-trips-los-angeles-to-santa-barbara/ba-p/1216"
            ],
            "longitude": "-118.4051087"
        },
        "bloomfield avenue": {
            "latitude": "33.9176419",
            "closest_to": "santa ana",
            "address": "Bloomfield Avenue, Norwalk, Los Angeles County, California, 90650, United States of America",
            "locType": "secondary",
            "blogLinks": [
                "http://www.greatamericancountry.com/living/at-home/10-great-neighborhoods-in-los-angeles"
            ],
            "longitude": "-118.0639303"
        },
        "flintridge": {
            "latitude": "33.6338013",
            "closest_to": "santa ana",
            "address": "Flintridge, Turtle Rock, Irvine, Orange County, California, 92603, United States of America",
            "locType": "residential",
            "blogLinks": [
                "https://en.wikipedia.org/wiki/Arroyo_Seco,_Los_Angeles,_California"
            ],
            "longitude": "-117.8111037"
        },
        "airport way santa ana": {
            "latitude": "33.6818537",
            "closest_to": "santa ana",
            "address": "Airport Way, Orange County, California, 92707, United States of America",
            "locType": "unclassified",
            "blogLinks": [
                "https://en.wikipedia.org/wiki/Santa_Ana,_California"
            ],
            "longitude": "-117.858458"
        },
        "santa monica bay": {
            "latitude": "33.9350121",
            "closest_to": "pasadena",
            "address": "Santa Monica Bay, South Bay Bike Path, El Segundo, Los Angeles County, California, 90245, United States of America",
            "locType": "bay",
            "blogLinks": [
                "http://www.greatamericancountry.com/living/at-home/10-great-neighborhoods-in-los-angeles"
            ],
            "longitude": "-118.4667443"
        },
        "southern orange county": {
            "latitude": "33.73650595",
            "closest_to": "santa ana",
            "address": "15645, Tustin Southern Apartments, Browning, Tustin, Orange County, California, 92780, United States of America",
            "locType": "residential",
            "blogLinks": [
                "https://en.wikipedia.org/wiki/Santa_Ana,_California"
            ],
            "longitude": "-117.832613473737"
        },
        "rancho santa ana botanic gardens": {
            "latitude": "34.1115449",
            "closest_to": "santa ana",
            "address": "Rancho Santa Ana Botanic Garden, College Avenue, Claremont, Los Angeles County, California, 91711, United States of America",
            "locType": "park",
            "blogLinks": [
                "http://www.greatamericancountry.com/living/at-home/10-great-neighborhoods-in-los-angeles"
            ],
            "longitude": "-117.7149677"
        },
        "los angeles river": {
            "latitude": "34.1557816",
            "closest_to": "pasadena",
            "address": "Los Angeles River, LA, Los Angeles County, California, United States of America",
            "locType": "river",
            "blogLinks": [
                "https://en.wikipedia.org/wiki/Arroyo_Seco,_Los_Angeles,_California"
            ],
            "longitude": "-118.4421904"
        },
        "prado dam": {
            "latitude": "33.8881785",
            "closest_to": "santa ana",
            "address": "Prado Dam, Eastvale, Riverside County, California, United States of America",
            "locType": "dam",
            "blogLinks": [
                "https://en.wikipedia.org/wiki/Santa_Ana,_California"
            ],
            "longitude": "-117.634279949005"
        },
        "santa ana stadium": {
            "latitude": "33.75064685",
            "closest_to": "santa ana",
            "address": "Santa Ana Municipal Stadium, Civic Center Drive West, Santa Ana, Orange County, California, 92703, United States of America",
            "locType": "stadium",
            "blogLinks": [
                "https://en.wikipedia.org/wiki/Santa_Ana,_California"
            ],
            "longitude": "-117.877469400131"
        },
        "altadena": {
            "latitude": "34.1863161",
            "closest_to": "pasadena",
            "address": "Altadena, Los Angeles County, California, United States of America",
            "locType": "town",
            "blogLinks": [
                "https://en.wikipedia.org/wiki/Arroyo_Seco,_Los_Angeles,_California"
            ],
            "longitude": "-118.1352328"
        },
        "south pasadena": {
            "latitude": "34.1133062",
            "closest_to": "santa ana",
            "address": "South Pasadena, Los Angeles County, California, United States of America",
            "locType": "administrative",
            "blogLinks": [
                "https://en.wikipedia.org/wiki/Arroyo_Seco,_Los_Angeles,_California"
            ],
            "longitude": "-118.147829"
        },
        "santa ana city": {
            "latitude": "33.75002405",
            "closest_to": "santa ana",
            "address": "Santa Ana City Hall, North Ross Street, Santa Ana, Orange County, California, 92706, United States of America",
            "locType": "townhall",
            "blogLinks": [
                "https://en.wikipedia.org/wiki/Santa_Ana,_California"
            ],
            "longitude": "-117.87314907444"
        },
        "philadelphia street": {
            "latitude": "34.0338142",
            "closest_to": "santa ana",
            "address": "Philadelphia Street, Ontario, San Bernardino County, California, 91761, United States of America",
            "locType": "tertiary",
            "blogLinks": [
                "http://www.greatamericancountry.com/living/at-home/10-great-neighborhoods-in-los-angeles"
            ],
            "longitude": "-117.5981519"
        },
        "glendale": {
            "latitude": "34.1423455",
            "closest_to": "pasadena",
            "address": "Glendale, Los Angeles County, California, United States of America",
            "locType": "city",
            "blogLinks": [
                "http://www.bestplaces.net/city/california/arcadia",
                "https://en.wikipedia.org/wiki/Arroyo_Seco,_Los_Angeles,_California",
                "http://www.bestplaces.net/city/california/aliso_viejo"
            ],
            "longitude": "-118.248367"
        },
        "san fernando": {
            "latitude": "34.2819461",
            "closest_to": "pasadena",
            "address": "San Fernando, Los Angeles County, California, United States of America",
            "locType": "administrative",
            "blogLinks": [
                "http://www.greatamericancountry.com/living/at-home/10-great-neighborhoods-in-los-angeles"
            ],
            "longitude": "-118.4389718"
        },
        "south coast plaza": {
            "latitude": "33.6907283",
            "closest_to": "santa ana",
            "address": "South Coast Plaza, Bear Street, Costa Mesa, Orange County, California, 92704, United States of America",
            "locType": "mall",
            "blogLinks": [
                "https://en.wikipedia.org/wiki/Santa_Ana,_California"
            ],
            "longitude": "-117.889168433903"
        },
        "firestone boulevard": {
            "latitude": "33.9601498",
            "closest_to": "santa ana",
            "address": "Firestone Boulevard, Florence-Graham, Nadeau, Los Angeles County, California, 90001; 90650, United States of America",
            "locType": "primary",
            "blogLinks": [
                "https://en.wikipedia.org/wiki/Santa_Ana,_California"
            ],
            "longitude": "-118.2465978"
        },
        "dodger stadium": {
            "latitude": "34.0736255",
            "closest_to": "santa ana",
            "address": "Dodger Stadium, 1000, Vin Scully Avenue, New Chinatown, Angelino Heights, LA, Los Angeles County, California, 90012, United States of America",
            "locType": "stadium",
            "blogLinks": [
                "https://en.wikipedia.org/wiki/Arroyo_Seco,_Los_Angeles,_California"
            ],
            "longitude": "-118.238969292435"
        },
        "canada": {
            "latitude": "33.7298842",
            "closest_to": "santa ana",
            "address": "La Canada, Lower Peters Canyon, Irvine, Orange County, California, 92602, United States of America",
            "locType": "residential",
            "blogLinks": [
                "https://en.wikipedia.org/wiki/Santa_Ana,_California"
            ],
            "longitude": "-117.7641381"
        },
        "brookside park": {
            "latitude": "34.15369105",
            "closest_to": "pasadena",
            "address": "Brookside Park, Fremont Drive, Pasadena, Los Angeles County, California, 91103, United States of America",
            "locType": "park",
            "blogLinks": [
                "https://en.wikipedia.org/wiki/Arroyo_Seco,_Los_Angeles,_California"
            ],
            "longitude": "-118.164442667881"
        },
        "whittier hills": {
            "latitude": "33.9397495",
            "closest_to": "santa ana",
            "address": "Whittwood Branch Whittier Public Library, Starbuck Street, Friendly Hills, Whittier, Los Angeles County, California, 90603, United States of America",
            "locType": "library",
            "blogLinks": [
                "http://www.greatamericancountry.com/living/at-home/10-great-neighborhoods-in-los-angeles"
            ],
            "longitude": "-117.993545449378"
        },
        "arroyo seco river": {
            "latitude": "34.1129526",
            "closest_to": "santa ana",
            "address": "Arroyo Seco, LA, Los Angeles County, California, United States of America",
            "locType": "drain",
            "blogLinks": [
                "https://en.wikipedia.org/wiki/Arroyo_Seco,_Los_Angeles,_California"
            ],
            "longitude": "-118.176531"
        },
        "downtown los angeles": {
            "latitude": "34.1789188",
            "closest_to": "pasadena",
            "address": "Downtown Burbank, Front Street, Burbank, Los Angeles County, California, 91502, United States of America",
            "locType": "station",
            "blogLinks": [
                "https://en.wikipedia.org/wiki/Arroyo_Seco,_Los_Angeles,_California"
            ],
            "longitude": "-118.312628"
        },
        "sherman oaks": {
            "latitude": "34.1508718",
            "closest_to": "pasadena",
            "address": "Sherman Oaks, LA, Los Angeles County, California, United States of America",
            "locType": "suburb",
            "blogLinks": [
                "http://www.greatamericancountry.com/living/at-home/10-great-neighborhoods-in-los-angeles"
            ],
            "longitude": "-118.4489864"
        },
        "orange county": {
            "latitude": "33.7500378",
            "closest_to": "santa ana",
            "address": "Orange County, California, United States of America",
            "locType": "administrative",
            "blogLinks": [
                "https://en.wikipedia.org/wiki/Santa_Ana,_California",
                "http://www.greatamericancountry.com/living/at-home/10-great-neighborhoods-in-los-angeles",
                "https://blog.virgin-atlantic.com/t5/Our-Places/mini-road-trips-los-angeles-to-santa-barbara/ba-p/1216"
            ],
            "longitude": "-117.870493"
        },
        "san pedro": {
            "latitude": "33.7358518",
            "closest_to": "santa ana",
            "address": "San Pedro, LA, Los Angeles County, California, United States of America",
            "locType": "suburb",
            "blogLinks": [
                "https://en.wikipedia.org/wiki/Arroyo_Seco,_Los_Angeles,_California"
            ],
            "longitude": "-118.2922933"
        },
        "hollywood": {
            "latitude": "34.1028268",
            "closest_to": "pasadena",
            "address": "Hollywood, LA, Los Angeles County, California, United States of America",
            "locType": "suburb",
            "blogLinks": [
                "http://www.greatamericancountry.com/living/at-home/10-great-neighborhoods-in-los-angeles",
                "https://blog.virgin-atlantic.com/t5/Our-Places/mini-road-trips-los-angeles-to-santa-barbara/ba-p/1216"
            ],
            "longitude": "-118.3299898"
        },
        "santa ana heights": {
            "latitude": "33.6525204",
            "closest_to": "santa ana",
            "address": "Santa Ana Heights, Orange County, California, United States of America",
            "locType": "hamlet",
            "blogLinks": [
                "https://en.wikipedia.org/wiki/Santa_Ana,_California"
            ],
            "longitude": "-117.8956125"
        },
        "san fernando road": {
            "latitude": "34.3113261",
            "closest_to": "pasadena",
            "address": "San Fernando Road, Sylmar, LA, Los Angeles County, California, 91344, United States of America",
            "locType": "primary",
            "blogLinks": [
                "http://www.greatamericancountry.com/living/at-home/10-great-neighborhoods-in-los-angeles"
            ],
            "longitude": "-118.4749246"
        },
        "aliso viejo": {
            "latitude": "33.5761376",
            "closest_to": "santa ana",
            "address": "Aliso Viejo, Orange County, California, United States of America",
            "locType": "city",
            "blogLinks": [
                "http://www.distancesfrom.com/us/travel-from-Pasadena-to-Santa-Ana/TravelFromHistory/14932911.aspx",
                "http://www.bestplaces.net/city/california/aliso_viejo"
            ],
            "longitude": "-117.7258121"
        },
        "santa monica mountains conservancy": {
            "latitude": "34.15089545",
            "closest_to": "pasadena",
            "address": "Santa Monica Mountains Conservancy, Reforma Road, Woodland Hills, LA, Los Angeles County, California, 91364, United States of America",
            "locType": "park",
            "blogLinks": [
                "https://en.wikipedia.org/wiki/Arroyo_Seco,_Los_Angeles,_California"
            ],
            "longitude": "-118.616054173671"
        },
        "mission san juan capistrano": {
            "latitude": "33.50381465",
            "closest_to": "santa ana",
            "address": "Mission San Juan Capistrano, El Camino Real, San Juan Capistrano, Orange County, California, 92675, United States of America",
            "locType": "place_of_worship",
            "blogLinks": [
                "https://en.wikipedia.org/wiki/Santa_Ana,_California"
            ],
            "longitude": "-117.663061669391"
        },
        "carpenteria": {
            "latitude": "33.7274726",
            "closest_to": "santa ana",
            "address": "Carpenteria, Lower Peters Canyon, Irvine, Orange County, California, 92602, United States of America",
            "locType": "residential",
            "blogLinks": [
                "https://blog.virgin-atlantic.com/t5/Our-Places/mini-road-trips-los-angeles-to-santa-barbara/ba-p/1216"
            ],
            "longitude": "-117.7681721"
        },
        "boston": {
            "latitude": "33.696779",
            "closest_to": "santa ana",
            "address": "Boston, Heritage Park Apartments, El Camino Real, Irvine, Orange County, California, 92604, United States of America",
            "locType": "residential",
            "blogLinks": [
                "https://en.wikipedia.org/wiki/Santa_Ana,_California"
            ],
            "longitude": "-117.7757132"
        },
        "los angeles": {
            "latitude": "34.0543942",
            "closest_to": "santa ana",
            "address": "LA, Los Angeles County, California, United States of America",
            "locType": "city",
            "blogLinks": [
                "http://www.bestplaces.net/city/california/arcadia",
                "https://blog.virgin-atlantic.com/t5/Our-Places/mini-road-trips-los-angeles-to-santa-barbara/ba-p/1216",
                "https://en.wikipedia.org/wiki/Santa_Ana,_California",
                "http://traveltips.usatoday.com/fun-things-los-angeles-san-francisco-14664.html",
                "https://en.wikipedia.org/wiki/Arroyo_Seco,_Los_Angeles,_California",
                "http://www.greatamericancountry.com/living/at-home/10-great-neighborhoods-in-los-angeles",
                "http://www.bestplaces.net/city/california/aliso_viejo"
            ],
            "longitude": "-118.2439408"
        },
        "mexico city": {
            "latitude": "34.1106298",
            "closest_to": "pasadena",
            "address": "Mexico City, Avocado Street, Los Feliz, Atwater, LA, Los Angeles County, California, 90027, United States of America",
            "locType": "restaurant",
            "blogLinks": [
                "https://en.wikipedia.org/wiki/Santa_Ana,_California"
            ],
            "longitude": "-118.2876599"
        },
        "orange": {
            "latitude": "33.7500378",
            "closest_to": "santa ana",
            "address": "Orange County, California, United States of America",
            "locType": "administrative",
            "blogLinks": [
                "https://en.wikipedia.org/wiki/Santa_Ana,_California"
            ],
            "longitude": "-117.870493"
        },
        "santa ana river": {
            "latitude": "33.847255",
            "closest_to": "santa ana",
            "address": "Santa Ana River, Anaheim, Orange County, California, United States of America",
            "locType": "river",
            "blogLinks": [
                "https://en.wikipedia.org/wiki/Santa_Ana,_California"
            ],
            "longitude": "-117.8400508"
        },
        "uptown whittier": {
            "latitude": "33.9734916",
            "closest_to": "santa ana",
            "address": "Uptown Market, Mar Vista Street, East Whittier, Whittier, Los Angeles County, California, 90602:90605, United States of America",
            "locType": "supermarket",
            "blogLinks": [
                "http://www.greatamericancountry.com/living/at-home/10-great-neighborhoods-in-los-angeles"
            ],
            "longitude": "-118.037741263868"
        },
        "riverside": {
            "latitude": "33.9533546",
            "closest_to": "santa ana",
            "address": "Riverside, Riverside County, California, United States of America",
            "locType": "city",
            "blogLinks": [
                "https://en.wikipedia.org/wiki/Santa_Ana,_California"
            ],
            "longitude": "-117.3961622"
        },
        "east whittier": {
            "latitude": "33.9244577",
            "closest_to": "santa ana",
            "address": "East La Mirada, Leffingwell, Los Angeles County, California, United States of America",
            "locType": "suburb",
            "blogLinks": [
                "http://www.greatamericancountry.com/living/at-home/10-great-neighborhoods-in-los-angeles"
            ],
            "longitude": "-117.9889524"
        },
        "costa mesa freeway": {
            "latitude": "33.8423894",
            "closest_to": "santa ana",
            "address": "Costa Mesa Freeway, Anaheim, Orange County, California, 92865, United States of America",
            "locType": "motorway",
            "blogLinks": [
                "https://en.wikipedia.org/wiki/Santa_Ana,_California"
            ],
            "longitude": "-117.830154"
        },
        "san marino": {
            "latitude": "34.1215947",
            "closest_to": "santa ana",
            "address": "San Marino, Los Angeles County, California, United States of America",
            "locType": "town",
            "blogLinks": [
                "http://www.bestplaces.net/city/california/arcadia",
                "http://www.bestplaces.net/city/california/aliso_viejo"
            ],
            "longitude": "-118.1057393"
        },
        "garden grove": {
            "latitude": "33.7746292",
            "closest_to": "santa ana",
            "address": "Garden Grove, Orange County, California, United States of America",
            "locType": "city",
            "blogLinks": [
                "https://en.wikipedia.org/wiki/Santa_Ana,_California"
            ],
            "longitude": "-117.9463716"
        },
        "cypress park": {
            "latitude": "34.0922322",
            "closest_to": "santa ana",
            "address": "Cypress Park, Highland Park, LA, Los Angeles County, California, 90065, United States of America",
            "locType": "neighbourhood",
            "blogLinks": [
                "https://en.wikipedia.org/wiki/Arroyo_Seco,_Los_Angeles,_California"
            ],
            "longitude": "-118.2245178"
        },
        "arcadia": {
            "latitude": "34.1362075",
            "closest_to": "santa ana",
            "address": "Arcadia, Los Angeles County, California, United States of America",
            "locType": "city",
            "blogLinks": [
                "https://en.wikipedia.org/wiki/Santa_Ana,_California",
                "http://www.bestplaces.net/city/california/arcadia"
            ],
            "longitude": "-118.0401496"
        },
        "pasadena": {
            "latitude": "34.1476452",
            "closest_to": "pasadena",
            "address": "Pasadena, Los Angeles County, California, United States of America",
            "locType": "city",
            "blogLinks": [
                "http://www.distancesfrom.com/us/travel-from-Pasadena-to-Santa-Ana/TravelFromHistory/14932911.aspx",
                "http://www.greatamericancountry.com/living/at-home/10-great-neighborhoods-in-los-angeles",
                "https://www.ridebooker.com/transfers/santa-ana-ca/pasadena-ca/luxury-suv",
                "https://www.ridebooker.com/transfers/pasadena-ca/santa-ana-ca",
                "https://www.distancecalculator.net/from-santa-ana-to-pasadena-2",
                "http://www.distancesfrom.com/us/how-far-is-Santa-Ana-from-Pasadena/HowFarHistory/14932911.aspx",
                "http://www.bestplaces.net/city/california/arcadia",
                "https://www.ridebooker.com/transfers/pasadena-ca/santa-ana-ca/luxury-suv",
                "https://en.wikipedia.org/wiki/Arroyo_Seco,_Los_Angeles,_California",
                "http://www.bestplaces.net/city/california/aliso_viejo",
                "https://www.ridebooker.com/transfers/santa-ana-ca/pasadena-ca/van"
            ],
            "longitude": "-118.1444778"
        },
        "mount wilson": {
            "latitude": "34.2263926",
            "closest_to": "pasadena",
            "address": "Mount Wilson, Los Angeles County, California, United States of America",
            "locType": "hamlet",
            "blogLinks": [
                "https://en.wikipedia.org/wiki/Arroyo_Seco,_Los_Angeles,_California"
            ],
            "longitude": "-118.0661796"
        },
        "los angeles county flood control district": {
            "latitude": "34.0471198",
            "closest_to": "santa ana",
            "address": "Los Angeles County Flood Control District, Rio Hondo Bike Path, El Monte, Los Angeles County, California, 91770, United States of America",
            "locType": "wood",
            "blogLinks": [
                "https://en.wikipedia.org/wiki/Arroyo_Seco,_Los_Angeles,_California"
            ],
            "longitude": "-118.072834725479"
        },
        "raymond basin": {
            "latitude": "33.848747",
            "closest_to": "santa ana",
            "address": "Raymond Retarding Basin, Anaheim, Orange County, California, United States of America",
            "locType": "locality",
            "blogLinks": [
                "https://en.wikipedia.org/wiki/Arroyo_Seco,_Los_Angeles,_California"
            ],
            "longitude": "-117.908131941059"
        },
        "manhattan beach": {
            "latitude": "33.8950839",
            "closest_to": "pasadena",
            "address": "Manhattan Beach, Los Angeles County, California, United States of America",
            "locType": "city",
            "blogLinks": [
                "http://www.greatamericancountry.com/living/at-home/10-great-neighborhoods-in-los-angeles"
            ],
            "longitude": "-118.4000146"
        },
        "santa ana freeway": {
            "latitude": "33.8512853",
            "closest_to": "santa ana",
            "address": "Santa Ana Freeway, West Anaheim, Anaheim, Orange County, California, 92801, United States of America",
            "locType": "motorway",
            "blogLinks": [
                "https://en.wikipedia.org/wiki/Santa_Ana,_California"
            ],
            "longitude": "-117.9707394"
        },
        "beverly hills": {
            "latitude": "34.0736204",
            "closest_to": "pasadena",
            "address": "Beverly Hills, Los Angeles County, California, United States of America",
            "locType": "city",
            "blogLinks": [
                "http://www.bestplaces.net/city/california/arcadia",
                "http://www.bestplaces.net/city/california/aliso_viejo"
            ],
            "longitude": "-118.4003562"
        },
        "riverside freeway": {
            "latitude": "33.9349397",
            "closest_to": "santa ana",
            "address": "Riverside Freeway, Riverside, Riverside County, California, 92504, United States of America",
            "locType": "motorway",
            "blogLinks": [
                "https://en.wikipedia.org/wiki/Santa_Ana,_California"
            ],
            "longitude": "-117.4063671"
        },
        "san gabriel": {
            "latitude": "34.0991325",
            "closest_to": "santa ana",
            "address": "San Gabriel, Los Angeles County, California, United States of America",
            "locType": "city",
            "blogLinks": [
                "http://www.greatamericancountry.com/living/at-home/10-great-neighborhoods-in-los-angeles"
            ],
            "longitude": "-118.108604"
        },
        "burbank": {
            "latitude": "34.1816482",
            "closest_to": "pasadena",
            "address": "Burbank, Los Angeles County, California, United States of America",
            "locType": "city",
            "blogLinks": [
                "http://www.bestplaces.net/city/california/arcadia",
                "http://www.bestplaces.net/city/california/aliso_viejo"
            ],
            "longitude": "-118.3258553"
        },
        "santa ana": {
            "latitude": "33.7494951",
            "closest_to": "santa ana",
            "address": "Santa Ana, Orange County, California, United States of America",
            "locType": "city",
            "blogLinks": [
                "http://www.distancesfrom.com/us/travel-from-Pasadena-to-Santa-Ana/TravelFromHistory/14932911.aspx",
                "https://www.ridebooker.com/transfers/pasadena-ca/santa-ana-ca",
                "https://www.ridebooker.com/transfers/santa-ana-ca/pasadena-ca/luxury-suv",
                "https://www.distancecalculator.net/from-santa-ana-to-pasadena-2",
                "http://www.distancesfrom.com/us/how-far-is-Santa-Ana-from-Pasadena/HowFarHistory/14932911.aspx",
                "https://www.ridebooker.com/transfers/pasadena-ca/santa-ana-ca/luxury-suv",
                "https://en.wikipedia.org/wiki/Santa_Ana,_California",
                "http://traveltips.usatoday.com/fun-things-los-angeles-san-francisco-14664.html",
                "https://www.groupon.com/local/santa-ana/things-to-do",
                "https://www.ridebooker.com/transfers/santa-ana-ca/pasadena-ca/van"
            ],
            "longitude": "-117.8732212"
        },
        "valencia town center": {
            "latitude": "34.41642985",
            "closest_to": "pasadena",
            "address": "Valencia Town Center, Valencia, Santa Clarita, Los Angeles County, California, 91355, United States of America",
            "locType": "retail",
            "blogLinks": [
                "http://www.greatamericancountry.com/living/at-home/10-great-neighborhoods-in-los-angeles"
            ],
            "longitude": "-118.557273163561"
        },
        "san fernando valley": {
            "latitude": "34.2819461",
            "closest_to": "pasadena",
            "address": "San Fernando, Los Angeles County, California, United States of America",
            "locType": "administrative",
            "blogLinks": [
                "http://www.greatamericancountry.com/living/at-home/10-great-neighborhoods-in-los-angeles",
                "http://www.bestplaces.net/city/california/arcadia",
                "https://en.wikipedia.org/wiki/Arroyo_Seco,_Los_Angeles,_California",
                "http://www.bestplaces.net/city/california/aliso_viejo",
                "https://blog.virgin-atlantic.com/t5/Our-Places/mini-road-trips-los-angeles-to-santa-barbara/ba-p/1216"
            ],
            "longitude": "-118.4389718"
        },
        "topeka": {
            "latitude": "33.6911755",
            "closest_to": "santa ana",
            "address": "Topeka, El Camino Real, Irvine, Orange County, California, 92406, United States of America",
            "locType": "residential",
            "blogLinks": [
                "https://en.wikipedia.org/wiki/Santa_Ana,_California"
            ],
            "longitude": "-117.7703945"
        },
        "sepulveda boulevard": {
            "latitude": "34.1172036",
            "closest_to": "pasadena",
            "address": "Sepulveda Boulevard, Encino, LA, Los Angeles County, California, 90049, United States of America",
            "locType": "primary",
            "blogLinks": [
                "http://www.greatamericancountry.com/living/at-home/10-great-neighborhoods-in-los-angeles"
            ],
            "longitude": "-118.4825211"
        },
        "pacific palisades": {
            "latitude": "34.0480643",
            "closest_to": "pasadena",
            "address": "Pacific Palisades, LA, Los Angeles County, California, 90272, United States of America",
            "locType": "neighbourhood",
            "blogLinks": [
                "http://www.greatamericancountry.com/living/at-home/10-great-neighborhoods-in-los-angeles"
            ],
            "longitude": "-118.5264705"
        },
        "culver": {
            "latitude": "34.0211224",
            "closest_to": "pasadena",
            "address": "Culver City, Los Angeles County, California, United States of America",
            "locType": "administrative",
            "blogLinks": [
                "http://www.greatamericancountry.com/living/at-home/10-great-neighborhoods-in-los-angeles"
            ],
            "longitude": "-118.3964664"
        },
        "whittier": {
            "latitude": "33.9748932",
            "closest_to": "santa ana",
            "address": "Whittier, Los Angeles County, California, United States of America",
            "locType": "city",
            "blogLinks": [
                "http://www.greatamericancountry.com/living/at-home/10-great-neighborhoods-in-los-angeles"
            ],
            "longitude": "-118.0336974"
        },
        "long beach": {
            "latitude": "33.78538945",
            "closest_to": "santa ana",
            "address": "Long Beach, Los Angeles County, California, United States of America",
            "locType": "city",
            "blogLinks": [
                "https://en.wikipedia.org/wiki/Santa_Ana,_California",
                "http://www.bestplaces.net/city/california/arcadia",
                "http://www.bestplaces.net/city/california/aliso_viejo",
                "http://www.greatamericancountry.com/living/at-home/10-great-neighborhoods-in-los-angeles"
            ],
            "longitude": "-118.158049215311"
        },
        "santa ana route": {
            "latitude": "33.7494951",
            "closest_to": "santa ana",
            "address": "Santa Ana, Orange County, California, United States of America",
            "locType": "city",
            "blogLinks": [
                "http://www.distancesfrom.com/us/travel-from-Pasadena-to-Santa-Ana/TravelFromHistory/14932911.aspx"
            ],
            "longitude": "-117.8732212"
        },
        "valley": {
            "latitude": "34.0148403",
            "closest_to": "santa ana",
            "address": "Valley, South Stimson Avenue, Industry, Los Angeles County, California, 91745, United States of America",
            "locType": "yes",
            "blogLinks": [
                "http://www.greatamericancountry.com/living/at-home/10-great-neighborhoods-in-los-angeles"
            ],
            "longitude": "-117.955234675878"
        },
        "alhambra": {
            "latitude": "34.0927361",
            "closest_to": "santa ana",
            "address": "Alhambra, Los Angeles County, California, United States of America",
            "locType": "city",
            "blogLinks": [
                "https://en.wikipedia.org/wiki/Arroyo_Seco,_Los_Angeles,_California"
            ],
            "longitude": "-118.1268241"
        },
        "greenleaf avenue": {
            "latitude": "33.9564313",
            "closest_to": "santa ana",
            "address": "Greenleaf Avenue, Whittier, Los Angeles County, California, 90670, United States of America",
            "locType": "tertiary",
            "blogLinks": [
                "http://www.greatamericancountry.com/living/at-home/10-great-neighborhoods-in-los-angeles"
            ],
            "longitude": "-118.0464691"
        },
        "dana point": {
            "latitude": "33.4669721",
            "closest_to": "santa ana",
            "address": "Dana Point, Orange County, California, United States of America",
            "locType": "city",
            "blogLinks": [
                "https://blog.virgin-atlantic.com/t5/Our-Places/mini-road-trips-los-angeles-to-santa-barbara/ba-p/1216"
            ],
            "longitude": "-117.6981074"
        },
        "city of orange": {
            "latitude": "33.7447388",
            "closest_to": "santa ana",
            "address": "Midway City, Orange County, California, United States of America",
            "locType": "hamlet",
            "blogLinks": [
                "https://en.wikipedia.org/wiki/Santa_Ana,_California"
            ],
            "longitude": "-117.9892262"
        },
        "ventura boulevard": {
            "latitude": "34.1467275",
            "closest_to": "pasadena",
            "address": "Ventura Boulevard, Sherman Oaks, LA, Los Angeles County, California, 91423, United States of America",
            "locType": "primary",
            "blogLinks": [
                "http://www.greatamericancountry.com/living/at-home/10-great-neighborhoods-in-los-angeles"
            ],
            "longitude": "-118.4234198"
        }
    },
    "santa ana": {
        "type": "city",
        "osm_id": "2311446",
        "class": "place",
        "importance": 0.80067109924196,
        "lat": "33.7494951",
        "lon": "-117.8732212",
        "boundingbox": [
            "33.6916541",
            "33.7840133",
            "-117.9439458",
            "-117.8303494"
        ],
        "display_name": "Santa Ana, Orange County, California, United States of America",
        "licence": "Data \u00a9 OpenStreetMap contributors, ODbL 1.0. http://www.openstreetmap.org/copyright",
        "icon": "https://nominatim.openstreetmap.org/images/mapicons/poi_place_city.p.20.png",
        "place_id": "159122957",
        "osm_type": "relation"
    }
}