{
    "mentions": {
        "san francisco harbor": {
            "latitude": "37.8509548",
            "closest_to": "sausalito",
            "address": "KRQR-FM (San Francisco), Wolfback Ridge Road, Marin City, Marin County, California, 94965, United States of America",
            "locType": "tower",
            "blogLinks": [
                "http://www.goldengatetours.net/places"
            ],
            "longitude": "-122.4984867"
        },
        "golden gate bridge": {
            "latitude": "37.8302809",
            "closest_to": "sausalito",
            "address": "Golden Gate Bridge, Waldo, Marin County, California, 94965, United States of America",
            "locType": "motorway",
            "blogLinks": [
                "http://www.upout.com/blog/san-francisco-3/7-easy-weekend-getaways-within-100-miles-of-san-francisco",
                "http://www.fluxiontour.com/2014/02/road-trip-san-francisco-bodega-bay.html"
            ],
            "longitude": "-122.4798473"
        },
        "brighton state beach": {
            "latitude": "36.98295",
            "closest_to": "santa cruz",
            "address": "New Brighton State Beach, Capitola, Santa Cruz County, California, 95010, United States of America",
            "locType": "residential",
            "blogLinks": [
                "http://www.upout.com/blog/san-francisco-3/7-easy-weekend-getaways-within-100-miles-of-san-francisco"
            ],
            "longitude": "-121.9361699"
        },
        "pacific ocean": {
            "latitude": "36.16305775",
            "closest_to": "santa cruz",
            "address": "Pacific Ocean, Cabrillo Highway, Monterey County, California, 93920, United States of America",
            "locType": "cliff",
            "blogLinks": [
                "http://travelblog.viator.com/road-trip-san-francisco-los-angeles/",
                "http://www.goldengatetours.net/places"
            ],
            "longitude": "-121.678715787326"
        },
        "carmel-by-the-sea": {
            "latitude": "36.5552387",
            "closest_to": "santa cruz",
            "address": "Carmel-by-the-Sea, Monterey County, California, United States of America",
            "locType": "city",
            "blogLinks": [
                "http://travelblog.viator.com/road-trip-san-francisco-los-angeles/"
            ],
            "longitude": "-121.9232878"
        },
        "river street": {
            "latitude": "36.988615",
            "closest_to": "sausalito",
            "address": "River Street, Downtown, Santa Cruz, Santa Cruz County, California, 95060, United States of America",
            "locType": "primary",
            "blogLinks": [
                "https://www.tripadvisor.com/ShowTopic-g28926-i29-k6471461-Sausalito_Monterey_via_Henry_Cowell_Redwoods_SP-California.html"
            ],
            "longitude": "-122.0306102"
        },
        "tomales bay": {
            "latitude": "38.0812158",
            "closest_to": "sausalito",
            "address": "Tomales Bay, Bivalve, Marin County, California, 94948, United States of America",
            "locType": "path",
            "blogLinks": [
                "http://fathomaway.com/guides/usa/san-francisco/itineraries/where-to-go-from-san-francisco/",
                "http://travelblog.viator.com/road-trip-san-francisco-los-angeles/",
                "http://www.fluxiontour.com/2014/02/road-trip-san-francisco-bodega-bay.html"
            ],
            "longitude": "-122.8225806"
        },
        "nepenthe": {
            "latitude": "36.2218116",
            "closest_to": "santa cruz",
            "address": "Nepenthe, 48510, Cabrillo Highway, Posts, Monterey County, California, 93920-9549, United States of America",
            "locType": "restaurant",
            "blogLinks": [
                "http://travelblog.viator.com/road-trip-san-francisco-los-angeles/"
            ],
            "longitude": "-121.7596564"
        },
        "santa cruz": {
            "latitude": "36.9735903",
            "closest_to": "santa cruz",
            "address": "Santa Cruz, Santa Cruz County, California, United States of America",
            "locType": "city",
            "blogLinks": [
                "http://www.fluxiontour.com/2014/02/road-trip-san-francisco-bodega-bay.html",
                "http://www.distancesfrom.com/us/travel-from-Santa-Cruz-to-Sausalito-CA/TravelFromHistory/5069450.aspx",
                "http://www.santacruz.org/",
                "https://www.tripadvisor.com/ShowTopic-g28926-i29-k6471461-Sausalito_Monterey_via_Henry_Cowell_Redwoods_SP-California.html",
                "http://www.santacruz.org/Blog",
                "http://www.goldengatetours.net/places",
                "http://www.distancesfrom.com/us/travel-from-Sausalito-to-Santa-Cruz/TravelFromHistory/8616749.aspx"
            ],
            "longitude": "-122.0260569"
        },
        "santa cruz beach": {
            "latitude": "36.9632617",
            "closest_to": "santa cruz",
            "address": "Santa Cruz Beach, Boardwalk, Beach & Boardwalk District (Commercial), Seabright, Santa Cruz, Santa Cruz County, California, 1982, United States of America",
            "locType": "beach",
            "blogLinks": [
                "http://www.santacruz.org/Blog"
            ],
            "longitude": "-122.0189205"
        },
        "monterey county": {
            "latitude": "36.2231079",
            "closest_to": "santa cruz",
            "address": "Monterey County, California, United States of America",
            "locType": "administrative",
            "blogLinks": [
                "http://travelblog.viator.com/road-trip-san-francisco-los-angeles/"
            ],
            "longitude": "-121.3877427"
        },
        "san francisco bay area": {
            "latitude": "37.7884969",
            "closest_to": "sausalito",
            "address": "San Francisco Bay Area, SF, California, United States of America",
            "locType": "region",
            "blogLinks": [
                "http://www.goldengatetours.net/places"
            ],
            "longitude": "-122.3558472"
        },
        "oakland": {
            "latitude": "37.8044557",
            "closest_to": "sausalito",
            "address": "Oakland, Alameda County, California, United States of America",
            "locType": "city",
            "blogLinks": [
                "http://www.goldengatetours.net/places"
            ],
            "longitude": "-122.2713562"
        },
        "point reyes national seashore park": {
            "latitude": "38.07053155",
            "closest_to": "sausalito",
            "address": "Point Reyes National Seashore, Estero Trail, Marin County, California, 94956, United States of America",
            "locType": "national_park",
            "blogLinks": [
                "http://www.fluxiontour.com/2014/02/road-trip-san-francisco-bodega-bay.html"
            ],
            "longitude": "-122.917612093422"
        },
        "monterey": {
            "latitude": "36.5844165",
            "closest_to": "santa cruz",
            "address": "Monterey, Monterey County, California, United States of America",
            "locType": "city",
            "blogLinks": [
                "http://www.santacruz.org/",
                "https://www.tripadvisor.com/ShowTopic-g28926-i29-k6471461-Sausalito_Monterey_via_Henry_Cowell_Redwoods_SP-California.html"
            ],
            "longitude": "-121.866792846206"
        },
        "golden gate": {
            "latitude": "37.8190177",
            "closest_to": "sausalito",
            "address": "Golden Gate, Golden Gate Bridge, Waldo, Marin County, California, 94965, United States of America",
            "locType": "strait",
            "blogLinks": [
                "http://www.goldengatetours.net/places"
            ],
            "longitude": "-122.4793972"
        },
        "purisma creek redwoods": {
            "latitude": "37.4298459",
            "closest_to": "sausalito",
            "address": "Purisma Creek Redwoods Open Space Preserve, Purisima Creek Trail, Grabtown, San Mateo County, California, United States of America",
            "locType": "protected_area",
            "blogLinks": [
                "http://fathomaway.com/guides/usa/san-francisco/itineraries/where-to-go-from-san-francisco/"
            ],
            "longitude": "-122.337283342048"
        },
        "marin county": {
            "latitude": "38.0409144",
            "closest_to": "sausalito",
            "address": "Marin County, California, United States of America",
            "locType": "administrative",
            "blogLinks": [
                "http://www.upout.com/blog/san-francisco-3/7-easy-weekend-getaways-within-100-miles-of-san-francisco"
            ],
            "longitude": "-122.6199637"
        },
        "mcway falls trail": {
            "latitude": "36.1578211",
            "closest_to": "santa cruz",
            "address": "McWay Falls, Monterey County, California, United States of America",
            "locType": "waterfall",
            "blogLinks": [
                "http://travelblog.viator.com/road-trip-san-francisco-los-angeles/"
            ],
            "longitude": "-121.6723957"
        },
        "sonoma county": {
            "latitude": "38.5110803",
            "closest_to": "sausalito",
            "address": "Sonoma County, California, United States of America",
            "locType": "administrative",
            "blogLinks": [
                "http://www.upout.com/blog/san-francisco-3/7-easy-weekend-getaways-within-100-miles-of-san-francisco"
            ],
            "longitude": "-122.8473387"
        },
        "bixby creek bridge": {
            "latitude": "36.3710197",
            "closest_to": "santa cruz",
            "address": "Bixby Creek Bridge, Notleys Landing, Monterey County, California, 93923, United States of America",
            "locType": "primary",
            "blogLinks": [
                "http://travelblog.viator.com/road-trip-san-francisco-los-angeles/"
            ],
            "longitude": "-121.9017572"
        },
        "jenner": {
            "latitude": "38.4496365",
            "closest_to": "sausalito",
            "address": "Jenner, Sonoma County, California, United States of America",
            "locType": "hamlet",
            "blogLinks": [
                "http://www.goldengatetours.net/places"
            ],
            "longitude": "-123.1155587"
        },
        "santa cruz county": {
            "latitude": "37.050096",
            "closest_to": "sausalito",
            "address": "Santa Cruz County, California, United States of America",
            "locType": "administrative",
            "blogLinks": [
                "http://www.upout.com/blog/san-francisco-3/7-easy-weekend-getaways-within-100-miles-of-san-francisco",
                "http://www.santacruz.org/",
                "http://www.santacruz.org/Blog",
                "http://www.distancesfrom.com/us/travel-from-Santa-Cruz-to-Sausalito-CA/TravelFromHistory/5069450.aspx"
            ],
            "longitude": "-121.9905907"
        },
        "sausalito": {
            "latitude": "37.8590272",
            "closest_to": "sausalito",
            "address": "Sausalito, Marin County, California, United States of America",
            "locType": "administrative",
            "blogLinks": [
                "http://www.fluxiontour.com/2014/02/road-trip-san-francisco-bodega-bay.html",
                "https://www.tripadvisor.com/ShowTopic-g28926-i29-k6471461-Sausalito_Monterey_via_Henry_Cowell_Redwoods_SP-California.html",
                "http://www.distancesfrom.com/us/travel-from-Sausalito-to-Santa-Cruz/TravelFromHistory/8616749.aspx",
                "http://www.distancesfrom.com/us/travel-from-Santa-Cruz-to-Sausalito-CA/TravelFromHistory/5069450.aspx"
            ],
            "longitude": "-122.4854693"
        },
        "monterey bay aquarium": {
            "latitude": "36.61809095",
            "closest_to": "santa cruz",
            "address": "MBA, 886, Cannery Row, Monterey, Monterey County, California, 93940, United States of America",
            "locType": "aquarium",
            "blogLinks": [
                "http://travelblog.viator.com/road-trip-san-francisco-los-angeles/"
            ],
            "longitude": "-121.901680002002"
        },
        "san jose": {
            "latitude": "37.3361905",
            "closest_to": "sausalito",
            "address": "San Jos\u00e9, Santa Clara County, California, United States of America",
            "locType": "city",
            "blogLinks": [
                "http://www.goldengatetours.net/places"
            ],
            "longitude": "-121.8905832"
        },
        "santa cruz route": {
            "latitude": "36.9735903",
            "closest_to": "santa cruz",
            "address": "Santa Cruz, Santa Cruz County, California, United States of America",
            "locType": "city",
            "blogLinks": [
                "http://www.distancesfrom.com/us/travel-from-Sausalito-to-Santa-Cruz/TravelFromHistory/8616749.aspx"
            ],
            "longitude": "-122.0260569"
        },
        "capitola": {
            "latitude": "36.9762927",
            "closest_to": "santa cruz",
            "address": "Capitola, Santa Cruz County, California, United States of America",
            "locType": "city",
            "blogLinks": [
                "http://www.upout.com/blog/san-francisco-3/7-easy-weekend-getaways-within-100-miles-of-san-francisco"
            ],
            "longitude": "-121.9540576"
        },
        "santa cruz beach boardwalk": {
            "latitude": "36.96446855",
            "closest_to": "santa cruz",
            "address": "Santa Cruz Beach Boardwalk, Boardwalk, Beach & Boardwalk District (Commercial), Seabright, Santa Cruz, Santa Cruz County, California, 1982, United States of America",
            "locType": "attraction",
            "blogLinks": [
                "http://travelblog.viator.com/road-trip-san-francisco-los-angeles/"
            ],
            "longitude": "-122.016027247326"
        },
        "pescadero": {
            "latitude": "37.2516018",
            "closest_to": "sausalito",
            "address": "Pescadero, San Mateo County, California, United States of America",
            "locType": "village",
            "blogLinks": [
                "http://www.upout.com/blog/san-francisco-3/7-easy-weekend-getaways-within-100-miles-of-san-francisco"
            ],
            "longitude": "-122.3821926"
        },
        "bay area": {
            "latitude": "37.7884969",
            "closest_to": "sausalito",
            "address": "San Francisco Bay Area, SF, California, United States of America",
            "locType": "region",
            "blogLinks": [
                "http://www.fluxiontour.com/2014/02/road-trip-san-francisco-bodega-bay.html"
            ],
            "longitude": "-122.3558472"
        },
        "san francisco": {
            "latitude": "37.7792808",
            "closest_to": "sausalito",
            "address": "SF, California, United States of America",
            "locType": "city",
            "blogLinks": [
                "http://www.fluxiontour.com/2014/02/road-trip-san-francisco-bodega-bay.html",
                "http://www.santacruz.org/",
                "https://www.tripadvisor.com/ShowTopic-g28926-i29-k6471461-Sausalito_Monterey_via_Henry_Cowell_Redwoods_SP-California.html",
                "http://www.upout.com/blog/san-francisco-3/7-easy-weekend-getaways-within-100-miles-of-san-francisco",
                "http://fathomaway.com/guides/usa/san-francisco/itineraries/where-to-go-from-san-francisco/",
                "http://www.goldengatetours.net/places",
                "http://travelblog.viator.com/road-trip-san-francisco-los-angeles/"
            ],
            "longitude": "-122.4192362"
        },
        "deetjens": {
            "latitude": "36.2174815",
            "closest_to": "santa cruz",
            "address": "Deetjen's Big Sur Inn, Cabrillo Highway, Posts, Monterey County, California, 93920, United States of America",
            "locType": "hotel",
            "blogLinks": [
                "http://fathomaway.com/guides/usa/san-francisco/itineraries/where-to-go-from-san-francisco/"
            ],
            "longitude": "-121.750612100288"
        },
        "santa cruz mountains": {
            "latitude": "37.2188403",
            "closest_to": "sausalito",
            "address": "Santa Cruz Mountains, Santa Clara County, California, United States of America",
            "locType": "mountain_range",
            "blogLinks": [
                "http://www.goldengatetours.net/places"
            ],
            "longitude": "-122.0712855"
        },
        "big sur bakery": {
            "latitude": "36.2359105",
            "closest_to": "santa cruz",
            "address": "Big Sur Bakery, 47540, Cabrillo Highway, Posts, Monterey County, California, 93920, United States of America",
            "locType": "bakery",
            "blogLinks": [
                "http://travelblog.viator.com/road-trip-san-francisco-los-angeles/"
            ],
            "longitude": "-121.7693642"
        },
        "san francisco zoo": {
            "latitude": "37.73292535",
            "closest_to": "sausalito",
            "address": "San Francisco Zoo, To Little Puffer Steam Train, SF, California, 94166, United States of America",
            "locType": "zoo",
            "blogLinks": [
                "http://www.goldengatetours.net/places"
            ],
            "longitude": "-122.502355346322"
        },
        "fort point": {
            "latitude": "37.8104864",
            "closest_to": "sausalito",
            "address": "Fort Point National Historic Site, Marine Drive, SF, California, 94129, United States of America",
            "locType": "castle",
            "blogLinks": [
                "http://www.goldengatetours.net/places"
            ],
            "longitude": "-122.476881918058"
        },
        "ca": {
            "latitude": "37.8242285466918",
            "closest_to": "sausalito",
            "address": "Piedmont, Alameda County, California, ca, United States of America",
            "locType": "postcode",
            "blogLinks": [
                "http://www.distancesfrom.com/us/travel-from-Sausalito-to-Santa-Cruz/TravelFromHistory/8616749.aspx"
            ],
            "longitude": "-122.232613735941"
        },
        "hog island": {
            "latitude": "38.0040892",
            "closest_to": "sausalito",
            "address": "Hog Island, San Joaquin County, California, United States of America",
            "locType": "island",
            "blogLinks": [
                "http://www.fluxiontour.com/2014/02/road-trip-san-francisco-bodega-bay.html"
            ],
            "longitude": "-121.4480058"
        },
        "bodega bay": {
            "latitude": "38.273529",
            "closest_to": "sausalito",
            "address": "Bodega Bay, Estero Lane, Bodega Bay, Sonoma County, California, United States of America",
            "locType": "bay",
            "blogLinks": [
                "http://www.fluxiontour.com/2014/02/road-trip-san-francisco-bodega-bay.html"
            ],
            "longitude": "-123.0061117"
        },
        "monterey bay": {
            "latitude": "36.7999557",
            "closest_to": "santa cruz",
            "address": "Monterey Bay, Monterey County, California, United States of America",
            "locType": "bay",
            "blogLinks": [
                "http://travelblog.viator.com/road-trip-san-francisco-los-angeles/"
            ],
            "longitude": "-121.9010667"
        },
        "bookshop santa cruz": {
            "latitude": "36.9754743",
            "closest_to": "sausalito",
            "address": "Bookshop Santa Cruz, 1520, Pacific Avenue, Downtown District (Commercial), Downtown, Santa Cruz, Santa Cruz County, California, 95060, United States of America",
            "locType": "books",
            "blogLinks": [
                "https://www.tripadvisor.com/ShowTopic-g28926-i29-k6471461-Sausalito_Monterey_via_Henry_Cowell_Redwoods_SP-California.html"
            ],
            "longitude": "-122.0262346"
        },
        "nuevo state park": {
            "latitude": "37.1682019",
            "closest_to": "sausalito",
            "address": "A\u00f1o Nuevo State Park Cascade Ranch Unit, White House Canyon Road, San Mateo County, California, United States of America",
            "locType": "park",
            "blogLinks": [
                "http://www.goldengatetours.net/places"
            ],
            "longitude": "-122.3329541"
        },
        "bolinas lagoon": {
            "latitude": "37.9182589",
            "closest_to": "sausalito",
            "address": "Bolinas Lagoon, Shoreline Highway, Bolinas, Marin County, California, 94970, United States of America",
            "locType": "bay",
            "blogLinks": [
                "http://www.fluxiontour.com/2014/02/road-trip-san-francisco-bodega-bay.html"
            ],
            "longitude": "-122.6810952"
        },
        "yountville": {
            "latitude": "38.4015781",
            "closest_to": "sausalito",
            "address": "Yountville, Napa County, California, United States of America",
            "locType": "administrative",
            "blogLinks": [
                "http://www.upout.com/blog/san-francisco-3/7-easy-weekend-getaways-within-100-miles-of-san-francisco"
            ],
            "longitude": "-122.3608104"
        },
        "sausalito/marin county": {
            "latitude": "37.8590272",
            "closest_to": "sausalito",
            "address": "Sausalito, Marin County, California, United States of America",
            "locType": "administrative",
            "blogLinks": [
                "http://fathomaway.com/guides/usa/san-francisco/itineraries/where-to-go-from-san-francisco/"
            ],
            "longitude": "-122.4854693"
        },
        "felton": {
            "latitude": "37.0513364",
            "closest_to": "sausalito",
            "address": "Felton, Santa Cruz County, California, United States of America",
            "locType": "village",
            "blogLinks": [
                "http://www.goldengatetours.net/places"
            ],
            "longitude": "-122.0732905"
        },
        "bolinas": {
            "latitude": "37.9093702",
            "closest_to": "sausalito",
            "address": "Bolinas, Marin County, California, United States of America",
            "locType": "hamlet",
            "blogLinks": [
                "http://www.fluxiontour.com/2014/02/road-trip-san-francisco-bodega-bay.html"
            ],
            "longitude": "-122.6863732"
        },
        "doran beach": {
            "latitude": "38.3135282",
            "closest_to": "sausalito",
            "address": "Doran Beach, Doran Beach Road, Bodega Bay, Sonoma County, California, 94923, United States of America",
            "locType": "beach",
            "blogLinks": [
                "http://www.fluxiontour.com/2014/02/road-trip-san-francisco-bodega-bay.html"
            ],
            "longitude": "-123.0397236"
        },
        "stinson beach": {
            "latitude": "37.9008084",
            "closest_to": "sausalito",
            "address": "Stinson Beach, Marin County, California, United States of America",
            "locType": "hamlet",
            "blogLinks": [
                "http://www.upout.com/blog/san-francisco-3/7-easy-weekend-getaways-within-100-miles-of-san-francisco",
                "http://www.fluxiontour.com/2014/02/road-trip-san-francisco-bodega-bay.html"
            ],
            "longitude": "-122.64508"
        },
        "muir woods": {
            "latitude": "38.049581",
            "closest_to": "sausalito",
            "address": "Muir Woods Avenue, Stockton, San Joaquin County, California, 95209, United States of America",
            "locType": "residential",
            "blogLinks": [
                "http://www.upout.com/blog/san-francisco-3/7-easy-weekend-getaways-within-100-miles-of-san-francisco"
            ],
            "longitude": "-121.3457819"
        }
    },
    "santa cruz": {
        "type": "city",
        "osm_id": "111737",
        "class": "place",
        "importance": 0.80562903030115,
        "lat": "36.9735903",
        "lon": "-122.0260569",
        "boundingbox": [
            "36.9479995",
            "37.0251537",
            "-122.1512979",
            "-121.9867104"
        ],
        "display_name": "Santa Cruz, Santa Cruz County, California, United States of America",
        "licence": "Data \u00a9 OpenStreetMap contributors, ODbL 1.0. http://www.openstreetmap.org/copyright",
        "icon": "https://nominatim.openstreetmap.org/images/mapicons/poi_place_city.p.20.png",
        "place_id": "157779626",
        "osm_type": "relation"
    },
    "sausalito": {
        "type": "administrative",
        "osm_id": "2829689",
        "class": "boundary",
        "importance": 0.64561533453658,
        "lat": "37.8590272",
        "lon": "-122.4854693",
        "boundingbox": [
            "37.8436795",
            "37.8731429",
            "-122.5102612",
            "-122.4753744"
        ],
        "display_name": "Sausalito, Marin County, California, United States of America",
        "licence": "Data \u00a9 OpenStreetMap contributors, ODbL 1.0. http://www.openstreetmap.org/copyright",
        "icon": "https://nominatim.openstreetmap.org/images/mapicons/poi_boundary_administrative.p.20.png",
        "place_id": "159575624",
        "osm_type": "relation"
    }
}