{
    "stockton": {
        "type": "city",
        "osm_id": "112382",
        "class": "place",
        "importance": 0.7132631887217,
        "lat": "37.9577016",
        "lon": "-121.2907795",
        "boundingbox": [
            "37.887747",
            "38.0583",
            "-121.4197359",
            "-121.1840371"
        ],
        "display_name": "Stockton, San Joaquin County, California, United States of America",
        "licence": "Data \u00a9 OpenStreetMap contributors, ODbL 1.0. http://www.openstreetmap.org/copyright",
        "icon": "https://nominatim.openstreetmap.org/images/mapicons/poi_place_city.p.20.png",
        "place_id": "157785814",
        "osm_type": "relation"
    },
    "mentions": {
        "fort funston": {
            "latitude": "37.71910365",
            "closest_to": "sausalito",
            "address": "Fort Funston (GGNRA), Skyline Boulevard, SF, California, 94132, United States of America",
            "locType": "common",
            "blogLinks": [
                "http://www.trinitysf.com/bay-family-friendly-activities-water-san-francisco/"
            ],
            "longitude": "-122.503299277645"
        },
        "turlock": {
            "latitude": "37.4946568",
            "closest_to": "stockton",
            "address": "Turlock, Stanislaus County, California, United States of America",
            "locType": "city",
            "blogLinks": [
                "http://www.roadsideamerica.com/location/ca"
            ],
            "longitude": "-120.846594"
        },
        "golden gate bridge": {
            "latitude": "37.8302809",
            "closest_to": "stockton",
            "address": "Golden Gate Bridge, Waldo, Marin County, California, 94965, United States of America",
            "locType": "motorway",
            "blogLinks": [
                "http://www.upout.com/blog/san-francisco-3/7-easy-weekend-getaways-within-100-miles-of-san-francisco",
                "http://www.trinitysf.com/bay-family-friendly-activities-water-san-francisco/",
                "http://movie-tourist.blogspot.com/2015/08/dirty-harry-1971.html",
                "http://www.sfgate.com/news/article/Stockton-travel-destination-Wall-Hub-San-Francisco-7668350.php"
            ],
            "longitude": "-122.4798473"
        },
        "kezar drive": {
            "latitude": "37.7682135",
            "closest_to": "stockton",
            "address": "Kezar Drive, Cole Valley, SF, California, 94122, United States of America",
            "locType": "primary",
            "blogLinks": [
                "http://movie-tourist.blogspot.com/2015/08/dirty-harry-1971.html"
            ],
            "longitude": "-122.4551592"
        },
        "chinatown": {
            "latitude": "37.7999301",
            "closest_to": "stockton",
            "address": "Chinatown, Oakland, Alameda County, California, ca, United States of America",
            "locType": "neighbourhood",
            "blogLinks": [
                "http://www.bestplaces.net/city/california/sausalito"
            ],
            "longitude": "-122.2702385"
        },
        "guerneville": {
            "latitude": "38.5116609",
            "closest_to": "sausalito",
            "address": "Guerneville, Orchard Road, El Bonita, Sonoma County, California, 95446, United States of America",
            "locType": "administrative",
            "blogLinks": [
                "http://www.roadsideamerica.com/location/ca"
            ],
            "longitude": "-122.987128549631"
        },
        "larkspur": {
            "latitude": "37.9340915",
            "closest_to": "sausalito",
            "address": "Larkspur, Marin County, California, United States of America",
            "locType": "city",
            "blogLinks": [
                "http://movie-tourist.blogspot.com/2015/08/dirty-harry-1971.html"
            ],
            "longitude": "-122.5352538"
        },
        "placerville": {
            "latitude": "38.7296252",
            "closest_to": "stockton",
            "address": "Placerville, El Dorado County, California, United States of America",
            "locType": "city",
            "blogLinks": [
                "http://www.roadsideamerica.com/location/ca"
            ],
            "longitude": "-120.7985459"
        },
        "cotati": {
            "latitude": "38.3266798",
            "closest_to": "sausalito",
            "address": "Cotati, Sonoma County, California, United States of America",
            "locType": "city",
            "blogLinks": [
                "http://www.roadsideamerica.com/location/ca"
            ],
            "longitude": "-122.706844"
        },
        "bay bridge": {
            "latitude": "37.8193514",
            "closest_to": "stockton",
            "address": "San Francisco \u2013 Oakland Bay Bridge, Oakland, Alameda County, California, 94625, United States of America",
            "locType": "abandoned",
            "blogLinks": [
                "http://www.bestplaces.net/city/california/sausalito"
            ],
            "longitude": "-122.342234"
        },
        "emeryville": {
            "latitude": "37.8314089",
            "closest_to": "stockton",
            "address": "Emeryville, Alameda County, California, United States of America",
            "locType": "administrative",
            "blogLinks": [
                "http://www.roadsideamerica.com/location/ca"
            ],
            "longitude": "-122.2865265"
        },
        "lodi": {
            "latitude": "38.097198",
            "closest_to": "stockton",
            "address": "Lodi, San Joaquin County, California, United States of America",
            "locType": "city",
            "blogLinks": [
                "http://www.sfgate.com/news/article/Stockton-travel-destination-Wall-Hub-San-Francisco-7668350.php"
            ],
            "longitude": "-121.387849546574"
        },
        "farallon islands": {
            "latitude": "37.7332634",
            "closest_to": "sausalito",
            "address": "Farallon Islands, SF, California, United States of America",
            "locType": "archipelago",
            "blogLinks": [
                "http://www.trinitysf.com/bay-family-friendly-activities-water-san-francisco/"
            ],
            "longitude": "-123.0344445"
        },
        "sonoma county": {
            "latitude": "38.5110803",
            "closest_to": "sausalito",
            "address": "Sonoma County, California, United States of America",
            "locType": "administrative",
            "blogLinks": [
                "http://www.upout.com/blog/san-francisco-3/7-easy-weekend-getaways-within-100-miles-of-san-francisco"
            ],
            "longitude": "-122.8473387"
        },
        "geyserville": {
            "latitude": "38.707687",
            "closest_to": "sausalito",
            "address": "Geyserville, Sonoma County, California, United States of America",
            "locType": "hamlet",
            "blogLinks": [
                "http://www.roadsideamerica.com/location/ca"
            ],
            "longitude": "-122.9024963"
        },
        "lombard street": {
            "latitude": "37.802076",
            "closest_to": "stockton",
            "address": "1079, Lombard Street, Russian Hill, SF, California, 94109, United States of America",
            "locType": "residential",
            "blogLinks": [
                "http://www.sfgate.com/news/article/Stockton-travel-destination-Wall-Hub-San-Francisco-7668350.php"
            ],
            "longitude": "-122.418809"
        },
        "golden gate": {
            "latitude": "37.8190177",
            "closest_to": "sausalito",
            "address": "Golden Gate, Golden Gate Bridge, Waldo, Marin County, California, 94965, United States of America",
            "locType": "strait",
            "blogLinks": [
                "http://www.bestplaces.net/city/california/sausalito"
            ],
            "longitude": "-122.4793972"
        },
        "yountville": {
            "latitude": "38.4015781",
            "closest_to": "sausalito",
            "address": "Yountville, Napa County, California, United States of America",
            "locType": "administrative",
            "blogLinks": [
                "http://www.upout.com/blog/san-francisco-3/7-easy-weekend-getaways-within-100-miles-of-san-francisco"
            ],
            "longitude": "-122.3608104"
        },
        "marin county": {
            "latitude": "38.0409144",
            "closest_to": "sausalito",
            "address": "Marin County, California, United States of America",
            "locType": "administrative",
            "blogLinks": [
                "http://www.upout.com/blog/san-francisco-3/7-easy-weekend-getaways-within-100-miles-of-san-francisco",
                "http://www.bestplaces.net/city/california/sausalito"
            ],
            "longitude": "-122.6199637"
        },
        "redwood city": {
            "latitude": "37.4852152",
            "closest_to": "stockton",
            "address": "Redwood City, San Mateo County, California, United States of America",
            "locType": "city",
            "blogLinks": [
                "http://www.bestplaces.net/city/california/sausalito",
                "http://www.roadsideamerica.com/location/ca"
            ],
            "longitude": "-122.2363547"
        },
        "drake boulevard": {
            "latitude": "37.9839293",
            "closest_to": "sausalito",
            "address": "Sir Francis Drake High School, Sir Francis Drake Boulevard, San Anselmo, Marin County, California, 94960, United States of America",
            "locType": "school",
            "blogLinks": [
                "http://movie-tourist.blogspot.com/2015/08/dirty-harry-1971.html"
            ],
            "longitude": "-122.5726207"
        },
        "san rafael": {
            "latitude": "37.9735346",
            "closest_to": "sausalito",
            "address": "San Rafael, Marin County, California, United States of America",
            "locType": "city",
            "blogLinks": [
                "http://www.roadsideamerica.com/location/ca"
            ],
            "longitude": "-122.5310873"
        },
        "bay area": {
            "latitude": "37.7884969",
            "closest_to": "stockton",
            "address": "San Francisco Bay Area, SF, California, United States of America",
            "locType": "region",
            "blogLinks": [
                "http://www.trinitysf.com/bay-family-friendly-activities-water-san-francisco/",
                "https://www.thecrazytourist.com/top-15-things-stockton-ca/"
            ],
            "longitude": "-122.3558472"
        },
        "menlo park": {
            "latitude": "37.4538274",
            "closest_to": "stockton",
            "address": "Menlo Park, San Mateo County, California, United States of America",
            "locType": "administrative",
            "blogLinks": [
                "http://www.bestplaces.net/city/california/sausalito"
            ],
            "longitude": "-122.182187"
        },
        "santa clara": {
            "latitude": "37.3541132",
            "closest_to": "stockton",
            "address": "Santa Clara, Santa Clara County, California, United States of America",
            "locType": "city",
            "blogLinks": [
                "http://www.roadsideamerica.com/location/ca"
            ],
            "longitude": "-121.9551743"
        },
        "san mateo": {
            "latitude": "37.496904",
            "closest_to": "stockton",
            "address": "San Mateo County, California, United States of America",
            "locType": "administrative",
            "blogLinks": [
                "http://www.bestplaces.net/city/california/sausalito"
            ],
            "longitude": "-122.3330572"
        },
        "farallones islands": {
            "latitude": "37.7332634",
            "closest_to": "sausalito",
            "address": "Farallon Islands, SF, California, United States of America",
            "locType": "archipelago",
            "blogLinks": [
                "http://www.trinitysf.com/bay-family-friendly-activities-water-san-francisco/"
            ],
            "longitude": "-123.0344445"
        },
        "sausalito": {
            "latitude": "37.8590272",
            "closest_to": "stockton",
            "address": "Sausalito, Marin County, California, United States of America",
            "locType": "administrative",
            "blogLinks": [
                "http://www.upout.com/blog/san-francisco-3/7-easy-weekend-getaways-within-100-miles-of-san-francisco",
                "http://www.visitstockton.org/things-to-do/",
                "http://www.trinitysf.com/bay-family-friendly-activities-water-san-francisco/",
                "http://www.bestplaces.net/city/california/sausalito",
                "http://movie-tourist.blogspot.com/2015/08/dirty-harry-1971.html"
            ],
            "longitude": "-122.4854693"
        },
        "san jose": {
            "latitude": "37.3361905",
            "closest_to": "stockton",
            "address": "San Jos\u00e9, Santa Clara County, California, United States of America",
            "locType": "city",
            "blogLinks": [
                "http://www.bestplaces.net/city/california/sausalito",
                "http://www.roadsideamerica.com/location/ca"
            ],
            "longitude": "-121.8905832"
        },
        "san francisco": {
            "latitude": "37.7792808",
            "closest_to": "stockton",
            "address": "SF, California, United States of America",
            "locType": "city",
            "blogLinks": [
                "http://www.trinitysf.com/bay-family-friendly-activities-water-san-francisco/",
                "http://movie-tourist.blogspot.com/2015/08/dirty-harry-1971.html",
                "http://www.roadsideamerica.com/location/ca",
                "http://www.bestplaces.net/city/california/sausalito",
                "http://www.upout.com/blog/san-francisco-3/7-easy-weekend-getaways-within-100-miles-of-san-francisco",
                "http://www.sfgate.com/news/article/Stockton-travel-destination-Wall-Hub-San-Francisco-7668350.php"
            ],
            "longitude": "-122.4192362"
        },
        "portsmouth square": {
            "latitude": "37.79483365",
            "closest_to": "stockton",
            "address": "Portsmouth Square, Kearny Street, Chinatown, SF, California, 94133, United States of America",
            "locType": "park",
            "blogLinks": [
                "http://movie-tourist.blogspot.com/2015/08/dirty-harry-1971.html"
            ],
            "longitude": "-122.40532985"
        },
        "larkspur landing": {
            "latitude": "37.94686445",
            "closest_to": "sausalito",
            "address": "Marin Country Mart, Larkspur, Marin County, California, 94904, United States of America",
            "locType": "retail",
            "blogLinks": [
                "http://movie-tourist.blogspot.com/2015/08/dirty-harry-1971.html"
            ],
            "longitude": "-122.509319701965"
        },
        "san francisco bay": {
            "latitude": "37.708264",
            "closest_to": "stockton",
            "address": "San Francisco Bay, Ferry Landing, Alameda, Alameda County, California, 94502, United States of America",
            "locType": "bay",
            "blogLinks": [
                "http://www.trinitysf.com/bay-family-friendly-activities-water-san-francisco/"
            ],
            "longitude": "-122.2802469"
        },
        "sunol": {
            "latitude": "37.5943781",
            "closest_to": "stockton",
            "address": "Sunol, Alameda County, California, United States of America",
            "locType": "hamlet",
            "blogLinks": [
                "http://www.roadsideamerica.com/location/ca"
            ],
            "longitude": "-121.8885682"
        },
        "san carlos": {
            "latitude": "37.4982065",
            "closest_to": "stockton",
            "address": "San Carlos, San Mateo County, California, United States of America",
            "locType": "city",
            "blogLinks": [
                "http://www.roadsideamerica.com/location/ca"
            ],
            "longitude": "-122.266149723864"
        },
        "napa": {
            "latitude": "38.2971367",
            "closest_to": "stockton",
            "address": "Napa, Napa County, California, United States of America",
            "locType": "city",
            "blogLinks": [
                "http://www.sfgate.com/news/article/Stockton-travel-destination-Wall-Hub-San-Francisco-7668350.php"
            ],
            "longitude": "-122.2855292"
        },
        "stockton arena": {
            "latitude": "37.956038",
            "closest_to": "stockton",
            "address": "Stockton Arena, West Fremont Street, Stockton, San Joaquin County, California, 95203, United States of America",
            "locType": "stadium",
            "blogLinks": [
                "https://www.thecrazytourist.com/top-15-things-stockton-ca/"
            ],
            "longitude": "-121.295880884831"
        },
        "stockton street": {
            "latitude": "37.7880146",
            "closest_to": "stockton",
            "address": "Stockton Street, Chinatown, SF, California, 94133, United States of America",
            "locType": "tertiary",
            "blogLinks": [
                "http://movie-tourist.blogspot.com/2015/08/dirty-harry-1971.html"
            ],
            "longitude": "-122.4066832"
        },
        "berkeley": {
            "latitude": "37.8708393",
            "closest_to": "stockton",
            "address": "Berkeley, Alameda County, California, United States of America",
            "locType": "city",
            "blogLinks": [
                "http://www.roadsideamerica.com/location/ca"
            ],
            "longitude": "-122.2728638"
        },
        "sebastopol": {
            "latitude": "38.4021359",
            "closest_to": "sausalito",
            "address": "Sebastopol, Sonoma County, California, United States of America",
            "locType": "city",
            "blogLinks": [
                "http://www.roadsideamerica.com/location/ca"
            ],
            "longitude": "-122.8238805"
        },
        "richmond": {
            "latitude": "37.9357576",
            "closest_to": "stockton",
            "address": "Richmond, Contra Costa County, California, United States of America",
            "locType": "city",
            "blogLinks": [
                "http://www.roadsideamerica.com/location/ca"
            ],
            "longitude": "-122.3477485"
        },
        "pescadero": {
            "latitude": "37.2516018",
            "closest_to": "sausalito",
            "address": "Pescadero, San Mateo County, California, United States of America",
            "locType": "village",
            "blogLinks": [
                "http://www.upout.com/blog/san-francisco-3/7-easy-weekend-getaways-within-100-miles-of-san-francisco"
            ],
            "longitude": "-122.3821926"
        },
        "healdsburg": {
            "latitude": "38.6106812",
            "closest_to": "sausalito",
            "address": "Healdsburg, Sonoma County, California, United States of America",
            "locType": "city",
            "blogLinks": [
                "http://www.roadsideamerica.com/location/ca"
            ],
            "longitude": "-122.8701379"
        },
        "south san francisco": {
            "latitude": "37.6549493",
            "closest_to": "stockton",
            "address": "South San Francisco, San Mateo County, California, United States of America",
            "locType": "administrative",
            "blogLinks": [
                "http://www.bestplaces.net/city/california/sausalito"
            ],
            "longitude": "-122.408125"
        },
        "palo alto": {
            "latitude": "37.442156",
            "closest_to": "stockton",
            "address": "Palo Alto, Santa Clara County, California, United States of America",
            "locType": "city",
            "blogLinks": [
                "http://www.roadsideamerica.com/location/ca"
            ],
            "longitude": "-122.1634471"
        },
        "colma": {
            "latitude": "37.6768779",
            "closest_to": "sausalito",
            "address": "Colma, San Mateo County, California, United States of America",
            "locType": "administrative",
            "blogLinks": [
                "http://www.roadsideamerica.com/location/ca"
            ],
            "longitude": "-122.4596949"
        },
        "kezar stadium": {
            "latitude": "37.7668848",
            "closest_to": "stockton",
            "address": "Kezar Stadium, Frederick Street, Cole Valley, SF, California, 94117, United States of America",
            "locType": "stadium",
            "blogLinks": [
                "http://movie-tourist.blogspot.com/2015/08/dirty-harry-1971.html"
            ],
            "longitude": "-122.455998080624"
        },
        "san quentin": {
            "latitude": "37.9413133",
            "closest_to": "stockton",
            "address": "San Quentin, Marin County, California, United States of America",
            "locType": "hamlet",
            "blogLinks": [
                "http://www.roadsideamerica.com/location/ca"
            ],
            "longitude": "-122.4849738"
        },
        "sausalito/marin county": {
            "latitude": "37.8590272",
            "closest_to": "stockton",
            "address": "Sausalito, Marin County, California, United States of America",
            "locType": "administrative",
            "blogLinks": [
                "http://www.sfgate.com/news/article/Stockton-travel-destination-Wall-Hub-San-Francisco-7668350.php"
            ],
            "longitude": "-122.4854693"
        },
        "daly city": {
            "latitude": "37.7057671",
            "closest_to": "sausalito",
            "address": "Daly City, San Mateo County, California, United States of America",
            "locType": "city",
            "blogLinks": [
                "http://www.bestplaces.net/city/california/sausalito"
            ],
            "longitude": "-122.4619204"
        },
        "forestville": {
            "latitude": "38.4833405",
            "closest_to": "sausalito",
            "address": "Forestville, Trenton Road, Trenton, Sonoma County, California, 95436, United States of America",
            "locType": "administrative",
            "blogLinks": [
                "http://www.roadsideamerica.com/location/ca"
            ],
            "longitude": "-122.861584174866"
        },
        "stockton": {
            "latitude": "37.9577016",
            "closest_to": "stockton",
            "address": "Stockton, San Joaquin County, California, United States of America",
            "locType": "city",
            "blogLinks": [
                "http://www.visitstockton.org/things-to-do/"
            ],
            "longitude": "-121.2907795"
        },
        "hilton san francisco financial district": {
            "latitude": "37.79514395",
            "closest_to": "stockton",
            "address": "Hilton San Francisco Financial District, 750, Kearny Street, Chinatown, SF, California, 94108, United States of America",
            "locType": "hotel",
            "blogLinks": [
                "http://movie-tourist.blogspot.com/2015/08/dirty-harry-1971.html"
            ],
            "longitude": "-122.404305932497"
        },
        "stinson beach": {
            "latitude": "37.9008084",
            "closest_to": "sausalito",
            "address": "Stinson Beach, Marin County, California, United States of America",
            "locType": "hamlet",
            "blogLinks": [
                "http://www.upout.com/blog/san-francisco-3/7-easy-weekend-getaways-within-100-miles-of-san-francisco"
            ],
            "longitude": "-122.64508"
        },
        "kearny street": {
            "latitude": "37.7962192",
            "closest_to": "stockton",
            "address": "Kearny Street, Chinatown, SF, California, 94133, United States of America",
            "locType": "primary",
            "blogLinks": [
                "http://movie-tourist.blogspot.com/2015/08/dirty-harry-1971.html"
            ],
            "longitude": "-122.4051601"
        },
        "muir woods": {
            "latitude": "38.049581",
            "closest_to": "stockton",
            "address": "Muir Woods Avenue, Stockton, San Joaquin County, California, 95209, United States of America",
            "locType": "residential",
            "blogLinks": [
                "http://www.upout.com/blog/san-francisco-3/7-easy-weekend-getaways-within-100-miles-of-san-francisco"
            ],
            "longitude": "-121.3457819"
        },
        "pacifica": {
            "latitude": "37.6138253",
            "closest_to": "sausalito",
            "address": "Pacifica, San Mateo County, California, United States of America",
            "locType": "city",
            "blogLinks": [
                "http://www.roadsideamerica.com/location/ca"
            ],
            "longitude": "-122.4869193"
        }
    },
    "sausalito": {
        "type": "administrative",
        "osm_id": "2829689",
        "class": "boundary",
        "importance": 0.64561533453658,
        "lat": "37.8590272",
        "lon": "-122.4854693",
        "boundingbox": [
            "37.8436795",
            "37.8731429",
            "-122.5102612",
            "-122.4753744"
        ],
        "display_name": "Sausalito, Marin County, California, United States of America",
        "licence": "Data \u00a9 OpenStreetMap contributors, ODbL 1.0. http://www.openstreetmap.org/copyright",
        "icon": "https://nominatim.openstreetmap.org/images/mapicons/poi_boundary_administrative.p.20.png",
        "place_id": "159575624",
        "osm_type": "relation"
    }
}