{
    "temecula": {
        "type": "city",
        "osm_id": "3866463",
        "class": "place",
        "importance": 0.66507963701587,
        "lat": "33.4946353",
        "lon": "-117.147366",
        "boundingbox": [
            "33.4321253",
            "33.554625",
            "-117.2066944",
            "-117.0548702"
        ],
        "display_name": "Temecula, Riverside County, California, United States of America",
        "licence": "Data \u00a9 OpenStreetMap contributors, ODbL 1.0. http://www.openstreetmap.org/copyright",
        "icon": "https://nominatim.openstreetmap.org/images/mapicons/poi_place_city.p.20.png",
        "place_id": "159718106",
        "osm_type": "relation"
    },
    "mentions": {
        "pacific coast highway": {
            "latitude": "33.6595127",
            "closest_to": "temecula",
            "address": "Pacific Coast Highway, Huntington Beach, Orange County, California, 92648, United States of America",
            "locType": "primary",
            "blogLinks": [
                "https://www.pinterest.com/pin/568438784200367843/"
            ],
            "longitude": "-118.0051687"
        },
        "creek valley": {
            "latitude": "39.3751013",
            "closest_to": "sausalito",
            "address": "Creek, Mendocino County, California, United States of America",
            "locType": "stream",
            "blogLinks": [
                "http://www.wineinstitute.org/consumerstories"
            ],
            "longitude": "-123.0482197"
        },
        "temecula": {
            "latitude": "33.4946353",
            "closest_to": "temecula",
            "address": "Temecula, Riverside County, California, United States of America",
            "locType": "city",
            "blogLinks": [
                "https://www.tripadvisor.com/Tourism-g33165-Temecula_California-Vacations.html",
                "https://www.yelp.com/list/places-in-or-near-temecula-and-san-diego-ca-temecula",
                "https://www.pinterest.com/pin/568438784200367843/",
                "http://temeculaca.gov/207/Things-To-Do-Lodging-Transportation",
                "https://www.quora.com/What-are-some-great-things-to-do-places-to-see-on-a-road-trip-up-California"
            ],
            "longitude": "-117.147366"
        },
        "alcatraz": {
            "latitude": "37.8267283",
            "closest_to": "temecula",
            "address": "Alcatraz Island, SF, California, United States of America",
            "locType": "island",
            "blogLinks": [
                "http://www.wineinstitute.org/consumerstories"
            ],
            "longitude": "-122.422746492409"
        },
        "arizona": {
            "latitude": "34.4631398",
            "closest_to": "temecula",
            "address": "Arizona, San Bernardino County, California, 92371, United States of America",
            "locType": "track",
            "blogLinks": [
                "https://www.pinterest.com/pin/568438784200367843/"
            ],
            "longitude": "-117.5060679"
        },
        "california coast road": {
            "latitude": "33.1387685",
            "closest_to": "temecula",
            "address": "California Coast Credit Union, 140, Knoll Road, San Marcos, San Diego County, California, 92069, United States of America",
            "locType": "bank",
            "blogLinks": [
                "https://www.pinterest.com/pin/568438784200367843/"
            ],
            "longitude": "-117.1767011"
        },
        "monterey bay": {
            "latitude": "36.7999557",
            "closest_to": "temecula",
            "address": "Monterey Bay, Monterey County, California, United States of America",
            "locType": "bay",
            "blogLinks": [
                "http://www.wineinstitute.org/consumerstories"
            ],
            "longitude": "-121.9010667"
        },
        "mount san gorgonio ca": {
            "latitude": "33.9121294",
            "closest_to": "temecula",
            "address": "San Gorgonio Avenue, Banning, Riverside County, California, 92220, United States of America",
            "locType": "secondary",
            "blogLinks": [
                "http://www.california-blog.com/"
            ],
            "longitude": "-116.8766731"
        },
        "santa cruz beach": {
            "latitude": "36.9632617",
            "closest_to": "temecula",
            "address": "Santa Cruz Beach, Boardwalk, Beach & Boardwalk District (Commercial), Seabright, Santa Cruz, Santa Cruz County, California, 1982, United States of America",
            "locType": "beach",
            "blogLinks": [
                "https://www.quora.com/What-are-some-great-things-to-do-places-to-see-on-a-road-trip-up-California"
            ],
            "longitude": "-122.0189205"
        },
        "disneyland": {
            "latitude": "33.8136367",
            "closest_to": "temecula",
            "address": "DL, 1313, South Harbor Boulevard, Anaheim Resort District, Anaheim, Orange County, California, 92805, United States of America",
            "locType": "theme_park",
            "blogLinks": [
                "http://gocalifornia.about.com/od/topcalifornia/qt/From-To-In-California.htm"
            ],
            "longitude": "-117.91971186569"
        },
        "san jacinto ca": {
            "latitude": "33.7839084",
            "closest_to": "temecula",
            "address": "San Jacinto, Riverside County, California, United States of America",
            "locType": "city",
            "blogLinks": [
                "http://www.california-blog.com/"
            ],
            "longitude": "-116.9586349"
        },
        "moreno valley ca": {
            "latitude": "33.937517",
            "closest_to": "temecula",
            "address": "Moreno Valley, Riverside County, California, United States of America",
            "locType": "city",
            "blogLinks": [
                "http://www.california-blog.com/"
            ],
            "longitude": "-117.2305943"
        },
        "anthonys": {
            "latitude": "32.9531439",
            "closest_to": "temecula",
            "address": "Anthony's, Del Mar Heights Road, Del Mar, San Diego, San Diego County, California, 92130, United States of America",
            "locType": "shoemaker",
            "blogLinks": [
                "https://www.yelp.com/list/places-in-or-near-temecula-and-san-diego-ca-temecula"
            ],
            "longitude": "-117.2325474"
        },
        "southern california": {
            "latitude": "34.0224149",
            "closest_to": "temecula",
            "address": "University of Southern California, Watt Way, Saint James Park, LA, Los Angeles County, California, 90089, United States of America",
            "locType": "university",
            "blogLinks": [
                "http://www.wineinstitute.org/consumerstories",
                "https://www.pinterest.com/pin/568438784200367843/",
                "https://www.quora.com/What-are-some-great-things-to-do-places-to-see-on-a-road-trip-up-California"
            ],
            "longitude": "-118.286343973446"
        },
        "palos verdes peninsula ca": {
            "latitude": "33.77984925",
            "closest_to": "temecula",
            "address": "Palos Verdes Peninsula High School, Hawthorne Boulevard, Rolling Hills Estates, Los Angeles County, California, 90274, United States of America",
            "locType": "school",
            "blogLinks": [
                "http://www.california-blog.com/"
            ],
            "longitude": "-118.372196730215"
        },
        "sierra foothills": {
            "latitude": "37.3933656",
            "closest_to": "temecula",
            "address": "Sierra Road, Berryessa, San Jos\u00e9, Santa Clara County, California, 95132, United States of America",
            "locType": "secondary",
            "blogLinks": [
                "http://www.wineinstitute.org/consumerstories"
            ],
            "longitude": "-121.8609818"
        },
        "sonoma": {
            "latitude": "38.5110803",
            "closest_to": "sausalito",
            "address": "Sonoma County, California, United States of America",
            "locType": "administrative",
            "blogLinks": [
                "http://www.wineinstitute.org/consumerstories"
            ],
            "longitude": "-122.8473387"
        },
        "fourth street": {
            "latitude": "34.0456752",
            "closest_to": "temecula",
            "address": "Fourth Street, Walnut Hills Mobile Home Park, Pomona, Los Angeles County, California, 91765, United States of America",
            "locType": "residential",
            "blogLinks": [
                "http://www.wineinstitute.org/consumerstories"
            ],
            "longitude": "-117.819163"
        },
        "san rafael": {
            "latitude": "37.9735346",
            "closest_to": "sausalito",
            "address": "San Rafael, Marin County, California, United States of America",
            "locType": "city",
            "blogLinks": [
                "http://www.wineinstitute.org/consumerstories"
            ],
            "longitude": "-122.5310873"
        },
        "u.s.s.": {
            "latitude": "36.7014631",
            "closest_to": "temecula",
            "address": "California, United States of America",
            "locType": "administrative",
            "blogLinks": [
                "http://www.roadsideamerica.com/location/ca/all"
            ],
            "longitude": "-118.7559973"
        },
        "palm desert": {
            "latitude": "33.7288179",
            "closest_to": "temecula",
            "address": "Palm Desert, Riverside County, California, United States of America",
            "locType": "city",
            "blogLinks": [
                "https://www.quora.com/What-are-some-great-things-to-do-places-to-see-on-a-road-trip-up-California"
            ],
            "longitude": "-116.382571"
        },
        "santa barbara": {
            "latitude": "34.4221319",
            "closest_to": "temecula",
            "address": "Santa Barbara, Santa Barbara County, California, United States of America",
            "locType": "city",
            "blogLinks": [
                "http://www.wineinstitute.org/consumerstories",
                "https://www.quora.com/What-are-some-great-things-to-do-places-to-see-on-a-road-trip-up-California"
            ],
            "longitude": "-119.7026672"
        },
        "diamond valley lake": {
            "latitude": "33.679902",
            "closest_to": "temecula",
            "address": "Diamond Valley Lake, Old Mine Road, Egan, Riverside County, California, 92543, United States of America",
            "locType": "water",
            "blogLinks": [
                "https://www.yelp.com/list/places-in-or-near-temecula-and-san-diego-ca-temecula"
            ],
            "longitude": "-117.027609780569"
        },
        "sonoma valley": {
            "latitude": "38.29331315",
            "closest_to": "sausalito",
            "address": "Sonoma Valley Chevron, 540, West Napa Street, Sonoma, Sonoma County, California, 95476, United States of America",
            "locType": "fuel",
            "blogLinks": [
                "http://www.wineinstitute.org/consumerstories"
            ],
            "longitude": "-122.469385770353"
        },
        "san jose": {
            "latitude": "37.3361905",
            "closest_to": "temecula",
            "address": "San Jos\u00e9, Santa Clara County, California, United States of America",
            "locType": "city",
            "blogLinks": [
                "http://www.wineinstitute.org/consumerstories"
            ],
            "longitude": "-121.8905832"
        },
        "rialto": {
            "latitude": "34.1064001",
            "closest_to": "temecula",
            "address": "Rialto, San Bernardino County, California, United States of America",
            "locType": "city",
            "blogLinks": [
                "http://www.roadsideamerica.com/location/ca/all"
            ],
            "longitude": "-117.3703234"
        },
        "hollywood": {
            "latitude": "34.1028268",
            "closest_to": "temecula",
            "address": "Hollywood, LA, Los Angeles County, California, United States of America",
            "locType": "suburb",
            "blogLinks": [
                "http://www.wineinstitute.org/consumerstories"
            ],
            "longitude": "-118.3299898"
        },
        "idyllwild": {
            "latitude": "33.7400209",
            "closest_to": "temecula",
            "address": "Idyllwild, Riverside County, California, United States of America",
            "locType": "village",
            "blogLinks": [
                "https://www.quora.com/What-are-some-great-things-to-do-places-to-see-on-a-road-trip-up-California"
            ],
            "longitude": "-116.7189074"
        },
        "mount baldy ca": {
            "latitude": "34.2361168",
            "closest_to": "temecula",
            "address": "Mount Baldy, Los Angeles County, California, United States of America",
            "locType": "hamlet",
            "blogLinks": [
                "http://www.california-blog.com/"
            ],
            "longitude": "-117.6600552"
        },
        "san francisco": {
            "latitude": "37.7792808",
            "closest_to": "temecula",
            "address": "SF, California, United States of America",
            "locType": "city",
            "blogLinks": [
                "http://www.wineinstitute.org/consumerstories",
                "http://gocalifornia.about.com/od/topcalifornia/qt/From-To-In-California.htm",
                "http://www.roadsideamerica.com/location/ca/all",
                "https://www.quora.com/What-are-some-great-things-to-do-places-to-see-on-a-road-trip-up-California"
            ],
            "longitude": "-122.4192362"
        },
        "mount palomar ca": {
            "latitude": "33.1278146",
            "closest_to": "temecula",
            "address": "California Bank & Trust, 2501, Palomar Airport Road, Carlsbad, San Diego County, California, 92011, United States of America",
            "locType": "bank",
            "blogLinks": [
                "http://www.california-blog.com/"
            ],
            "longitude": "-117.270809764613"
        },
        "san pedro": {
            "latitude": "33.7358518",
            "closest_to": "temecula",
            "address": "San Pedro, LA, Los Angeles County, California, United States of America",
            "locType": "suburb",
            "blogLinks": [
                "http://www.artistcommunities.org/cavisions/sites"
            ],
            "longitude": "-118.2922933"
        },
        "napa": {
            "latitude": "38.2971367",
            "closest_to": "sausalito",
            "address": "Napa, Napa County, California, United States of America",
            "locType": "city",
            "blogLinks": [
                "http://www.wineinstitute.org/consumerstories"
            ],
            "longitude": "-122.2855292"
        },
        "morongo valley": {
            "latitude": "34.0537585",
            "closest_to": "temecula",
            "address": "Morongo Valley, Vista Drive, Morongo Valley, San Bernardino County, California, 92256, United States of America",
            "locType": "administrative",
            "blogLinks": [
                "http://www.california-blog.com/"
            ],
            "longitude": "-116.596723958419"
        },
        "morro rock ca": {
            "latitude": "35.369669",
            "closest_to": "temecula",
            "address": "Morro Rock, Morro Bay, San Luis Obispo County, California, United States of America",
            "locType": "peak",
            "blogLinks": [
                "http://www.california-blog.com/"
            ],
            "longitude": "-120.8676993"
        },
        "gaslamp quarter": {
            "latitude": "32.7109444",
            "closest_to": "temecula",
            "address": "Gaslamp Quarter, San Diego County, California, United States of America",
            "locType": "hamlet",
            "blogLinks": [
                "http://www.wineinstitute.org/consumerstories"
            ],
            "longitude": "-117.1597028"
        },
        "healdsburg": {
            "latitude": "38.6106812",
            "closest_to": "sausalito",
            "address": "Healdsburg, Sonoma County, California, United States of America",
            "locType": "city",
            "blogLinks": [
                "http://www.wineinstitute.org/consumerstories"
            ],
            "longitude": "-122.8701379"
        },
        "new jersey": {
            "latitude": "33.7147613",
            "closest_to": "temecula",
            "address": "New Jersey, Walnut, Irvine, Orange County, California, 92606, United States of America",
            "locType": "residential",
            "blogLinks": [
                "https://www.quora.com/What-are-some-great-things-to-do-places-to-see-on-a-road-trip-up-California"
            ],
            "longitude": "-117.7902855"
        },
        "morro bay ca": {
            "latitude": "35.3658075",
            "closest_to": "temecula",
            "address": "Morro Bay, San Luis Obispo County, California, United States of America",
            "locType": "city",
            "blogLinks": [
                "http://www.california-blog.com/"
            ],
            "longitude": "-120.8499012"
        },
        "monterey peninsula ca": {
            "latitude": "36.5878734",
            "closest_to": "temecula",
            "address": "Monterey Regional Airport, Airport Road, Seaside, Del Monte Heights, Monterey County, California, 93940, United States of America",
            "locType": "aerodrome",
            "blogLinks": [
                "http://www.california-blog.com/"
            ],
            "longitude": "-121.843618374407"
        },
        "lake berryessa": {
            "latitude": "35.376803",
            "closest_to": "temecula",
            "address": "Lake Berryessa, Rosedale, Kern County, California, 93314, United States of America",
            "locType": "residential",
            "blogLinks": [
                "http://www.wineinstitute.org/consumerstories"
            ],
            "longitude": "-119.1745059"
        },
        "lake elsinore": {
            "latitude": "33.6680772",
            "closest_to": "temecula",
            "address": "Lake Elsinore, Riverside County, California, United States of America",
            "locType": "administrative",
            "blogLinks": [
                "https://www.yelp.com/list/places-in-or-near-temecula-and-san-diego-ca-temecula"
            ],
            "longitude": "-117.3272614"
        },
        "old town": {
            "latitude": "35.142943",
            "closest_to": "temecula",
            "address": "Old Town, Golden Hills, Kern County, California, United States of America",
            "locType": "locality",
            "blogLinks": [
                "http://www.wineinstitute.org/consumerstories"
            ],
            "longitude": "-118.4954422"
        },
        "monterey bay aquarium ca": {
            "latitude": "36.61809095",
            "closest_to": "temecula",
            "address": "MBA, 886, Cannery Row, Monterey, Monterey County, California, 93940, United States of America",
            "locType": "aquarium",
            "blogLinks": [
                "http://www.california-blog.com/"
            ],
            "longitude": "-121.901680002002"
        },
        "monrovia": {
            "latitude": "34.1483499",
            "closest_to": "temecula",
            "address": "Monrovia, Los Angeles County, California, United States of America",
            "locType": "city",
            "blogLinks": [
                "http://www.california-blog.com/"
            ],
            "longitude": "-118.0014516"
        },
        "marin": {
            "latitude": "38.0409144",
            "closest_to": "sausalito",
            "address": "Marin County, California, United States of America",
            "locType": "administrative",
            "blogLinks": [
                "http://www.wineinstitute.org/consumerstories"
            ],
            "longitude": "-122.6199637"
        },
        "newport beach ca": {
            "latitude": "33.6170092",
            "closest_to": "temecula",
            "address": "Newport Beach, Orange County, California, United States of America",
            "locType": "city",
            "blogLinks": [
                "http://www.california-blog.com/"
            ],
            "longitude": "-117.92944"
        },
        "la": {
            "latitude": "36.7014631",
            "closest_to": "temecula",
            "address": "California, United States of America",
            "locType": "administrative",
            "blogLinks": [
                "https://www.tripadvisor.com/Attractions-g33165-Activities-Temecula_California.html",
                "http://gocalifornia.about.com/od/topcalifornia/qt/From-To-In-California.htm"
            ],
            "longitude": "-118.7559973"
        },
        "old town san diego": {
            "latitude": "32.7542167",
            "closest_to": "temecula",
            "address": "Old Town San Diego, San Diego County, California, United States of America",
            "locType": "hamlet",
            "blogLinks": [
                "http://www.california-blog.com/"
            ],
            "longitude": "-117.1969792"
        },
        "palm springs air museum ca": {
            "latitude": "33.83250375",
            "closest_to": "temecula",
            "address": "Palm Springs Air Museum, 745, North Gene Autry Trail, Palm Springs, Riverside County, California, 92262, United States of America",
            "locType": "museum",
            "blogLinks": [
                "http://www.california-blog.com/"
            ],
            "longitude": "-116.504677958796"
        },
        "mount san jacinto ca": {
            "latitude": "33.7839084",
            "closest_to": "temecula",
            "address": "San Jacinto, Riverside County, California, United States of America",
            "locType": "city",
            "blogLinks": [
                "http://www.california-blog.com/"
            ],
            "longitude": "-116.9586349"
        },
        "pebble beach ca": {
            "latitude": "36.5664874",
            "closest_to": "temecula",
            "address": "Pebble Beach, Monterey County, California, United States of America",
            "locType": "hamlet",
            "blogLinks": [
                "http://www.california-blog.com/"
            ],
            "longitude": "-121.9466112"
        },
        "solvang": {
            "latitude": "34.5958572",
            "closest_to": "temecula",
            "address": "Solvang, Santa Barbara County, California, United States of America",
            "locType": "city",
            "blogLinks": [
                "http://www.wineinstitute.org/consumerstories"
            ],
            "longitude": "-120.1390893"
        },
        "ojai valley": {
            "latitude": "34.4480495",
            "closest_to": "temecula",
            "address": "Ojai, Ventura County, California, United States of America",
            "locType": "city",
            "blogLinks": [
                "http://www.california-blog.com/"
            ],
            "longitude": "-119.2428889"
        },
        "northern california": {
            "latitude": "32.7349196",
            "closest_to": "temecula",
            "address": "Northern Frontier, San Diego, San Diego County, California, United States of America",
            "locType": "locality",
            "blogLinks": [
                "https://www.quora.com/What-are-some-great-things-to-do-places-to-see-on-a-road-trip-up-California"
            ],
            "longitude": "-117.1545973"
        },
        "santa monica pier": {
            "latitude": "34.0104809",
            "closest_to": "temecula",
            "address": "Santa Monica Pier, Santa Monica, Los Angeles County, California, CA 90401, United States of America",
            "locType": "service",
            "blogLinks": [
                "http://www.wineinstitute.org/consumerstories"
            ],
            "longitude": "-118.4960541"
        },
        "placerville": {
            "latitude": "38.7296252",
            "closest_to": "temecula",
            "address": "Placerville, El Dorado County, California, United States of America",
            "locType": "city",
            "blogLinks": [
                "http://www.wineinstitute.org/consumerstories",
                "https://www.quora.com/What-are-some-great-things-to-do-places-to-see-on-a-road-trip-up-California"
            ],
            "longitude": "-120.7985459"
        },
        "mendocino": {
            "latitude": "39.3176491",
            "closest_to": "sausalito",
            "address": "Mendocino County, California, United States of America",
            "locType": "administrative",
            "blogLinks": [
                "http://www.wineinstitute.org/consumerstories"
            ],
            "longitude": "-123.4126398"
        },
        "alexander valley": {
            "latitude": "34.5991586",
            "closest_to": "temecula",
            "address": "Alexander Peak, Santa Barbara County, California, United States of America",
            "locType": "peak",
            "blogLinks": [
                "http://www.wineinstitute.org/consumerstories"
            ],
            "longitude": "-119.7631938"
        },
        "black 's beach": {
            "latitude": "33.3358674",
            "closest_to": "temecula",
            "address": "Black Sea Avenue, Salton Sea Beach, Imperial County, California, United States of America",
            "locType": "residential",
            "blogLinks": [
                "https://www.quora.com/What-are-some-great-things-to-do-places-to-see-on-a-road-trip-up-California"
            ],
            "longitude": "-115.9938426"
        },
        "los angeles": {
            "latitude": "34.0543942",
            "closest_to": "temecula",
            "address": "LA, Los Angeles County, California, United States of America",
            "locType": "city",
            "blogLinks": [
                "http://www.wineinstitute.org/consumerstories",
                "http://gocalifornia.about.com/od/topcalifornia/qt/From-To-In-California.htm",
                "https://www.quora.com/What-are-some-great-things-to-do-places-to-see-on-a-road-trip-up-California",
                "http://www.artistcommunities.org/cavisions/sites"
            ],
            "longitude": "-118.2439408"
        },
        "monterey": {
            "latitude": "36.5844165",
            "closest_to": "temecula",
            "address": "Monterey, Monterey County, California, United States of America",
            "locType": "city",
            "blogLinks": [
                "http://www.wineinstitute.org/consumerstories",
                "https://www.quora.com/What-are-some-great-things-to-do-places-to-see-on-a-road-trip-up-California"
            ],
            "longitude": "-121.866792846206"
        },
        "north lake ca": {
            "latitude": "37.76958295",
            "closest_to": "temecula",
            "address": "North Lake, Chain of Lakes Drive East, Sunset District, SF, California, 94122, United States of America",
            "locType": "water",
            "blogLinks": [
                "http://www.california-blog.com/"
            ],
            "longitude": "-122.501983281136"
        },
        "sunset cliffs natural park": {
            "latitude": "32.7246785",
            "closest_to": "temecula",
            "address": "Sunset Cliffs Natural Park, Sunset Cliffs Boulevard, San Diego, San Diego County, California, 92107, United States of America",
            "locType": "park",
            "blogLinks": [
                "https://www.pinterest.com/pin/568438784200367843/"
            ],
            "longitude": "-117.257470600431"
        },
        "granada hills": {
            "latitude": "34.2647247",
            "closest_to": "temecula",
            "address": "Granada Hills, Northridge, LA, Los Angeles County, California, 91344, United States of America",
            "locType": "neighbourhood",
            "blogLinks": [
                "http://www.roadsideamerica.com/location/ca/all"
            ],
            "longitude": "-118.5231414"
        },
        "third street promenade": {
            "latitude": "34.01632465",
            "closest_to": "temecula",
            "address": "Third Street Promenade, Santa Monica, Los Angeles County, California, 90401, United States of America",
            "locType": "pedestrian",
            "blogLinks": [
                "http://www.wineinstitute.org/consumerstories"
            ],
            "longitude": "-118.496879184169"
        },
        "los angeles/anaheim": {
            "latitude": "33.7803597",
            "closest_to": "temecula",
            "address": "Global Tires of California, 233, East Anaheim Street, Wilmington, LA, Los Angeles County, California, 90744, United States of America",
            "locType": "car_repair",
            "blogLinks": [
                "http://gocalifornia.about.com/od/topcalifornia/qt/From-To-In-California.htm"
            ],
            "longitude": "-118.2602935"
        },
        "marin county": {
            "latitude": "38.0409144",
            "closest_to": "sausalito",
            "address": "Marin County, California, United States of America",
            "locType": "administrative",
            "blogLinks": [
                "http://www.wineinstitute.org/consumerstories"
            ],
            "longitude": "-122.6199637"
        },
        "san diego": {
            "latitude": "32.7174209",
            "closest_to": "temecula",
            "address": "San Diego, San Diego County, California, United States of America",
            "locType": "city",
            "blogLinks": [
                "https://www.yelp.com/list/places-in-or-near-temecula-and-san-diego-ca-temecula",
                "http://gocalifornia.about.com/od/topcalifornia/qt/From-To-In-California.htm",
                "https://www.tripadvisor.com/Tourism-g33165-Temecula_California-Vacations.html",
                "https://www.pinterest.com/pin/568438784200367843/",
                "http://www.roadsideamerica.com/location/ca/all",
                "https://www.quora.com/What-are-some-great-things-to-do-places-to-see-on-a-road-trip-up-California"
            ],
            "longitude": "-117.1627713"
        },
        "cambria": {
            "latitude": "35.5641381",
            "closest_to": "temecula",
            "address": "Cambria, San Luis Obispo County, California, United States of America",
            "locType": "administrative",
            "blogLinks": [
                "http://www.wineinstitute.org/consumerstories"
            ],
            "longitude": "-121.0807467"
        },
        "mono lake ca": {
            "latitude": "38.0077189",
            "closest_to": "temecula",
            "address": "Mono Lake, Mono County, California, United States of America",
            "locType": "water",
            "blogLinks": [
                "http://www.california-blog.com/"
            ],
            "longitude": "-118.967033937845"
        },
        "el centro": {
            "latitude": "32.792",
            "closest_to": "temecula",
            "address": "El Centro, Imperial County, California, United States of America",
            "locType": "city",
            "blogLinks": [
                "https://www.quora.com/What-are-some-great-things-to-do-places-to-see-on-a-road-trip-up-California"
            ],
            "longitude": "-115.5630513"
        },
        "las vegas": {
            "latitude": "36.17310935",
            "closest_to": "temecula",
            "address": "California Hotel, Sky Walk(Connection from Main Street to California, Cultural Corridor, Vegas Heights, Las Vegas, Clark County, Nevada, 89101, United States of America",
            "locType": "hotel",
            "blogLinks": [
                "http://gocalifornia.about.com/od/topcalifornia/qt/From-To-In-California.htm"
            ],
            "longitude": "-115.144667930325"
        },
        "napa valley ca": {
            "latitude": "38.2972603",
            "closest_to": "sausalito",
            "address": "California Boulevard, Napa, Napa County, California, 94558, United States of America",
            "locType": "secondary",
            "blogLinks": [
                "http://www.california-blog.com/"
            ],
            "longitude": "-122.3002947"
        },
        "ontario": {
            "latitude": "34.065846",
            "closest_to": "temecula",
            "address": "Ontario, San Bernardino County, California, United States of America",
            "locType": "city",
            "blogLinks": [
                "http://www.california-blog.com/"
            ],
            "longitude": "-117.6484303"
        },
        "california state railroad museum": {
            "latitude": "38.5846424",
            "closest_to": "sausalito",
            "address": "California State Railroad Museum, 125, I Street, Sacramento, Sacramento County, California, 95814, United States of America",
            "locType": "museum",
            "blogLinks": [
                "http://www.wineinstitute.org/consumerstories"
            ],
            "longitude": "-121.5038909"
        },
        "sacramento": {
            "latitude": "38.5815719",
            "closest_to": "sausalito",
            "address": "Sacramento, Sacramento County, California, United States of America",
            "locType": "city",
            "blogLinks": [
                "http://www.wineinstitute.org/consumerstories"
            ],
            "longitude": "-121.4943995"
        },
        "temecula valley wine country": {
            "latitude": "33.5334975",
            "closest_to": "temecula",
            "address": "Temecula Valley Wine Country, Valle de los Caballos, Riverside County, California, United States of America",
            "locType": "suburb",
            "blogLinks": [
                "http://www.artistcommunities.org/cavisions/sites"
            ],
            "longitude": "-117.0334856"
        },
        "united states": {
            "latitude": "36.7014631",
            "closest_to": "temecula",
            "address": "California, United States of America",
            "locType": "administrative",
            "blogLinks": [
                "https://www.tripadvisor.com/Tourism-g33165-Temecula_California-Vacations.html",
                "https://www.tripadvisor.com/Attractions-g33165-Activities-Temecula_California.html"
            ],
            "longitude": "-118.7559973"
        },
        "san simeon": {
            "latitude": "35.6438587",
            "closest_to": "temecula",
            "address": "San Simeon, San Luis Obispo County, California, United States of America",
            "locType": "hamlet",
            "blogLinks": [
                "http://www.wineinstitute.org/consumerstories"
            ],
            "longitude": "-121.1907532"
        },
        "lake skinner": {
            "latitude": "33.5892362",
            "closest_to": "temecula",
            "address": "Lake Skinner, Benton Road, Robert A. Skinner Treatment Plant, French Valley, Country Road Estates, Riverside County, California, 92596, United States of America",
            "locType": "water",
            "blogLinks": [
                "http://temeculaca.gov/207/Things-To-Do-Lodging-Transportation"
            ],
            "longitude": "-117.059680888587"
        },
        "north beach": {
            "latitude": "37.8011749",
            "closest_to": "temecula",
            "address": "North Beach, SF, California, 94133, United States of America",
            "locType": "neighbourhood",
            "blogLinks": [
                "http://www.wineinstitute.org/consumerstories"
            ],
            "longitude": "-122.409002"
        },
        "riverside national cemetery": {
            "latitude": "33.87692125",
            "closest_to": "temecula",
            "address": "Riverside National Cemetery, 22495, Alessandro, Riverside County, California, 92518, United States of America",
            "locType": "cemetery",
            "blogLinks": [
                "http://www.california-blog.com/"
            ],
            "longitude": "-117.270726607134"
        },
        "bothe-napa valley state park": {
            "latitude": "38.5414577",
            "closest_to": "sausalito",
            "address": "Bothe-Napa Valley State Park, Saint Helena Highway, Larkmead, Napa County, California, 94574; 94515, United States of America",
            "locType": "park",
            "blogLinks": [
                "http://www.wineinstitute.org/consumerstories"
            ],
            "longitude": "-122.50808612741"
        },
        "lake tahoe": {
            "latitude": "39.0888982",
            "closest_to": "temecula",
            "address": "Lake Tahoe, Placer County, California, United States of America",
            "locType": "water",
            "blogLinks": [
                "https://www.pinterest.com/pin/568438784200367843/"
            ],
            "longitude": "-120.050511752934"
        },
        "malibu": {
            "latitude": "33.7932142",
            "closest_to": "temecula",
            "address": "Malibu, Palm Springs, Riverside County, California, 92264, United States of America",
            "locType": "residential",
            "blogLinks": [
                "http://www.roadsideamerica.com/location/ca/all",
                "https://www.quora.com/What-are-some-great-things-to-do-places-to-see-on-a-road-trip-up-California"
            ],
            "longitude": "-116.5023561"
        },
        "scotland": {
            "latitude": "34.242229",
            "closest_to": "temecula",
            "address": "Scotland, San Bernardino County, California, United States of America",
            "locType": "hamlet",
            "blogLinks": [
                "https://www.quora.com/What-are-some-great-things-to-do-places-to-see-on-a-road-trip-up-California"
            ],
            "longitude": "-117.4981065"
        },
        "mojave desert ca": {
            "latitude": "35.1456319",
            "closest_to": "temecula",
            "address": "Mojave Desert, Utility Road, San Bernardino County, California, United States of America",
            "locType": "desert",
            "blogLinks": [
                "http://www.california-blog.com/"
            ],
            "longitude": "-115.548963686646"
        },
        "denver": {
            "latitude": "33.6996403",
            "closest_to": "temecula",
            "address": "Denver, Heritage Park Apartments, El Camino Real, Irvine, Orange County, California, 92604, United States of America",
            "locType": "residential",
            "blogLinks": [
                "https://www.quora.com/What-are-some-great-things-to-do-places-to-see-on-a-road-trip-up-California"
            ],
            "longitude": "-117.7762651"
        },
        "central california": {
            "latitude": "38.392688",
            "closest_to": "temecula",
            "address": "Central, Yolo County, California, United States of America",
            "locType": "hamlet",
            "blogLinks": [
                "https://www.quora.com/What-are-some-great-things-to-do-places-to-see-on-a-road-trip-up-California"
            ],
            "longitude": "-121.573011"
        },
        "glider port": {
            "latitude": "38.7723334",
            "closest_to": "sausalito",
            "address": "Glider Port, Hidden Valley Lake, Lake County, California, 95467, United States of America",
            "locType": "track",
            "blogLinks": [
                "https://www.quora.com/What-are-some-great-things-to-do-places-to-see-on-a-road-trip-up-California"
            ],
            "longitude": "-122.5714991"
        },
        "mission bay ca": {
            "latitude": "37.7707742",
            "closest_to": "temecula",
            "address": "Mission Bay, SF, California, 94158, United States of America",
            "locType": "neighbourhood",
            "blogLinks": [
                "http://www.california-blog.com/"
            ],
            "longitude": "-122.3911711"
        },
        "half moon bay state beach": {
            "latitude": "37.47903115",
            "closest_to": "temecula",
            "address": "Half Moon Bay State Beach, Venice Boulevard, Half Moon Bay, San Mateo County, California, 94019, United States of America",
            "locType": "beach",
            "blogLinks": [
                "http://www.wineinstitute.org/consumerstories"
            ],
            "longitude": "-122.449789014662"
        },
        "kern river": {
            "latitude": "36.6816956",
            "closest_to": "temecula",
            "address": "Kern River, Tulare County, California, United States of America",
            "locType": "river",
            "blogLinks": [
                "http://www.california-blog.com/"
            ],
            "longitude": "-118.4124188"
        },
        "calistoga": {
            "latitude": "38.582615",
            "closest_to": "sausalito",
            "address": "Calistoga, Napa County, California, United States of America",
            "locType": "city",
            "blogLinks": [
                "http://www.wineinstitute.org/consumerstories"
            ],
            "longitude": "-122.583325948608"
        }
    },
    "sausalito": {
        "type": "administrative",
        "osm_id": "2829689",
        "class": "boundary",
        "importance": 0.64561533453658,
        "lat": "37.8590272",
        "lon": "-122.4854693",
        "boundingbox": [
            "37.8436795",
            "37.8731429",
            "-122.5102612",
            "-122.4753744"
        ],
        "display_name": "Sausalito, Marin County, California, United States of America",
        "licence": "Data \u00a9 OpenStreetMap contributors, ODbL 1.0. http://www.openstreetmap.org/copyright",
        "icon": "https://nominatim.openstreetmap.org/images/mapicons/poi_boundary_administrative.p.20.png",
        "place_id": "159575624",
        "osm_type": "relation"
    }
}