{
    "sakleshpur": {
        "icon": "https://nominatim.openstreetmap.org/images/mapicons/poi_place_town.p.20.png",
        "osm_type": "node",
        "boundingbox": [
            "12.9034349",
            "12.9834349",
            "75.7462318",
            "75.8262318"
        ],
        "display_name": "Sakaleshpura, Sakaleshapura taluk, Hassan district, Karnataka, 573134, India",
        "class": "place",
        "osm_id": "670593480",
        "type": "town",
        "licence": "Data \u00a9 OpenStreetMap contributors, ODbL 1.0. http://www.openstreetmap.org/copyright",
        "lon": "75.7862318",
        "lat": "12.9434349",
        "place_id": "6499206",
        "importance": 0.4
    },
    "mentions": {
        "kozhikode": {
            "blogLinks": [
                "https://www.quora.com/What-are-the-best-weekend-road-trips-from-Bangalore"
            ],
            "locType": "primary",
            "longitude": "76.6598864",
            "latitude": "12.2926117",
            "address": "Kozhikode - Kollegal Highway, Ittigegudu, Mysuru, Mysuru taluk, Mysuru district, Karnataka, 570001, India",
            "closest_to": ""
        },
        "malgudi": {
            "blogLinks": [
                "http://travel.india.com/agumbe/",
                "http://www.holidaymonk.com/15-places-to-visit-in-karnataka/"
            ],
            "locType": "restaurant",
            "longitude": "77.7017267",
            "latitude": "12.9651193",
            "address": "Malgudi Southern Cuisine, 3, Outer Ring Road, Ananda Nagara, Doddanekundi, Garudacharpalya, Bangalore Urban, Karnataka, 560037, India",
            "closest_to": ""
        },
        "nandi hills": {
            "blogLinks": [
                "https://www.quora.com/What-are-the-best-places-to-visit-on-a-3-day-trip-in-and-around-Karnataka",
                "https://www.quora.com/What-are-the-best-weekend-road-trips-from-Bangalore"
            ],
            "locType": "hotel",
            "longitude": "77.7194741670394",
            "latitude": "13.268142",
            "address": "Nandi Upahara, Nandhi Hills Road, Kottige Thimmanahalli, Devanahalli taluk, Bangalore Rural, Karnataka, India",
            "closest_to": ""
        },
        "hindupur": {
            "blogLinks": [
                "https://www.quora.com/What-are-the-best-weekend-road-trips-from-Bangalore"
            ],
            "locType": "primary",
            "longitude": "77.5237128",
            "latitude": "13.3580171",
            "address": "Hindupur ByPass Road, Bachchahalli, Doddaballapura taluk, Bangalore Rural, Karnataka, India",
            "closest_to": ""
        },
        "tumkur": {
            "blogLinks": [
                "http://wikitravel.org/en/Chikmagalur"
            ],
            "locType": "county",
            "longitude": "77.0002445",
            "latitude": "13.4999406",
            "address": "Tumakuru, Tumkur district, Karnataka, India",
            "closest_to": ""
        },
        "mekedatu": {
            "blogLinks": [
                "https://www.quora.com/What-are-the-best-weekend-road-trips-from-Bangalore"
            ],
            "locType": "attraction",
            "longitude": "77.4475194",
            "latitude": "12.2584997",
            "address": "Mekedatu, SH92, Mahalli, Kanakapura taluk, Ramanagara district, Karnataka, India",
            "closest_to": ""
        },
        "sangameshwara": {
            "blogLinks": [
                "https://www.quora.com/What-are-the-best-places-to-visit-on-a-3-day-trip-in-and-around-Karnataka"
            ],
            "locType": "village",
            "longitude": "74.87651",
            "latitude": "15.184341",
            "address": "Sangameshwara, Kalaghatagi taluku, Dharwad district, Karnataka, India",
            "closest_to": ""
        },
        "u.k.": {
            "blogLinks": [
                "https://en.wikipedia.org/wiki/Agumbe"
            ],
            "locType": "administrative",
            "longitude": "75.7223521",
            "latitude": "14.5203896",
            "address": "Karnataka, India",
            "closest_to": ""
        },
        "tagore": {
            "blogLinks": [
                "https://www.quora.com/What-are-the-best-places-to-visit-on-a-3-day-trip-in-and-around-Karnataka"
            ],
            "locType": "suburb",
            "longitude": "77.595715",
            "latitude": "13.0227204",
            "address": "Rabindranath Tagore Nagar, Bengaluru, Bangalore Urban, Karnataka, 560001, India",
            "closest_to": ""
        },
        "bijapur district": {
            "blogLinks": [
                "https://www.quora.com/What-are-the-best-places-to-visit-on-a-3-day-trip-in-and-around-Karnataka"
            ],
            "locType": "administrative",
            "longitude": "75.897147327785",
            "latitude": "16.81105965",
            "address": "Bijapur district, Karnataka, India",
            "closest_to": ""
        },
        "bandipur national park": {
            "blogLinks": [
                "https://www.quora.com/What-are-the-best-places-to-visit-on-a-3-day-trip-in-and-around-Karnataka",
                "http://www.holidaymonk.com/15-places-to-visit-in-karnataka/"
            ],
            "locType": "national_park",
            "longitude": "76.4314968740264",
            "latitude": "11.76682425",
            "address": "Bandipur National Park, Kozhikode - Kollegal Highway, Gundlupet taluk, Chamarajanagar district, Karnataka, India",
            "closest_to": ""
        },
        "lord shiva": {
            "blogLinks": [
                "https://www.quora.com/What-are-the-best-places-to-visit-on-a-3-day-trip-in-and-around-Karnataka"
            ],
            "locType": "place_of_worship",
            "longitude": "77.6024995",
            "latitude": "12.916875",
            "address": "Lord Shiva Temple, Marenahalli Road (South End), MICO Layout, BTM Layout, Bengaluru, Bangalore Urban, Karnataka, 560001, India",
            "closest_to": ""
        },
        "andhra": {
            "blogLinks": [
                "https://www.quora.com/What-are-the-best-weekend-road-trips-from-Bangalore"
            ],
            "locType": "hotel",
            "longitude": "79.3452447",
            "latitude": "13.6841958",
            "address": "Karnataka, West Mada Street, Srivari Temple, Tirumala, Chittoor, Andhra Pradesh, 517504, India",
            "closest_to": ""
        },
        "uttara kannada district": {
            "blogLinks": [
                "https://www.quora.com/What-are-the-best-weekend-road-trips-from-Bangalore"
            ],
            "locType": "county",
            "longitude": "74.583333",
            "latitude": "14.883333",
            "address": "Uttara Kannada, Karnataka, India",
            "closest_to": ""
        },
        "kodava": {
            "blogLinks": [
                "https://www.quora.com/What-are-the-best-places-to-visit-on-a-3-day-trip-in-and-around-Karnataka"
            ],
            "locType": "community_centre",
            "longitude": "77.5947466457941",
            "latitude": "12.9946227",
            "address": "Kodava Samaja, M V Jayaram Road, Jayamahal Extension, Vasantnagar, Bengaluru, Bangalore Urban, Karnataka, 560001, India",
            "closest_to": ""
        },
        "kaveri": {
            "blogLinks": [
                "https://www.quora.com/What-are-the-best-places-to-visit-on-a-3-day-trip-in-and-around-Karnataka",
                "https://www.quora.com/What-are-the-best-weekend-road-trips-from-Bangalore"
            ],
            "locType": "river",
            "longitude": "77.0635531",
            "latitude": "12.1687878",
            "address": "Kaveri, Kollegala taluk, Chamarajanagar district, Karnataka, India",
            "closest_to": ""
        },
        "tagore beach": {
            "blogLinks": [
                "https://www.quora.com/What-are-the-best-places-to-visit-on-a-3-day-trip-in-and-around-Karnataka"
            ],
            "locType": "beach",
            "longitude": "74.126114099183",
            "latitude": "14.81741155",
            "address": "Rabindranath Tagore Beach, NH66, Kodibag, Karwar, Karavara taluk, Uttara Kannada, Karnataka, 581300, India",
            "closest_to": ""
        },
        "goa": {
            "blogLinks": [
                "http://www.holidayiq.com/destinations/sakleshpur/",
                "https://www.tripoto.com/weekend-getaways/from-agumbe"
            ],
            "locType": "restaurant",
            "longitude": "77.6200027",
            "latitude": "12.9750047",
            "address": "Carnival De Goa, Bhaskaran Road, Gupta Layout, Halasuru, Bengaluru, Bangalore Urban, Karnataka, 560001, India",
            "closest_to": ""
        },
        "kunigal": {
            "blogLinks": [
                "http://www.team-bhp.com/forum/travelogues/66833-unplanned-weekend-trips-sringeri-agumbe-kaginahare.html"
            ],
            "locType": "town",
            "longitude": "77.0236705",
            "latitude": "13.0238782",
            "address": "Kunigal, Kunigal taluk, Tumkur district, Karnataka, 572130, India",
            "closest_to": ""
        },
        "brindavan gardens": {
            "blogLinks": [
                "https://www.quora.com/What-are-the-best-places-to-visit-on-a-3-day-trip-in-and-around-Karnataka"
            ],
            "locType": "garden",
            "longitude": "76.5741029405883",
            "latitude": "12.4208084",
            "address": "Brindavan Gardens, Krishnaraja Sagara Road, Krushnarajasagara, Srirangapattana taluk, Mandya district, Karnataka, India",
            "closest_to": ""
        },
        "main road": {
            "blogLinks": [
                "http://www.holidayiq.com/destinations/sakleshpur/"
            ],
            "locType": "tertiary",
            "longitude": "76.6222634",
            "latitude": "12.2674879",
            "address": "Main Road, Sriramapura, Mysuru, Mysuru taluk, Mysuru district, Karnataka, 570001, India",
            "closest_to": ""
        },
        "india.karnataka": {
            "blogLinks": [
                "http://www.holidaymonk.com/15-places-to-visit-in-karnataka/"
            ],
            "locType": "atm",
            "longitude": "76.6639936",
            "latitude": "12.3084901",
            "address": "Karnataka, Shalivahana Road, Nazarbad, Mysuru, Mysuru taluk, Mysuru district, Karnataka, 570001, India",
            "closest_to": ""
        },
        "vijayapura main road": {
            "blogLinks": [
                "http://wikitravel.org/en/Chikmagalur"
            ],
            "locType": "college",
            "longitude": "75.6425088",
            "latitude": "16.8319715",
            "address": "Karnataka State Women's University, Athani Road, Ratnapura, Vijayapura taluk, Bijapur district, Karnataka, India",
            "closest_to": ""
        },
        "ooty lake": {
            "blogLinks": [
                "https://www.quora.com/What-are-the-best-places-to-visit-on-a-3-day-trip-in-and-around-Karnataka"
            ],
            "locType": "primary",
            "longitude": "76.6586807",
            "latitude": "12.2774807",
            "address": "Ooty Road, Vidyaranyapuram, Mysuru, Mysuru taluk, Mysuru district, Karnataka, 570001, India",
            "closest_to": ""
        },
        "river sharavathi": {
            "blogLinks": [
                "http://www.holidaymonk.com/15-places-to-visit-in-karnataka/"
            ],
            "locType": "river",
            "longitude": "77.5476521",
            "latitude": "12.967526",
            "address": "Vrishabavathi, Bengaluru, Bangalore Urban, Karnataka, 560001, India",
            "closest_to": ""
        },
        "bangalore": {
            "blogLinks": [
                "http://www.nivalink.com/destination/sakleshpur",
                "https://en.wikipedia.org/wiki/Agumbe",
                "https://www.mekanagadde.com/tourist-places-nearby-to-visit/",
                "https://www.quora.com/What-are-the-best-places-to-visit-on-a-3-day-trip-in-and-around-Karnataka",
                "http://travel.india.com/agumbe/",
                "http://www.nivalink.com/destination/thirthahalli",
                "http://wikitravel.org/en/Chikmagalur",
                "https://www.tripoto.com/weekend-getaways/from-agumbe",
                "https://www.quora.com/What-are-the-best-weekend-road-trips-from-Bangalore",
                "http://www.holidayiq.com/destinations/sakleshpur/"
            ],
            "locType": "city",
            "longitude": "77.5912997",
            "latitude": "12.9791198",
            "address": "Bengaluru, Bangalore Urban, Karnataka, 560001, India",
            "closest_to": ""
        },
        "subramanya": {
            "blogLinks": [
                "https://www.mekanagadde.com/tourist-places-nearby-to-visit/"
            ],
            "locType": "commercial",
            "longitude": "77.6015800913134",
            "latitude": "12.9251206",
            "address": "Subramanya Arcade, Marenahalli, Bengaluru, Bangalore Urban, Karnataka, 560001, India",
            "closest_to": ""
        },
        "india": {
            "blogLinks": [
                "http://www.nivalink.com/destination/sakleshpur",
                "https://en.wikipedia.org/wiki/Agumbe",
                "https://www.mekanagadde.com/tourist-places-nearby-to-visit/",
                "http://www.distancesfrom.com/in/travel-time-from-Bengaluru-to-Bengaluru-via-Sakleshpur-Chickmagaluru-Agumbe-Murdeshwar-Gokarna-Jog-F/TravelTimeHistory/31393639.aspx",
                "https://www.quora.com/What-are-the-best-places-to-visit-on-a-3-day-trip-in-and-around-Karnataka",
                "http://travel.india.com/agumbe/",
                "http://www.holidaymonk.com/15-places-to-visit-in-karnataka/",
                "http://wikitravel.org/en/Chikmagalur",
                "https://www.tripoto.com/weekend-getaways/from-agumbe",
                "https://www.quora.com/What-are-the-best-weekend-road-trips-from-Bangalore"
            ],
            "locType": "administrative",
            "longitude": "75.7223521",
            "latitude": "14.5203896",
            "address": "Karnataka, India",
            "closest_to": ""
        },
        "yeshwanthpur": {
            "blogLinks": [
                "http://www.holidayiq.com/destinations/sakleshpur/"
            ],
            "locType": "marketplace",
            "longitude": "77.5451161845771",
            "latitude": "13.0159579",
            "address": "Yeshwanthpur Yard market, Shankarnagar Main Road, Goragunte Palya, Nandini Layout, Bengaluru, Bangalore Urban, Karnataka, 560001, India",
            "closest_to": ""
        },
        "markandeya river": {
            "blogLinks": [
                "https://www.quora.com/What-are-the-best-places-to-visit-on-a-3-day-trip-in-and-around-Karnataka"
            ],
            "locType": "river",
            "longitude": "74.5774895",
            "latitude": "15.9707453",
            "address": "Markandeya, Belagavi taluku, Belgaum district, Karnataka, India",
            "closest_to": ""
        },
        "karwar": {
            "blogLinks": [
                "http://www.holidaymonk.com/15-places-to-visit-in-karnataka/"
            ],
            "locType": "town",
            "longitude": "74.1319229",
            "latitude": "14.8120931",
            "address": "Karwar, Karavara taluk, Uttara Kannada, Karnataka, 581300, India",
            "closest_to": ""
        },
        "coimbatore": {
            "blogLinks": [
                "https://www.tripoto.com/weekend-getaways/from-agumbe"
            ],
            "locType": "trunk",
            "longitude": "76.6318246",
            "latitude": "11.6793976",
            "address": "Gundlupet - Coimbatore Highway, Bandipur, Gundlupet taluk, Chamarajanagar district, Karnataka, India",
            "closest_to": ""
        },
        "south": {
            "blogLinks": [
                "https://www.quora.com/What-are-the-best-places-to-visit-on-a-3-day-trip-in-and-around-Karnataka"
            ],
            "locType": "residential",
            "longitude": "77.8040874",
            "latitude": "13.2942848",
            "address": "s, Vijayapura, Devanahalli taluk, Bangalore Rural, Karnataka, 562135, India",
            "closest_to": ""
        },
        "sharadamba": {
            "blogLinks": [
                "https://www.quora.com/What-are-the-best-places-to-visit-on-a-3-day-trip-in-and-around-Karnataka"
            ],
            "locType": "place_of_worship",
            "longitude": "77.5656194",
            "latitude": "12.9321898",
            "address": "Sharadamba Temple, 7th Main Road, Yediyur, Thyagaraja Nagar, Bengaluru, Bangalore Urban, Karnataka, 560001, India",
            "closest_to": ""
        },
        "brahmagiri range": {
            "blogLinks": [
                "https://www.quora.com/What-are-the-best-places-to-visit-on-a-3-day-trip-in-and-around-Karnataka"
            ],
            "locType": "peak",
            "longitude": "76.8122474",
            "latitude": "14.8001586",
            "address": "Brahmagiri Betta, Molakalmuru taluku, Chitradurga district, Karnataka, India",
            "closest_to": ""
        },
        "belgaum": {
            "blogLinks": [
                "https://www.quora.com/What-are-the-best-places-to-visit-on-a-3-day-trip-in-and-around-Karnataka"
            ],
            "locType": "county",
            "longitude": "74.75",
            "latitude": "16.333333",
            "address": "Belgaum, Belgaum district, Karnataka, India",
            "closest_to": ""
        },
        "garden city": {
            "blogLinks": [
                "https://www.tripoto.com/weekend-getaways/from-agumbe",
                "https://www.quora.com/What-are-the-best-weekend-road-trips-from-Bangalore"
            ],
            "locType": "bank",
            "longitude": "80.2197941",
            "latitude": "13.0365141",
            "address": "Karnataka Bank, Postal Colony 2nd Street, Postal Colony, Ashok Nagar, Chennai City Corporation Limits, Chennai district, Tamil Nadu, 600033, India",
            "closest_to": ""
        },
        "kadamba": {
            "blogLinks": [
                "https://www.quora.com/What-are-the-best-places-to-visit-on-a-3-day-trip-in-and-around-Karnataka"
            ],
            "locType": "residential",
            "longitude": "77.7436954",
            "latitude": "12.9703178",
            "address": "Kadamba Avenue, R. Narayanapura, Brookefields, Dodsworth Enclave, Bangalore Urban, Karnataka, 560066, India",
            "closest_to": ""
        },
        "palani": {
            "blogLinks": [
                "https://www.tripoto.com/weekend-getaways/from-agumbe"
            ],
            "locType": "recycling",
            "longitude": "77.6168951",
            "latitude": "12.9537341",
            "address": "Palani, Neelasandra Bazaar Street, Austin Town BDA Layout, Neelasandra, Bengaluru, Bangalore Urban, Karnataka, 560001, India",
            "closest_to": ""
        },
        "kali": {
            "blogLinks": [
                "https://www.quora.com/What-are-the-best-places-to-visit-on-a-3-day-trip-in-and-around-Karnataka",
                "http://www.holidaymonk.com/15-places-to-visit-in-karnataka/"
            ],
            "locType": "river",
            "longitude": "74.5802901",
            "latitude": "15.0145378",
            "address": "Kali, Joida taluk, Uttara Kannada, Karnataka, India",
            "closest_to": ""
        },
        "udipi": {
            "blogLinks": [
                "http://www.nivalink.com/destination/sakleshpur",
                "http://www.nivalink.com/destination/thirthahalli"
            ],
            "locType": "restaurant",
            "longitude": "77.652888",
            "latitude": "12.9530588",
            "address": "Udipi Park, 2nd Cross Road, Muniyappa Layout, Murugeshpalaya, Belure Ambedkar Nagar, Bangalore Urban, Karnataka, 560067, India",
            "closest_to": ""
        },
        "gulmohar": {
            "blogLinks": [
                "https://www.quora.com/What-are-the-best-weekend-road-trips-from-Bangalore"
            ],
            "locType": "residential",
            "longitude": "77.745811757371",
            "latitude": "12.9841671",
            "address": "MIMS Gulmohar Villas, Kadugodi, Prashanth Extension, Bangalore Urban, Karnataka, 56066, India",
            "closest_to": ""
        },
        "heart lake": {
            "blogLinks": [
                "https://www.quora.com/What-are-the-best-places-to-visit-on-a-3-day-trip-in-and-around-Karnataka"
            ],
            "locType": "cemetery",
            "longitude": "77.6033149073313",
            "latitude": "12.9542916",
            "address": "Sacred Heart Cemetry, Shanti Nagar, Bengaluru, Bangalore Urban, Karnataka, 560001, India",
            "closest_to": ""
        },
        "maharashtra": {
            "blogLinks": [
                "http://www.holidaymonk.com/15-places-to-visit-in-karnataka/",
                "http://www.holidayiq.com/destinations/sakleshpur/"
            ],
            "locType": "bank",
            "longitude": "77.5856013",
            "latitude": "12.9049455",
            "address": "Bank of Maharashtra, 24th Main, K R Layout, Puttenahalli, Bengaluru, Bangalore Urban, Karnataka, 560001, India",
            "closest_to": ""
        },
        "botanical garden": {
            "blogLinks": [
                "https://www.quora.com/What-are-the-best-places-to-visit-on-a-3-day-trip-in-and-around-Karnataka"
            ],
            "locType": "protected_area",
            "longitude": "77.5744817798899",
            "latitude": "13.08099125",
            "address": "Botanical Garden, Cart road, Judicial Layout, Jakkur, Bangalore Urban, Karnataka, 560065, India",
            "closest_to": ""
        },
        "amboli": {
            "blogLinks": [
                "https://www.quora.com/What-are-the-best-places-to-visit-on-a-3-day-trip-in-and-around-Karnataka"
            ],
            "locType": "village",
            "longitude": "74.4340839",
            "latitude": "15.6456171",
            "address": "Amboli, Khanapura taluku, Belgaum district, Karnataka, India",
            "closest_to": ""
        },
        "silent valley": {
            "blogLinks": [
                "https://www.quora.com/What-are-the-best-places-to-visit-on-a-3-day-trip-in-and-around-Karnataka"
            ],
            "locType": "hotel",
            "longitude": "76.5819054",
            "latitude": "12.3459371",
            "address": "Silent Shores Resort, Krishnaraja Sagara Road, Kurgalli, Bastipura, Srirangapattana taluk, Mandya district, Karnataka, 570027, India",
            "closest_to": ""
        },
        "magadi": {
            "blogLinks": [
                "https://www.quora.com/What-are-the-best-weekend-road-trips-from-Bangalore"
            ],
            "locType": "town",
            "longitude": "77.2242281",
            "latitude": "12.9567353",
            "address": "Magadi, Magadi taluku, Ramanagara district, Karnataka, 562120, India",
            "closest_to": ""
        },
        "bangalore-mangalore highway": {
            "blogLinks": [
                "https://www.quora.com/What-are-the-best-weekend-road-trips-from-Bangalore"
            ],
            "locType": "trunk",
            "longitude": "76.7990601",
            "latitude": "12.9699132",
            "address": "Bangalore Mangalore Highway, Irubanahalli, Nagamangala taluk, Mandya district, Karnataka, India",
            "closest_to": ""
        },
        "mysuru": {
            "blogLinks": [
                "http://www.holidayiq.com/destinations/sakleshpur/"
            ],
            "locType": "city",
            "longitude": "76.6553609",
            "latitude": "12.3051828",
            "address": "Mysuru, Mysuru taluk, Mysuru district, Karnataka, 570001, India",
            "closest_to": ""
        },
        "dharmasthala temple": {
            "blogLinks": [
                "https://www.mekanagadde.com/tourist-places-nearby-to-visit/"
            ],
            "locType": "townhall",
            "longitude": "77.5682163",
            "latitude": "12.9433356",
            "address": "Sri Dharmasthala Manjunathaswamy Kalyana Mantapa, Bull Temple Road, Yediyur, Hanumantha Nagar, Bengaluru, Bangalore Urban, Karnataka, 560001, India",
            "closest_to": ""
        },
        "hubli": {
            "blogLinks": [
                "http://www.nivalink.com/destination/thirthahalli"
            ],
            "locType": "city",
            "longitude": "75.1379848",
            "latitude": "15.3518378",
            "address": "Hubballi - \u0cb9\u0cc1\u0cac\u0ccd\u0cac\u0cb3\u0ccd\u0cb3\u0cbf, Hubballi taluku, Dharwad district, Karnataka, 580020, India",
            "closest_to": ""
        },
        "baga": {
            "blogLinks": [
                "https://www.tripoto.com/weekend-getaways/from-agumbe"
            ],
            "locType": "village",
            "longitude": "76.9300452",
            "latitude": "17.6148763",
            "address": "Baga Hipparaga, Basavakalyana taluku, Bidar district, Karnataka, India",
            "closest_to": ""
        },
        "kerala": {
            "blogLinks": [
                "https://www.quora.com/What-are-the-best-weekend-road-trips-from-Bangalore",
                "https://www.quora.com/What-are-the-best-places-to-visit-on-a-3-day-trip-in-and-around-Karnataka",
                "http://www.holidaymonk.com/15-places-to-visit-in-karnataka/",
                "http://www.team-bhp.com/forum/travelogues/66833-unplanned-weekend-trips-sringeri-agumbe-kaginahare.html"
            ],
            "locType": "restaurant",
            "longitude": "77.6382683",
            "latitude": "12.9726449",
            "address": "New Life Kerala Mess, Sai Baba Mandira Road, Mottappanapalaya, Indiranagar, Bengaluru, Bangalore Urban, Karnataka, 560001, India",
            "closest_to": ""
        },
        "kali river": {
            "blogLinks": [
                "https://www.quora.com/What-are-the-best-places-to-visit-on-a-3-day-trip-in-and-around-Karnataka",
                "https://www.quora.com/What-are-the-best-weekend-road-trips-from-Bangalore"
            ],
            "locType": "river",
            "longitude": "74.5802901",
            "latitude": "15.0145378",
            "address": "Kali, Joida taluk, Uttara Kannada, Karnataka, India",
            "closest_to": ""
        },
        "uttara kannada": {
            "blogLinks": [
                "https://www.quora.com/What-are-the-best-places-to-visit-on-a-3-day-trip-in-and-around-Karnataka"
            ],
            "locType": "administrative",
            "longitude": "74.4729163045979",
            "latitude": "14.6726379",
            "address": "Uttara Kannada, Karnataka, India",
            "closest_to": ""
        },
        "west": {
            "blogLinks": [
                "https://en.wikipedia.org/wiki/Agumbe"
            ],
            "locType": "clothes",
            "longitude": "77.5960999",
            "latitude": "12.8759384",
            "address": "w, Balmuri Main Road, Hulimavu,, Bannerghatta Road, Mico Arekere Layout 1st Stage, Hulimavu, Bengaluru, Bangalore Urban, Karnataka, 560076, India",
            "closest_to": ""
        },
        "chamundi hill": {
            "blogLinks": [
                "https://www.quora.com/What-are-the-best-places-to-visit-on-a-3-day-trip-in-and-around-Karnataka"
            ],
            "locType": "peak",
            "longitude": "76.6703937",
            "latitude": "12.2724017",
            "address": "Chamundi Hill, Mysuru, Mysuru taluk, Mysuru district, Karnataka, 570001, India",
            "closest_to": ""
        },
        "panaji": {
            "blogLinks": [
                "https://www.tripoto.com/weekend-getaways/from-agumbe"
            ],
            "locType": "trunk",
            "longitude": "74.4876784",
            "latitude": "15.4422981",
            "address": "Belgaum - Panaji Highway, Londa, Khanapura taluku, Belgaum district, Karnataka, India",
            "closest_to": ""
        },
        "yellapur": {
            "blogLinks": [
                "https://www.quora.com/What-are-the-best-places-to-visit-on-a-3-day-trip-in-and-around-Karnataka"
            ],
            "locType": "town",
            "longitude": "74.7061458",
            "latitude": "14.9622518",
            "address": "Yellapura, Yallapura taluk, Uttara Kannada, Karnataka, 581359, India",
            "closest_to": ""
        },
        "karwar karwar": {
            "blogLinks": [
                "http://www.holidaymonk.com/15-places-to-visit-in-karnataka/"
            ],
            "locType": "town",
            "longitude": "74.1319229",
            "latitude": "14.8120931",
            "address": "Karwar, Karavara taluk, Uttara Kannada, Karnataka, 581300, India",
            "closest_to": ""
        },
        "bangkok": {
            "blogLinks": [
                "https://www.quora.com/What-are-the-best-places-to-visit-on-a-3-day-trip-in-and-around-Karnataka"
            ],
            "locType": "bar",
            "longitude": "77.6382633",
            "latitude": "12.9701967",
            "address": "One night in Bangkok, 12th Main Road, HAL 2nd Stage, Indiranagar, Bengaluru, Bangalore Urban, Karnataka, 560001, India",
            "closest_to": ""
        },
        "national park": {
            "blogLinks": [
                "https://www.quora.com/What-are-the-best-weekend-road-trips-from-Bangalore"
            ],
            "locType": "national_park",
            "longitude": "77.5722783830694",
            "latitude": "12.77900335",
            "address": "Bannerghatta National Park, Anekal Road, Begihalli, Bangalore Urban, Karnataka, 560076, India",
            "closest_to": ""
        },
        "bangalore karnataka": {
            "blogLinks": [
                "https://www.quora.com/What-are-the-best-places-to-visit-on-a-3-day-trip-in-and-around-Karnataka"
            ],
            "locType": "city",
            "longitude": "77.5912997",
            "latitude": "12.9791198",
            "address": "Bengaluru, Bangalore Urban, Karnataka, 560001, India",
            "closest_to": ""
        },
        "bandipur": {
            "blogLinks": [
                "https://www.quora.com/What-are-the-best-weekend-road-trips-from-Bangalore"
            ],
            "locType": "village",
            "longitude": "76.6285739",
            "latitude": "11.6662708",
            "address": "Bandipur, Gundlupet taluk, Chamarajanagar district, Karnataka, India",
            "closest_to": ""
        },
        "japan": {
            "blogLinks": [
                "https://www.quora.com/What-are-the-best-places-to-visit-on-a-3-day-trip-in-and-around-Karnataka",
                "http://www.distancesfrom.com/in/travel-time-from-Bengaluru-to-Bengaluru-via-Sakleshpur-Chickmagaluru-Agumbe-Murdeshwar-Gokarna-Jog-F/TravelTimeHistory/31393639.aspx"
            ],
            "locType": "embassy",
            "longitude": "77.5969315",
            "latitude": "12.9825386",
            "address": "Consulate of Japan, Bangalore, Queen's Road, Tasker Town, Shivajinagar, Bengaluru, Bangalore Urban, Karnataka, 560001, India",
            "closest_to": ""
        },
        "bellary": {
            "blogLinks": [
                "https://www.quora.com/What-are-the-best-weekend-road-trips-from-Bangalore"
            ],
            "locType": "county",
            "longitude": "76.8323648",
            "latitude": "15.2485413",
            "address": "Bellary, Bellary district, Karnataka, India",
            "closest_to": ""
        },
        "bidar": {
            "blogLinks": [
                "https://www.quora.com/What-are-the-best-places-to-visit-on-a-3-day-trip-in-and-around-Karnataka"
            ],
            "locType": "county",
            "longitude": "77.333333",
            "latitude": "18.083333",
            "address": "Bidar, Bidar district, Karnataka, India",
            "closest_to": ""
        },
        "japanese garden": {
            "blogLinks": [
                "https://www.tripoto.com/weekend-getaways/from-agumbe"
            ],
            "locType": "restaurant",
            "longitude": "77.6055915",
            "latitude": "12.9655328",
            "address": "Hae Kum Gang (Korean/Japanese), 20, Castle Street, Shantala Nagar, Ashok Nagar, Bengaluru, Bangalore Urban, Karnataka, 560001, India",
            "closest_to": ""
        },
        "daria daulat gardens": {
            "blogLinks": [
                "https://www.quora.com/What-are-the-best-places-to-visit-on-a-3-day-trip-in-and-around-Karnataka"
            ],
            "locType": "museum",
            "longitude": "76.6969039957315",
            "latitude": "12.4200182",
            "address": "Daria Daulat Bagh Museum, Bangalore-Mysore Road, Srirangapatna, Srirangapattana taluk, Mandya district, Karnataka, 571438, India",
            "closest_to": ""
        },
        "river cauvery": {
            "blogLinks": [
                "https://www.quora.com/What-are-the-best-weekend-road-trips-from-Bangalore"
            ],
            "locType": "cinema",
            "longitude": "77.5832796015599",
            "latitude": "13.00262215",
            "address": "Cauvery, 1st Main Road, Lower Palace Orchard, Guttahalli, Bengaluru, Bangalore Urban, Karnataka, 560001, India",
            "closest_to": ""
        },
        "bandipur national park bandipur national park": {
            "blogLinks": [
                "http://www.holidaymonk.com/15-places-to-visit-in-karnataka/"
            ],
            "locType": "national_park",
            "longitude": "76.4314968740264",
            "latitude": "11.76682425",
            "address": "Bandipur National Park, Kozhikode - Kollegal Highway, Gundlupet taluk, Chamarajanagar district, Karnataka, India",
            "closest_to": ""
        },
        "kabini": {
            "blogLinks": [
                "https://www.quora.com/What-are-the-best-weekend-road-trips-from-Bangalore"
            ],
            "locType": "river",
            "longitude": "76.4152088",
            "latitude": "12.0140065",
            "address": "Kabini, Heggadadevanakote taluk, Mysuru district, Karnataka, India",
            "closest_to": ""
        },
        "mahadeshwara hills": {
            "blogLinks": [
                "https://www.quora.com/What-are-the-best-places-to-visit-on-a-3-day-trip-in-and-around-Karnataka"
            ],
            "locType": "fuel",
            "longitude": "77.5414216",
            "latitude": "12.932367",
            "address": "Sri Mahadeshwara Filling Station, Outer Ring Road, Seven Hills Layout, Kathriguppe, Bengaluru, Bangalore Urban, Karnataka, 560001, India",
            "closest_to": ""
        },
        "ganeshgudi": {
            "blogLinks": [
                "https://www.quora.com/What-are-the-best-places-to-visit-on-a-3-day-trip-in-and-around-Karnataka"
            ],
            "locType": "village",
            "longitude": "74.5335693",
            "latitude": "15.2815822",
            "address": "Ganeshagudi, Joida taluk, Uttara Kannada, Karnataka, India",
            "closest_to": ""
        },
        "avalabetta": {
            "blogLinks": [
                "https://www.quora.com/What-are-the-best-weekend-road-trips-from-Bangalore"
            ],
            "locType": "peak",
            "longitude": "77.6730413",
            "latitude": "13.5775096",
            "address": "Avalabetta, Chikkaballapura taluk, Chikkaballapura district, Karnataka, India",
            "closest_to": ""
        },
        "lakkavalli": {
            "blogLinks": [
                "http://wikitravel.org/en/Chikmagalur"
            ],
            "locType": "village",
            "longitude": "75.1078097",
            "latitude": "14.5841018",
            "address": "Lakkavalli, Soraba taluk, Shimoga district, Karnataka, India",
            "closest_to": ""
        },
        "northern india": {
            "blogLinks": [
                "http://www.holidaymonk.com/15-places-to-visit-in-karnataka/"
            ],
            "locType": "company",
            "longitude": "77.6804678",
            "latitude": "12.9257442",
            "address": "Northern Operating  Services Pvt Ltd, RMZ Ecospace, Internal Rd, RMZ Ecospace, Bellandur, Doddakannelli, Bangalore Urban, Karnataka, 560037, India",
            "closest_to": ""
        },
        "durga temple": {
            "blogLinks": [
                "https://www.quora.com/What-are-the-best-places-to-visit-on-a-3-day-trip-in-and-around-Karnataka"
            ],
            "locType": "place_of_worship",
            "longitude": "77.6125928",
            "latitude": "12.9057731",
            "address": "Durga Temple, 29th Main, Mahadeshwara Nagara, BTM Layout, Bengaluru, Bangalore Urban, Karnataka, 560001, India",
            "closest_to": ""
        },
        "grs fantasy park": {
            "blogLinks": [
                "https://www.quora.com/What-are-the-best-places-to-visit-on-a-3-day-trip-in-and-around-Karnataka"
            ],
            "locType": "theme_park",
            "longitude": "76.6338102194966",
            "latitude": "12.3540981",
            "address": "GRS Fantasy Park, Ring Road, Kumbara Koppalu, Metagalli Industrial Area, Mysuru, Mysuru taluk, Mysuru district, Karnataka, 570001, India",
            "closest_to": ""
        },
        "north karnataka": {
            "blogLinks": [
                "https://www.quora.com/What-are-the-best-places-to-visit-on-a-3-day-trip-in-and-around-Karnataka",
                "http://www.holidaymonk.com/15-places-to-visit-in-karnataka/"
            ],
            "locType": "service",
            "longitude": "77.7660547",
            "latitude": "13.0217151",
            "address": "N, Chaithanya Samarpan, Kadugodi, Kannamangala, Bangalore Urban, Karnataka, 560066, India",
            "closest_to": ""
        },
        "kalyan": {
            "blogLinks": [
                "https://www.quora.com/What-are-the-best-places-to-visit-on-a-3-day-trip-in-and-around-Karnataka"
            ],
            "locType": "suburb",
            "longitude": "77.6403368",
            "latitude": "13.0221416",
            "address": "Kalyan Nagar, Chelekere, Bangalore Urban, Karnataka, India",
            "closest_to": ""
        },
        "hoysala": {
            "blogLinks": [
                "https://www.quora.com/What-are-the-best-places-to-visit-on-a-3-day-trip-in-and-around-Karnataka"
            ],
            "locType": "administrative",
            "longitude": "77.6375990817051",
            "latitude": "12.97813815",
            "address": "Hoysala Nagar, Bengaluru, Bangalore Urban, Karnataka, 560001, India",
            "closest_to": ""
        },
        "sirsi": {
            "blogLinks": [
                "https://www.quora.com/What-are-the-best-places-to-visit-on-a-3-day-trip-in-and-around-Karnataka"
            ],
            "locType": "town",
            "longitude": "74.8388611",
            "latitude": "14.6192362",
            "address": "Sirsi, Shirasi taluk, Uttara Kannada, Karnataka, 581400, India",
            "closest_to": ""
        },
        "tamil nadu": {
            "blogLinks": [
                "https://www.quora.com/What-are-the-best-places-to-visit-on-a-3-day-trip-in-and-around-Karnataka",
                "http://www.holidaymonk.com/15-places-to-visit-in-karnataka/",
                "https://www.tripoto.com/weekend-getaways/from-agumbe",
                "https://www.quora.com/What-are-the-best-weekend-road-trips-from-Bangalore"
            ],
            "locType": "bank",
            "longitude": "76.9514152",
            "latitude": "11.0025894",
            "address": "KARNATAKA BANK, Diwan Bhadur Road, Five Corner, RS Puram, Coimbatore, Coimbatore district, Tamil Nadu, 641001, India",
            "closest_to": ""
        },
        "srirangapattana": {
            "blogLinks": [
                "http://www.holidayiq.com/destinations/sakleshpur/"
            ],
            "locType": "administrative",
            "longitude": "76.703932434547",
            "latitude": "12.40148225",
            "address": "Srirangapattana taluk, Mandya district, Karnataka, India",
            "closest_to": ""
        },
        "south karnataka": {
            "blogLinks": [
                "http://www.holidaymonk.com/15-places-to-visit-in-karnataka/",
                "http://wikitravel.org/en/Chikmagalur"
            ],
            "locType": "residential",
            "longitude": "77.8040874",
            "latitude": "13.2942848",
            "address": "s, Vijayapura, Devanahalli taluk, Bangalore Rural, Karnataka, 562135, India",
            "closest_to": ""
        },
        "nataraja": {
            "blogLinks": [
                "https://www.quora.com/What-are-the-best-places-to-visit-on-a-3-day-trip-in-and-around-Karnataka"
            ],
            "locType": "cinema",
            "longitude": "77.5730381173154",
            "latitude": "12.9900332",
            "address": "Nataraja, Sirur Park Road, Vyalikaval, Seshadripuram, Bengaluru, Bangalore Urban, Karnataka, 560001, India",
            "closest_to": ""
        },
        "srirangapatna": {
            "blogLinks": [
                "https://www.quora.com/What-are-the-best-weekend-road-trips-from-Bangalore"
            ],
            "locType": "town",
            "longitude": "76.6850743",
            "latitude": "12.4225604",
            "address": "Srirangapatna, Srirangapattana taluk, Mandya district, Karnataka, 571438, India",
            "closest_to": ""
        },
        "north kerala": {
            "blogLinks": [
                "http://www.nivalink.com/destination/sakleshpur",
                "http://www.nivalink.com/destination/thirthahalli"
            ],
            "locType": "restaurant",
            "longitude": "77.6382683",
            "latitude": "12.9726449",
            "address": "New Life Kerala Mess, Sai Baba Mandira Road, Mottappanapalaya, Indiranagar, Bengaluru, Bangalore Urban, Karnataka, 560001, India",
            "closest_to": ""
        },
        "kanakapura": {
            "blogLinks": [
                "https://www.quora.com/What-are-the-best-weekend-road-trips-from-Bangalore"
            ],
            "locType": "town",
            "longitude": "77.4199095",
            "latitude": "12.5450268",
            "address": "Kanakapura, Kanakapura taluk, Ramanagara district, Karnataka, 562117, India",
            "closest_to": ""
        },
        "kusha garden": {
            "blogLinks": [
                "https://www.quora.com/What-are-the-best-places-to-visit-on-a-3-day-trip-in-and-around-Karnataka"
            ],
            "locType": "park",
            "longitude": "76.6283545564802",
            "latitude": "12.2905505",
            "address": "Lava Kusha Park, Lalitadri Road, Kuvempunagara, Mysuru, Mysuru taluk, Mysuru district, Karnataka, 570001, India",
            "closest_to": ""
        },
        "sri krishna temple": {
            "blogLinks": [
                "https://www.quora.com/What-are-the-best-places-to-visit-on-a-3-day-trip-in-and-around-Karnataka"
            ],
            "locType": "unclassified",
            "longitude": "77.6437236",
            "latitude": "12.9791699",
            "address": "Sri Krishna Temple Road, Old Binnamangala, Hoysala Nagar, Bengaluru, Bangalore Urban, Karnataka, 560001, India",
            "closest_to": ""
        },
        "manjunatha temple": {
            "blogLinks": [
                "https://www.quora.com/What-are-the-best-places-to-visit-on-a-3-day-trip-in-and-around-Karnataka"
            ],
            "locType": "place_of_worship",
            "longitude": "77.5640116772773",
            "latitude": "12.9211928",
            "address": "Devagiri Manjunatha Swamy Temple, 30th Cross, Jayanagar 8th Block, Banashankari 2nd Stage, Bengaluru, Bangalore Urban, Karnataka, 560001, India",
            "closest_to": ""
        },
        "sunset point": {
            "blogLinks": [
                "https://www.quora.com/What-are-the-best-places-to-visit-on-a-3-day-trip-in-and-around-Karnataka",
                "https://www.tripoto.com/weekend-getaways/from-agumbe"
            ],
            "locType": "viewpoint",
            "longitude": "76.4594093",
            "latitude": "15.3326761",
            "address": "Sunset Point, Hampi Kamalapura Road, Hampe, Hosapete taluk, Bellary district, Karnataka, 583239, India",
            "closest_to": ""
        },
        "andhra pradesh": {
            "blogLinks": [
                "http://www.holidaymonk.com/15-places-to-visit-in-karnataka/",
                "https://www.quora.com/What-are-the-best-weekend-road-trips-from-Bangalore"
            ],
            "locType": "hotel",
            "longitude": "79.3452447",
            "latitude": "13.6841958",
            "address": "Karnataka, West Mada Street, Srivari Temple, Tirumala, Chittoor, Andhra Pradesh, 517504, India",
            "closest_to": ""
        },
        "mandovi": {
            "blogLinks": [
                "https://www.quora.com/What-are-the-best-places-to-visit-on-a-3-day-trip-in-and-around-Karnataka"
            ],
            "locType": "car",
            "longitude": "77.6190505",
            "latitude": "12.9965335",
            "address": "Mandovi Motors, Wheeler Road Flyover, MSO Colony, Cox Town, Bengaluru, Bangalore Urban, Karnataka, 560001, India",
            "closest_to": ""
        },
        "lingambudhi": {
            "blogLinks": [
                "http://www.holidaymonk.com/15-places-to-visit-in-karnataka/"
            ],
            "locType": "water",
            "longitude": "76.6122119641402",
            "latitude": "12.2709821",
            "address": "Lingambudhi Kere, \u0cb9\u0cca\u0cb8 \u0c95\u0cbe\u0c82\u0ca4\u0cb0\u0cbe\u0c9c \u0c85\u0cb0\u0cb8 \u0cb0\u0cb8\u0ccd\u0ca4\u0cc6, Sriramapura, Mysore University Layout, Mysuru taluk, Mysuru district, Karnataka, 570026, India",
            "closest_to": ""
        },
        "halebidu": {
            "blogLinks": [
                "http://www.nivalink.com/destination/sakleshpur"
            ],
            "locType": "village",
            "longitude": "76.4607075",
            "latitude": "12.359893",
            "address": "Halebidu, Hunasuru taluk, Mysuru district, Karnataka, India",
            "closest_to": ""
        },
        "maddur": {
            "blogLinks": [
                "https://www.quora.com/What-are-the-best-places-to-visit-on-a-3-day-trip-in-and-around-Karnataka"
            ],
            "locType": "town",
            "longitude": "77.0456404",
            "latitude": "12.5851916",
            "address": "Maddur, Madduru taluk, Mandya district, Karnataka, 571428, India",
            "closest_to": ""
        },
        "karanji lake": {
            "blogLinks": [
                "https://www.quora.com/What-are-the-best-places-to-visit-on-a-3-day-trip-in-and-around-Karnataka"
            ],
            "locType": "village",
            "longitude": "77.5474867",
            "latitude": "18.2681849",
            "address": "Karanji, Aurad taluku, Bidar district, Karnataka, India",
            "closest_to": ""
        },
        "banavasi": {
            "blogLinks": [
                "https://www.quora.com/What-are-the-best-places-to-visit-on-a-3-day-trip-in-and-around-Karnataka"
            ],
            "locType": "town",
            "longitude": "75.0129845",
            "latitude": "14.5389738",
            "address": "Banavasi, Shirasi taluk, Uttara Kannada, Karnataka, India",
            "closest_to": ""
        },
        "mahadeshwara": {
            "blogLinks": [
                "https://www.quora.com/What-are-the-best-places-to-visit-on-a-3-day-trip-in-and-around-Karnataka"
            ],
            "locType": "neighbourhood",
            "longitude": "77.6123722",
            "latitude": "12.9076689",
            "address": "Mahadeshwara Nagara, BTM Layout, Bengaluru, Bangalore Urban, Karnataka, 560001, India",
            "closest_to": ""
        },
        "bellary road": {
            "blogLinks": [
                "https://www.quora.com/What-are-the-best-weekend-road-trips-from-Bangalore"
            ],
            "locType": "trunk",
            "longitude": "77.5915237",
            "latitude": "13.0465345",
            "address": "Bellary Road, Kanaka Nagar, Hebbal, Bengaluru, Bangalore Urban, Karnataka, 560001, India",
            "closest_to": ""
        },
        "north goa": {
            "blogLinks": [
                "https://www.tripoto.com/weekend-getaways/from-agumbe"
            ],
            "locType": "restaurant",
            "longitude": "77.6200027",
            "latitude": "12.9750047",
            "address": "Carnival De Goa, Bhaskaran Road, Gupta Layout, Halasuru, Bengaluru, Bangalore Urban, Karnataka, 560001, India",
            "closest_to": ""
        },
        "doddamakali": {
            "blogLinks": [
                "http://www.nivalink.com/destination/sakleshpur"
            ],
            "locType": "locality",
            "longitude": "77.2173416",
            "latitude": "12.3096676",
            "address": "Doddamakali, Dalanakatte, Malavalli taluk, Mandya district, Karnataka, India",
            "closest_to": ""
        },
        "hampi": {
            "blogLinks": [
                "https://www.quora.com/What-are-the-best-places-to-visit-on-a-3-day-trip-in-and-around-Karnataka"
            ],
            "locType": "village",
            "longitude": "76.4606199",
            "latitude": "15.3359769",
            "address": "Hampe, Hosapete taluk, Bellary district, Karnataka, 583239, India",
            "closest_to": ""
        },
        "pattadakal": {
            "blogLinks": [
                "http://www.holidaymonk.com/15-places-to-visit-in-karnataka/"
            ],
            "locType": "attraction",
            "longitude": "75.815884048161",
            "latitude": "15.9506349",
            "address": "Pattadakal Temples, SH14, \u0cac\u0cbe\u0c9a\u0cbf\u0ca8\u0c97\u0cc1\u0ca1\u0ccd\u0ca1, Badami taluku, Bagalkote district, Karnataka, 587211, India",
            "closest_to": ""
        },
        "ganapathi": {
            "blogLinks": [
                "https://www.mekanagadde.com/tourist-places-nearby-to-visit/"
            ],
            "locType": "clockmaker",
            "longitude": "77.6297861",
            "latitude": "13.0015272",
            "address": "Ganapathi, 4th Cross Road, MSO Colony, Cooke Town, Bengaluru, Bangalore Urban, Karnataka, 560001, India",
            "closest_to": ""
        },
        "karnataka": {
            "blogLinks": [
                "http://www.nivalink.com/destination/sakleshpur",
                "https://www.tripoto.com/travel-guide/sakleshpur/trips",
                "https://en.wikipedia.org/wiki/Agumbe",
                "https://www.mekanagadde.com/tourist-places-nearby-to-visit/",
                "http://www.distancesfrom.com/in/travel-time-from-Bengaluru-to-Bengaluru-via-Sakleshpur-Chickmagaluru-Agumbe-Murdeshwar-Gokarna-Jog-F/TravelTimeHistory/31393639.aspx",
                "https://www.quora.com/What-are-the-best-places-to-visit-on-a-3-day-trip-in-and-around-Karnataka",
                "http://travel.india.com/agumbe/",
                "http://www.holidaymonk.com/15-places-to-visit-in-karnataka/",
                "http://wikitravel.org/en/Chikmagalur",
                "https://www.tripoto.com/weekend-getaways/from-agumbe",
                "http://www.team-bhp.com/forum/travelogues/66833-unplanned-weekend-trips-sringeri-agumbe-kaginahare.html",
                "http://www.nivalink.com/destination/thirthahalli",
                "https://www.quora.com/What-are-the-best-weekend-road-trips-from-Bangalore",
                "http://www.holidayiq.com/destinations/sakleshpur/"
            ],
            "locType": "atm",
            "longitude": "76.6639936",
            "latitude": "12.3084901",
            "address": "Karnataka, Shalivahana Road, Nazarbad, Mysuru, Mysuru taluk, Mysuru district, Karnataka, 570001, India",
            "closest_to": ""
        },
        "river": {
            "blogLinks": [
                "http://www.holidaymonk.com/15-places-to-visit-in-karnataka/"
            ],
            "locType": "river",
            "longitude": "74.5132382",
            "latitude": "14.4161542",
            "address": "river, Honnavara taluku, Uttara Kannada, Karnataka, India",
            "closest_to": ""
        },
        "kanakapura taluk": {
            "blogLinks": [
                "https://www.quora.com/What-are-the-best-weekend-road-trips-from-Bangalore"
            ],
            "locType": "administrative",
            "longitude": "77.4224204245398",
            "latitude": "12.5199223",
            "address": "Kanakapura taluk, Ramanagara district, Karnataka, India",
            "closest_to": ""
        },
        "gokul garden": {
            "blogLinks": [
                "https://www.quora.com/What-are-the-best-places-to-visit-on-a-3-day-trip-in-and-around-Karnataka"
            ],
            "locType": "recreation_ground",
            "longitude": "75.1141861403246",
            "latitude": "15.35009745",
            "address": "Gokul Garden, Gokul Road / Airport Road, Renuka Nagar, Padmaraj Nagar, Gokul, Hubballi taluku, Dharwad district, Karnataka, 580030, India",
            "closest_to": ""
        },
        "margao": {
            "blogLinks": [
                "https://www.tripoto.com/weekend-getaways/from-agumbe"
            ],
            "locType": "bank",
            "longitude": "73.9583411",
            "latitude": "15.2740083",
            "address": "Karnataka bank, NH66, Aquem, Fatorda, Margao, South Goa, Goa, 403600, India",
            "closest_to": ""
        },
        "mirjan fort": {
            "blogLinks": [
                "https://www.quora.com/What-are-the-best-places-to-visit-on-a-3-day-trip-in-and-around-Karnataka"
            ],
            "locType": "attraction",
            "longitude": "74.4174838158512",
            "latitude": "14.48905715",
            "address": "Mirjana Fort, Edapally- Panvel Highway, Kimani, Kumata taluk, Uttara Kannada, Karnataka, 581344, India",
            "closest_to": ""
        },
        "manchanabele": {
            "blogLinks": [
                "https://www.quora.com/What-are-the-best-weekend-road-trips-from-Bangalore"
            ],
            "locType": "village",
            "longitude": "77.3344212",
            "latitude": "12.8668921",
            "address": "Manchanabele, Magadi taluku, Ramanagara district, Karnataka, India",
            "closest_to": ""
        },
        "bijapur": {
            "blogLinks": [
                "https://www.quora.com/What-are-the-best-places-to-visit-on-a-3-day-trip-in-and-around-Karnataka",
                "http://www.holidaymonk.com/15-places-to-visit-in-karnataka/"
            ],
            "locType": "city",
            "longitude": "75.7175387",
            "latitude": "16.8269911",
            "address": "Vijayapura, Vijayapura taluk, Bijapur district, Karnataka, 586101, India",
            "closest_to": ""
        },
        "madurai": {
            "blogLinks": [
                "https://www.tripoto.com/weekend-getaways/from-agumbe"
            ],
            "locType": "restaurant",
            "longitude": "77.6320535",
            "latitude": "12.9185419",
            "address": "Madurai Idly Shop, 5th Main Road, Teachers Colony, HSR Layout, Bengaluru, Bangalore Urban, Karnataka, 560001, India",
            "closest_to": ""
        },
        "iruppu falls": {
            "blogLinks": [
                "https://www.quora.com/What-are-the-best-places-to-visit-on-a-3-day-trip-in-and-around-Karnataka"
            ],
            "locType": "attraction",
            "longitude": "75.9839484",
            "latitude": "11.9667954",
            "address": "Iruppu Falls, SH89, Taila, Virajpet taluk, Kodagu, Karnataka, 571217, India",
            "closest_to": ""
        },
        "gokak": {
            "blogLinks": [
                "https://www.quora.com/What-are-the-best-places-to-visit-on-a-3-day-trip-in-and-around-Karnataka"
            ],
            "locType": "town",
            "longitude": "74.8224338",
            "latitude": "16.1693033",
            "address": "Gokak, Gokak taluku, Belgaum district, Karnataka, 591307, India",
            "closest_to": ""
        },
        "kuvempu": {
            "blogLinks": [
                "https://www.quora.com/What-are-the-best-places-to-visit-on-a-3-day-trip-in-and-around-Karnataka",
                "https://en.wikipedia.org/wiki/Agumbe"
            ],
            "locType": "artwork",
            "longitude": "77.5064032",
            "latitude": "12.9560369",
            "address": "Kuvempu, Kengeri Main Road, ITI Layout, Jnana Bharathi, Nagadevanahalli, Bangalore Urban, Karnataka, 560056, India",
            "closest_to": ""
        },
        "tipu sultan": {
            "blogLinks": [
                "http://www.team-bhp.com/forum/travelogues/66833-unplanned-weekend-trips-sringeri-agumbe-kaginahare.html"
            ],
            "locType": "monument",
            "longitude": "76.7139043",
            "latitude": "12.4100749",
            "address": "Mausoleum of Haider Ali and Tipu Sultan, SH79, Doddapalya, Srirangapattana taluk, Mandya district, Karnataka, India",
            "closest_to": ""
        },
        "nagarhole national park": {
            "blogLinks": [
                "https://www.quora.com/What-are-the-best-places-to-visit-on-a-3-day-trip-in-and-around-Karnataka",
                "http://www.holidaymonk.com/15-places-to-visit-in-karnataka/"
            ],
            "locType": "national_park",
            "longitude": "76.1537073415874",
            "latitude": "12.0600362",
            "address": "Nagarahole National Park, Virajpet taluk, Kodagu, Karnataka, India",
            "closest_to": ""
        },
        "india karnataka": {
            "blogLinks": [
                "https://www.quora.com/What-are-the-best-places-to-visit-on-a-3-day-trip-in-and-around-Karnataka"
            ],
            "locType": "atm",
            "longitude": "76.6639936",
            "latitude": "12.3084901",
            "address": "Karnataka, Shalivahana Road, Nazarbad, Mysuru, Mysuru taluk, Mysuru district, Karnataka, 570001, India",
            "closest_to": ""
        },
        "southern india": {
            "blogLinks": [
                "http://www.holidaymonk.com/15-places-to-visit-in-karnataka/"
            ],
            "locType": "commercial",
            "longitude": "77.6227757667762",
            "latitude": "12.92588785",
            "address": "Survey Of India - Southern Zone, Madivala, Bengaluru, Bangalore Urban, Karnataka, 560001, India",
            "closest_to": ""
        },
        "mahabaleshwara": {
            "blogLinks": [
                "https://www.quora.com/What-are-the-best-places-to-visit-on-a-3-day-trip-in-and-around-Karnataka"
            ],
            "locType": "place_of_worship",
            "longitude": "77.5899749843004",
            "latitude": "12.96264945",
            "address": "Mahabaleshwara Temple, Mission Road (Kalinga Rao Road ), Sampangirama Nagar, Shanti Nagar, Bengaluru, Bangalore Urban, Karnataka, 560001, India",
            "closest_to": ""
        },
        "chamundi temple": {
            "blogLinks": [
                "http://www.holidaymonk.com/15-places-to-visit-in-karnataka/"
            ],
            "locType": "place_of_worship",
            "longitude": "76.6136530009183",
            "latitude": "12.29311595",
            "address": "Ganapati and Chamundi Temple, Flat Houses (apartment) Road, Ramakrishna Nagara, Mysuru, Mysuru taluk, Mysuru district, Karnataka, 570023, India",
            "closest_to": ""
        },
        "badami": {
            "blogLinks": [
                "https://www.quora.com/What-are-the-best-places-to-visit-on-a-3-day-trip-in-and-around-Karnataka"
            ],
            "locType": "town",
            "longitude": "75.6807865",
            "latitude": "15.9203874",
            "address": "Badami, Badami taluku, Bagalkote district, Karnataka, 587200, India",
            "closest_to": ""
        },
        "himavad gopalaswamy betta": {
            "blogLinks": [
                "https://www.quora.com/What-are-the-best-places-to-visit-on-a-3-day-trip-in-and-around-Karnataka"
            ],
            "locType": "place_of_worship",
            "longitude": "76.5804063",
            "latitude": "11.7206016",
            "address": "Gopalaswami Temple, Gopal Swami Betta road, Devarahalli, Gundlupet taluk, Chamarajanagar district, Karnataka, India",
            "closest_to": ""
        },
        "ashoka road": {
            "blogLinks": [
                "http://www.holidayiq.com/destinations/sakleshpur/"
            ],
            "locType": "residential",
            "longitude": "77.6198454",
            "latitude": "13.0033073",
            "address": "Ashoka Road, Richards Town, St Thomastown, Bengaluru, Bangalore Urban, Karnataka, 560001, India",
            "closest_to": ""
        },
        "anantapur district": {
            "blogLinks": [
                "https://www.quora.com/What-are-the-best-weekend-road-trips-from-Bangalore"
            ],
            "locType": "yes",
            "longitude": "77.7596024",
            "latitude": "13.7972948",
            "address": "RTO Karnataka, Srinagar - Kanyakumari Highway, Paragodu, Bagepalli taluk, Chikkaballapura district, Karnataka, 561207, India",
            "closest_to": ""
        },
        "parvati": {
            "blogLinks": [
                "http://www.nivalink.com/destination/sakleshpur",
                "https://www.quora.com/What-are-the-best-places-to-visit-on-a-3-day-trip-in-and-around-Karnataka",
                "https://www.mekanagadde.com/tourist-places-nearby-to-visit/"
            ],
            "locType": "village",
            "longitude": "75.7898501",
            "latitude": "16.0395701",
            "address": "Parvati, Badami taluku, Bagalkote district, Karnataka, India",
            "closest_to": ""
        },
        "ocean": {
            "blogLinks": [
                "https://www.quora.com/What-are-the-best-places-to-visit-on-a-3-day-trip-in-and-around-Karnataka"
            ],
            "locType": "residential",
            "longitude": "77.7178261979437",
            "latitude": "12.95490595",
            "address": "Gayatri Ocean Blue Apartments, Thubarahalli, Siddapura, Bangalore Urban, Karnataka, 560066, India",
            "closest_to": ""
        },
        "rose garden": {
            "blogLinks": [
                "https://www.quora.com/What-are-the-best-places-to-visit-on-a-3-day-trip-in-and-around-Karnataka"
            ],
            "locType": "garden",
            "longitude": "77.590382853852",
            "latitude": "12.97371325",
            "address": "Rose Garden, Dr B R Ambedkar Veedhi, Shantala Nagar, Gandhinagar, Bengaluru, Bangalore Urban, Karnataka, 560001, India",
            "closest_to": ""
        },
        "rameshwara": {
            "blogLinks": [
                "http://www.nivalink.com/destination/sakleshpur"
            ],
            "locType": "place_of_worship",
            "longitude": "77.5678621969321",
            "latitude": "12.99365815",
            "address": "Rameshwara Temple, Kranthikavi Sarvagnya Road, Rajajinagar 4th Block, Sriramapura, Bengaluru, Bangalore Urban, Karnataka, 560001, India",
            "closest_to": ""
        },
        "kodasalli dam": {
            "blogLinks": [
                "https://www.quora.com/What-are-the-best-weekend-road-trips-from-Bangalore"
            ],
            "locType": "dam",
            "longitude": "74.5353892832085",
            "latitude": "14.91893295",
            "address": "Kodasalli Dam, Yallapura taluk, Uttara Kannada, Karnataka, India",
            "closest_to": ""
        },
        "pondicherry": {
            "blogLinks": [
                "https://www.quora.com/What-are-the-best-weekend-road-trips-from-Bangalore"
            ],
            "locType": "bank",
            "longitude": "79.831569",
            "latitude": "11.9365727",
            "address": "Karnataka Bank, Mission Street, Grand Bazaar, Puducherry, Puducherry district, Puducherry, 605001, India",
            "closest_to": ""
        },
        "sangama": {
            "blogLinks": [
                "https://www.quora.com/What-are-the-best-weekend-road-trips-from-Bangalore"
            ],
            "locType": "attraction",
            "longitude": "77.4320447",
            "latitude": "12.2880428",
            "address": "Sangam, SH92, Mahalli, Kanakapura taluk, Ramanagara district, Karnataka, India",
            "closest_to": ""
        },
        "gulbarga": {
            "blogLinks": [
                "https://www.quora.com/What-are-the-best-places-to-visit-on-a-3-day-trip-in-and-around-Karnataka"
            ],
            "locType": "county",
            "longitude": "77.083333",
            "latitude": "17.166667",
            "address": "Kalaburgi, Kalaburagi district, Karnataka, India",
            "closest_to": ""
        },
        "hyderabad": {
            "blogLinks": [
                "https://www.quora.com/What-are-the-best-weekend-road-trips-from-Bangalore"
            ],
            "locType": "primary",
            "longitude": "77.5344002",
            "latitude": "17.9003114",
            "address": "Hyderabad Road, Old City, Bidar, Bidar taluku, Bidar district, Karnataka, 585400, India",
            "closest_to": ""
        },
        "chennai": {
            "blogLinks": [
                "https://www.quora.com/What-are-the-best-weekend-road-trips-from-Bangalore"
            ],
            "locType": "bank",
            "longitude": "80.2197941",
            "latitude": "13.0365141",
            "address": "Karnataka Bank, Postal Colony 2nd Street, Postal Colony, Ashok Nagar, Chennai City Corporation Limits, Chennai district, Tamil Nadu, 600033, India",
            "closest_to": ""
        },
        "shringeri": {
            "blogLinks": [
                "https://en.wikipedia.org/wiki/Agumbe"
            ],
            "locType": "village",
            "longitude": "75.0621168",
            "latitude": "14.7221214",
            "address": "Shringeri, Hanagal taluk, Haveri district, Karnataka, India",
            "closest_to": ""
        },
        "ooty": {
            "blogLinks": [
                "http://www.nivalink.com/destination/sakleshpur",
                "https://www.quora.com/What-are-the-best-places-to-visit-on-a-3-day-trip-in-and-around-Karnataka",
                "https://www.tripoto.com/travel-guide/sakleshpur/trips",
                "https://www.quora.com/What-are-the-best-weekend-road-trips-from-Bangalore"
            ],
            "locType": "primary",
            "longitude": "76.6586807",
            "latitude": "12.2774807",
            "address": "Ooty Road, Vidyaranyapuram, Mysuru, Mysuru taluk, Mysuru district, Karnataka, 570001, India",
            "closest_to": ""
        },
        "mysore": {
            "blogLinks": [
                "https://www.quora.com/What-are-the-best-places-to-visit-on-a-3-day-trip-in-and-around-Karnataka",
                "https://www.quora.com/What-are-the-best-weekend-road-trips-from-Bangalore"
            ],
            "locType": "city",
            "longitude": "76.6553609",
            "latitude": "12.3051828",
            "address": "Mysuru, Mysuru taluk, Mysuru district, Karnataka, 570001, India",
            "closest_to": ""
        }
    },
    "agumbe": {
        "icon": "https://nominatim.openstreetmap.org/images/mapicons/poi_place_village.p.20.png",
        "osm_type": "node",
        "boundingbox": [
            "13.4894998",
            "13.5294998",
            "75.0765525",
            "75.1165525"
        ],
        "display_name": "Agumbe, Tirthahalli taluk, Shimoga district, Karnataka, 577411, India",
        "class": "place",
        "osm_id": "910403408",
        "type": "village",
        "licence": "Data \u00a9 OpenStreetMap contributors, ODbL 1.0. http://www.openstreetmap.org/copyright",
        "lon": "75.0965525",
        "lat": "13.5094998",
        "place_id": "8561493",
        "importance": 0.475
    }
}