{
    "mentions": {
        "badami": {
            "closest_to": "",
            "address": "Badami, Badami taluku, Bagalkote district, Karnataka, 587200, India",
            "longitude": "75.6807865",
            "latitude": "15.9203874",
            "blogLinks": [
                "https://en.wikipedia.org/wiki/Tourism_in_Karnataka"
            ],
            "locType": "town"
        },
        "subramanya": {
            "closest_to": "",
            "address": "Subramanya Arcade, Marenahalli, Bengaluru, Bangalore Urban, Karnataka, 560001, India",
            "longitude": "77.6015800913134",
            "latitude": "12.9251206",
            "blogLinks": [
                "https://en.wikipedia.org/wiki/Tourism_in_Karnataka"
            ],
            "locType": "commercial"
        },
        "irupu falls": {
            "closest_to": "",
            "address": "Iruppu Falls, SH89, Taila, Virajpet taluk, Kodagu, Karnataka, 571217, India",
            "longitude": "75.9839484",
            "latitude": "11.9667954",
            "blogLinks": [
                "https://en.wikipedia.org/wiki/Tourism_in_Karnataka"
            ],
            "locType": "attraction"
        },
        "district bagalkot": {
            "closest_to": "",
            "address": "District Commissioner's Office, Bagalkot, Navanagara, Bagalakote, Bagalakote taluk, Bagalkote district, Karnataka, India",
            "longitude": "75.6736388363024",
            "latitude": "16.16028195",
            "blogLinks": [
                "https://en.wikipedia.org/wiki/Tourism_in_Karnataka"
            ],
            "locType": "commercial"
        },
        "mastikatte": {
            "closest_to": "",
            "address": "Mastikatte, Ankola taluk, Uttara Kannada, Karnataka, India",
            "longitude": "74.4604101",
            "latitude": "14.6857168",
            "blogLinks": [
                "https://en.wikipedia.org/wiki/Tourism_in_Karnataka"
            ],
            "locType": "village"
        },
        "belgaum": {
            "closest_to": "",
            "address": "Belgaum, Belgaum district, Karnataka, India",
            "longitude": "74.75",
            "latitude": "16.333333",
            "blogLinks": [
                "https://en.wikipedia.org/wiki/Tourism_in_Karnataka"
            ],
            "locType": "county"
        },
        "chamarajanagar": {
            "closest_to": "",
            "address": "Chamarajanagar, Nanjangudu-Chamarajanagar Road, Kadahalli, Chamarajanagara taluk, Chamarajanagar district, Karnataka, 571313, India",
            "longitude": "76.9331345",
            "latitude": "11.9346624",
            "blogLinks": [
                "https://en.wikipedia.org/wiki/Tourism_in_Karnataka"
            ],
            "locType": "station"
        },
        "lakkundi": {
            "closest_to": "",
            "address": "Lakkundi, Muddebihala taluku, Bijapur district, Karnataka, India",
            "longitude": "76.4084687",
            "latitude": "16.5255464",
            "blogLinks": [
                "https://en.wikipedia.org/wiki/Tourism_in_Karnataka"
            ],
            "locType": "village"
        },
        "uttara kannada": {
            "closest_to": "",
            "address": "Uttara Kannada, Karnataka, India",
            "longitude": "74.4729163045979",
            "latitude": "14.6726379",
            "blogLinks": [
                "https://en.wikipedia.org/wiki/Tourism_in_Karnataka"
            ],
            "locType": "administrative"
        },
        "bankpur fort": {
            "closest_to": "",
            "address": "Bankapura Fort, SH137, Guddada Channapura, Shiggaon taluk, Haveri district, Karnataka, 581202, India",
            "longitude": "75.2512090188504",
            "latitude": "14.9231815",
            "blogLinks": [
                "https://en.wikipedia.org/wiki/Tourism_in_Karnataka"
            ],
            "locType": "archaeological_site"
        },
        "dharma river": {
            "closest_to": "",
            "address": "Dharma Naidu Udhyanavana, 44th cross, Rajajinagar 4th Block, Rajaji Nagar, Bengaluru, Bangalore Urban, Karnataka, 560001, India",
            "longitude": "77.5575864485219",
            "latitude": "12.98914885",
            "blogLinks": [
                "https://en.wikipedia.org/wiki/Tourism_in_Karnataka"
            ],
            "locType": "park"
        },
        "bellary district": {
            "closest_to": "",
            "address": "Bellary district, Karnataka, India",
            "longitude": "76.7137978546465",
            "latitude": "15.20597305",
            "blogLinks": [
                "https://en.wikipedia.org/wiki/Tourism_in_Karnataka"
            ],
            "locType": "administrative"
        },
        "anshi national park": {
            "closest_to": "",
            "address": "Anshi National Park, SH46, Bidoli, Joida taluk, Uttara Kannada, Karnataka, India",
            "longitude": "74.3934408094182",
            "latitude": "14.9994424",
            "blogLinks": [
                "https://en.wikipedia.org/wiki/Tourism_in_Karnataka"
            ],
            "locType": "national_park"
        },
        "chennai": {
            "closest_to": "",
            "address": "Karnataka Bank, Postal Colony 2nd Street, Postal Colony, Ashok Nagar, Chennai City Corporation Limits, Chennai district, Tamil Nadu, 600033, India",
            "longitude": "80.2197941",
            "latitude": "13.0365141",
            "blogLinks": [
                "https://en.wikipedia.org/wiki/Tourism_in_Karnataka",
                "http://www.distancesfrom.com/Trip-Cost-from-Dharmasthala-to-Hornadu-via-Sringeri-Rd-Kollur-bilinele/TripCostHistory/35027802.aspx"
            ],
            "locType": "bank"
        },
        "chandramoulishwara": {
            "closest_to": "",
            "address": "Chandramoulishwara Temple, Adipampa Road, Gokulam, Mysuru, Mysuru taluk, Mysuru district, Karnataka, 570001, India",
            "longitude": "76.6290267",
            "latitude": "12.3225663",
            "blogLinks": [
                "https://en.wikipedia.org/wiki/Tourism_in_Karnataka"
            ],
            "locType": "place_of_worship"
        },
        "koppal": {
            "closest_to": "",
            "address": "Koppala, Koppala taluku, Koppal district, Karnataka, 583231, India",
            "longitude": "76.1547421",
            "latitude": "15.3484144",
            "blogLinks": [
                "https://en.wikipedia.org/wiki/Tourism_in_Karnataka"
            ],
            "locType": "town"
        },
        "kali": {
            "closest_to": "",
            "address": "Kali, Joida taluk, Uttara Kannada, Karnataka, India",
            "longitude": "74.5802901",
            "latitude": "15.0145378",
            "blogLinks": [
                "https://en.wikipedia.org/wiki/Sringeri"
            ],
            "locType": "river"
        },
        "kudalasangama": {
            "closest_to": "",
            "address": "Kudala Sangama, Hunagunda taluku, Bagalkote district, Karnataka, India",
            "longitude": "76.0604244",
            "latitude": "16.2033992",
            "blogLinks": [
                "https://en.wikipedia.org/wiki/Tourism_in_Karnataka"
            ],
            "locType": "village"
        },
        "east": {
            "closest_to": "",
            "address": "East, 43, Velankani Drive, Electronics City Phase 1, Doddathoguru, Bangalore Urban, Karnataka, 560100, India",
            "longitude": "77.6601401",
            "latitude": "12.8504319",
            "blogLinks": [
                "https://en.wikipedia.org/wiki/Tourism_in_Karnataka"
            ],
            "locType": "restaurant"
        },
        "hassan district": {
            "closest_to": "",
            "address": "Hassan district, Karnataka, India",
            "longitude": "76.1745460751981",
            "latitude": "13.0315068",
            "blogLinks": [
                "https://en.wikipedia.org/wiki/Tourism_in_Karnataka"
            ],
            "locType": "administrative"
        },
        "sharadamba temple": {
            "closest_to": "",
            "address": "Sharadamba Temple, 7th Main Road, Yediyur, Thyagaraja Nagar, Bengaluru, Bangalore Urban, Karnataka, 560001, India",
            "longitude": "77.5656194",
            "latitude": "12.9321898",
            "blogLinks": [
                "https://www.tripoto.com/travel-guide/sringeri",
                "https://www.tripoto.com/travel-guide/sringeri/places-to-visit"
            ],
            "locType": "place_of_worship"
        },
        "bagalkot district": {
            "closest_to": "",
            "address": "Bagalakote, Bagalakote taluk, Bagalkote district, Karnataka, India",
            "longitude": "75.6967919",
            "latitude": "16.1853166",
            "blogLinks": [
                "https://en.wikipedia.org/wiki/Tourism_in_Karnataka"
            ],
            "locType": "city"
        },
        "hoysala": {
            "closest_to": "",
            "address": "Hoysala Nagar, Bengaluru, Bangalore Urban, Karnataka, 560001, India",
            "longitude": "77.6375990817051",
            "latitude": "12.97813815",
            "blogLinks": [
                "https://en.wikipedia.org/wiki/Tourism_in_Karnataka",
                "https://en.wikipedia.org/wiki/Sringeri"
            ],
            "locType": "administrative"
        },
        "bijapur": {
            "closest_to": "",
            "address": "Vijayapura, Vijayapura taluk, Bijapur district, Karnataka, 586101, India",
            "longitude": "75.7175387",
            "latitude": "16.8269911",
            "blogLinks": [
                "https://en.wikipedia.org/wiki/Tourism_in_Karnataka"
            ],
            "locType": "city"
        },
        "shirali": {
            "closest_to": "",
            "address": "Shirali, Bhatkala taluk, Uttara Kannada, Karnataka, 581354, India",
            "longitude": "74.5286591",
            "latitude": "14.0280925",
            "blogLinks": [
                "https://en.wikipedia.org/wiki/Tourism_in_Karnataka",
                "http://www.team-bhp.com/forum/travelogues/134591-bangalore-sringeri-horanadu-dharmasthala-kukke-bangalore.html"
            ],
            "locType": "village"
        },
        "harihara": {
            "closest_to": "",
            "address": "Harihara, Harihara taluku, Davanagere district, Karnataka, 577600, India",
            "longitude": "75.809288",
            "latitude": "14.5116874",
            "blogLinks": [
                "https://en.wikipedia.org/wiki/Sringeri"
            ],
            "locType": "town"
        },
        "kabini": {
            "closest_to": "",
            "address": "Kabini, Heggadadevanakote taluk, Mysuru district, Karnataka, India",
            "longitude": "76.4152088",
            "latitude": "12.0140065",
            "blogLinks": [
                "https://en.wikipedia.org/wiki/Tourism_in_Karnataka"
            ],
            "locType": "river"
        },
        "nagareshwara": {
            "closest_to": "",
            "address": "Nagareshwara Temple, SH126, Dantapur, Yadagiri taluku, Yadagiri district, Karnataka, India",
            "longitude": "77.3934679",
            "latitude": "16.8662525",
            "blogLinks": [
                "https://en.wikipedia.org/wiki/Tourism_in_Karnataka"
            ],
            "locType": "place_of_worship"
        },
        "narasimha swamy temple": {
            "closest_to": "",
            "address": "Narasimha Swamy Temple, Attavara Mudigere Road, Attavara, Hasana taluk, Hassan district, Karnataka, India",
            "longitude": "76.2427318",
            "latitude": "13.0943931",
            "blogLinks": [
                "https://en.wikipedia.org/wiki/Tourism_in_Karnataka"
            ],
            "locType": "place_of_worship"
        },
        "kerala": {
            "closest_to": "",
            "address": "New Life Kerala Mess, Sai Baba Mandira Road, Mottappanapalaya, Indiranagar, Bengaluru, Bangalore Urban, Karnataka, 560001, India",
            "longitude": "77.6382683",
            "latitude": "12.9726449",
            "blogLinks": [
                "https://ravikumarv.wordpress.com/2012/03/30/trip-to-kshetra-karnataka-day-1/",
                "https://ravikumarv.wordpress.com/tag/dharmasthala/"
            ],
            "locType": "restaurant"
        },
        "mandya district": {
            "closest_to": "",
            "address": "Mandya district, Karnataka, India",
            "longitude": "76.7302318329607",
            "latitude": "12.6336348",
            "blogLinks": [
                "https://en.wikipedia.org/wiki/Tourism_in_Karnataka"
            ],
            "locType": "administrative"
        },
        "sannati": {
            "closest_to": "",
            "address": "Sannati, Chitapura taluku, Kalaburagi district, Karnataka, India",
            "longitude": "76.9080631",
            "latitude": "16.8293201",
            "blogLinks": [
                "https://en.wikipedia.org/wiki/Tourism_in_Karnataka"
            ],
            "locType": "village"
        },
        "nagarhole national park": {
            "closest_to": "",
            "address": "Nagarahole National Park, Virajpet taluk, Kodagu, Karnataka, India",
            "longitude": "76.1537073415874",
            "latitude": "12.0600362",
            "blogLinks": [
                "https://en.wikipedia.org/wiki/Tourism_in_Karnataka"
            ],
            "locType": "national_park"
        },
        "varadaraja": {
            "closest_to": "",
            "address": "Varadaraja Petrol / Gas Station, Dr. Rajkumar Road, Rajajinagar 1st Block, Subrahmanya Nagar, Bengaluru, Bangalore Urban, Karnataka, 560001, India",
            "longitude": "77.5542736",
            "latitude": "13.005885",
            "blogLinks": [
                "https://en.wikipedia.org/wiki/Tourism_in_Karnataka"
            ],
            "locType": "fuel"
        },
        "shravanabelagola": {
            "closest_to": "",
            "address": "Shravanabelagola, Channarayapattana taluk, Hassan district, Karnataka, 573135, India",
            "longitude": "76.4869997",
            "latitude": "12.8581305",
            "blogLinks": [
                "https://en.wikipedia.org/wiki/Tourism_in_Karnataka"
            ],
            "locType": "town"
        },
        "raichur": {
            "closest_to": "",
            "address": "Raichur, Raichur district, Karnataka, India",
            "longitude": "77.166667",
            "latitude": "16.083333",
            "blogLinks": [
                "http://www.indiamike.com/india/karnataka-f38/udupi-agumbe-shringeri-murudeshwara-jog-falls-dharmasthala-t137208/"
            ],
            "locType": "county"
        },
        "hotel kumara krupa": {
            "closest_to": "",
            "address": "Hotel Raceview, Kumara Krupa Road, Balepet, High Grounds, Bengaluru, Bangalore Urban, Karnataka, 560001, India",
            "longitude": "77.577955",
            "latitude": "12.984036",
            "blogLinks": [
                "http://www.team-bhp.com/forum/travelogues/134591-bangalore-sringeri-horanadu-dharmasthala-kukke-bangalore.html"
            ],
            "locType": "hotel"
        },
        "shringeri": {
            "closest_to": "",
            "address": "Shringeri, Hanagal taluk, Haveri district, Karnataka, India",
            "longitude": "75.0621168",
            "latitude": "14.7221214",
            "blogLinks": [
                "http://www.indiamike.com/india/karnataka-f38/udupi-agumbe-shringeri-murudeshwara-jog-falls-dharmasthala-t137208/"
            ],
            "locType": "village"
        },
        "gokak": {
            "closest_to": "",
            "address": "Gokak, Gokak taluku, Belgaum district, Karnataka, 591307, India",
            "longitude": "74.8224338",
            "latitude": "16.1693033",
            "blogLinks": [
                "https://en.wikipedia.org/wiki/Tourism_in_Karnataka"
            ],
            "locType": "town"
        },
        "brahma": {
            "closest_to": "",
            "address": "Sadguru Brahma Chaitanya Mandira, Ring Road, Vinobanagara, Davanagere, Davanagere taluku, Davanagere district, Karnataka, 577004, India",
            "longitude": "75.9026723908286",
            "latitude": "14.4564816",
            "blogLinks": [
                "https://en.wikipedia.org/wiki/Sringeri"
            ],
            "locType": "place_of_worship"
        },
        "vidyaranya": {
            "closest_to": "",
            "address": "Vidyaranya High School, SH28, Maradagi, Dharawada taluku, Dharwad district, Karnataka, India",
            "longitude": "75.0187741683167",
            "latitude": "15.46301235",
            "blogLinks": [
                "https://en.wikipedia.org/wiki/Sringeri"
            ],
            "locType": "school"
        },
        "hampi": {
            "closest_to": "",
            "address": "Hampe, Hosapete taluk, Bellary district, Karnataka, 583239, India",
            "longitude": "76.4606199",
            "latitude": "15.3359769",
            "blogLinks": [
                "https://en.wikipedia.org/wiki/Tourism_in_Karnataka"
            ],
            "locType": "village"
        },
        "netrani island of uttara kannada": {
            "closest_to": "",
            "address": "Netrani, Uttara Kannada, Karnataka, India",
            "longitude": "74.3272086675849",
            "latitude": "14.0174924",
            "blogLinks": [
                "https://en.wikipedia.org/wiki/Tourism_in_Karnataka"
            ],
            "locType": "island"
        },
        "maharashtra": {
            "closest_to": "",
            "address": "Bank of Maharashtra, 24th Main, K R Layout, Puttenahalli, Bengaluru, Bangalore Urban, Karnataka, 560001, India",
            "longitude": "77.5856013",
            "latitude": "12.9049455",
            "blogLinks": [
                "https://en.wikipedia.org/wiki/Tourism_in_Karnataka"
            ],
            "locType": "bank"
        },
        "ranganathittu bird sanctuary": {
            "closest_to": "",
            "address": "Ranganathittu Bird Sanctuary, SH154, Palahalli, Srirangapattana taluk, Mandya district, Karnataka, 571438, India",
            "longitude": "76.6553081",
            "latitude": "12.4238524",
            "blogLinks": [
                "https://en.wikipedia.org/wiki/Tourism_in_Karnataka"
            ],
            "locType": "attraction"
        },
        "koppal district": {
            "closest_to": "",
            "address": "Koppal district, Karnataka, India",
            "longitude": "76.310639117029",
            "latitude": "15.57825725",
            "blogLinks": [
                "https://en.wikipedia.org/wiki/Tourism_in_Karnataka"
            ],
            "locType": "administrative"
        },
        "mysore district": {
            "closest_to": "",
            "address": "Mysuru, Mysuru taluk, Mysuru district, Karnataka, 570001, India",
            "longitude": "76.6553609",
            "latitude": "12.3051828",
            "blogLinks": [
                "https://en.wikipedia.org/wiki/Tourism_in_Karnataka"
            ],
            "locType": "city"
        },
        "shantigrama": {
            "closest_to": "",
            "address": "Shantigrama, Hasana taluk, Hassan district, Karnataka, India",
            "longitude": "76.2166763",
            "latitude": "12.983428",
            "blogLinks": [
                "http://www.team-bhp.com/forum/travelogues/134591-bangalore-sringeri-horanadu-dharmasthala-kukke-bangalore.html"
            ],
            "locType": "village"
        },
        "afzalpur": {
            "closest_to": "",
            "address": "Afzalpur, Afzalpura taluku, Kalaburagi district, Karnataka, 585301, India",
            "longitude": "76.3605783",
            "latitude": "17.2005764",
            "blogLinks": [
                "https://en.wikipedia.org/wiki/Tourism_in_Karnataka"
            ],
            "locType": "town"
        },
        "bhatkal": {
            "closest_to": "",
            "address": "Bhatkal, Bhatkala taluk, Uttara Kannada, Karnataka, 581320, India",
            "longitude": "74.5485295",
            "latitude": "13.9952114",
            "blogLinks": [
                "https://en.wikipedia.org/wiki/Tourism_in_Karnataka"
            ],
            "locType": "town"
        },
        "kabini river": {
            "closest_to": "",
            "address": "Kabini right bank canal, Nanjanagudu taluk, Mysuru district, Karnataka, India",
            "longitude": "76.6477184",
            "latitude": "12.0780998",
            "blogLinks": [
                "https://en.wikipedia.org/wiki/Tourism_in_Karnataka"
            ],
            "locType": "canal"
        },
        "banashankari temple": {
            "closest_to": "",
            "address": "Banashankari Temple, Kanakapura Road, JP Nagar 1st Phase, Kaderenahalli, Bengaluru, Bangalore Urban, Karnataka, 560001, India",
            "longitude": "77.5731752886765",
            "latitude": "12.91568785",
            "blogLinks": [
                "https://en.wikipedia.org/wiki/Tourism_in_Karnataka"
            ],
            "locType": "place_of_worship"
        },
        "shivanasamudra": {
            "closest_to": "",
            "address": "Shivanasamudra, Kollegala taluk, Chamarajanagar district, Karnataka, India",
            "longitude": "77.1703215",
            "latitude": "12.2719056",
            "blogLinks": [
                "https://en.wikipedia.org/wiki/Tourism_in_Karnataka"
            ],
            "locType": "village"
        },
        "pune": {
            "closest_to": "",
            "address": "Pune - Machilipatnam Highway, Kaudiyala, Basavakalyana taluku, Bidar district, Karnataka, India",
            "longitude": "76.9479122",
            "latitude": "17.8199745",
            "blogLinks": [
                "http://www.indiamike.com/india/karnataka-f38/udupi-agumbe-shringeri-murudeshwara-jog-falls-dharmasthala-t137208/"
            ],
            "locType": "trunk"
        },
        "vijayanagara": {
            "closest_to": "",
            "address": "Vijayanagara, Chikodi taluk, Belgaum district, Karnataka, India",
            "longitude": "74.7380455",
            "latitude": "16.3270486",
            "blogLinks": [
                "https://en.wikipedia.org/wiki/Tourism_in_Karnataka"
            ],
            "locType": "village"
        },
        "kalyani": {
            "closest_to": "",
            "address": "Kalyani, Neeladri Road, Electronics City Phase 1, Bettadasana Pura, Bangalore Urban, Karnataka, 560100, India",
            "longitude": "77.6286090192686",
            "latitude": "12.8406466",
            "blogLinks": [
                "https://en.wikipedia.org/wiki/Tourism_in_Karnataka"
            ],
            "locType": "water"
        },
        "bandipur national park": {
            "closest_to": "",
            "address": "Bandipur National Park, Kozhikode - Kollegal Highway, Gundlupet taluk, Chamarajanagar district, Karnataka, India",
            "longitude": "76.4314968740264",
            "latitude": "11.76682425",
            "blogLinks": [
                "https://en.wikipedia.org/wiki/Tourism_in_Karnataka"
            ],
            "locType": "national_park"
        },
        "sagar": {
            "closest_to": "",
            "address": "Sagara, Sagara taluk, Shimoga district, Karnataka, 577400, India",
            "longitude": "75.0262551",
            "latitude": "14.1666594",
            "blogLinks": [
                "http://www.indiamike.com/india/karnataka-f38/udupi-agumbe-shringeri-murudeshwara-jog-falls-dharmasthala-t137208/"
            ],
            "locType": "town"
        },
        "rock garden": {
            "closest_to": "",
            "address": "Waterfalls by the Rock site, Madikeri taluku, Kodagu, Karnataka, India",
            "longitude": "75.6142269",
            "latitude": "12.2248591",
            "blogLinks": [
                "https://en.wikipedia.org/wiki/Tourism_in_Karnataka"
            ],
            "locType": "waterfall"
        },
        "kaveri": {
            "closest_to": "",
            "address": "Kaveri, Kollegala taluk, Chamarajanagar district, Karnataka, India",
            "longitude": "77.0635531",
            "latitude": "12.1687878",
            "blogLinks": [
                "https://en.wikipedia.org/wiki/Tourism_in_Karnataka"
            ],
            "locType": "river"
        },
        "nagarahole": {
            "closest_to": "",
            "address": "Nagarahole, Heggadadevanakote taluk, Mysuru district, Karnataka, India",
            "longitude": "76.2286805",
            "latitude": "12.0229466",
            "blogLinks": [
                "https://en.wikipedia.org/wiki/Tourism_in_Karnataka"
            ],
            "locType": "river"
        },
        "varaha": {
            "closest_to": "",
            "address": "Varaha, Hirekeruru taluk, Haveri district, Karnataka, India",
            "longitude": "75.3718812",
            "latitude": "14.390777",
            "blogLinks": [
                "https://en.wikipedia.org/wiki/Tourism_in_Karnataka"
            ],
            "locType": "village"
        },
        "banavasi": {
            "closest_to": "",
            "address": "Banavasi, Shirasi taluk, Uttara Kannada, Karnataka, India",
            "longitude": "75.0129845",
            "latitude": "14.5389738",
            "blogLinks": [
                "https://en.wikipedia.org/wiki/Tourism_in_Karnataka"
            ],
            "locType": "town"
        },
        "tumkur": {
            "closest_to": "",
            "address": "Tumakuru, Tumkur district, Karnataka, India",
            "longitude": "77.0002445",
            "latitude": "13.4999406",
            "blogLinks": [
                "https://en.wikipedia.org/wiki/Tourism_in_Karnataka"
            ],
            "locType": "county"
        },
        "hubli": {
            "closest_to": "",
            "address": "Hubballi - \u0cb9\u0cc1\u0cac\u0ccd\u0cac\u0cb3\u0ccd\u0cb3\u0cbf, Hubballi taluku, Dharwad district, Karnataka, 580020, India",
            "longitude": "75.1379848",
            "latitude": "15.3518378",
            "blogLinks": [
                "https://en.wikipedia.org/wiki/Tourism_in_Karnataka"
            ],
            "locType": "city"
        },
        "chalukya": {
            "closest_to": "",
            "address": "Chalukya Nagar, Chandra Layout, GKW Layout, Bangalore Urban, Karnataka, 560072, India",
            "longitude": "77.5192989605445",
            "latitude": "12.9617207",
            "blogLinks": [
                "https://en.wikipedia.org/wiki/Tourism_in_Karnataka"
            ],
            "locType": "residential"
        },
        "bagalkote": {
            "closest_to": "",
            "address": "Bagalkote district, Karnataka, India",
            "longitude": "75.5825586777167",
            "latitude": "16.28998085",
            "blogLinks": [
                "https://en.wikipedia.org/wiki/Tourism_in_Karnataka"
            ],
            "locType": "administrative"
        },
        "karwar": {
            "closest_to": "",
            "address": "Karwar, Karavara taluk, Uttara Kannada, Karnataka, 581300, India",
            "longitude": "74.1319229",
            "latitude": "14.8120931",
            "blogLinks": [
                "https://en.wikipedia.org/wiki/Tourism_in_Karnataka"
            ],
            "locType": "town"
        },
        "kambadahalli": {
            "closest_to": "",
            "address": "Kambadahalli, Madhugiri taluk, Tumkur district, Karnataka, India",
            "longitude": "77.1671918",
            "latitude": "13.6843692",
            "blogLinks": [
                "https://en.wikipedia.org/wiki/Tourism_in_Karnataka"
            ],
            "locType": "village"
        },
        "gulbarga district": {
            "closest_to": "",
            "address": "Kalaburgi, Kalaburagi district, Karnataka, India",
            "longitude": "77.083333",
            "latitude": "17.166667",
            "blogLinks": [
                "https://en.wikipedia.org/wiki/Tourism_in_Karnataka"
            ],
            "locType": "county"
        },
        "gadag": {
            "closest_to": "",
            "address": "Gadag, Gadag taluk, Gadag district, Karnataka, 582101, India",
            "longitude": "75.6300786",
            "latitude": "15.4263647",
            "blogLinks": [
                "https://en.wikipedia.org/wiki/Tourism_in_Karnataka"
            ],
            "locType": "town"
        },
        "vishnu": {
            "closest_to": "",
            "address": "Vishnu Residency Apartments, Thubarahalli, Siddapura, Bangalore Urban, Karnataka, 560066, India",
            "longitude": "77.7198022157059",
            "latitude": "12.95388635",
            "blogLinks": [
                "https://en.wikipedia.org/wiki/Tourism_in_Karnataka"
            ],
            "locType": "residential"
        },
        "mayura": {
            "closest_to": "",
            "address": "Mayura, Jevargi taluku, Kalaburagi district, Karnataka, India",
            "longitude": "76.4982569",
            "latitude": "17.0307108",
            "blogLinks": [
                "http://www.team-bhp.com/forum/travelogues/134591-bangalore-sringeri-horanadu-dharmasthala-kukke-bangalore.html"
            ],
            "locType": "village"
        },
        "nippani": {
            "closest_to": "",
            "address": "Nippani, Chikodi taluk, Belgaum district, Karnataka, 591237, India",
            "longitude": "74.3842372",
            "latitude": "16.4020402",
            "blogLinks": [
                "https://en.wikipedia.org/wiki/Tourism_in_Karnataka"
            ],
            "locType": "town"
        },
        "haveri": {
            "closest_to": "",
            "address": "Haveri, Haveri taluku, Haveri district, Karnataka, 581110, India",
            "longitude": "75.3996731",
            "latitude": "14.7874825",
            "blogLinks": [
                "https://en.wikipedia.org/wiki/Tourism_in_Karnataka"
            ],
            "locType": "town"
        },
        "dwaraka": {
            "closest_to": "",
            "address": "Dwaraka Apartments, Hoysala Nagar, Bengaluru, Bangalore Urban, Karnataka, 560001, India",
            "longitude": "77.6405574369381",
            "latitude": "12.97984005",
            "blogLinks": [
                "https://en.wikipedia.org/wiki/Sringeri"
            ],
            "locType": "residential"
        },
        "hunsur": {
            "closest_to": "",
            "address": "Hunsur, Hunasuru taluk, Mysuru district, Karnataka, 571105, India",
            "longitude": "76.2928095",
            "latitude": "12.3035086",
            "blogLinks": [
                "http://www.team-bhp.com/forum/travelogues/134591-bangalore-sringeri-horanadu-dharmasthala-kukke-bangalore.html"
            ],
            "locType": "town"
        },
        "nagarahole national park": {
            "closest_to": "",
            "address": "Nagarahole National Park, Virajpet taluk, Kodagu, Karnataka, India",
            "longitude": "76.1537073415874",
            "latitude": "12.0600362",
            "blogLinks": [
                "https://en.wikipedia.org/wiki/Tourism_in_Karnataka"
            ],
            "locType": "national_park"
        },
        "udipi": {
            "closest_to": "",
            "address": "Udipi Park, 2nd Cross Road, Muniyappa Layout, Murugeshpalaya, Belure Ambedkar Nagar, Bangalore Urban, Karnataka, 560067, India",
            "longitude": "77.652888",
            "latitude": "12.9530588",
            "blogLinks": [
                "https://www.tripadvisor.in/ShowTopic-g297627-i2498-k3449059-Udipi_Kollur_Shimoga_Sringeri_Horanadu_Dharmasthala-Karnataka.html",
                "http://www.nivalink.com/destination/dharmasthala"
            ],
            "locType": "restaurant"
        },
        "narayana": {
            "closest_to": "",
            "address": "Narayana Gondanahalli, Holalkere taluk, Chitradurga district, Karnataka, India",
            "longitude": "76.201037",
            "latitude": "13.9181889",
            "blogLinks": [
                "https://en.wikipedia.org/wiki/Tourism_in_Karnataka"
            ],
            "locType": "village"
        },
        "sagara": {
            "closest_to": "",
            "address": "Sagara, Sagara taluk, Shimoga district, Karnataka, 577400, India",
            "longitude": "75.0262551",
            "latitude": "14.1666594",
            "blogLinks": [
                "https://en.wikipedia.org/wiki/Tourism_in_Karnataka"
            ],
            "locType": "town"
        },
        "unchalli falls": {
            "closest_to": "",
            "address": "\u0c89\u0c82\u0c9a\u0cb3\u0ccd\u0cb3\u0cbf \u0c9c\u0cb2\u0caa\u0cbe\u0ca4, Siddapura taluk, Uttara Kannada, Karnataka, India",
            "longitude": "74.7477592",
            "latitude": "14.4097755",
            "blogLinks": [
                "https://en.wikipedia.org/wiki/Tourism_in_Karnataka"
            ],
            "locType": "waterfall"
        },
        "pattadakal": {
            "closest_to": "",
            "address": "Pattadakal Temples, SH14, \u0cac\u0cbe\u0c9a\u0cbf\u0ca8\u0c97\u0cc1\u0ca1\u0ccd\u0ca1, Badami taluku, Bagalkote district, Karnataka, 587211, India",
            "longitude": "75.815884048161",
            "latitude": "15.9506349",
            "blogLinks": [
                "https://en.wikipedia.org/wiki/Tourism_in_Karnataka"
            ],
            "locType": "attraction"
        },
        "kodagu": {
            "closest_to": "",
            "address": "Kodagu, Karnataka, India",
            "longitude": "75.6677235950852",
            "latitude": "12.38117345",
            "blogLinks": [
                "https://en.wikipedia.org/wiki/Tourism_in_Karnataka"
            ],
            "locType": "administrative"
        },
        "sangameshwara": {
            "closest_to": "",
            "address": "Sangameshwara, Kalaghatagi taluku, Dharwad district, Karnataka, India",
            "longitude": "74.87651",
            "latitude": "15.184341",
            "blogLinks": [
                "https://en.wikipedia.org/wiki/Tourism_in_Karnataka"
            ],
            "locType": "village"
        },
        "south": {
            "closest_to": "",
            "address": "s, Vijayapura, Devanahalli taluk, Bangalore Rural, Karnataka, 562135, India",
            "longitude": "77.8040874",
            "latitude": "13.2942848",
            "blogLinks": [
                "https://en.wikipedia.org/wiki/Tourism_in_Karnataka"
            ],
            "locType": "residential"
        },
        "kamala": {
            "closest_to": "",
            "address": "Kamala Nehru Patashala (Emmanual English School), 5th A Cross Road, Yediyur, Thyagaraja Nagar, Bengaluru, Bangalore Urban, Karnataka, 560001, India",
            "longitude": "77.5664867",
            "latitude": "12.9339482",
            "blogLinks": [
                "https://en.wikipedia.org/wiki/Tourism_in_Karnataka"
            ],
            "locType": "school"
        },
        "bangalore": {
            "closest_to": "",
            "address": "Bengaluru, Bangalore Urban, Karnataka, 560001, India",
            "longitude": "77.5912997",
            "latitude": "12.9791198",
            "blogLinks": [
                "https://en.wikipedia.org/wiki/Tourism_in_Karnataka",
                "https://ravikumarv.wordpress.com/2012/03/30/trip-to-kshetra-karnataka-day-1/",
                "http://www.nivalink.com/destination/dharmasthala",
                "http://www.team-bhp.com/forum/travelogues/134591-bangalore-sringeri-horanadu-dharmasthala-kukke-bangalore.html",
                "https://ravikumarv.wordpress.com/tag/dharmasthala/",
                "https://en.wikipedia.org/wiki/Sringeri"
            ],
            "locType": "city"
        },
        "itagi": {
            "closest_to": "",
            "address": "Itagi, Ranebennuru taluk, Haveri district, Karnataka, India",
            "longitude": "75.6701043",
            "latitude": "14.550374",
            "blogLinks": [
                "https://en.wikipedia.org/wiki/Tourism_in_Karnataka"
            ],
            "locType": "village"
        },
        "virupaksha temple": {
            "closest_to": "",
            "address": "Virupaksha Temple, Hampi Bazaar, Hampe, Hosapete taluk, Bellary district, Karnataka, 583239, India",
            "longitude": "76.4587777156223",
            "latitude": "15.3351754",
            "blogLinks": [
                "https://en.wikipedia.org/wiki/Tourism_in_Karnataka"
            ],
            "locType": "place_of_worship"
        },
        "ghataprabha river": {
            "closest_to": "",
            "address": "Ghataprabha, Gokak taluku, Belgaum district, Karnataka, India",
            "longitude": "74.9165235",
            "latitude": "16.2124344",
            "blogLinks": [
                "https://en.wikipedia.org/wiki/Tourism_in_Karnataka"
            ],
            "locType": "river"
        },
        "belgaum fort": {
            "closest_to": "",
            "address": "Belgaum Fort, Belagavi, Belagavi taluku, Belgaum district, Karnataka, 590001, India",
            "longitude": "74.5255651",
            "latitude": "15.8581696",
            "blogLinks": [
                "https://en.wikipedia.org/wiki/Tourism_in_Karnataka"
            ],
            "locType": "locality"
        },
        "mercara": {
            "closest_to": "",
            "address": "Madikeri, Madikeri taluku, Kodagu, Karnataka, India",
            "longitude": "75.740031",
            "latitude": "12.4204003",
            "blogLinks": [
                "https://en.wikipedia.org/wiki/Tourism_in_Karnataka"
            ],
            "locType": "town"
        },
        "mekedatu": {
            "closest_to": "",
            "address": "Mekedatu, SH92, Mahalli, Kanakapura taluk, Ramanagara district, Karnataka, India",
            "longitude": "77.4475194",
            "latitude": "12.2584997",
            "blogLinks": [
                "https://en.wikipedia.org/wiki/Tourism_in_Karnataka"
            ],
            "locType": "attraction"
        },
        "dharwad": {
            "closest_to": "",
            "address": "Dharwad, Dharawada taluku, Dharwad district, Karnataka, 580001, India",
            "longitude": "75.0066516",
            "latitude": "15.4540505",
            "blogLinks": [
                "https://en.wikipedia.org/wiki/Tourism_in_Karnataka"
            ],
            "locType": "city"
        },
        "bannerghatta national park": {
            "closest_to": "",
            "address": "Bannerghatta National Park, Anekal Road, Begihalli, Bangalore Urban, Karnataka, 560076, India",
            "longitude": "77.5722783830694",
            "latitude": "12.77900335",
            "blogLinks": [
                "https://en.wikipedia.org/wiki/Tourism_in_Karnataka"
            ],
            "locType": "national_park"
        },
        "bidar district": {
            "closest_to": "",
            "address": "Bidar district, Karnataka, India",
            "longitude": "77.2496344350342",
            "latitude": "18.0158574",
            "blogLinks": [
                "https://en.wikipedia.org/wiki/Tourism_in_Karnataka"
            ],
            "locType": "administrative"
        },
        "varur": {
            "closest_to": "",
            "address": "Varur, Hubballi taluku, Dharwad district, Karnataka, India",
            "longitude": "75.1387568",
            "latitude": "15.2077105",
            "blogLinks": [
                "https://en.wikipedia.org/wiki/Tourism_in_Karnataka"
            ],
            "locType": "village"
        },
        "nethrani island": {
            "closest_to": "",
            "address": "Netrani, Uttara Kannada, Karnataka, India",
            "longitude": "74.3272086675849",
            "latitude": "14.0174924",
            "blogLinks": [
                "https://en.wikipedia.org/wiki/Tourism_in_Karnataka"
            ],
            "locType": "island"
        },
        "kanaganahalli": {
            "closest_to": "",
            "address": "Kanaganahalli, Pandavapura taluk, Mandya district, Karnataka, India",
            "longitude": "76.5876958",
            "latitude": "12.5588444",
            "blogLinks": [
                "https://en.wikipedia.org/wiki/Tourism_in_Karnataka"
            ],
            "locType": "village"
        },
        "bengaluru": {
            "closest_to": "",
            "address": "Bengaluru, Bangalore Urban, Karnataka, 560001, India",
            "longitude": "77.5912997",
            "latitude": "12.9791198",
            "blogLinks": [
                "https://ravikumarv.wordpress.com/2012/03/30/trip-to-kshetra-karnataka-day-1/",
                "https://ravikumarv.wordpress.com/tag/dharmasthala/",
                "https://en.wikipedia.org/wiki/Sringeri"
            ],
            "locType": "city"
        },
        "gulbarga": {
            "closest_to": "",
            "address": "Kalaburgi, Kalaburagi district, Karnataka, India",
            "longitude": "77.083333",
            "latitude": "17.166667",
            "blogLinks": [
                "https://en.wikipedia.org/wiki/Tourism_in_Karnataka"
            ],
            "locType": "county"
        },
        "north kerala": {
            "closest_to": "",
            "address": "New Life Kerala Mess, Sai Baba Mandira Road, Mottappanapalaya, Indiranagar, Bengaluru, Bangalore Urban, Karnataka, 560001, India",
            "longitude": "77.6382683",
            "latitude": "12.9726449",
            "blogLinks": [
                "http://www.nivalink.com/destination/dharmasthala"
            ],
            "locType": "restaurant"
        },
        "north karnataka": {
            "closest_to": "",
            "address": "N, Chaithanya Samarpan, Kadugodi, Kannamangala, Bangalore Urban, Karnataka, 560066, India",
            "longitude": "77.7660547",
            "latitude": "13.0217151",
            "blogLinks": [
                "https://en.wikipedia.org/wiki/Tourism_in_Karnataka"
            ],
            "locType": "service"
        },
        "mumbai": {
            "closest_to": "",
            "address": "Mumbai Spice, 18/2, 10th Cross, Malleswaram, Vyalikaval, Malleswaram, Bengaluru, Bangalore Urban, Karnataka, 560003, India",
            "longitude": "77.5718472",
            "latitude": "13.0002869",
            "blogLinks": [
                "https://www.tripadvisor.in/ShowTopic-g297627-i2498-k3449059-Udipi_Kollur_Shimoga_Sringeri_Horanadu_Dharmasthala-Karnataka.html"
            ],
            "locType": "restaurant"
        },
        "nilgiris": {
            "closest_to": "",
            "address": "Nilgiris, Brigade Road, Tasker Town, Ashok Nagar, Bengaluru, Bangalore Urban, Karnataka, 560001, India",
            "longitude": "77.6069792",
            "latitude": "12.9725052",
            "blogLinks": [
                "https://en.wikipedia.org/wiki/Tourism_in_Karnataka"
            ],
            "locType": "supermarket"
        },
        "gudavi": {
            "closest_to": "",
            "address": "Gudavi, Soraba taluk, Shimoga district, Karnataka, India",
            "longitude": "75.009649",
            "latitude": "14.4400296",
            "blogLinks": [
                "https://en.wikipedia.org/wiki/Tourism_in_Karnataka"
            ],
            "locType": "village"
        },
        "hassan": {
            "closest_to": "",
            "address": "Hassan, Hasana taluk, Hassan district, Karnataka, 573201, India",
            "longitude": "76.0992703",
            "latitude": "13.0070817",
            "blogLinks": [
                "https://en.wikipedia.org/wiki/Tourism_in_Karnataka"
            ],
            "locType": "town"
        },
        "kuknur": {
            "closest_to": "",
            "address": "Kukanura, Yelaburga taluku, Koppal district, Karnataka, 583232, India",
            "longitude": "75.9934934",
            "latitude": "15.4902753",
            "blogLinks": [
                "https://en.wikipedia.org/wiki/Tourism_in_Karnataka"
            ],
            "locType": "village"
        },
        "mandya": {
            "closest_to": "",
            "address": "Mandya, Mandya taluk, Mandya district, Karnataka, 571401, India",
            "longitude": "76.8937392",
            "latitude": "12.5217836",
            "blogLinks": [
                "https://en.wikipedia.org/wiki/Tourism_in_Karnataka",
                "http://www.team-bhp.com/forum/travelogues/134591-bangalore-sringeri-horanadu-dharmasthala-kukke-bangalore.html"
            ],
            "locType": "town"
        },
        "puri": {
            "closest_to": "",
            "address": "Chanakya Puri, Kamaripet, Hubballi - \u0cb9\u0cc1\u0cac\u0ccd\u0cac\u0cb3\u0ccd\u0cb3\u0cbf, Hubballi taluku, Dharwad district, Karnataka, 580020, India",
            "longitude": "75.1318286",
            "latitude": "15.3463273",
            "blogLinks": [
                "https://en.wikipedia.org/wiki/Sringeri"
            ],
            "locType": "neighbourhood"
        },
        "manjunatha swamy temple": {
            "closest_to": "",
            "address": "Devagiri Manjunatha Swamy Temple, 30th Cross, Jayanagar 8th Block, Banashankari 2nd Stage, Bengaluru, Bangalore Urban, Karnataka, 560001, India",
            "longitude": "77.5640116772773",
            "latitude": "12.9211928",
            "blogLinks": [
                "http://www.nivalink.com/destination/dharmasthala"
            ],
            "locType": "place_of_worship"
        },
        "aihole": {
            "closest_to": "",
            "address": "Aihole, Hunagunda taluku, Bagalkote district, Karnataka, India",
            "longitude": "75.8819129",
            "latitude": "16.0192298",
            "blogLinks": [
                "https://en.wikipedia.org/wiki/Tourism_in_Karnataka"
            ],
            "locType": "village"
        },
        "sirigere": {
            "closest_to": "",
            "address": "Sirigere, Chitradurga taluku, Chitradurga district, Karnataka, India",
            "longitude": "76.2051907",
            "latitude": "14.2840739",
            "blogLinks": [
                "https://en.wikipedia.org/wiki/Tourism_in_Karnataka"
            ],
            "locType": "village"
        },
        "haveri district": {
            "closest_to": "",
            "address": "Haveri district, Karnataka, India",
            "longitude": "75.3845674304742",
            "latitude": "14.714635",
            "blogLinks": [
                "https://en.wikipedia.org/wiki/Tourism_in_Karnataka"
            ],
            "locType": "administrative"
        },
        "gadag district": {
            "closest_to": "",
            "address": "Gadag district, Karnataka, India",
            "longitude": "75.6807542794645",
            "latitude": "15.416337",
            "blogLinks": [
                "https://en.wikipedia.org/wiki/Tourism_in_Karnataka"
            ],
            "locType": "administrative"
        },
        "vidyapeetham": {
            "closest_to": "",
            "address": "Amrita Vishwa Vidyapeetham, Hosa Road, Kudlu, Chikkanayakanahalli, Bangalore Urban, Karnataka, 560035, India",
            "longitude": "77.6759018895353",
            "latitude": "12.8944184",
            "blogLinks": [
                "http://www.team-bhp.com/forum/travelogues/134591-bangalore-sringeri-horanadu-dharmasthala-kukke-bangalore.html"
            ],
            "locType": "university"
        },
        "kanakapura road": {
            "closest_to": "",
            "address": "Kanakapura Road, Rajotsava Nagar, Kaderenahalli, Bengaluru, Bangalore Urban, Karnataka, 560001, India",
            "longitude": "77.5733483",
            "latitude": "12.9064528",
            "blogLinks": [
                "https://en.wikipedia.org/wiki/Tourism_in_Karnataka"
            ],
            "locType": "trunk"
        },
        "tungabhadra": {
            "closest_to": "",
            "address": "Tungabhadra, Gangavati taluku, Koppal district, Karnataka, India",
            "longitude": "76.4931607",
            "latitude": "15.3446123",
            "blogLinks": [
                "https://en.wikipedia.org/wiki/Tourism_in_Karnataka"
            ],
            "locType": "river"
        },
        "kumta": {
            "closest_to": "",
            "address": "Kumta, Kumata taluk, Uttara Kannada, Karnataka, India",
            "longitude": "74.4107617",
            "latitude": "14.4261647",
            "blogLinks": [
                "https://en.wikipedia.org/wiki/Tourism_in_Karnataka"
            ],
            "locType": "town"
        },
        "naganur": {
            "closest_to": "",
            "address": "Naganur, Hukkeri taluku, Belgaum district, Karnataka, India",
            "longitude": "74.4824431",
            "latitude": "16.073351",
            "blogLinks": [
                "https://en.wikipedia.org/wiki/Tourism_in_Karnataka"
            ],
            "locType": "village"
        },
        "bagamandala": {
            "closest_to": "",
            "address": "Madikeri - Bagamandala ,Tala Kaveri Road, Mekeri, Madikeri taluku, Kodagu, Karnataka, India",
            "longitude": "75.748408",
            "latitude": "12.388062",
            "blogLinks": [
                "https://en.wikipedia.org/wiki/Tourism_in_Karnataka"
            ],
            "locType": "primary"
        },
        "vaishali": {
            "closest_to": "",
            "address": "Vaishali, 512, Outer Ring Road, Seven Hills Layout, Kathriguppe, Bengaluru, Bangalore Urban, Karnataka, 560085, India",
            "longitude": "77.5530567",
            "latitude": "12.9235327",
            "blogLinks": [
                "https://ravikumarv.wordpress.com/tag/dharmasthala/"
            ],
            "locType": "restaurant"
        },
        "anegundi": {
            "closest_to": "",
            "address": "Anegundi, Gangavati taluku, Koppal district, Karnataka, India",
            "longitude": "76.4924232",
            "latitude": "15.3509583",
            "blogLinks": [
                "https://en.wikipedia.org/wiki/Tourism_in_Karnataka"
            ],
            "locType": "village"
        },
        "varada": {
            "closest_to": "",
            "address": "Varada, Savanura taluk, Haveri district, Karnataka, India",
            "longitude": "75.47206",
            "latitude": "14.8717792",
            "blogLinks": [
                "https://en.wikipedia.org/wiki/Tourism_in_Karnataka"
            ],
            "locType": "river"
        },
        "bahubali": {
            "closest_to": "",
            "address": "Bahubali Statue, SH8, Shravanabelagola, Channarayapattana taluk, Hassan district, Karnataka, 573135, India",
            "longitude": "76.4846128",
            "latitude": "12.8540505",
            "blogLinks": [
                "https://en.wikipedia.org/wiki/Tourism_in_Karnataka",
                "http://www.nivalink.com/destination/dharmasthala"
            ],
            "locType": "place_of_worship"
        },
        "kemmangundi": {
            "closest_to": "",
            "address": "Kemmannagundi, Tarikere taluku, Chikkamagaluru district, Karnataka, India",
            "longitude": "75.7520082",
            "latitude": "13.5463048",
            "blogLinks": [
                "https://en.wikipedia.org/wiki/Tourism_in_Karnataka"
            ],
            "locType": "village"
        },
        "lakshmeshwar": {
            "closest_to": "",
            "address": "Lakshmeshwar KSRTC Bus stand, SH6, Bastibana, Lakshmeshvara, Shirahatti taluku, Gadag district, Karnataka, 582116, India",
            "longitude": "75.4741167",
            "latitude": "15.12373",
            "blogLinks": [
                "https://en.wikipedia.org/wiki/Tourism_in_Karnataka"
            ],
            "locType": "bus_station"
        },
        "siddheshwara": {
            "closest_to": "",
            "address": "Siddheshwara Medicals, Judicial Layout, Allalasandra, Bangalore, 7th Main Road, Judicial Layout, Bengaluru, Bangalore Urban, Karnataka, 560001, India",
            "longitude": "77.5876527",
            "latitude": "13.0797146",
            "blogLinks": [
                "https://en.wikipedia.org/wiki/Tourism_in_Karnataka"
            ],
            "locType": "pharmacy"
        },
        "chola": {
            "closest_to": "",
            "address": "Chola Gold Loan, Bengaluru - Mangaluru Road, Ravindra Nagar, Santhe Pete, Hassan, Hasana taluk, Hassan district, Karnataka, 573201, India",
            "longitude": "76.098782",
            "latitude": "13.0023906",
            "blogLinks": [
                "https://en.wikipedia.org/wiki/Tourism_in_Karnataka"
            ],
            "locType": "yes"
        },
        "arabhavi": {
            "closest_to": "",
            "address": "Arabhavi, Gokak taluku, Belgaum district, Karnataka, India",
            "longitude": "74.8213227",
            "latitude": "16.2193552",
            "blogLinks": [
                "https://en.wikipedia.org/wiki/Tourism_in_Karnataka"
            ],
            "locType": "village"
        },
        "tamil nadu": {
            "closest_to": "",
            "address": "KARNATAKA BANK, Diwan Bhadur Road, Five Corner, RS Puram, Coimbatore, Coimbatore district, Tamil Nadu, 641001, India",
            "longitude": "76.9514152",
            "latitude": "11.0025894",
            "blogLinks": [
                "https://en.wikipedia.org/wiki/Tourism_in_Karnataka"
            ],
            "locType": "bank"
        },
        "bellary": {
            "closest_to": "",
            "address": "Bellary, Bellary district, Karnataka, India",
            "longitude": "76.8323648",
            "latitude": "15.2485413",
            "blogLinks": [
                "https://en.wikipedia.org/wiki/Tourism_in_Karnataka"
            ],
            "locType": "county"
        },
        "kagal": {
            "closest_to": "",
            "address": "Kagal Fort, Birkodi Village, Kumata taluk, Uttara Kannada, Karnataka, India",
            "longitude": "74.3575302591262",
            "latitude": "14.5055819",
            "blogLinks": [
                "https://en.wikipedia.org/wiki/Tourism_in_Karnataka"
            ],
            "locType": "grass"
        },
        "karnataka": {
            "closest_to": "",
            "address": "Karnataka, Shalivahana Road, Nazarbad, Mysuru, Mysuru taluk, Mysuru district, Karnataka, 570001, India",
            "longitude": "76.6639936",
            "latitude": "12.3084901",
            "blogLinks": [
                "https://www.tripoto.com/travel-guide/sringeri",
                "http://www.distancesfrom.com/Trip-Cost-from-Dharmasthala-to-Hornadu-via-Sringeri-Rd-Kollur-bilinele/TripCostHistory/35027802.aspx",
                "https://en.wikipedia.org/wiki/Tourism_in_Karnataka",
                "https://ravikumarv.wordpress.com/2012/03/30/trip-to-kshetra-karnataka-day-1/",
                "http://www.nivalink.com/destination/dharmasthala",
                "https://www.tripoto.com/travel-guide/sringeri/places-to-visit",
                "http://www.team-bhp.com/forum/travelogues/134591-bangalore-sringeri-horanadu-dharmasthala-kukke-bangalore.html",
                "http://www.karnatakatourism.org/",
                "https://ravikumarv.wordpress.com/tag/dharmasthala/"
            ],
            "locType": "atm"
        },
        "shiggaon taluk": {
            "closest_to": "",
            "address": "Shiggaon taluk, Haveri district, Karnataka, India",
            "longitude": "75.1756764988777",
            "latitude": "15.0138079",
            "blogLinks": [
                "https://en.wikipedia.org/wiki/Tourism_in_Karnataka"
            ],
            "locType": "administrative"
        },
        "chitradurga": {
            "closest_to": "",
            "address": "Chitradurga, Chitradurga taluku, Chitradurga district, Karnataka, 577500, India",
            "longitude": "76.4005122",
            "latitude": "14.2266443",
            "blogLinks": [
                "https://en.wikipedia.org/wiki/Tourism_in_Karnataka"
            ],
            "locType": "town"
        },
        "malaprabha": {
            "closest_to": "",
            "address": "Malaprabha, Ramadurga taluku, Belgaum district, Karnataka, India",
            "longitude": "75.1982668",
            "latitude": "15.8914192",
            "blogLinks": [
                "https://en.wikipedia.org/wiki/Tourism_in_Karnataka"
            ],
            "locType": "river"
        },
        "gotagodi village": {
            "closest_to": "",
            "address": "Gotagodi, Hanagal taluk, Haveri district, Karnataka, India",
            "longitude": "75.0452834",
            "latitude": "14.7634556",
            "blogLinks": [
                "https://en.wikipedia.org/wiki/Tourism_in_Karnataka"
            ],
            "locType": "village"
        },
        "goa": {
            "closest_to": "",
            "address": "Carnival De Goa, Bhaskaran Road, Gupta Layout, Halasuru, Bengaluru, Bangalore Urban, Karnataka, 560001, India",
            "longitude": "77.6200027",
            "latitude": "12.9750047",
            "blogLinks": [
                "https://en.wikipedia.org/wiki/Tourism_in_Karnataka"
            ],
            "locType": "restaurant"
        },
        "lushington falls": {
            "closest_to": "",
            "address": "\u0c89\u0c82\u0c9a\u0cb3\u0ccd\u0cb3\u0cbf \u0c9c\u0cb2\u0caa\u0cbe\u0ca4, Siddapura taluk, Uttara Kannada, Karnataka, India",
            "longitude": "74.7477592",
            "latitude": "14.4097755",
            "blogLinks": [
                "https://en.wikipedia.org/wiki/Tourism_in_Karnataka"
            ],
            "locType": "waterfall"
        },
        "lokapura": {
            "closest_to": "",
            "address": "Lokapura, Mudhola taluku, Bagalkote district, Karnataka, 587122, India",
            "longitude": "75.3685939",
            "latitude": "16.1627427",
            "blogLinks": [
                "https://en.wikipedia.org/wiki/Tourism_in_Karnataka"
            ],
            "locType": "town"
        },
        "mallikarjuna temple": {
            "closest_to": "",
            "address": "Mallikarjuna Temple, SH135, Nelavagi, Badami taluku, Bagalkote district, Karnataka, India",
            "longitude": "75.7213492",
            "latitude": "15.9321101",
            "blogLinks": [
                "https://www.tripoto.com/travel-guide/sringeri",
                "https://www.tripoto.com/travel-guide/sringeri/places-to-visit"
            ],
            "locType": "place_of_worship"
        },
        "annapoorani": {
            "closest_to": "",
            "address": "Annapoorani, Indiranagar Double Road (Paramahansa Yogananda road), Indiranagar 1st Stage, Hoysala Nagar, Bengaluru, Bangalore Urban, Karnataka, 560001, India",
            "longitude": "77.635825",
            "latitude": "12.97475",
            "blogLinks": [
                "https://ravikumarv.wordpress.com/tag/dharmasthala/"
            ],
            "locType": "restaurant"
        },
        "south karnataka": {
            "closest_to": "",
            "address": "s, Vijayapura, Devanahalli taluk, Bangalore Rural, Karnataka, 562135, India",
            "longitude": "77.8040874",
            "latitude": "13.2942848",
            "blogLinks": [
                "https://en.wikipedia.org/wiki/Tourism_in_Karnataka"
            ],
            "locType": "residential"
        },
        "arasikere": {
            "closest_to": "",
            "address": "Arasikere, Arasikere taluku, Hassan district, Karnataka, 573103, India",
            "longitude": "76.2568436",
            "latitude": "13.3159809",
            "blogLinks": [
                "https://en.wikipedia.org/wiki/Tourism_in_Karnataka"
            ],
            "locType": "town"
        },
        "shimoga": {
            "closest_to": "",
            "address": "Shivamogga, Shivamogga taluku, Shimoga district, Karnataka, 577200, India",
            "longitude": "75.569737",
            "latitude": "13.9311723",
            "blogLinks": [
                "https://en.wikipedia.org/wiki/Tourism_in_Karnataka"
            ],
            "locType": "city"
        },
        "srirangapatna": {
            "closest_to": "",
            "address": "Srirangapatna, Srirangapattana taluk, Mandya district, Karnataka, 571438, India",
            "longitude": "76.6850743",
            "latitude": "12.4225604",
            "blogLinks": [
                "https://en.wikipedia.org/wiki/Tourism_in_Karnataka"
            ],
            "locType": "town"
        },
        "gokarna": {
            "closest_to": "",
            "address": "Gokarna, Kumata taluk, Uttara Kannada, Karnataka, 581326, India",
            "longitude": "74.3184418",
            "latitude": "14.5439629",
            "blogLinks": [
                "https://en.wikipedia.org/wiki/Tourism_in_Karnataka",
                "http://www.indiamike.com/india/karnataka-f38/udupi-agumbe-shringeri-murudeshwara-jog-falls-dharmasthala-t137208/"
            ],
            "locType": "town"
        },
        "bankapura": {
            "closest_to": "",
            "address": "Bankapura, Shiggaon taluk, Haveri district, Karnataka, 581202, India",
            "longitude": "75.2639298",
            "latitude": "14.9217443",
            "blogLinks": [
                "https://en.wikipedia.org/wiki/Tourism_in_Karnataka"
            ],
            "locType": "town"
        },
        "india": {
            "closest_to": "",
            "address": "Karnataka, India",
            "longitude": "75.7223521",
            "latitude": "14.5203896",
            "blogLinks": [
                "https://www.tripoto.com/travel-guide/sringeri",
                "http://www.distancesfrom.com/Trip-Cost-from-Dharmasthala-to-Hornadu-via-Sringeri-Rd-Kollur-bilinele/TripCostHistory/35027802.aspx",
                "https://en.wikipedia.org/wiki/Tourism_in_Karnataka",
                "https://ravikumarv.wordpress.com/2012/03/30/trip-to-kshetra-karnataka-day-1/",
                "https://www.tripoto.com/travel-guide/sringeri/places-to-visit",
                "http://www.team-bhp.com/forum/travelogues/134591-bangalore-sringeri-horanadu-dharmasthala-kukke-bangalore.html",
                "https://ravikumarv.wordpress.com/tag/dharmasthala/",
                "https://en.wikipedia.org/wiki/Sringeri"
            ],
            "locType": "administrative"
        },
        "sharavati": {
            "closest_to": "",
            "address": "Sharavati, Sagara taluk, Shimoga district, Karnataka, India",
            "longitude": "74.7647294",
            "latitude": "14.2360979",
            "blogLinks": [
                "https://en.wikipedia.org/wiki/Tourism_in_Karnataka"
            ],
            "locType": "river"
        }
    },
    "agumbe": {
        "place_id": "8561493",
        "osm_id": "910403408",
        "icon": "https://nominatim.openstreetmap.org/images/mapicons/poi_place_village.p.20.png",
        "osm_type": "node",
        "licence": "Data \u00a9 OpenStreetMap contributors, ODbL 1.0. http://www.openstreetmap.org/copyright",
        "display_name": "Agumbe, Tirthahalli taluk, Shimoga district, Karnataka, 577411, India",
        "type": "village",
        "lon": "75.0965525",
        "boundingbox": [
            "13.4894998",
            "13.5294998",
            "75.0765525",
            "75.1165525"
        ],
        "importance": 0.475,
        "lat": "13.5094998",
        "class": "place"
    },
    "dharmasthala": {
        "place_id": "638987",
        "osm_id": "245614706",
        "icon": "https://nominatim.openstreetmap.org/images/mapicons/poi_place_village.p.20.png",
        "osm_type": "node",
        "licence": "Data \u00a9 OpenStreetMap contributors, ODbL 1.0. http://www.openstreetmap.org/copyright",
        "display_name": "Dharmasthala, Beltangadi taluk, Dakshina Kannada, Karnataka, 574216, India",
        "type": "village",
        "lon": "75.3813122",
        "boundingbox": [
            "12.9319571",
            "12.9719571",
            "75.3613122",
            "75.4013122"
        ],
        "importance": 0.475,
        "lat": "12.9519571",
        "class": "place"
    }
}