{
    "mentions": {
        "nippani": {
            "closest_to": "",
            "address": "Nippani, Chikodi taluk, Belgaum district, Karnataka, 591237, India",
            "longitude": "74.3842372",
            "latitude": "16.4020402",
            "blogLinks": [
                "https://en.wikipedia.org/wiki/Tourism_in_Karnataka"
            ],
            "locType": "town"
        },
        "subramanya": {
            "closest_to": "",
            "address": "Subramanya Arcade, Marenahalli, Bengaluru, Bangalore Urban, Karnataka, 560001, India",
            "longitude": "77.6015800913134",
            "latitude": "12.9251206",
            "blogLinks": [
                "https://en.wikipedia.org/wiki/Tourism_in_Karnataka"
            ],
            "locType": "commercial"
        },
        "east": {
            "closest_to": "",
            "address": "East, 43, Velankani Drive, Electronics City Phase 1, Doddathoguru, Bangalore Urban, Karnataka, 560100, India",
            "longitude": "77.6601401",
            "latitude": "12.8504319",
            "blogLinks": [
                "https://en.wikipedia.org/wiki/Tourism_in_Karnataka"
            ],
            "locType": "restaurant"
        },
        "kanakapura road": {
            "closest_to": "",
            "address": "Kanakapura Road, Rajotsava Nagar, Kaderenahalli, Bengaluru, Bangalore Urban, Karnataka, 560001, India",
            "longitude": "77.5733483",
            "latitude": "12.9064528",
            "blogLinks": [
                "https://en.wikipedia.org/wiki/Tourism_in_Karnataka"
            ],
            "locType": "trunk"
        },
        "udipi": {
            "closest_to": "",
            "address": "Udipi Park, 2nd Cross Road, Muniyappa Layout, Murugeshpalaya, Belure Ambedkar Nagar, Bangalore Urban, Karnataka, 560067, India",
            "longitude": "77.652888",
            "latitude": "12.9530588",
            "blogLinks": [
                "http://manipal.edu/mu/about-us/international-collaborations/area-of-attractions-nearby.html"
            ],
            "locType": "restaurant"
        },
        "maharashtra": {
            "closest_to": "",
            "address": "Bank of Maharashtra, 24th Main, K R Layout, Puttenahalli, Bengaluru, Bangalore Urban, Karnataka, 560001, India",
            "longitude": "77.5856013",
            "latitude": "12.9049455",
            "blogLinks": [
                "https://en.wikipedia.org/wiki/Tourism_in_Karnataka",
                "https://en.wikipedia.org/wiki/Bellary"
            ],
            "locType": "bank"
        },
        "sangama": {
            "closest_to": "",
            "address": "Sangam, SH92, Mahalli, Kanakapura taluk, Ramanagara district, Karnataka, India",
            "longitude": "77.4320447",
            "latitude": "12.2880428",
            "blogLinks": [
                "https://www.quora.com/What-are-the-best-weekend-road-trips-from-Bangalore"
            ],
            "locType": "attraction"
        },
        "oxford": {
            "closest_to": "",
            "address": "Oxford, I T P L Main Road, Kundalahalli Colony, AECS Layout, Sitaramapalya, Bangalore Urban, Karnataka, 560048, India",
            "longitude": "77.7178402",
            "latitude": "12.9660236",
            "blogLinks": [
                "https://en.wikipedia.org/wiki/Bellary"
            ],
            "locType": "books"
        },
        "pune": {
            "closest_to": "",
            "address": "Pune - Machilipatnam Highway, Kaudiyala, Basavakalyana taluku, Bidar district, Karnataka, India",
            "longitude": "76.9479122",
            "latitude": "17.8199745",
            "blogLinks": [
                "https://en.wikipedia.org/wiki/Bellary"
            ],
            "locType": "trunk"
        },
        "malgudi": {
            "closest_to": "",
            "address": "Malgudi Southern Cuisine, 3, Outer Ring Road, Ananda Nagara, Doddanekundi, Garudacharpalya, Bangalore Urban, Karnataka, 560037, India",
            "longitude": "77.7017267",
            "latitude": "12.9651193",
            "blogLinks": [
                "http://travel.india.com/agumbe/",
                "http://www.onefivenine.com/india/Travel/Place/Agumbe"
            ],
            "locType": "restaurant"
        },
        "andhra": {
            "closest_to": "",
            "address": "Karnataka, West Mada Street, Srivari Temple, Tirumala, Chittoor, Andhra Pradesh, 517504, India",
            "longitude": "79.3452447",
            "latitude": "13.6841958",
            "blogLinks": [
                "https://www.quora.com/What-are-the-best-weekend-road-trips-from-Bangalore"
            ],
            "locType": "hotel"
        },
        "bheemeshwari": {
            "closest_to": "",
            "address": "Bheemeshwari, Muttatti, Malavalli taluk, Mandya district, Karnataka, India",
            "longitude": "77.2778171",
            "latitude": "12.3124122",
            "blogLinks": [
                "https://en.wikipedia.org/wiki/Tourism_in_Karnataka"
            ],
            "locType": "locality"
        },
        "bannerghatta": {
            "closest_to": "",
            "address": "Bannerghatta, Bangalore Urban, Karnataka, India",
            "longitude": "77.5789509",
            "latitude": "12.813337",
            "blogLinks": [
                "https://en.wikipedia.org/wiki/Tourism_in_Karnataka"
            ],
            "locType": "village"
        },
        "gulmohar": {
            "closest_to": "",
            "address": "MIMS Gulmohar Villas, Kadugodi, Prashanth Extension, Bangalore Urban, Karnataka, 56066, India",
            "longitude": "77.745811757371",
            "latitude": "12.9841671",
            "blogLinks": [
                "https://www.quora.com/What-are-the-best-weekend-road-trips-from-Bangalore"
            ],
            "locType": "residential"
        },
        "hyderabad": {
            "closest_to": "",
            "address": "Hyderabad Road, Old City, Bidar, Bidar taluku, Bidar district, Karnataka, 585400, India",
            "longitude": "77.5344002",
            "latitude": "17.9003114",
            "blogLinks": [
                "https://en.wikipedia.org/wiki/Bellary",
                "https://www.quora.com/What-are-the-best-weekend-road-trips-from-Bangalore"
            ],
            "locType": "primary"
        },
        "mekedatu": {
            "closest_to": "",
            "address": "Mekedatu, SH92, Mahalli, Kanakapura taluk, Ramanagara district, Karnataka, India",
            "longitude": "77.4475194",
            "latitude": "12.2584997",
            "blogLinks": [
                "https://www.quora.com/What-are-the-best-weekend-road-trips-from-Bangalore"
            ],
            "locType": "attraction"
        },
        "banashankari temple": {
            "closest_to": "",
            "address": "Banashankari Temple, Kanakapura Road, JP Nagar 1st Phase, Kaderenahalli, Bengaluru, Bangalore Urban, Karnataka, 560001, India",
            "longitude": "77.5731752886765",
            "latitude": "12.91568785",
            "blogLinks": [
                "https://en.wikipedia.org/wiki/Tourism_in_Karnataka"
            ],
            "locType": "place_of_worship"
        },
        "delhi": {
            "closest_to": "",
            "address": "Outer Ring Road, Green Glen Layout, Iblur, Bengaluru, Bangalore Urban, Karnataka, 560001, India",
            "longitude": "77.6666062",
            "latitude": "12.9212473",
            "blogLinks": [
                "https://en.wikipedia.org/wiki/Bellary"
            ],
            "locType": "trunk"
        },
        "pondicherry": {
            "closest_to": "",
            "address": "Karnataka Bank, Mission Street, Grand Bazaar, Puducherry, Puducherry district, Puducherry, 605001, India",
            "longitude": "79.831569",
            "latitude": "11.9365727",
            "blogLinks": [
                "https://www.quora.com/What-are-the-best-weekend-road-trips-from-Bangalore"
            ],
            "locType": "bank"
        },
        "garden city": {
            "closest_to": "",
            "address": "Karnataka Bank, Postal Colony 2nd Street, Postal Colony, Ashok Nagar, Chennai City Corporation Limits, Chennai district, Tamil Nadu, 600033, India",
            "longitude": "80.2197941",
            "latitude": "13.0365141",
            "blogLinks": [
                "https://www.tripoto.com/weekend-getaways/from-agumbe",
                "https://www.quora.com/What-are-the-best-weekend-road-trips-from-Bangalore"
            ],
            "locType": "bank"
        },
        "mallikarjuna": {
            "closest_to": "",
            "address": "Mallikarjuna Vadi, Basavakalyana taluku, Bidar district, Karnataka, India",
            "longitude": "77.0590502",
            "latitude": "17.8106693",
            "blogLinks": [
                "https://en.wikipedia.org/wiki/Tourism_in_Karnataka"
            ],
            "locType": "village"
        },
        "national park": {
            "closest_to": "",
            "address": "Bannerghatta National Park, Anekal Road, Begihalli, Bangalore Urban, Karnataka, 560076, India",
            "longitude": "77.5722783830694",
            "latitude": "12.77900335",
            "blogLinks": [
                "https://www.quora.com/What-are-the-best-weekend-road-trips-from-Bangalore"
            ],
            "locType": "national_park"
        },
        "chennai": {
            "closest_to": "",
            "address": "Karnataka Bank, Postal Colony 2nd Street, Postal Colony, Ashok Nagar, Chennai City Corporation Limits, Chennai district, Tamil Nadu, 600033, India",
            "longitude": "80.2197941",
            "latitude": "13.0365141",
            "blogLinks": [
                "https://en.wikipedia.org/wiki/Tourism_in_Karnataka",
                "https://en.wikipedia.org/wiki/Bellary",
                "https://www.quora.com/What-are-the-best-weekend-road-trips-from-Bangalore"
            ],
            "locType": "bank"
        },
        "kadapa": {
            "closest_to": "",
            "address": "Kadapa - Madanapalle - Bengaluru New Line (u/c), Srinivaspur Mulbagal Road, Kadiripura, Mulubagilu taluk, Kolar district, Karnataka, 563131, India",
            "longitude": "78.3792674",
            "latitude": "13.1859851",
            "blogLinks": [
                "https://en.wikipedia.org/wiki/Bellary"
            ],
            "locType": "construction"
        },
        "bidar district": {
            "closest_to": "",
            "address": "Bidar district, Karnataka, India",
            "longitude": "77.2496344350342",
            "latitude": "18.0158574",
            "blogLinks": [
                "https://en.wikipedia.org/wiki/Tourism_in_Karnataka"
            ],
            "locType": "administrative"
        },
        "kalyani": {
            "closest_to": "",
            "address": "Kalyani, Neeladri Road, Electronics City Phase 1, Bettadasana Pura, Bangalore Urban, Karnataka, 560100, India",
            "longitude": "77.6286090192686",
            "latitude": "12.8406466",
            "blogLinks": [
                "https://en.wikipedia.org/wiki/Tourism_in_Karnataka"
            ],
            "locType": "water"
        },
        "west": {
            "closest_to": "",
            "address": "w, Balmuri Main Road, Hulimavu,, Bannerghatta Road, Mico Arekere Layout 1st Stage, Hulimavu, Bengaluru, Bangalore Urban, Karnataka, 560076, India",
            "longitude": "77.5960999",
            "latitude": "12.8759384",
            "blogLinks": [
                "https://en.wikipedia.org/wiki/Agumbe"
            ],
            "locType": "clothes"
        },
        "bidar fort bidar fort": {
            "closest_to": "",
            "address": "Bidar Fort, Qila Road, Multani Colony, Old City, Bidar, Bidar taluku, Bidar district, Karnataka, 585400, India",
            "longitude": "77.5265890380672",
            "latitude": "17.92480435",
            "blogLinks": [
                "http://karnatakatour.info/category/best-tourist-places-in-karnataka/page/4/"
            ],
            "locType": "castle"
        },
        "kanakapura": {
            "closest_to": "",
            "address": "Kanakapura, Kanakapura taluk, Ramanagara district, Karnataka, 562117, India",
            "longitude": "77.4199095",
            "latitude": "12.5450268",
            "blogLinks": [
                "https://www.quora.com/What-are-the-best-weekend-road-trips-from-Bangalore"
            ],
            "locType": "town"
        },
        "bidar": {
            "closest_to": "",
            "address": "Bidar, Bidar district, Karnataka, India",
            "longitude": "77.333333",
            "latitude": "18.083333",
            "blogLinks": [
                "http://karnatakatour.info/category/best-tourist-places-in-karnataka/page/4/"
            ],
            "locType": "county"
        },
        "andhra pradesh": {
            "closest_to": "",
            "address": "Karnataka, West Mada Street, Srivari Temple, Tirumala, Chittoor, Andhra Pradesh, 517504, India",
            "longitude": "79.3452447",
            "latitude": "13.6841958",
            "blogLinks": [
                "https://en.wikipedia.org/wiki/Bellary",
                "https://www.quora.com/What-are-the-best-weekend-road-trips-from-Bangalore"
            ],
            "locType": "hotel"
        },
        "kanakapura taluk": {
            "closest_to": "",
            "address": "Kanakapura taluk, Ramanagara district, Karnataka, India",
            "longitude": "77.4224204245398",
            "latitude": "12.5199223",
            "blogLinks": [
                "https://www.quora.com/What-are-the-best-weekend-road-trips-from-Bangalore"
            ],
            "locType": "administrative"
        },
        "bannerghatta national park": {
            "closest_to": "",
            "address": "Bannerghatta National Park, Anekal Road, Begihalli, Bangalore Urban, Karnataka, 560076, India",
            "longitude": "77.5722783830694",
            "latitude": "12.77900335",
            "blogLinks": [
                "https://en.wikipedia.org/wiki/Tourism_in_Karnataka"
            ],
            "locType": "national_park"
        },
        "tamil nadu": {
            "closest_to": "",
            "address": "KARNATAKA BANK, Diwan Bhadur Road, Five Corner, RS Puram, Coimbatore, Coimbatore district, Tamil Nadu, 641001, India",
            "longitude": "76.9514152",
            "latitude": "11.0025894",
            "blogLinks": [
                "https://en.wikipedia.org/wiki/Tourism_in_Karnataka",
                "https://www.tripoto.com/weekend-getaways/from-agumbe",
                "http://karnatakatour.info/category/best-tourist-places-in-karnataka/page/4/",
                "https://www.quora.com/What-are-the-best-weekend-road-trips-from-Bangalore"
            ],
            "locType": "bank"
        },
        "jaipur": {
            "closest_to": "",
            "address": "Karnataka Bank, Mirza Ismail Road, Hasanpura, Bani Park, Jaipur, Rajasthan, 302006, India",
            "longitude": "75.7985653",
            "latitude": "26.91869",
            "blogLinks": [
                "https://en.wikipedia.org/wiki/Bellary"
            ],
            "locType": "atm"
        },
        "madurai": {
            "closest_to": "",
            "address": "Madurai Idly Shop, 5th Main Road, Teachers Colony, HSR Layout, Bengaluru, Bangalore Urban, Karnataka, 560001, India",
            "longitude": "77.6320535",
            "latitude": "12.9185419",
            "blogLinks": [
                "https://www.tripoto.com/weekend-getaways/from-agumbe"
            ],
            "locType": "restaurant"
        },
        "kanakpura": {
            "closest_to": "",
            "address": "H 902, Mantri Tranquil, Gubbalala, Off Kanakpura Road, Bengaluru - 61, Subramanyapura Main Road, Singapore Gardens, Uttarahalli, Gubbalala, Bangalore Urban, Karnataka, 560086, India",
            "longitude": "77.5438085908703",
            "latitude": "12.8866679",
            "blogLinks": [
                "https://www.quora.com/What-are-the-best-weekend-road-trips-from-Bangalore"
            ],
            "locType": "yes"
        }
    },
    "agumbe": {
        "place_id": "8561493",
        "osm_id": "910403408",
        "icon": "https://nominatim.openstreetmap.org/images/mapicons/poi_place_village.p.20.png",
        "osm_type": "node",
        "licence": "Data \u00a9 OpenStreetMap contributors, ODbL 1.0. http://www.openstreetmap.org/copyright",
        "display_name": "Agumbe, Tirthahalli taluk, Shimoga district, Karnataka, 577411, India",
        "type": "village",
        "lon": "75.0965525",
        "boundingbox": [
            "13.4894998",
            "13.5294998",
            "75.0765525",
            "75.1165525"
        ],
        "importance": 0.475,
        "lat": "13.5094998",
        "class": "place"
    },
    "bellary": {
        "place_id": "1393549",
        "osm_id": "316417114",
        "icon": "https://nominatim.openstreetmap.org/images/mapicons/poi_boundary_administrative.p.20.png",
        "osm_type": "node",
        "licence": "Data \u00a9 OpenStreetMap contributors, ODbL 1.0. http://www.openstreetmap.org/copyright",
        "display_name": "Bellary, Bellary district, Karnataka, India",
        "type": "county",
        "lon": "76.8323648",
        "boundingbox": [
            "14.6085413",
            "15.8885413",
            "76.1923648",
            "77.4723648"
        ],
        "importance": 0.65,
        "lat": "15.2485413",
        "class": "place"
    }
}