{
    "mysore": {
        "icon": "https://nominatim.openstreetmap.org/images/mapicons/poi_place_city.p.20.png",
        "osm_type": "node",
        "boundingbox": [
            "12.1451828",
            "12.4651828",
            "76.4953609",
            "76.8153609"
        ],
        "display_name": "Mysuru, Mysuru taluk, Mysuru district, Karnataka, 570001, India",
        "class": "place",
        "osm_id": "2068274800",
        "type": "city",
        "licence": "Data \u00a9 OpenStreetMap contributors, ODbL 1.0. http://www.openstreetmap.org/copyright",
        "lon": "76.6553609",
        "lat": "12.3051828",
        "place_id": "20900757",
        "importance": 0.6487665495944
    },
    "mentions": {
        "mallikarjuna": {
            "blogLinks": [
                "https://www.pinterest.com/naagesht/travel-karnataka-india/"
            ],
            "locType": "village",
            "longitude": "77.0590502",
            "latitude": "17.8106693",
            "address": "Mallikarjuna Vadi, Basavakalyana taluku, Bidar district, Karnataka, India",
            "closest_to": ""
        },
        "tungabhadra": {
            "blogLinks": [
                "https://www.tripoto.com/trip/karnataka-one-state-many-worlds-2-565ed43147a04",
                "https://www.pinterest.com/naagesht/travel-karnataka-india/"
            ],
            "locType": "river",
            "longitude": "76.4931607",
            "latitude": "15.3446123",
            "address": "Tungabhadra, Gangavati taluku, Koppal district, Karnataka, India",
            "closest_to": ""
        },
        "karanji lake": {
            "blogLinks": [
                "http://wikitravel.org/en/Mysore"
            ],
            "locType": "village",
            "longitude": "77.5474867",
            "latitude": "18.2681849",
            "address": "Karanji, Aurad taluku, Bidar district, Karnataka, India",
            "closest_to": ""
        },
        "hampi": {
            "blogLinks": [
                "https://www.pinterest.com/naagesht/travel-karnataka-india/"
            ],
            "locType": "village",
            "longitude": "76.4606199",
            "latitude": "15.3359769",
            "address": "Hampe, Hosapete taluk, Bellary district, Karnataka, 583239, India",
            "closest_to": ""
        },
        "sangam talkies road": {
            "blogLinks": [
                "http://wikitravel.org/en/Mysore"
            ],
            "locType": "cinema",
            "longitude": "75.0098541",
            "latitude": "15.4539921",
            "address": "Sangam Talkies, Hubli Dharwad Road, Saraswathpur, Gandhinagar, Dharwad, Dharawada taluku, Dharwad district, Karnataka, 580001, India",
            "closest_to": ""
        },
        "karanji": {
            "blogLinks": [
                "http://wikitravel.org/en/Mysore"
            ],
            "locType": "village",
            "longitude": "77.5474867",
            "latitude": "18.2681849",
            "address": "Karanji, Aurad taluku, Bidar district, Karnataka, India",
            "closest_to": ""
        },
        "baga": {
            "blogLinks": [
                "https://www.tripoto.com/weekend-getaways/from-agumbe"
            ],
            "locType": "village",
            "longitude": "76.9300452",
            "latitude": "17.6148763",
            "address": "Baga Hipparaga, Basavakalyana taluku, Bidar district, Karnataka, India",
            "closest_to": ""
        },
        "margao": {
            "blogLinks": [
                "https://www.tripoto.com/weekend-getaways/from-agumbe"
            ],
            "locType": "bank",
            "longitude": "73.9583411",
            "latitude": "15.2740083",
            "address": "Karnataka bank, NH66, Aquem, Fatorda, Margao, South Goa, Goa, 403600, India",
            "closest_to": ""
        },
        "bagalkot": {
            "blogLinks": [
                "https://www.tripoto.com/trip/karnataka-one-state-many-worlds-2-565ed43147a04"
            ],
            "locType": "city",
            "longitude": "75.6967919",
            "latitude": "16.1853166",
            "address": "Bagalakote, Bagalakote taluk, Bagalkote district, Karnataka, India",
            "closest_to": ""
        },
        "hyderabad": {
            "blogLinks": [
                "http://www.trabol.com/s/places/india/karnataka/1331/shimoga/"
            ],
            "locType": "primary",
            "longitude": "77.5344002",
            "latitude": "17.9003114",
            "address": "Hyderabad Road, Old City, Bidar, Bidar taluku, Bidar district, Karnataka, 585400, India",
            "closest_to": ""
        },
        "chennai": {
            "blogLinks": [
                "http://www.trabol.com/s/places/india/karnataka/1331/shimoga/",
                "http://wikitravel.org/en/Mysore"
            ],
            "locType": "bank",
            "longitude": "80.2197941",
            "latitude": "13.0365141",
            "address": "Karnataka Bank, Postal Colony 2nd Street, Postal Colony, Ashok Nagar, Chennai City Corporation Limits, Chennai district, Tamil Nadu, 600033, India",
            "closest_to": ""
        },
        "panaji": {
            "blogLinks": [
                "https://www.tripoto.com/weekend-getaways/from-agumbe"
            ],
            "locType": "trunk",
            "longitude": "74.4876784",
            "latitude": "15.4422981",
            "address": "Belgaum - Panaji Highway, Londa, Khanapura taluku, Belgaum district, Karnataka, India",
            "closest_to": ""
        },
        "garden city": {
            "blogLinks": [
                "https://www.tripoto.com/weekend-getaways/from-agumbe"
            ],
            "locType": "bank",
            "longitude": "80.2197941",
            "latitude": "13.0365141",
            "address": "Karnataka Bank, Postal Colony 2nd Street, Postal Colony, Ashok Nagar, Chennai City Corporation Limits, Chennai district, Tamil Nadu, 600033, India",
            "closest_to": ""
        },
        "kudalasangama": {
            "blogLinks": [
                "http://wikitravel.org/en/Shimoga"
            ],
            "locType": "village",
            "longitude": "76.0604244",
            "latitude": "16.2033992",
            "address": "Kudala Sangama, Hunagunda taluku, Bagalkote district, Karnataka, India",
            "closest_to": ""
        },
        "sunset point": {
            "blogLinks": [
                "https://www.tripoto.com/weekend-getaways/from-agumbe",
                "https://www.tripoto.com/trip/karnataka-one-state-many-worlds-2-565ed43147a04"
            ],
            "locType": "viewpoint",
            "longitude": "76.4594093",
            "latitude": "15.3326761",
            "address": "Sunset Point, Hampi Kamalapura Road, Hampe, Hosapete taluk, Bellary district, Karnataka, 583239, India",
            "closest_to": ""
        }
    },
    "agumbe": {
        "icon": "https://nominatim.openstreetmap.org/images/mapicons/poi_place_village.p.20.png",
        "osm_type": "node",
        "boundingbox": [
            "13.4894998",
            "13.5294998",
            "75.0765525",
            "75.1165525"
        ],
        "display_name": "Agumbe, Tirthahalli taluk, Shimoga district, Karnataka, 577411, India",
        "class": "place",
        "osm_id": "910403408",
        "type": "village",
        "licence": "Data \u00a9 OpenStreetMap contributors, ODbL 1.0. http://www.openstreetmap.org/copyright",
        "lon": "75.0965525",
        "lat": "13.5094998",
        "place_id": "8561493",
        "importance": 0.475
    }
}