{
    "bangalore": {
        "icon": "https://nominatim.openstreetmap.org/images/mapicons/poi_place_city.p.20.png",
        "osm_type": "node",
        "boundingbox": [
            "12.8191198",
            "13.1391198",
            "77.4312997",
            "77.7512997"
        ],
        "display_name": "Bengaluru, Bangalore Urban, Karnataka, 560001, India",
        "class": "place",
        "osm_id": "3401391999",
        "type": "city",
        "licence": "Data \u00a9 OpenStreetMap contributors, ODbL 1.0. http://www.openstreetmap.org/copyright",
        "lon": "77.5912997",
        "lat": "12.9791198",
        "place_id": "46592958",
        "importance": 0.8183333454045
    },
    "tumkur": {
        "icon": "https://nominatim.openstreetmap.org/images/mapicons/poi_boundary_administrative.p.20.png",
        "osm_type": "node",
        "boundingbox": [
            "12.8599406",
            "14.1399406",
            "76.3602445",
            "77.6402445"
        ],
        "display_name": "Tumakuru, Tumkur district, Karnataka, India",
        "class": "place",
        "osm_id": "316417304",
        "type": "county",
        "licence": "Data \u00a9 OpenStreetMap contributors, ODbL 1.0. http://www.openstreetmap.org/copyright",
        "lon": "77.0002445",
        "lat": "13.4999406",
        "place_id": "1397122",
        "importance": 0.65
    },
    "mentions": {
        "kozhikode": {
            "blogLinks": [
                "https://www.quora.com/What-are-the-best-places-around-Bangalore-for-bike-rides"
            ],
            "locType": "primary",
            "longitude": "76.6598864",
            "latitude": "12.2926117",
            "address": "Kozhikode - Kollegal Highway, Ittigegudu, Mysuru, Mysuru taluk, Mysuru district, Karnataka, 570001, India",
            "closest_to": ""
        },
        "hyderabad": {
            "blogLinks": [
                "http://k-khanabadosh.blogspot.com/2013/01/the-nh7-road-trip-bangalore-to-hyderabad.html",
                "https://www.makemytrip.com/routeplanner/bangalore-tumkur.html",
                "http://www.theweekendleader.com/Travel/1823/bangalore-15.html"
            ],
            "locType": "primary",
            "longitude": "77.5344002",
            "latitude": "17.9003114",
            "address": "Hyderabad Road, Old City, Bidar, Bidar taluku, Bidar district, Karnataka, 585400, India",
            "closest_to": ""
        },
        "hubli-karwar": {
            "blogLinks": [
                "http://praveenpn.com/blog/2011/01/05/bangalore-to-goa-by-car/"
            ],
            "locType": "trunk",
            "longitude": "76.36038",
            "latitude": "15.2639568",
            "address": "Hubli-Karwar Road, Amaravati, Hosapete taluk, Bellary district, Karnataka, 583225, India",
            "closest_to": ""
        },
        "anantapur": {
            "blogLinks": [
                "http://k-khanabadosh.blogspot.com/2013/01/the-nh7-road-trip-bangalore-to-hyderabad.html"
            ],
            "locType": "yes",
            "longitude": "77.7596024",
            "latitude": "13.7972948",
            "address": "RTO Karnataka, Srinagar - Kanyakumari Highway, Paragodu, Bagepalli taluk, Chikkaballapura district, Karnataka, 561207, India",
            "closest_to": ""
        },
        "kodagu": {
            "blogLinks": [
                "https://www.quora.com/What-are-the-best-places-around-Bangalore-for-bike-rides"
            ],
            "locType": "administrative",
            "longitude": "75.6677235950852",
            "latitude": "12.38117345",
            "address": "Kodagu, Karnataka, India",
            "closest_to": ""
        },
        "kurnool": {
            "blogLinks": [
                "http://k-khanabadosh.blogspot.com/2013/01/the-nh7-road-trip-bangalore-to-hyderabad.html"
            ],
            "locType": "hotel",
            "longitude": "77.4217916",
            "latitude": "15.9394081",
            "address": "Karnataka Guest House, Jadcherla - Hagari Road, Kurnool, Andhra Pradesh, India",
            "closest_to": ""
        },
        "mahalakshmi temple": {
            "blogLinks": [
                "http://www.buzzntravel.com/tamkur"
            ],
            "locType": "place_of_worship",
            "longitude": "75.2513776",
            "latitude": "13.7088748",
            "address": "Mahalakshmi Temple, Soppugudde Main Road, Soppugudde, Tirthahalli, Tirthahalli taluk, Shimoga district, Karnataka, 577432, India",
            "closest_to": ""
        },
        "shivaganga hill": {
            "blogLinks": [
                "https://www.quora.com/What-are-the-best-places-around-Bangalore-for-bike-rides"
            ],
            "locType": "village",
            "longitude": "76.2510807",
            "latitude": "14.0791346",
            "address": "Shivaganga, Holalkere taluk, Chitradurga district, Karnataka, India",
            "closest_to": ""
        },
        "sringeri": {
            "blogLinks": [
                "https://www.quora.com/What-are-the-best-places-around-Bangalore-for-bike-rides"
            ],
            "locType": "town",
            "longitude": "75.2553718",
            "latitude": "13.4261724",
            "address": "Sringeri, Sringeri taluku, Chikkamagaluru district, Karnataka, 577592, India",
            "closest_to": ""
        },
        "daroji": {
            "blogLinks": [
                "http://travel.india.com/explore/wildlife-sanctuaries-in-karnataka/"
            ],
            "locType": "village",
            "longitude": "76.6667172",
            "latitude": "15.2671318",
            "address": "Daroji, Sanduru taluk, Bellary district, Karnataka, India",
            "closest_to": ""
        },
        "ballari": {
            "blogLinks": [
                "http://travel.india.com/explore/wildlife-sanctuaries-in-karnataka/"
            ],
            "locType": "city",
            "longitude": "76.9125211",
            "latitude": "15.1467299",
            "address": "Ballari, Bellary taluk, Bellary district, Karnataka, India",
            "closest_to": ""
        },
        "ujire": {
            "blogLinks": [
                "https://www.quora.com/What-are-the-best-places-around-Bangalore-for-bike-rides"
            ],
            "locType": "village",
            "longitude": "75.3301061",
            "latitude": "12.9954619",
            "address": "Ujire, Beltangadi taluk, Dakshina Kannada, Karnataka, India",
            "closest_to": ""
        },
        "andhra": {
            "blogLinks": [
                "https://www.quora.com/What-are-the-best-places-around-Bangalore-for-bike-rides"
            ],
            "locType": "hotel",
            "longitude": "79.3452447",
            "latitude": "13.6841958",
            "address": "Karnataka, West Mada Street, Srivari Temple, Tirumala, Chittoor, Andhra Pradesh, 517504, India",
            "closest_to": ""
        },
        "uttara kannada district": {
            "blogLinks": [
                "https://www.quora.com/What-are-the-best-places-around-Bangalore-for-bike-rides"
            ],
            "locType": "county",
            "longitude": "74.583333",
            "latitude": "14.883333",
            "address": "Uttara Kannada, Karnataka, India",
            "closest_to": ""
        },
        "samse": {
            "blogLinks": [
                "https://www.quora.com/What-are-the-best-places-around-Bangalore-for-bike-rides"
            ],
            "locType": "village",
            "longitude": "75.3332678",
            "latitude": "13.1894244",
            "address": "Samse, Mudigere taluk, Chikkamagaluru district, Karnataka, India",
            "closest_to": ""
        },
        "kamalapur": {
            "blogLinks": [
                "http://travel.india.com/explore/wildlife-sanctuaries-in-karnataka/"
            ],
            "locType": "yes",
            "longitude": "75.003629911571",
            "latitude": "15.4456282",
            "address": "Kamalapur Nursing Home, Station Road, Kalyana nagar, Gandhinagar, Dharwad, Dharawada taluku, Dharwad district, Karnataka, 580001, India",
            "closest_to": ""
        },
        "kaveri": {
            "blogLinks": [
                "https://www.quora.com/What-are-the-best-places-around-Bangalore-for-bike-rides"
            ],
            "locType": "river",
            "longitude": "77.0635531",
            "latitude": "12.1687878",
            "address": "Kaveri, Kollegala taluk, Chamarajanagar district, Karnataka, India",
            "closest_to": ""
        },
        "gokarna beach": {
            "blogLinks": [
                "http://travel.india.com/gokarna/"
            ],
            "locType": "beach",
            "longitude": "74.3109489488919",
            "latitude": "14.5516537",
            "address": "Gokarna Beach, Gokarna Road, Ganji Gadde, Kumata taluk, Uttara Kannada, Karnataka, 581326, India",
            "closest_to": ""
        },
        "india": {
            "blogLinks": [
                "http://www.tripwip.com/shivaganga-a-sunday-in-the-sun/",
                "http://praveenpn.com/blog/2011/01/05/bangalore-to-goa-by-car/",
                "http://travel.india.com/gokarna/",
                "http://www.buzzntravel.com/tamkur",
                "http://www.theweekendleader.com/Travel/1823/bangalore-15.html",
                "http://travel.india.com/explore/wildlife-sanctuaries-in-karnataka/",
                "http://www.trodly.com/india/destination-6070/tumkur",
                "http://k-khanabadosh.blogspot.com/2013/01/the-nh7-road-trip-bangalore-to-hyderabad.html",
                "https://www.quora.com/What-are-the-best-places-around-Bangalore-for-bike-rides",
                "https://www.tripoto.com/trip/bangalore-to-goa-road-trip-itinerary"
            ],
            "locType": "administrative",
            "longitude": "75.7223521",
            "latitude": "14.5203896",
            "address": "Karnataka, India",
            "closest_to": ""
        },
        "chorla road": {
            "blogLinks": [
                "https://www.tripoto.com/trip/bangalore-to-goa-road-trip-itinerary"
            ],
            "locType": "village",
            "longitude": "74.1448168",
            "latitude": "15.6585992",
            "address": "Chorla, Khanapura taluku, Belgaum district, Karnataka, India",
            "closest_to": ""
        },
        "andhra pradesh": {
            "blogLinks": [
                "http://k-khanabadosh.blogspot.com/2013/01/the-nh7-road-trip-bangalore-to-hyderabad.html",
                "https://www.quora.com/What-are-the-best-places-around-Bangalore-for-bike-rides"
            ],
            "locType": "hotel",
            "longitude": "79.3452447",
            "latitude": "13.6841958",
            "address": "Karnataka, West Mada Street, Srivari Temple, Tirumala, Chittoor, Andhra Pradesh, 517504, India",
            "closest_to": ""
        },
        "kudremukh": {
            "blogLinks": [
                "http://travel.india.com/explore/wildlife-sanctuaries-in-karnataka/"
            ],
            "locType": "village",
            "longitude": "75.2523304",
            "latitude": "13.2144007",
            "address": "Kudremukha, Mudigere taluk, Chikkamagaluru district, Karnataka, India",
            "closest_to": ""
        },
        "panaji": {
            "blogLinks": [
                "https://www.tripoto.com/trip/bangalore-to-goa-road-trip-itinerary"
            ],
            "locType": "trunk",
            "longitude": "74.4876784",
            "latitude": "15.4422981",
            "address": "Belgaum - Panaji Highway, Londa, Khanapura taluku, Belgaum district, Karnataka, India",
            "closest_to": ""
        },
        "bankapur": {
            "blogLinks": [
                "http://praveenpn.com/blog/2011/01/05/bangalore-to-goa-by-car/"
            ],
            "locType": "town",
            "longitude": "75.2639298",
            "latitude": "14.9217443",
            "address": "Bankapura, Shiggaon taluk, Haveri district, Karnataka, 581202, India",
            "closest_to": ""
        },
        "silent valley": {
            "blogLinks": [
                "http://travel.india.com/explore/wildlife-sanctuaries-in-karnataka/"
            ],
            "locType": "hotel",
            "longitude": "76.5819054",
            "latitude": "12.3459371",
            "address": "Silent Shores Resort, Krishnaraja Sagara Road, Kurgalli, Bastipura, Srirangapattana taluk, Mandya district, Karnataka, 570027, India",
            "closest_to": ""
        },
        "half-moon beach": {
            "blogLinks": [
                "http://travel.india.com/gokarna/"
            ],
            "locType": "beach",
            "longitude": "74.3310971256284",
            "latitude": "14.5179028",
            "address": "Half Moon Beach, Om beach road, Gokarna, Kumata taluk, Uttara Kannada, Karnataka, 581326, India",
            "closest_to": ""
        },
        "paradise beach": {
            "blogLinks": [
                "http://travel.india.com/gokarna/"
            ],
            "locType": "beach",
            "longitude": "74.3375798576938",
            "latitude": "14.5181133",
            "address": "Paradise Beach, Om beach road, Gokarna, Kumata taluk, Uttara Kannada, Karnataka, 581326, India",
            "closest_to": ""
        },
        "ganga beach": {
            "blogLinks": [
                "http://travel.india.com/gokarna/"
            ],
            "locType": "hotel",
            "longitude": "74.3148093",
            "latitude": "14.5316743",
            "address": "Ganga Cafe, Om beach road, Gokarna, Kumata taluk, Uttara Kannada, Karnataka, 581326, India",
            "closest_to": ""
        },
        "karnataka state": {
            "blogLinks": [
                "http://tumkurplaces.blogspot.com/"
            ],
            "locType": "university",
            "longitude": "76.6236231",
            "latitude": "12.315382",
            "address": "Karnataka State Open University, \u0cb9\u0cc1\u0ca3\u0cb8\u0cc2\u0cb0\u0cc1 \u0cb0\u0cb8\u0ccd\u0ca4\u0cc6, Gokulam, Mysuru, Mysuru taluk, Mysuru district, Karnataka, 570001, India",
            "closest_to": ""
        },
        "moyar": {
            "blogLinks": [
                "http://travel.india.com/explore/wildlife-sanctuaries-in-karnataka/"
            ],
            "locType": "viewpoint",
            "longitude": "76.631118",
            "latitude": "11.6161121",
            "address": "Moyar Gorge, Gundlupet - Coimbatore Highway, Bandipur, Gundlupet taluk, Chamarajanagar district, Karnataka, India",
            "closest_to": ""
        },
        "kamalapura": {
            "blogLinks": [
                "http://travel.india.com/explore/wildlife-sanctuaries-in-karnataka/"
            ],
            "locType": "village",
            "longitude": "75.7316366",
            "latitude": "14.4449672",
            "address": "Kamalapura, Harihara taluku, Davanagere district, Karnataka, India",
            "closest_to": ""
        },
        "karwar": {
            "blogLinks": [
                "http://praveenpn.com/blog/2011/01/05/bangalore-to-goa-by-car/"
            ],
            "locType": "town",
            "longitude": "74.1319229",
            "latitude": "14.8120931",
            "address": "Karwar, Karavara taluk, Uttara Kannada, Karnataka, 581300, India",
            "closest_to": ""
        },
        "dakshina kannada": {
            "blogLinks": [
                "https://www.quora.com/What-are-the-best-places-around-Bangalore-for-bike-rides"
            ],
            "locType": "administrative",
            "longitude": "75.1008028650794",
            "latitude": "12.8114089",
            "address": "Dakshina Kannada, Karnataka, India",
            "closest_to": ""
        },
        "kudle beach": {
            "blogLinks": [
                "http://travel.india.com/gokarna/"
            ],
            "locType": "beach",
            "longitude": "74.3156783937192",
            "latitude": "14.5281015",
            "address": "Kudle Beach, Om beach road, Gokarna, Kumata taluk, Uttara Kannada, Karnataka, 581326, India",
            "closest_to": ""
        },
        "rajasthan": {
            "blogLinks": [
                "http://www.tripwip.com/shivaganga-a-sunday-in-the-sun/"
            ],
            "locType": "atm",
            "longitude": "75.7985653",
            "latitude": "26.91869",
            "address": "Karnataka Bank, Mirza Ismail Road, Hasanpura, Bani Park, Jaipur, Rajasthan, 302006, India",
            "closest_to": ""
        },
        "kalasa": {
            "blogLinks": [
                "https://www.quora.com/What-are-the-best-places-around-Bangalore-for-bike-rides"
            ],
            "locType": "town",
            "longitude": "75.3582366",
            "latitude": "13.2322235",
            "address": "Kalasa, Mudigere taluk, Chikkamagaluru district, Karnataka, 577124, India",
            "closest_to": ""
        },
        "karnataka": {
            "blogLinks": [
                "http://www.tripwip.com/shivaganga-a-sunday-in-the-sun/",
                "http://travel.india.com/gokarna/",
                "http://travel.india.com/explore/wildlife-sanctuaries-in-karnataka/",
                "https://www.propertywala.com/dodda_tumkur_bangalore",
                "http://www.trodly.com/india/destination-6070/tumkur",
                "http://k-khanabadosh.blogspot.com/2013/01/the-nh7-road-trip-bangalore-to-hyderabad.html",
                "https://www.quora.com/What-are-the-best-places-around-Bangalore-for-bike-rides",
                "https://www.tripoto.com/trip/bangalore-to-goa-road-trip-itinerary",
                "http://www.karnatakatourism.org/"
            ],
            "locType": "atm",
            "longitude": "76.6639936",
            "latitude": "12.3084901",
            "address": "Karnataka, Shalivahana Road, Nazarbad, Mysuru, Mysuru taluk, Mysuru district, Karnataka, 570001, India",
            "closest_to": ""
        },
        "yellapur": {
            "blogLinks": [
                "http://praveenpn.com/blog/2011/01/05/bangalore-to-goa-by-car/"
            ],
            "locType": "town",
            "longitude": "74.7061458",
            "latitude": "14.9622518",
            "address": "Yellapura, Yallapura taluk, Uttara Kannada, Karnataka, 581359, India",
            "closest_to": ""
        },
        "zoological park": {
            "blogLinks": [
                "http://www.theweekendleader.com/Travel/1823/bangalore-15.html"
            ],
            "locType": "zoo",
            "longitude": "76.6682662743162",
            "latitude": "12.3006384",
            "address": "Sri Chamarajendra Zoological Garden, Kozhikode - Kollegal Highway, Race Course, Mysuru, Mysuru taluk, Mysuru district, Karnataka, 570001, India",
            "closest_to": ""
        },
        "annapoorneshwari temple": {
            "blogLinks": [
                "https://www.quora.com/What-are-the-best-places-around-Bangalore-for-bike-rides"
            ],
            "locType": "place_of_worship",
            "longitude": "74.9006001",
            "latitude": "12.97910715",
            "address": "Sri Ambika Annapoorneshwari Temple, SH101, Sunkadakatte, Mangaluru taluk, Dakshina Kannada, Karnataka, India",
            "closest_to": ""
        },
        "mundgod": {
            "blogLinks": [
                "http://praveenpn.com/blog/2011/01/05/bangalore-to-goa-by-car/"
            ],
            "locType": "village",
            "longitude": "75.0371451",
            "latitude": "14.9705105",
            "address": "Mundgod, Mundagoda taluk, Uttara Kannada, Karnataka, 581349, India",
            "closest_to": ""
        },
        "sirsi": {
            "blogLinks": [
                "https://www.quora.com/What-are-the-best-places-around-Bangalore-for-bike-rides"
            ],
            "locType": "town",
            "longitude": "74.8388611",
            "latitude": "14.6192362",
            "address": "Sirsi, Shirasi taluk, Uttara Kannada, Karnataka, 581400, India",
            "closest_to": ""
        },
        "dandeli": {
            "blogLinks": [
                "http://travel.india.com/explore/wildlife-sanctuaries-in-karnataka/"
            ],
            "locType": "town",
            "longitude": "74.6236037",
            "latitude": "15.2490284",
            "address": "Dandeli, Haliyala taluku, Uttara Kannada, Karnataka, 581325, India",
            "closest_to": ""
        },
        "lakshmi temple": {
            "blogLinks": [
                "http://tumkurplaces.blogspot.com/"
            ],
            "locType": "place_of_worship",
            "longitude": "74.9916",
            "latitude": "15.459122",
            "address": "Lakshmi Temple, SH34, Channabasaveshwara Layout, Kamalapura, Dharwad, Dharawada taluku, Dharwad district, Karnataka, 580001, India",
            "closest_to": ""
        },
        "pune": {
            "blogLinks": [
                "https://www.tripoto.com/travel-guide/tumkur"
            ],
            "locType": "trunk",
            "longitude": "76.9479122",
            "latitude": "17.8199745",
            "address": "Pune - Machilipatnam Highway, Kaudiyala, Basavakalyana taluku, Bidar district, Karnataka, India",
            "closest_to": ""
        },
        "bandaje falls": {
            "blogLinks": [
                "https://www.quora.com/What-are-the-best-places-around-Bangalore-for-bike-rides"
            ],
            "locType": "track",
            "longitude": "75.3809448",
            "latitude": "13.0801279",
            "address": "Bandaje to Bandaje falls, Bangadi, Beltangadi taluk, Dakshina Kannada, Karnataka, 574290, India",
            "closest_to": ""
        },
        "tamil nadu": {
            "blogLinks": [
                "http://travel.india.com/explore/wildlife-sanctuaries-in-karnataka/"
            ],
            "locType": "bank",
            "longitude": "76.9514152",
            "latitude": "11.0025894",
            "address": "KARNATAKA BANK, Diwan Bhadur Road, Five Corner, RS Puram, Coimbatore, Coimbatore district, Tamil Nadu, 641001, India",
            "closest_to": ""
        },
        "kamat hotel": {
            "blogLinks": [
                "http://praveenpn.com/blog/2011/01/05/bangalore-to-goa-by-car/"
            ],
            "locType": "restaurant",
            "longitude": "75.0131542",
            "latitude": "15.4595482",
            "address": "Kamat Hotel, Subhas Road, Saidapur, Kamalapura, Dharwad, Dharawada taluku, Dharwad district, Karnataka, 580001, India",
            "closest_to": ""
        },
        "mangalore": {
            "blogLinks": [
                "http://praveenpn.com/blog/2011/01/05/bangalore-to-goa-by-car/",
                "http://travel.india.com/explore/wildlife-sanctuaries-in-karnataka/",
                "http://travel.india.com/gokarna/"
            ],
            "locType": "city",
            "longitude": "74.8430082",
            "latitude": "12.8698101",
            "address": "Mangaluru, Mangaluru taluk, Dakshina Kannada, Karnataka, 575001, India",
            "closest_to": ""
        },
        "karkala": {
            "blogLinks": [
                "https://www.quora.com/What-are-the-best-places-around-Bangalore-for-bike-rides"
            ],
            "locType": "town",
            "longitude": "74.9959586",
            "latitude": "13.2112826",
            "address": "Karkala, Karkala taluk, Udupi district, Karnataka, 574104, India",
            "closest_to": ""
        },
        "shivaganga": {
            "blogLinks": [
                "http://www.tripwip.com/shivaganga-a-sunday-in-the-sun/"
            ],
            "locType": "village",
            "longitude": "76.2510807",
            "latitude": "14.0791346",
            "address": "Shivaganga, Holalkere taluk, Chitradurga district, Karnataka, India",
            "closest_to": ""
        },
        "vyasanakere": {
            "blogLinks": [
                "http://travel.india.com/explore/wildlife-sanctuaries-in-karnataka/"
            ],
            "locType": "village",
            "longitude": "76.3553916",
            "latitude": "15.1954023",
            "address": "Vyasanakere, Hosapete taluk, Bellary district, Karnataka, India",
            "closest_to": ""
        },
        "gokarna": {
            "blogLinks": [
                "http://travel.india.com/gokarna/"
            ],
            "locType": "town",
            "longitude": "74.3184418",
            "latitude": "14.5439629",
            "address": "Gokarna, Kumata taluk, Uttara Kannada, Karnataka, 581326, India",
            "closest_to": ""
        },
        "hubli": {
            "blogLinks": [
                "https://www.propertywala.com/dodda_tumkur_bangalore",
                "https://www.tripoto.com/trip/bangalore-to-goa-road-trip-itinerary",
                "http://praveenpn.com/blog/2011/01/05/bangalore-to-goa-by-car/",
                "http://travel.india.com/explore/wildlife-sanctuaries-in-karnataka/",
                "http://travel.india.com/gokarna/"
            ],
            "locType": "city",
            "longitude": "75.1379848",
            "latitude": "15.3518378",
            "address": "Hubballi - \u0cb9\u0cc1\u0cac\u0ccd\u0cac\u0cb3\u0ccd\u0cb3\u0cbf, Hubballi taluku, Dharwad district, Karnataka, 580020, India",
            "closest_to": ""
        },
        "kodasalli dam": {
            "blogLinks": [
                "https://www.quora.com/What-are-the-best-places-around-Bangalore-for-bike-rides"
            ],
            "locType": "dam",
            "longitude": "74.5353892832085",
            "latitude": "14.91893295",
            "address": "Kodasalli Dam, Yallapura taluk, Uttara Kannada, Karnataka, India",
            "closest_to": ""
        },
        "ooty-mysore": {
            "blogLinks": [
                "http://travel.india.com/explore/wildlife-sanctuaries-in-karnataka/"
            ],
            "locType": "primary",
            "longitude": "76.6586807",
            "latitude": "12.2774807",
            "address": "Ooty Road, Vidyaranyapuram, Mysuru, Mysuru taluk, Mysuru district, Karnataka, 570001, India",
            "closest_to": ""
        },
        "bandipur national park": {
            "blogLinks": [
                "http://travel.india.com/explore/wildlife-sanctuaries-in-karnataka/"
            ],
            "locType": "national_park",
            "longitude": "76.4314968740264",
            "latitude": "11.76682425",
            "address": "Bandipur National Park, Kozhikode - Kollegal Highway, Gundlupet taluk, Chamarajanagar district, Karnataka, India",
            "closest_to": ""
        },
        "kali river": {
            "blogLinks": [
                "https://www.quora.com/What-are-the-best-places-around-Bangalore-for-bike-rides",
                "http://travel.india.com/explore/wildlife-sanctuaries-in-karnataka/"
            ],
            "locType": "river",
            "longitude": "74.5802901",
            "latitude": "15.0145378",
            "address": "Kali, Joida taluk, Uttara Kannada, Karnataka, India",
            "closest_to": ""
        },
        "uttara kannada": {
            "blogLinks": [
                "http://travel.india.com/explore/wildlife-sanctuaries-in-karnataka/"
            ],
            "locType": "administrative",
            "longitude": "74.4729163045979",
            "latitude": "14.6726379",
            "address": "Uttara Kannada, Karnataka, India",
            "closest_to": ""
        },
        "belthangady": {
            "blogLinks": [
                "https://www.quora.com/What-are-the-best-places-around-Bangalore-for-bike-rides"
            ],
            "locType": "school",
            "longitude": "75.2789924801603",
            "latitude": "12.9899316",
            "address": "Government Model Primary School Belthangady, NH73, Guruvayankere, Beltangadi taluk, Dakshina Kannada, Karnataka, India",
            "closest_to": ""
        },
        "hospet": {
            "blogLinks": [
                "http://travel.india.com/explore/wildlife-sanctuaries-in-karnataka/"
            ],
            "locType": "town",
            "longitude": "76.3870527",
            "latitude": "15.266079",
            "address": "Hosapete, Hosapete taluk, Bellary district, Karnataka, 583200, India",
            "closest_to": ""
        },
        "anantapur district": {
            "blogLinks": [
                "https://www.quora.com/What-are-the-best-places-around-Bangalore-for-bike-rides"
            ],
            "locType": "yes",
            "longitude": "77.7596024",
            "latitude": "13.7972948",
            "address": "RTO Karnataka, Srinagar - Kanyakumari Highway, Paragodu, Bagepalli taluk, Chikkaballapura district, Karnataka, 561207, India",
            "closest_to": ""
        },
        "lakkavalli": {
            "blogLinks": [
                "http://travel.india.com/explore/wildlife-sanctuaries-in-karnataka/"
            ],
            "locType": "village",
            "longitude": "75.1078097",
            "latitude": "14.5841018",
            "address": "Lakkavalli, Soraba taluk, Shimoga district, Karnataka, India",
            "closest_to": ""
        },
        "belgaum": {
            "blogLinks": [
                "https://www.quora.com/What-are-the-best-places-around-Bangalore-for-bike-rides",
                "https://www.tripoto.com/trip/bangalore-to-goa-road-trip-itinerary"
            ],
            "locType": "county",
            "longitude": "74.75",
            "latitude": "16.333333",
            "address": "Belgaum, Belgaum district, Karnataka, India",
            "closest_to": ""
        },
        "devbagh beach": {
            "blogLinks": [
                "http://travel.india.com/gokarna/"
            ],
            "locType": "beach",
            "longitude": "74.1079961668745",
            "latitude": "14.8682714",
            "address": "Devbagh Beach, NH66, Majali, Karavara taluk, Uttara Kannada, Karnataka, 581352, India",
            "closest_to": ""
        },
        "bandipur": {
            "blogLinks": [
                "http://travel.india.com/explore/wildlife-sanctuaries-in-karnataka/"
            ],
            "locType": "village",
            "longitude": "76.6285739",
            "latitude": "11.6662708",
            "address": "Bandipur, Gundlupet taluk, Chamarajanagar district, Karnataka, India",
            "closest_to": ""
        },
        "mangalore international airport": {
            "blogLinks": [
                "http://travel.india.com/gokarna/"
            ],
            "locType": "aerodrome",
            "longitude": "74.887492668144",
            "latitude": "12.95518575",
            "address": "Mangalore International Airport, Airport Entry Road, Gandhinagar, Kenjar, Mangaluru taluk, Dakshina Kannada, Karnataka, 575015, India",
            "closest_to": ""
        },
        "kudremukh national park": {
            "blogLinks": [
                "http://travel.india.com/explore/wildlife-sanctuaries-in-karnataka/"
            ],
            "locType": "national_park",
            "longitude": "75.1828713712862",
            "latitude": "13.25397485",
            "address": "Kudremukh National Park, SH66, Sringeri taluku, Chikkamagaluru district, Karnataka, India",
            "closest_to": ""
        },
        "london": {
            "blogLinks": [
                "http://www.tripwip.com/shivaganga-a-sunday-in-the-sun/"
            ],
            "locType": "administrative",
            "longitude": "75.7223521",
            "latitude": "14.5203896",
            "address": "Karnataka, India",
            "closest_to": ""
        },
        "kinaye": {
            "blogLinks": [
                "https://www.tripoto.com/trip/bangalore-to-goa-road-trip-itinerary"
            ],
            "locType": "village",
            "longitude": "74.4235572",
            "latitude": "15.7646811",
            "address": "Kinaye, Belagavi taluku, Belgaum district, Karnataka, India",
            "closest_to": ""
        },
        "kabini": {
            "blogLinks": [
                "http://travel.india.com/explore/wildlife-sanctuaries-in-karnataka/"
            ],
            "locType": "river",
            "longitude": "76.4152088",
            "latitude": "12.0140065",
            "address": "Kabini, Heggadadevanakote taluk, Mysuru district, Karnataka, India",
            "closest_to": ""
        },
        "river kali": {
            "blogLinks": [
                "http://travel.india.com/explore/wildlife-sanctuaries-in-karnataka/"
            ],
            "locType": "river",
            "longitude": "74.5802901",
            "latitude": "15.0145378",
            "address": "Kali, Joida taluk, Uttara Kannada, Karnataka, India",
            "closest_to": ""
        },
        "bankapura": {
            "blogLinks": [
                "http://praveenpn.com/blog/2011/01/05/bangalore-to-goa-by-car/"
            ],
            "locType": "town",
            "longitude": "75.2639298",
            "latitude": "14.9217443",
            "address": "Bankapura, Shiggaon taluk, Haveri district, Karnataka, 581202, India",
            "closest_to": ""
        },
        "gokarna road": {
            "blogLinks": [
                "http://travel.india.com/gokarna/"
            ],
            "locType": "primary",
            "longitude": "74.358586",
            "latitude": "14.5697148",
            "address": "Gokarna Road, Torke, Kumata taluk, Uttara Kannada, Karnataka, 581344, India",
            "closest_to": ""
        },
        "margao": {
            "blogLinks": [
                "http://praveenpn.com/blog/2011/01/05/bangalore-to-goa-by-car/"
            ],
            "locType": "bank",
            "longitude": "73.9583411",
            "latitude": "15.2740083",
            "address": "Karnataka bank, NH66, Aquem, Fatorda, Margao, South Goa, Goa, 403600, India",
            "closest_to": ""
        },
        "om beach": {
            "blogLinks": [
                "http://travel.india.com/gokarna/"
            ],
            "locType": "beach",
            "longitude": "74.3254331800289",
            "latitude": "14.5190376",
            "address": "Om Beach, Om beach road, Gokarna, Kumata taluk, Uttara Kannada, Karnataka, 581326, India",
            "closest_to": ""
        },
        "anshi national park": {
            "blogLinks": [
                "http://travel.india.com/gokarna/",
                "http://travel.india.com/explore/wildlife-sanctuaries-in-karnataka/"
            ],
            "locType": "national_park",
            "longitude": "74.3934408094182",
            "latitude": "14.9994424",
            "address": "Anshi National Park, SH46, Bidoli, Joida taluk, Uttara Kannada, Karnataka, India",
            "closest_to": ""
        },
        "hubli karwar": {
            "blogLinks": [
                "http://praveenpn.com/blog/2011/01/05/bangalore-to-goa-by-car/"
            ],
            "locType": "trunk",
            "longitude": "76.36038",
            "latitude": "15.2639568",
            "address": "Hubli-Karwar Road, Amaravati, Hosapete taluk, Bellary district, Karnataka, 583225, India",
            "closest_to": ""
        },
        "kumta": {
            "blogLinks": [
                "http://travel.india.com/gokarna/"
            ],
            "locType": "town",
            "longitude": "74.4107617",
            "latitude": "14.4261647",
            "address": "Kumta, Kumata taluk, Uttara Kannada, Karnataka, India",
            "closest_to": ""
        },
        "mysore": {
            "blogLinks": [
                "https://www.quora.com/What-are-the-best-places-around-Bangalore-for-bike-rides"
            ],
            "locType": "city",
            "longitude": "76.6553609",
            "latitude": "12.3051828",
            "address": "Mysuru, Mysuru taluk, Mysuru district, Karnataka, 570001, India",
            "closest_to": ""
        },
        "kannada": {
            "blogLinks": [
                "https://www.quora.com/What-are-the-best-places-around-Bangalore-for-bike-rides",
                "https://www.propertywala.com/dodda_tumkur_bangalore"
            ],
            "locType": "administrative",
            "longitude": "75.1008028650794",
            "latitude": "12.8114089",
            "address": "Dakshina Kannada, Karnataka, India",
            "closest_to": ""
        },
        "honnavar": {
            "blogLinks": [
                "http://praveenpn.com/blog/2011/01/05/bangalore-to-goa-by-car/"
            ],
            "locType": "town",
            "longitude": "74.4446716",
            "latitude": "14.2810827",
            "address": "Honnavar, Honnavara taluku, Uttara Kannada, Karnataka, 581334, India",
            "closest_to": ""
        },
        "bangalore-mysore": {
            "blogLinks": [
                "http://www.theweekendleader.com/Travel/1823/bangalore-15.html"
            ],
            "locType": "trunk",
            "longitude": "76.807544",
            "latitude": "12.4964879",
            "address": "Bangalore-Mysore Road, Yaliyuru, Mandya taluk, Mandya district, Karnataka, 571426, India",
            "closest_to": ""
        }
    }
}