{
    "sirsi": {
        "osm_id": "245628312",
        "display_name": "Sirsi, Shirasi taluk, Uttara Kannada, Karnataka, 581400, India",
        "importance": 0.5,
        "place_id": "630058",
        "class": "place",
        "boundingbox": [
            "14.5792362",
            "14.6592362",
            "74.7988611",
            "74.8788611"
        ],
        "type": "town",
        "lon": "74.8388611",
        "licence": "Data \u00a9 OpenStreetMap contributors, ODbL 1.0. http://www.openstreetmap.org/copyright",
        "osm_type": "node",
        "lat": "14.6192362",
        "icon": "https://nominatim.openstreetmap.org/images/mapicons/poi_place_town.p.20.png"
    },
    "mentions": {
        "hanagal": {
            "locType": "village",
            "blogLinks": [
                "https://en.wikipedia.org/wiki/Sagara,_Karnataka"
            ],
            "longitude": "76.7039857",
            "closest_to": "",
            "latitude": "14.7383723",
            "address": "Hanagal, Molakalmuru taluku, Chitradurga district, Karnataka, 577535, India"
        },
        "kannada": {
            "locType": "administrative",
            "blogLinks": [
                "https://en.wikipedia.org/wiki/Sirsi,_Karnataka",
                "https://www.tripoto.com/places-to-visit/india/uttara-kannada",
                "https://en.wikipedia.org/wiki/Sagara,_Karnataka"
            ],
            "longitude": "75.1008028650794",
            "closest_to": "",
            "latitude": "12.8114089",
            "address": "Dakshina Kannada, Karnataka, India"
        },
        "maharashtra": {
            "locType": "bank",
            "blogLinks": [
                "https://en.wikipedia.org/wiki/Sirsi,_Karnataka",
                "https://www.tripadvisor.in/ShowUserReviews-g2294723-d2629489-r432885441-Vadiraj_Mutt-Sirsi_Karnataka.html",
                "http://www.distancesfrom.com/distance-from-Kolhapur-to-Sirsi---Hubli---Belgaum-Rd-Tadas/DistanceHistory/29211594.aspx",
                "http://www.nivalink.com/destination/belgaum",
                "http://www.mapsofindia.com/maps/karnataka/"
            ],
            "longitude": "77.5856013",
            "closest_to": "",
            "latitude": "12.9049455",
            "address": "Bank of Maharashtra, 24th Main, K R Layout, Puttenahalli, Bengaluru, Bangalore Urban, Karnataka, 560001, India"
        },
        "gulbarga": {
            "locType": "county",
            "blogLinks": [
                "http://www.mapsofindia.com/maps/karnataka/"
            ],
            "longitude": "77.083333",
            "closest_to": "",
            "latitude": "17.166667",
            "address": "Kalaburgi, Kalaburagi district, Karnataka, India"
        },
        "baroda": {
            "locType": "neighbourhood",
            "blogLinks": [
                "https://www.tripadvisor.in/ShowUserReviews-g2294723-d2629489-r432885441-Vadiraj_Mutt-Sirsi_Karnataka.html"
            ],
            "longitude": "77.5837404",
            "closest_to": "",
            "latitude": "12.893481",
            "address": "Bank of Baroda Colony, Puttenahalli, Bengaluru, Bangalore Urban, Karnataka, 560001, India"
        },
        "kadamba nagara": {
            "locType": "restaurant",
            "blogLinks": [
                "https://en.wikipedia.org/wiki/Sagara,_Karnataka"
            ],
            "longitude": "77.5928828",
            "closest_to": "",
            "latitude": "12.9545906",
            "address": "Kadamba Veg, BTS Main Road, Mavalli, Shanti Nagar, Bengaluru, Bangalore Urban, Karnataka, 560001, India"
        },
        "sala": {
            "locType": "hospital",
            "blogLinks": [
                "https://en.wikipedia.org/wiki/Sagara,_Karnataka"
            ],
            "longitude": "77.5850591",
            "closest_to": "",
            "latitude": "12.9411061",
            "address": "Kottakkal Arya Vaidya Sala, 4th Cross Road, Mavalli, Basavanagudi, Bengaluru, Bangalore Urban, Karnataka, 560001, India"
        },
        "kerala": {
            "locType": "restaurant",
            "blogLinks": [
                "https://en.wikipedia.org/wiki/Sirsi,_Karnataka",
                "http://www.mapsofindia.com/maps/karnataka/"
            ],
            "longitude": "77.6382683",
            "closest_to": "",
            "latitude": "12.9726449",
            "address": "New Life Kerala Mess, Sai Baba Mandira Road, Mottappanapalaya, Indiranagar, Bengaluru, Bangalore Urban, Karnataka, 560001, India"
        },
        "kodagu": {
            "locType": "administrative",
            "blogLinks": [
                "http://www.mapsofindia.com/maps/karnataka/"
            ],
            "longitude": "75.6677235950852",
            "closest_to": "",
            "latitude": "12.38117345",
            "address": "Kodagu, Karnataka, India"
        },
        "goa": {
            "locType": "restaurant",
            "blogLinks": [
                "http://praveenpn.com/blog/2011/01/05/bangalore-to-goa-by-car/",
                "https://www.tripadvisor.in/ShowUserReviews-g2294723-d2629489-r432885441-Vadiraj_Mutt-Sirsi_Karnataka.html",
                "http://www.nivalink.com/destination/belgaum",
                "https://www.tripoto.com/places-to-visit/india/uttara-kannada",
                "http://www.distancesfrom.com/in/flight-time-from-Sirsi-to-Belgaum-via-Hubli-Dharwad/FlightTimeHistory/13794627.aspx",
                "https://en.wikipedia.org/wiki/Sirsi,_Karnataka"
            ],
            "longitude": "77.6200027",
            "closest_to": "",
            "latitude": "12.9750047",
            "address": "Carnival De Goa, Bhaskaran Road, Gupta Layout, Halasuru, Bengaluru, Bangalore Urban, Karnataka, 560001, India"
        },
        "ksrtc": {
            "locType": "bus_station",
            "blogLinks": [
                "https://en.wikipedia.org/wiki/Sagara,_Karnataka"
            ],
            "longitude": "77.5719146478929",
            "closest_to": "",
            "latitude": "12.97679135",
            "address": "Kempegowda KSRTC Bus Station, Mofussil Bus Road, Balepet, Gandhinagar, Bengaluru, Bangalore Urban, Karnataka, 560001, India"
        },
        "north": {
            "locType": "service",
            "blogLinks": [
                "https://www.tripoto.com/places-to-visit/india/uttara-kannada"
            ],
            "longitude": "77.7660547",
            "closest_to": "",
            "latitude": "13.0217151",
            "address": "N, Chaithanya Samarpan, Kadugodi, Kannamangala, Bangalore Urban, Karnataka, 560066, India"
        },
        "vijaya karnataka": {
            "locType": "newspaper",
            "blogLinks": [
                "https://en.wikipedia.org/wiki/Sirsi,_Karnataka"
            ],
            "longitude": "76.6418941",
            "closest_to": "",
            "latitude": "12.2982365",
            "address": "Vijaya Karnataka, 1st Cross Road, Chamarajapuram, Mysuru, Mysuru taluk, Mysuru district, Karnataka, 570001, India"
        },
        "tamil nadu": {
            "locType": "bank",
            "blogLinks": [
                "http://www.mapsofindia.com/maps/karnataka/"
            ],
            "longitude": "76.9514152",
            "closest_to": "",
            "latitude": "11.0025894",
            "address": "KARNATAKA BANK, Diwan Bhadur Road, Five Corner, RS Puram, Coimbatore, Coimbatore district, Tamil Nadu, 641001, India"
        },
        "udipi": {
            "locType": "restaurant",
            "blogLinks": [
                "http://www.nivalink.com/destination/yellapur"
            ],
            "longitude": "77.652888",
            "closest_to": "",
            "latitude": "12.9530588",
            "address": "Udipi Park, 2nd Cross Road, Muniyappa Layout, Murugeshpalaya, Belure Ambedkar Nagar, Bangalore Urban, Karnataka, 560067, India"
        },
        "maharastra": {
            "locType": "atm",
            "blogLinks": [
                "http://praveenpn.com/blog/2011/01/05/bangalore-to-goa-by-car/"
            ],
            "longitude": "77.606263",
            "closest_to": "",
            "latitude": "12.9132591",
            "address": "Maharastra Bank, 7th Main Road, BTM Layout 2nd Stage, BTM Layout, Bengaluru, Bangalore Urban, Karnataka, 560001, India"
        },
        "bangalore": {
            "locType": "city",
            "blogLinks": [
                "http://praveenpn.com/blog/2011/01/05/bangalore-to-goa-by-car/",
                "https://www.tripadvisor.in/ShowUserReviews-g2294723-d2629489-r432885441-Vadiraj_Mutt-Sirsi_Karnataka.html",
                "http://www.nivalink.com/destination/belgaum",
                "http://www.nivalink.com/destination/yellapur",
                "https://en.wikipedia.org/wiki/Sagara,_Karnataka",
                "https://www.tripoto.com/places-to-visit/india/uttara-kannada",
                "https://en.wikipedia.org/wiki/Sirsi,_Karnataka"
            ],
            "longitude": "77.5912997",
            "closest_to": "",
            "latitude": "12.9791198",
            "address": "Bengaluru, Bangalore Urban, Karnataka, 560001, India"
        },
        "tumkur": {
            "locType": "county",
            "blogLinks": [
                "https://en.wikipedia.org/wiki/Sagara,_Karnataka"
            ],
            "longitude": "77.0002445",
            "closest_to": "",
            "latitude": "13.4999406",
            "address": "Tumakuru, Tumkur district, Karnataka, India"
        },
        "karnataka": {
            "locType": "atm",
            "blogLinks": [
                "https://www.tripadvisor.in/ShowUserReviews-g2294723-d2629489-r432885441-Vadiraj_Mutt-Sirsi_Karnataka.html",
                "http://www.distancesfrom.com/in/travel-time-from-Belgaum-to-Hulikal-via-Sirsi-Sagara/TravelTimeHistory/4914946.aspx",
                "http://www.nivalink.com/destination/belgaum",
                "http://distancecalculator.globefeed.com/India_Distance_Calculator.asp?state=19",
                "http://www.mapsofindia.com/maps/karnataka/",
                "http://www.nivalink.com/destination/yellapur",
                "http://www.distancesfrom.com/distance-from-Kolhapur-to-Sirsi---Hubli---Belgaum-Rd-Tadas/DistanceHistory/29211594.aspx",
                "https://en.wikipedia.org/wiki/Sagara,_Karnataka",
                "http://www.distancesfrom.com/in/travel-from-Sirsi-to-Belgaum-via-Hubli-Dharwad/TravelFromHistory/13794627.aspx",
                "http://www.ticketgoose.com/bus-tickets/sirsi-to-belgaum",
                "https://www.tripoto.com/places-to-visit/india/uttara-kannada",
                "http://www.distancesfrom.com/in/directions-from-Sirsi-to-Belgaum-via-Hubli-Dharwad/DirectionHistory/13794627.aspx",
                "http://www.distancesfrom.com/in/flight-time-from-Sirsi-to-Belgaum-via-Hubli-Dharwad/FlightTimeHistory/13794627.aspx",
                "https://en.wikipedia.org/wiki/Sirsi,_Karnataka",
                "http://www.karnatakatourism.org/"
            ],
            "longitude": "76.6639936",
            "closest_to": "",
            "latitude": "12.3084901",
            "address": "Karnataka, Shalivahana Road, Nazarbad, Mysuru, Mysuru taluk, Mysuru district, Karnataka, 570001, India"
        },
        "shani": {
            "locType": "tertiary",
            "blogLinks": [
                "https://en.wikipedia.org/wiki/Sagara,_Karnataka"
            ],
            "longitude": "77.6823558",
            "closest_to": "",
            "latitude": "13.0192534",
            "address": "Shani Mahatma Temple Road, Ramamurthy Nagar, Varanasi, Bangalore Urban, Karnataka, 600042, India"
        },
        "andhra pradesh": {
            "locType": "hotel",
            "blogLinks": [
                "http://www.mapsofindia.com/maps/karnataka/"
            ],
            "longitude": "79.3452447",
            "closest_to": "",
            "latitude": "13.6841958",
            "address": "Karnataka, West Mada Street, Srivari Temple, Tirumala, Chittoor, Andhra Pradesh, 517504, India"
        },
        "pune": {
            "locType": "trunk",
            "blogLinks": [
                "http://www.nivalink.com/destination/belgaum"
            ],
            "longitude": "76.9479122",
            "closest_to": "",
            "latitude": "17.8199745",
            "address": "Pune - Machilipatnam Highway, Kaudiyala, Basavakalyana taluku, Bidar district, Karnataka, India"
        },
        "sharavathi river": {
            "locType": "yes",
            "blogLinks": [
                "https://en.wikipedia.org/wiki/Sagara,_Karnataka"
            ],
            "longitude": "77.6216184337102",
            "closest_to": "",
            "latitude": "12.9464709",
            "address": "Sharavathi Block, National Games Village Road, Ambedkar Nagar, Ejipura, Bengaluru, Bangalore Urban, Karnataka, 560001, India"
        },
        "dakshina kannada": {
            "locType": "administrative",
            "blogLinks": [
                "http://www.mapsofindia.com/maps/karnataka/"
            ],
            "longitude": "75.1008028650794",
            "closest_to": "",
            "latitude": "12.8114089",
            "address": "Dakshina Kannada, Karnataka, India"
        },
        "hulikal": {
            "locType": "village",
            "blogLinks": [
                "http://www.distancesfrom.com/in/travel-time-from-Belgaum-to-Hulikal-via-Sirsi-Sagara/TravelTimeHistory/4914946.aspx"
            ],
            "longitude": "76.5912506",
            "closest_to": "",
            "latitude": "13.0977729",
            "address": "Hulikal, Turuvekere taluk, Tumkur district, Karnataka, India"
        },
        "mandovi river": {
            "locType": "car",
            "blogLinks": [
                "http://www.nivalink.com/destination/belgaum"
            ],
            "longitude": "77.6190505",
            "closest_to": "",
            "latitude": "12.9965335",
            "address": "Mandovi Motors, Wheeler Road Flyover, MSO Colony, Cox Town, Bengaluru, Bangalore Urban, Karnataka, 560001, India"
        },
        "mumbai": {
            "locType": "restaurant",
            "blogLinks": [
                "http://praveenpn.com/blog/2011/01/05/bangalore-to-goa-by-car/",
                "https://en.wikipedia.org/wiki/Sirsi,_Karnataka",
                "https://www.tripoto.com/places-to-visit/india/uttara-kannada",
                "http://www.nivalink.com/destination/belgaum"
            ],
            "longitude": "77.5718472",
            "closest_to": "",
            "latitude": "13.0002869",
            "address": "Mumbai Spice, 18/2, 10th Cross, Malleswaram, Vyalikaval, Malleswaram, Bengaluru, Bangalore Urban, Karnataka, 560003, India"
        },
        "taluka": {
            "locType": "hospital",
            "blogLinks": [
                "https://www.tripoto.com/places-to-visit/india/uttara-kannada"
            ],
            "longitude": "76.847",
            "closest_to": "",
            "latitude": "16.6934",
            "address": "Shahpur Taluka Hospital (FRU), NH150A, Halisagara, Vibhutihalli, Shahapura taluku, Yadagiri district, Karnataka, 585223, India"
        },
        "sambra": {
            "locType": "village",
            "blogLinks": [
                "http://www.ticketgoose.com/bus-tickets/sirsi-to-belgaum"
            ],
            "longitude": "77.3492254",
            "closest_to": "",
            "latitude": "16.6128965",
            "address": "Sambra, Yadagiri taluku, Yadagiri district, Karnataka, India"
        },
        "bellary": {
            "locType": "county",
            "blogLinks": [
                "http://www.mapsofindia.com/maps/karnataka/"
            ],
            "longitude": "76.8323648",
            "closest_to": "",
            "latitude": "15.2485413",
            "address": "Bellary, Bellary district, Karnataka, India"
        },
        "bangalore east": {
            "locType": "city",
            "blogLinks": [
                "http://praveenpn.com/blog/2011/01/05/bangalore-to-goa-by-car/"
            ],
            "longitude": "77.5912997",
            "closest_to": "",
            "latitude": "12.9791198",
            "address": "Bengaluru, Bangalore Urban, Karnataka, 560001, India"
        },
        "daivajna": {
            "locType": "community_centre",
            "blogLinks": [
                "https://en.wikipedia.org/wiki/Sirsi,_Karnataka"
            ],
            "longitude": "76.6252066983597",
            "closest_to": "",
            "latitude": "12.2958536",
            "address": "Daivajna Bhavana, New Kantharaje Urs Road, Sarasvatipuram, Mysuru, Mysuru taluk, Mysuru district, Karnataka, 570023, India"
        },
        "mangalore": {
            "locType": "city",
            "blogLinks": [
                "http://praveenpn.com/blog/2011/01/05/bangalore-to-goa-by-car/",
                "https://en.wikipedia.org/wiki/Sirsi,_Karnataka",
                "https://www.tripoto.com/places-to-visit/india/uttara-kannada",
                "https://en.wikipedia.org/wiki/Sagara,_Karnataka",
                "http://www.ticketgoose.com/bus-tickets/sirsi-to-belgaum"
            ],
            "longitude": "74.8430082",
            "closest_to": "",
            "latitude": "12.8698101",
            "address": "Mangaluru, Mangaluru taluk, Dakshina Kannada, Karnataka, 575001, India"
        },
        "chikkaballapur": {
            "locType": "town",
            "blogLinks": [
                "http://www.mapsofindia.com/maps/karnataka/"
            ],
            "longitude": "77.7306866",
            "closest_to": "",
            "latitude": "13.4352549",
            "address": "Chikkaballapura, Chikkaballapura taluk, Chikkaballapura district, Karnataka, 562101, India"
        },
        "hoysala": {
            "locType": "administrative",
            "blogLinks": [
                "https://en.wikipedia.org/wiki/Sagara,_Karnataka"
            ],
            "longitude": "77.6375990817051",
            "closest_to": "",
            "latitude": "12.97813815",
            "address": "Hoysala Nagar, Bengaluru, Bangalore Urban, Karnataka, 560001, India"
        },
        "mandya": {
            "locType": "town",
            "blogLinks": [
                "http://www.mapsofindia.com/maps/karnataka/"
            ],
            "longitude": "76.8937392",
            "closest_to": "",
            "latitude": "12.5217836",
            "address": "Mandya, Mandya taluk, Mandya district, Karnataka, 571401, India"
        },
        "north canara": {
            "locType": "atm",
            "blogLinks": [
                "https://www.tripadvisor.in/ShowUserReviews-g2294723-d2629489-r432885441-Vadiraj_Mutt-Sirsi_Karnataka.html"
            ],
            "longitude": "77.7027141",
            "closest_to": "",
            "latitude": "12.9582803",
            "address": "Canara, 4th Cross, Ashwath Nagar, Marathahalli, Sitaramapalya, Bangalore Urban, Karnataka, 560037, India"
        },
        "sharavathi valley": {
            "locType": "yes",
            "blogLinks": [
                "https://www.tripoto.com/places-to-visit/india/uttara-kannada"
            ],
            "longitude": "77.6216184337102",
            "closest_to": "",
            "latitude": "12.9464709",
            "address": "Sharavathi Block, National Games Village Road, Ambedkar Nagar, Ejipura, Bengaluru, Bangalore Urban, Karnataka, 560001, India"
        },
        "kargal": {
            "locType": "village",
            "blogLinks": [
                "https://en.wikipedia.org/wiki/Sagara,_Karnataka"
            ],
            "longitude": "75.9613152",
            "closest_to": "",
            "latitude": "12.627292",
            "address": "Kargal, Arakalagudu taluk, Hassan district, Karnataka, India"
        },
        "chennai": {
            "locType": "bank",
            "blogLinks": [
                "https://en.wikipedia.org/wiki/Sirsi,_Karnataka"
            ],
            "longitude": "80.2197941",
            "closest_to": "",
            "latitude": "13.0365141",
            "address": "Karnataka Bank, Postal Colony 2nd Street, Postal Colony, Ashok Nagar, Chennai City Corporation Limits, Chennai district, Tamil Nadu, 600033, India"
        },
        "chamarajanagar": {
            "locType": "station",
            "blogLinks": [
                "http://www.mapsofindia.com/maps/karnataka/"
            ],
            "longitude": "76.9331345",
            "closest_to": "",
            "latitude": "11.9346624",
            "address": "Chamarajanagar, Nanjangudu-Chamarajanagar Road, Kadahalli, Chamarajanagara taluk, Chamarajanagar district, Karnataka, 571313, India"
        },
        "north bangalore": {
            "locType": "service",
            "blogLinks": [
                "http://praveenpn.com/blog/2011/01/05/bangalore-to-goa-by-car/"
            ],
            "longitude": "77.7660547",
            "closest_to": "",
            "latitude": "13.0217151",
            "address": "N, Chaithanya Samarpan, Kadugodi, Kannamangala, Bangalore Urban, Karnataka, 560066, India"
        }
    },
    "belgaum": {
        "osm_id": "316417174",
        "display_name": "Belgaum, Belgaum district, Karnataka, India",
        "importance": 0.65,
        "place_id": "1393576",
        "class": "place",
        "boundingbox": [
            "15.693333",
            "16.973333",
            "74.11",
            "75.39"
        ],
        "type": "county",
        "lon": "74.75",
        "licence": "Data \u00a9 OpenStreetMap contributors, ODbL 1.0. http://www.openstreetmap.org/copyright",
        "osm_type": "node",
        "lat": "16.333333",
        "icon": "https://nominatim.openstreetmap.org/images/mapicons/poi_boundary_administrative.p.20.png"
    }
}