{
    "mentions": {
        "nethrani island": {
            "locType": "island",
            "blogLinks": [
                "https://en.wikipedia.org/wiki/Tourism_in_Karnataka"
            ],
            "longitude": "74.3272086675849",
            "closest_to": "",
            "latitude": "14.0174924",
            "address": "Netrani, Uttara Kannada, Karnataka, India"
        },
        "kanakapura road": {
            "locType": "trunk",
            "blogLinks": [
                "https://en.wikipedia.org/wiki/Tourism_in_Karnataka"
            ],
            "longitude": "77.5733483",
            "closest_to": "",
            "latitude": "12.9064528",
            "address": "Kanakapura Road, Rajotsava Nagar, Kaderenahalli, Bengaluru, Bangalore Urban, Karnataka, 560001, India"
        },
        "netrani island of uttara kannada": {
            "locType": "island",
            "blogLinks": [
                "https://en.wikipedia.org/wiki/Tourism_in_Karnataka"
            ],
            "longitude": "74.3272086675849",
            "closest_to": "",
            "latitude": "14.0174924",
            "address": "Netrani, Uttara Kannada, Karnataka, India"
        },
        "dharmastala": {
            "locType": "village",
            "blogLinks": [
                "https://en.wikipedia.org/wiki/Tourism_in_Karnataka"
            ],
            "longitude": "75.3813122",
            "closest_to": "",
            "latitude": "12.9519571",
            "address": "Dharmasthala, Beltangadi taluk, Dakshina Kannada, Karnataka, 574216, India"
        },
        "nagarahole": {
            "locType": "river",
            "blogLinks": [
                "https://en.wikipedia.org/wiki/Tourism_in_Karnataka"
            ],
            "longitude": "76.2286805",
            "closest_to": "",
            "latitude": "12.0229466",
            "address": "Nagarahole, Heggadadevanakote taluk, Mysuru district, Karnataka, India"
        },
        "kabini": {
            "locType": "river",
            "blogLinks": [
                "https://en.wikipedia.org/wiki/Tourism_in_Karnataka"
            ],
            "longitude": "76.4152088",
            "closest_to": "",
            "latitude": "12.0140065",
            "address": "Kabini, Heggadadevanakote taluk, Mysuru district, Karnataka, India"
        },
        "andhra pradesh": {
            "locType": "hotel",
            "blogLinks": [
                "http://www.sretravels.com/bus-tickets/25/Bellary-to-Belgaum/",
                "https://www.yatra.com/india-tourism/karnataka",
                "http://www.mapsofindia.com/maps/karnataka/"
            ],
            "longitude": "79.3452447",
            "closest_to": "",
            "latitude": "13.6841958",
            "address": "Karnataka, West Mada Street, Srivari Temple, Tirumala, Chittoor, Andhra Pradesh, 517504, India"
        },
        "north karnataka": {
            "locType": "service",
            "blogLinks": [
                "https://en.wikipedia.org/wiki/Tourism_in_Karnataka",
                "http://www.fameofcity.com/KARNATAKA/BELGAUM/BELGAUM"
            ],
            "longitude": "77.7660547",
            "closest_to": "",
            "latitude": "13.0217151",
            "address": "N, Chaithanya Samarpan, Kadugodi, Kannamangala, Bangalore Urban, Karnataka, 560066, India"
        },
        "manjusha museum": {
            "locType": "museum",
            "blogLinks": [
                "https://en.wikipedia.org/wiki/Tourism_in_Karnataka"
            ],
            "longitude": "75.3821342838196",
            "closest_to": "",
            "latitude": "12.95116975",
            "address": "Manjusha Museum, SH37, Dharmasthala, Beltangadi taluk, Dakshina Kannada, Karnataka, 574216, India"
        },
        "dharma river": {
            "locType": "park",
            "blogLinks": [
                "https://en.wikipedia.org/wiki/Tourism_in_Karnataka"
            ],
            "longitude": "77.5575864485219",
            "closest_to": "",
            "latitude": "12.98914885",
            "address": "Dharma Naidu Udhyanavana, 44th cross, Rajajinagar 4th Block, Rajaji Nagar, Bengaluru, Bangalore Urban, Karnataka, 560001, India"
        },
        "bangalore": {
            "locType": "city",
            "blogLinks": [
                "https://www.makemytrip.com/flights/belgaum-bellary-air_india-tickets.html",
                "http://www.travelhaathi.com/hampi-travel-guide/",
                "https://www.yatra.com/india-tourism/karnataka",
                "http://www.fameofcity.com/KARNATAKA/BELGAUM/BELGAUM",
                "https://en.wikipedia.org/wiki/Tourism_in_Karnataka",
                "http://www.sretravels.com/bus-tickets/25/Bellary-to-Belgaum/",
                "http://www.godakshin.com/travel-guides/4-exciting-places-visit-around-bangalore-732.html",
                "http://www.mapsofindia.com/karnataka/tourism/"
            ],
            "longitude": "77.5912997",
            "closest_to": "",
            "latitude": "12.9791198",
            "address": "Bengaluru, Bangalore Urban, Karnataka, 560001, India"
        },
        "chapel road": {
            "locType": "place_of_worship",
            "blogLinks": [
                "https://www.ixigo.com/by-car-taxi/bellary-to-belgaum-by-car"
            ],
            "longitude": "74.8615987",
            "closest_to": "",
            "latitude": "12.8670777",
            "address": "Father Muller Chapel, Father Muller Campus  Road, Nandigudda, Kankanady, Mangaluru, Mangaluru taluk, Dakshina Kannada, Karnataka, 575001, India"
        },
        "bidar district": {
            "locType": "administrative",
            "blogLinks": [
                "https://en.wikipedia.org/wiki/Tourism_in_Karnataka"
            ],
            "longitude": "77.2496344350342",
            "closest_to": "",
            "latitude": "18.0158574",
            "address": "Bidar district, Karnataka, India"
        },
        "sri vidyashankara temple": {
            "locType": "place_of_worship",
            "blogLinks": [
                "http://www.godakshin.com/?q=travel-guides/sringeri-sightseeing-173.html"
            ],
            "longitude": "75.2514472909836",
            "closest_to": "",
            "latitude": "13.41567005",
            "address": "Sri Vidyashankara Swamy Temple, Sri Vidyateertha Setu, Sringeri, Sringeri taluku, Chikkamagaluru district, Karnataka, 577592, India"
        },
        "bangalore-chennai": {
            "locType": "trunk",
            "blogLinks": [
                "http://www.godakshin.com/travel-guides/4-exciting-places-visit-around-bangalore-732.html"
            ],
            "longitude": "78.3144556",
            "closest_to": "",
            "latitude": "13.1522603",
            "address": "Bangalore Chennai Road, Bimapura, Mulubagilu taluk, Kolar district, Karnataka, 563131, India"
        },
        "chola": {
            "locType": "yes",
            "blogLinks": [
                "https://en.wikipedia.org/wiki/Tourism_in_Karnataka"
            ],
            "longitude": "76.098782",
            "closest_to": "",
            "latitude": "13.0023906",
            "address": "Chola Gold Loan, Bengaluru - Mangaluru Road, Ravindra Nagar, Santhe Pete, Hassan, Hasana taluk, Hassan district, Karnataka, 573201, India"
        },
        "emirates": {
            "locType": "restaurant",
            "blogLinks": [
                "https://www.yatra.com/india-tourism/karnataka"
            ],
            "longitude": "77.5572955",
            "closest_to": "",
            "latitude": "13.0192135",
            "address": "Emirates, Rahman Khan Road, Rajajinagar 1st Block, Yeshwantpur, Deewanarapalya, Bangalore Urban, Karnataka, 560022, India"
        },
        "kalyani": {
            "locType": "water",
            "blogLinks": [
                "https://en.wikipedia.org/wiki/Tourism_in_Karnataka"
            ],
            "longitude": "77.6286090192686",
            "closest_to": "",
            "latitude": "12.8406466",
            "address": "Kalyani, Neeladri Road, Electronics City Phase 1, Bettadasana Pura, Bangalore Urban, Karnataka, 560100, India"
        },
        "kamala": {
            "locType": "school",
            "blogLinks": [
                "https://en.wikipedia.org/wiki/Tourism_in_Karnataka"
            ],
            "longitude": "77.5664867",
            "closest_to": "",
            "latitude": "12.9339482",
            "address": "Kamala Nehru Patashala (Emmanual English School), 5th A Cross Road, Yediyur, Thyagaraja Nagar, Bengaluru, Bangalore Urban, Karnataka, 560001, India"
        },
        "' river varahi": {
            "locType": "river",
            "blogLinks": [
                "https://en.wikipedia.org/wiki/Tourism_in_Karnataka"
            ],
            "longitude": "74.9489117",
            "closest_to": "",
            "latitude": "13.6582668",
            "address": "Varahi, \u0c95\u0cc1\u0c82\u0ca6\u0cbe\u0caa\u0cc1\u0cb0 \u0ca4\u0cbe\u0cb2\u0cc2\u0c95\u0cc1, Udupi district, Karnataka, India"
        },
        "madurai": {
            "locType": "restaurant",
            "blogLinks": [
                "https://www.makemytrip.com/flights/belgaum-bellary-air_india-tickets.html"
            ],
            "longitude": "77.6320535",
            "closest_to": "",
            "latitude": "12.9185419",
            "address": "Madurai Idly Shop, 5th Main Road, Teachers Colony, HSR Layout, Bengaluru, Bangalore Urban, Karnataka, 560001, India"
        },
        "garden": {
            "locType": "orchard",
            "blogLinks": [
                "http://www.mapsofindia.com/karnataka/tourism/"
            ],
            "longitude": "77.9285817637065",
            "closest_to": "",
            "latitude": "13.19253335",
            "address": "garden, N Hosahalli, Hosakote taluk, Bangalore Rural, Karnataka, India"
        },
        "halebidu": {
            "locType": "village",
            "blogLinks": [
                "https://en.wikipedia.org/wiki/Tourism_in_Karnataka"
            ],
            "longitude": "76.4607075",
            "closest_to": "",
            "latitude": "12.359893",
            "address": "Halebidu, Hunasuru taluk, Mysuru district, Karnataka, India"
        },
        "kodachadri": {
            "locType": "peak",
            "blogLinks": [
                "https://en.wikipedia.org/wiki/Tourism_in_Karnataka"
            ],
            "longitude": "74.8705395",
            "closest_to": "",
            "latitude": "13.8565758",
            "address": "Kodachadri, \u0c95\u0cc1\u0c82\u0ca6\u0cbe\u0caa\u0cc1\u0cb0 \u0ca4\u0cbe\u0cb2\u0cc2\u0c95\u0cc1, Udupi district, Karnataka, India"
        },
        "nagarhole national park": {
            "locType": "national_park",
            "blogLinks": [
                "https://en.wikipedia.org/wiki/Tourism_in_Karnataka"
            ],
            "longitude": "76.1537073415874",
            "closest_to": "",
            "latitude": "12.0600362",
            "address": "Nagarahole National Park, Virajpet taluk, Kodagu, Karnataka, India"
        },
        "mangalore international airport": {
            "locType": "aerodrome",
            "blogLinks": [
                "https://www.yatra.com/india-tourism/karnataka"
            ],
            "longitude": "74.887492668144",
            "closest_to": "",
            "latitude": "12.95518575",
            "address": "Mangalore International Airport, Airport Entry Road, Gandhinagar, Kenjar, Mangaluru taluk, Dakshina Kannada, Karnataka, 575015, India"
        },
        "mercara": {
            "locType": "town",
            "blogLinks": [
                "https://en.wikipedia.org/wiki/Tourism_in_Karnataka"
            ],
            "longitude": "75.740031",
            "closest_to": "",
            "latitude": "12.4204003",
            "address": "Madikeri, Madikeri taluku, Kodagu, Karnataka, India"
        },
        "hyderabad": {
            "locType": "primary",
            "blogLinks": [
                "http://www.travelhaathi.com/hampi-travel-guide/",
                "https://www.makemytrip.com/flights/belgaum-bellary-air_india-tickets.html",
                "http://www.ticketgoose.com/bus-tickets/bellary-to-belgaum",
                "http://www.fameofcity.com/KARNATAKA/BELGAUM/BELGAUM"
            ],
            "longitude": "77.5344002",
            "closest_to": "",
            "latitude": "17.9003114",
            "address": "Hyderabad Road, Old City, Bidar, Bidar taluku, Bidar district, Karnataka, 585400, India"
        },
        "venur": {
            "locType": "village",
            "blogLinks": [
                "https://en.wikipedia.org/wiki/Tourism_in_Karnataka"
            ],
            "longitude": "75.1443252",
            "closest_to": "",
            "latitude": "13.0122097",
            "address": "Venoor, Beltangadi taluk, Dakshina Kannada, Karnataka, 574242, India"
        },
        "mumbai": {
            "locType": "restaurant",
            "blogLinks": [
                "https://www.makemytrip.com/flights/belgaum-bellary-air_india-tickets.html",
                "http://www.ticketgoose.com/bus-tickets/bellary-to-belgaum",
                "http://www.fameofcity.com/KARNATAKA/BELGAUM/BELGAUM"
            ],
            "longitude": "77.5718472",
            "closest_to": "",
            "latitude": "13.0002869",
            "address": "Mumbai Spice, 18/2, 10th Cross, Malleswaram, Vyalikaval, Malleswaram, Bengaluru, Bangalore Urban, Karnataka, 560003, India"
        },
        "dakshina kannada": {
            "locType": "administrative",
            "blogLinks": [
                "https://en.wikipedia.org/wiki/Tourism_in_Karnataka",
                "http://www.mapsofindia.com/maps/karnataka/"
            ],
            "longitude": "75.1008028650794",
            "closest_to": "",
            "latitude": "12.8114089",
            "address": "Dakshina Kannada, Karnataka, India"
        },
        "varadaraja": {
            "locType": "fuel",
            "blogLinks": [
                "https://en.wikipedia.org/wiki/Tourism_in_Karnataka"
            ],
            "longitude": "77.5542736",
            "closest_to": "",
            "latitude": "13.005885",
            "address": "Varadaraja Petrol / Gas Station, Dr. Rajkumar Road, Rajajinagar 1st Block, Subrahmanya Nagar, Bengaluru, Bangalore Urban, Karnataka, 560001, India"
        },
        "mandya district": {
            "locType": "administrative",
            "blogLinks": [
                "https://en.wikipedia.org/wiki/Tourism_in_Karnataka"
            ],
            "longitude": "76.7302318329607",
            "closest_to": "",
            "latitude": "12.6336348",
            "address": "Mandya district, Karnataka, India"
        },
        "nilgiris": {
            "locType": "supermarket",
            "blogLinks": [
                "https://en.wikipedia.org/wiki/Tourism_in_Karnataka"
            ],
            "longitude": "77.6069792",
            "closest_to": "",
            "latitude": "12.9725052",
            "address": "Nilgiris, Brigade Road, Tasker Town, Ashok Nagar, Bengaluru, Bangalore Urban, Karnataka, 560001, India"
        },
        "bandipur national park": {
            "locType": "national_park",
            "blogLinks": [
                "https://en.wikipedia.org/wiki/Tourism_in_Karnataka"
            ],
            "longitude": "76.4314968740264",
            "closest_to": "",
            "latitude": "11.76682425",
            "address": "Bandipur National Park, Kozhikode - Kollegal Highway, Gundlupet taluk, Chamarajanagar district, Karnataka, India"
        },
        "siddheshwara": {
            "locType": "pharmacy",
            "blogLinks": [
                "https://en.wikipedia.org/wiki/Tourism_in_Karnataka"
            ],
            "longitude": "77.5876527",
            "closest_to": "",
            "latitude": "13.0797146",
            "address": "Siddheshwara Medicals, Judicial Layout, Allalasandra, Bangalore, 7th Main Road, Judicial Layout, Bengaluru, Bangalore Urban, Karnataka, 560001, India"
        },
        "kerala": {
            "locType": "restaurant",
            "blogLinks": [
                "https://www.yatra.com/india-tourism/karnataka",
                "http://www.mapsofindia.com/maps/karnataka/"
            ],
            "longitude": "77.6382683",
            "closest_to": "",
            "latitude": "12.9726449",
            "address": "New Life Kerala Mess, Sai Baba Mandira Road, Mottappanapalaya, Indiranagar, Bengaluru, Bangalore Urban, Karnataka, 560001, India"
        },
        "goa": {
            "locType": "restaurant",
            "blogLinks": [
                "https://en.wikipedia.org/wiki/Tourism_in_Karnataka",
                "http://www.sretravels.com/bus-tickets/25/Bellary-to-Belgaum/",
                "http://www.holidayiq.com/How-To-Reach/From-Belgaum-To-Karwar-774-403",
                "http://www.travelhaathi.com/hampi-travel-guide/"
            ],
            "longitude": "77.6200027",
            "closest_to": "",
            "latitude": "12.9750047",
            "address": "Carnival De Goa, Bhaskaran Road, Gupta Layout, Halasuru, Bengaluru, Bangalore Urban, Karnataka, 560001, India"
        },
        "mookambika": {
            "locType": "place_of_worship",
            "blogLinks": [
                "https://en.wikipedia.org/wiki/Tourism_in_Karnataka"
            ],
            "longitude": "74.8145296",
            "closest_to": "",
            "latitude": "13.8638043",
            "address": "Mukambika Devasthana, NH766C;SH26, Halkal, \u0c95\u0cc1\u0c82\u0ca6\u0cbe\u0caa\u0cc1\u0cb0 \u0ca4\u0cbe\u0cb2\u0cc2\u0c95\u0cc1, Udupi district, Karnataka, 576220, India"
        },
        "bagamandala": {
            "locType": "primary",
            "blogLinks": [
                "https://en.wikipedia.org/wiki/Tourism_in_Karnataka"
            ],
            "longitude": "75.748408",
            "closest_to": "",
            "latitude": "12.388062",
            "address": "Madikeri - Bagamandala ,Tala Kaveri Road, Mekeri, Madikeri taluku, Kodagu, Karnataka, India"
        },
        "mallikarjuna": {
            "locType": "village",
            "blogLinks": [
                "https://en.wikipedia.org/wiki/Tourism_in_Karnataka"
            ],
            "longitude": "77.0590502",
            "closest_to": "",
            "latitude": "17.8106693",
            "address": "Mallikarjuna Vadi, Basavakalyana taluku, Bidar district, Karnataka, India"
        },
        "shirali": {
            "locType": "village",
            "blogLinks": [
                "https://en.wikipedia.org/wiki/Tourism_in_Karnataka"
            ],
            "longitude": "74.5286591",
            "closest_to": "",
            "latitude": "14.0280925",
            "address": "Shirali, Bhatkala taluk, Uttara Kannada, Karnataka, 581354, India"
        },
        "sringeri": {
            "locType": "town",
            "blogLinks": [
                "http://www.godakshin.com/?q=travel-guides/sringeri-sightseeing-173.html"
            ],
            "longitude": "75.2553718",
            "closest_to": "",
            "latitude": "13.4261724",
            "address": "Sringeri, Sringeri taluku, Chikkamagaluru district, Karnataka, 577592, India"
        },
        "bahubali": {
            "locType": "place_of_worship",
            "blogLinks": [
                "https://en.wikipedia.org/wiki/Tourism_in_Karnataka"
            ],
            "longitude": "76.4846128",
            "closest_to": "",
            "latitude": "12.8540505",
            "address": "Bahubali Statue, SH8, Shravanabelagola, Channarayapattana taluk, Hassan district, Karnataka, 573135, India"
        },
        "hassan district": {
            "locType": "administrative",
            "blogLinks": [
                "https://en.wikipedia.org/wiki/Tourism_in_Karnataka"
            ],
            "longitude": "76.1745460751981",
            "closest_to": "",
            "latitude": "13.0315068",
            "address": "Hassan district, Karnataka, India"
        },
        "talakadu": {
            "locType": "village",
            "blogLinks": [
                "http://www.godakshin.com/travel-guides/4-exciting-places-visit-around-bangalore-732.html"
            ],
            "longitude": "77.0293979",
            "closest_to": "",
            "latitude": "12.1919942",
            "address": "Talakadu, Tirumakudalu Narasipura taluk, Mysuru district, Karnataka, India"
        },
        "udupi": {
            "locType": "city",
            "blogLinks": [
                "https://en.wikipedia.org/wiki/Tourism_in_Karnataka",
                "http://www.mapsofindia.com/karnataka/tourism/",
                "http://www.mapsofindia.com/maps/karnataka/"
            ],
            "longitude": "74.7473232",
            "closest_to": "",
            "latitude": "13.3419169",
            "address": "Udupi, Udupi taluku, Udupi district, Karnataka, 576101, India"
        },
        "malpe": {
            "locType": "village",
            "blogLinks": [
                "https://en.wikipedia.org/wiki/Tourism_in_Karnataka"
            ],
            "longitude": "74.7036914",
            "closest_to": "",
            "latitude": "13.3507423",
            "address": "Malpe, Udupi taluku, Udupi district, Karnataka, India"
        },
        "mysore district": {
            "locType": "city",
            "blogLinks": [
                "https://en.wikipedia.org/wiki/Tourism_in_Karnataka"
            ],
            "longitude": "76.6553609",
            "closest_to": "",
            "latitude": "12.3051828",
            "address": "Mysuru, Mysuru taluk, Mysuru district, Karnataka, 570001, India"
        },
        "bandipur": {
            "locType": "village",
            "blogLinks": [
                "https://en.wikipedia.org/wiki/Tourism_in_Karnataka"
            ],
            "longitude": "76.6285739",
            "closest_to": "",
            "latitude": "11.6662708",
            "address": "Bandipur, Gundlupet taluk, Chamarajanagar district, Karnataka, India"
        },
        "chalukya": {
            "locType": "residential",
            "blogLinks": [
                "https://en.wikipedia.org/wiki/Tourism_in_Karnataka"
            ],
            "longitude": "77.5192989605445",
            "closest_to": "",
            "latitude": "12.9617207",
            "address": "Chalukya Nagar, Chandra Layout, GKW Layout, Bangalore Urban, Karnataka, 560072, India"
        },
        "mangalore": {
            "locType": "city",
            "blogLinks": [
                "https://en.wikipedia.org/wiki/Tourism_in_Karnataka",
                "https://www.yatra.com/india-tourism/karnataka",
                "http://www.ticketgoose.com/bus-tickets/bellary-to-belgaum",
                "http://www.mapsofindia.com/karnataka/tourism/",
                "http://www.fameofcity.com/KARNATAKA/BELGAUM/BELGAUM"
            ],
            "longitude": "74.8430082",
            "closest_to": "",
            "latitude": "12.8698101",
            "address": "Mangaluru, Mangaluru taluk, Dakshina Kannada, Karnataka, 575001, India"
        },
        "venkatappa art gallery": {
            "locType": "museum",
            "blogLinks": [
                "http://www.mapsofindia.com/karnataka/tourism/"
            ],
            "longitude": "77.5952077",
            "closest_to": "",
            "latitude": "12.9742592",
            "address": "Venkatappa Art Gallery, Kasturba Road, Shantala Nagar, MacIvor Town, Bengaluru, Bangalore Urban, Karnataka, 560001, India"
        },
        "ranganathittu bird sanctuary": {
            "locType": "attraction",
            "blogLinks": [
                "https://en.wikipedia.org/wiki/Tourism_in_Karnataka",
                "https://www.yatra.com/india-tourism/karnataka"
            ],
            "longitude": "76.6553081",
            "closest_to": "",
            "latitude": "12.4238524",
            "address": "Ranganathittu Bird Sanctuary, SH154, Palahalli, Srirangapattana taluk, Mandya district, Karnataka, 571438, India"
        },
        "club road": {
            "locType": "yes",
            "blogLinks": [
                "http://www.sretravels.com/bus-tickets/25/Bellary-to-Belgaum/"
            ],
            "longitude": "74.8240209466489",
            "closest_to": "",
            "latitude": "13.41926445",
            "address": "youth club, Road, Pethri, Udupi taluku, Udupi district, Karnataka, India"
        },
        "delhi": {
            "locType": "trunk",
            "blogLinks": [
                "https://www.makemytrip.com/flights/belgaum-bellary-air_india-tickets.html"
            ],
            "longitude": "77.6666062",
            "closest_to": "",
            "latitude": "12.9212473",
            "address": "Outer Ring Road, Green Glen Layout, Iblur, Bengaluru, Bangalore Urban, Karnataka, 560001, India"
        },
        "bangalore palace": {
            "locType": "attraction",
            "blogLinks": [
                "https://www.yatra.com/india-tourism/karnataka"
            ],
            "longitude": "77.5920094892276",
            "closest_to": "",
            "latitude": "12.9985963",
            "address": "Bangalore Palace, Jayamahal Road, Jayamahal Extension, Jayamahal, Bengaluru, Bangalore Urban, Karnataka, 560001, India"
        },
        "chennakesava temple": {
            "locType": "place_of_worship",
            "blogLinks": [
                "http://www.mapsofindia.com/karnataka/tourism/"
            ],
            "longitude": "75.8603311",
            "closest_to": "",
            "latitude": "13.1629239",
            "address": "Chennakesava Temple, NH73, Navilahalli, Beluru taluk, Hassan district, Karnataka, India"
        },
        "chennai": {
            "locType": "bank",
            "blogLinks": [
                "https://en.wikipedia.org/wiki/Tourism_in_Karnataka",
                "http://www.godakshin.com/travel-guides/4-exciting-places-visit-around-bangalore-732.html",
                "https://www.makemytrip.com/flights/belgaum-bellary-air_india-tickets.html",
                "http://www.fameofcity.com/KARNATAKA/BELGAUM/BELGAUM"
            ],
            "longitude": "80.2197941",
            "closest_to": "",
            "latitude": "13.0365141",
            "address": "Karnataka Bank, Postal Colony 2nd Street, Postal Colony, Ashok Nagar, Chennai City Corporation Limits, Chennai district, Tamil Nadu, 600033, India"
        },
        "srirangapatna": {
            "locType": "town",
            "blogLinks": [
                "https://en.wikipedia.org/wiki/Tourism_in_Karnataka"
            ],
            "longitude": "76.6850743",
            "closest_to": "",
            "latitude": "12.4225604",
            "address": "Srirangapatna, Srirangapattana taluk, Mandya district, Karnataka, 571438, India"
        },
        "baroda": {
            "locType": "neighbourhood",
            "blogLinks": [
                "http://www.mapsofindia.com/karnataka/tourism/"
            ],
            "longitude": "77.5837404",
            "closest_to": "",
            "latitude": "12.893481",
            "address": "Bank of Baroda Colony, Puttenahalli, Bengaluru, Bangalore Urban, Karnataka, 560001, India"
        },
        "shravanabelagola": {
            "locType": "town",
            "blogLinks": [
                "https://en.wikipedia.org/wiki/Tourism_in_Karnataka"
            ],
            "longitude": "76.4869997",
            "closest_to": "",
            "latitude": "12.8581305",
            "address": "Shravanabelagola, Channarayapattana taluk, Hassan district, Karnataka, 573135, India"
        },
        "hogenakkal": {
            "locType": "waterfall",
            "blogLinks": [
                "http://www.godakshin.com/travel-guides/4-exciting-places-visit-around-bangalore-732.html"
            ],
            "longitude": "77.7758632",
            "closest_to": "",
            "latitude": "12.1184195",
            "address": "Hogenakkal Falls, Kollegala taluk, Chamarajanagar district, Karnataka, India"
        },
        "maddur": {
            "locType": "town",
            "blogLinks": [
                "http://www.godakshin.com/travel-guides/4-exciting-places-visit-around-bangalore-732.html"
            ],
            "longitude": "77.0456404",
            "closest_to": "",
            "latitude": "12.5851916",
            "address": "Maddur, Madduru taluk, Mandya district, Karnataka, 571428, India"
        },
        "bhatkal": {
            "locType": "town",
            "blogLinks": [
                "https://en.wikipedia.org/wiki/Tourism_in_Karnataka"
            ],
            "longitude": "74.5485295",
            "closest_to": "",
            "latitude": "13.9952114",
            "address": "Bhatkal, Bhatkala taluk, Uttara Kannada, Karnataka, 581320, India"
        },
        "chamarajanagar": {
            "locType": "station",
            "blogLinks": [
                "https://en.wikipedia.org/wiki/Tourism_in_Karnataka",
                "http://www.mapsofindia.com/maps/karnataka/"
            ],
            "longitude": "76.9331345",
            "closest_to": "",
            "latitude": "11.9346624",
            "address": "Chamarajanagar, Nanjangudu-Chamarajanagar Road, Kadahalli, Chamarajanagara taluk, Chamarajanagar district, Karnataka, 571313, India"
        },
        "kodagu": {
            "locType": "administrative",
            "blogLinks": [
                "https://en.wikipedia.org/wiki/Tourism_in_Karnataka",
                "http://www.mapsofindia.com/karnataka/tourism/",
                "http://www.mapsofindia.com/maps/karnataka/"
            ],
            "longitude": "75.6677235950852",
            "closest_to": "",
            "latitude": "12.38117345",
            "address": "Kodagu, Karnataka, India"
        },
        "commissariat road": {
            "locType": "primary",
            "blogLinks": [
                "http://www.sretravels.com/bus-tickets/25/Bellary-to-Belgaum/"
            ],
            "longitude": "77.6107948",
            "closest_to": "",
            "latitude": "12.9735818",
            "address": "Commissariat Road, Tasker Town, Ashok Nagar, Bengaluru, Bangalore Urban, Karnataka, 560001, India"
        },
        "hasan": {
            "locType": "town",
            "blogLinks": [
                "http://www.mapsofindia.com/karnataka/tourism/"
            ],
            "longitude": "76.0992703",
            "closest_to": "",
            "latitude": "13.0070817",
            "address": "Hassan, Hasana taluk, Hassan district, Karnataka, 573201, India"
        },
        "kabini river": {
            "locType": "canal",
            "blogLinks": [
                "https://en.wikipedia.org/wiki/Tourism_in_Karnataka"
            ],
            "longitude": "76.6477184",
            "closest_to": "",
            "latitude": "12.0780998",
            "address": "Kabini right bank canal, Nanjanagudu taluk, Mysuru district, Karnataka, India"
        },
        "subramanya": {
            "locType": "commercial",
            "blogLinks": [
                "https://en.wikipedia.org/wiki/Tourism_in_Karnataka"
            ],
            "longitude": "77.6015800913134",
            "closest_to": "",
            "latitude": "12.9251206",
            "address": "Subramanya Arcade, Marenahalli, Bengaluru, Bangalore Urban, Karnataka, 560001, India"
        },
        "banashankari temple": {
            "locType": "place_of_worship",
            "blogLinks": [
                "https://en.wikipedia.org/wiki/Tourism_in_Karnataka"
            ],
            "longitude": "77.5731752886765",
            "closest_to": "",
            "latitude": "12.91568785",
            "address": "Banashankari Temple, Kanakapura Road, JP Nagar 1st Phase, Kaderenahalli, Bengaluru, Bangalore Urban, Karnataka, 560001, India"
        },
        "cubbon park": {
            "locType": "station",
            "blogLinks": [
                "https://www.yatra.com/india-tourism/karnataka",
                "http://www.mapsofindia.com/karnataka/tourism/"
            ],
            "longitude": "77.5977565",
            "closest_to": "",
            "latitude": "12.9808487",
            "address": "Cubbon Park, Cubbon Road, Tasker Town, Shivajinagar, Bengaluru, Bangalore Urban, Karnataka, 560001, India"
        },
        "kanaganahalli": {
            "locType": "village",
            "blogLinks": [
                "https://en.wikipedia.org/wiki/Tourism_in_Karnataka"
            ],
            "longitude": "76.5876958",
            "closest_to": "",
            "latitude": "12.5588444",
            "address": "Kanaganahalli, Pandavapura taluk, Mandya district, Karnataka, India"
        },
        "hong kong": {
            "locType": "restaurant",
            "blogLinks": [
                "https://www.yatra.com/india-tourism/karnataka"
            ],
            "longitude": "77.6768991",
            "closest_to": "",
            "latitude": "13.020749",
            "address": "Hong Kong Noodles, Kalkere Main road, Ramamurthy Nagar, Varanasi, Bangalore Urban, Karnataka, 600042, India"
        },
        "ulsoor lake": {
            "locType": "water",
            "blogLinks": [
                "http://www.mapsofindia.com/karnataka/tourism/"
            ],
            "longitude": "77.6191669052984",
            "closest_to": "",
            "latitude": "12.9823891",
            "address": "Halasuru lake, Annaswamy Mudaliar Road, Kothandram Layout, Halasuru, Bengaluru, Bangalore Urban, Karnataka, 560001, India"
        },
        "manipal": {
            "locType": "town",
            "blogLinks": [
                "https://en.wikipedia.org/wiki/Tourism_in_Karnataka"
            ],
            "longitude": "74.7870308",
            "closest_to": "",
            "latitude": "13.3519723",
            "address": "Manipal, Udupi taluku, Udupi district, Karnataka, India"
        },
        "karkala": {
            "locType": "town",
            "blogLinks": [
                "https://en.wikipedia.org/wiki/Tourism_in_Karnataka"
            ],
            "longitude": "74.9959586",
            "closest_to": "",
            "latitude": "13.2112826",
            "address": "Karkala, Karkala taluk, Udupi district, Karnataka, 574104, India"
        },
        "chandramoulishwara": {
            "locType": "place_of_worship",
            "blogLinks": [
                "https://en.wikipedia.org/wiki/Tourism_in_Karnataka"
            ],
            "longitude": "76.6290267",
            "closest_to": "",
            "latitude": "12.3225663",
            "address": "Chandramoulishwara Temple, Adipampa Road, Gokulam, Mysuru, Mysuru taluk, Mysuru district, Karnataka, 570001, India"
        },
        "dubai": {
            "locType": "gift",
            "blogLinks": [
                "https://www.yatra.com/india-tourism/karnataka"
            ],
            "longitude": "77.6067717",
            "closest_to": "",
            "latitude": "12.9737065",
            "address": "Dubai Plaza, Rest House Road, Shantala Nagar, Ashok Nagar, Bengaluru, Bangalore Urban, Karnataka, 560001, India"
        },
        "nagarahole national park": {
            "locType": "national_park",
            "blogLinks": [
                "https://en.wikipedia.org/wiki/Tourism_in_Karnataka"
            ],
            "longitude": "76.1537073415874",
            "closest_to": "",
            "latitude": "12.0600362",
            "address": "Nagarahole National Park, Virajpet taluk, Kodagu, Karnataka, India"
        },
        "hoysala": {
            "locType": "administrative",
            "blogLinks": [
                "https://en.wikipedia.org/wiki/Tourism_in_Karnataka",
                "http://www.mapsofindia.com/karnataka/tourism/"
            ],
            "longitude": "77.6375990817051",
            "closest_to": "",
            "latitude": "12.97813815",
            "address": "Hoysala Nagar, Bengaluru, Bangalore Urban, Karnataka, 560001, India"
        },
        "kuntala": {
            "locType": "village",
            "blogLinks": [
                "http://www.sretravels.com/bus-tickets/25/Bellary-to-Belgaum/"
            ],
            "longitude": "74.7928708",
            "closest_to": "",
            "latitude": "13.2920912",
            "address": "Kuntala Nagar, Udupi taluku, Udupi district, Karnataka, India"
        },
        "rock garden": {
            "locType": "waterfall",
            "blogLinks": [
                "https://en.wikipedia.org/wiki/Tourism_in_Karnataka"
            ],
            "longitude": "75.6142269",
            "closest_to": "",
            "latitude": "12.2248591",
            "address": "Waterfalls by the Rock site, Madikeri taluku, Kodagu, Karnataka, India"
        },
        "new delhi": {
            "locType": "college",
            "blogLinks": [
                "https://www.makemytrip.com/flights/belgaum-bellary-air_india-tickets.html",
                "http://www.fameofcity.com/KARNATAKA/BELGAUM/BELGAUM"
            ],
            "longitude": "76.6142178649055",
            "closest_to": "",
            "latitude": "12.30911465",
            "address": "Regional Institute of Education, Chaduranga Road, Jayalakshmipuram, Mysuru, Mysuru taluk, Mysuru district, Karnataka, 570001, India"
        },
        "maharashtra": {
            "locType": "bank",
            "blogLinks": [
                "https://en.wikipedia.org/wiki/Tourism_in_Karnataka",
                "http://www.fameofcity.com/KARNATAKA/BELGAUM/BELGAUM",
                "http://www.sretravels.com/bus-tickets/25/Bellary-to-Belgaum/",
                "https://www.yatra.com/india-tourism/karnataka",
                "http://www.mapsofindia.com/maps/karnataka/"
            ],
            "longitude": "77.5856013",
            "closest_to": "",
            "latitude": "12.9049455",
            "address": "Bank of Maharashtra, 24th Main, K R Layout, Puttenahalli, Bengaluru, Bangalore Urban, Karnataka, 560001, India"
        },
        "bheemeshwari": {
            "locType": "locality",
            "blogLinks": [
                "https://en.wikipedia.org/wiki/Tourism_in_Karnataka"
            ],
            "longitude": "77.2778171",
            "closest_to": "",
            "latitude": "12.3124122",
            "address": "Bheemeshwari, Muttatti, Malavalli taluk, Mandya district, Karnataka, India"
        },
        "southern india": {
            "locType": "commercial",
            "blogLinks": [
                "https://www.yatra.com/india-tourism/karnataka"
            ],
            "longitude": "77.6227757667762",
            "closest_to": "",
            "latitude": "12.92588785",
            "address": "Survey Of India - Southern Zone, Madivala, Bengaluru, Bangalore Urban, Karnataka, 560001, India"
        },
        "shivanasamudra": {
            "locType": "village",
            "blogLinks": [
                "https://en.wikipedia.org/wiki/Tourism_in_Karnataka"
            ],
            "longitude": "77.1703215",
            "closest_to": "",
            "latitude": "12.2719056",
            "address": "Shivanasamudra, Kollegala taluk, Chamarajanagar district, Karnataka, India"
        },
        "domestic airport": {
            "locType": "terminal",
            "blogLinks": [
                "http://www.travelhaathi.com/hampi-travel-guide/"
            ],
            "longitude": "74.8901343659439",
            "closest_to": "",
            "latitude": "12.96316115",
            "address": "Mangalore Airport Old Terminal - Departure Domestic; Arrival and Departure International, SH67, Gandhinagar, Kenjar, Mangaluru taluk, Dakshina Kannada, Karnataka, 575015, India"
        },
        "kudremukh national park": {
            "locType": "national_park",
            "blogLinks": [
                "https://en.wikipedia.org/wiki/Tourism_in_Karnataka"
            ],
            "longitude": "75.1828713712862",
            "closest_to": "",
            "latitude": "13.25397485",
            "address": "Kudremukh National Park, SH66, Sringeri taluku, Chikkamagaluru district, Karnataka, India"
        },
        "kalasa": {
            "locType": "town",
            "blogLinks": [
                "https://en.wikipedia.org/wiki/Tourism_in_Karnataka"
            ],
            "longitude": "75.3582366",
            "closest_to": "",
            "latitude": "13.2322235",
            "address": "Kalasa, Mudigere taluk, Chikkamagaluru district, Karnataka, 577124, India"
        },
        "singapore": {
            "locType": "neighbourhood",
            "blogLinks": [
                "https://www.yatra.com/india-tourism/karnataka"
            ],
            "longitude": "77.5483703",
            "closest_to": "",
            "latitude": "12.8861812",
            "address": "Singapore Gardens, Vajrahalli, Bengaluru, Bangalore Urban, Karnataka, 560001, India"
        },
        "bannerghatta national park": {
            "locType": "national_park",
            "blogLinks": [
                "https://en.wikipedia.org/wiki/Tourism_in_Karnataka"
            ],
            "longitude": "77.5722783830694",
            "closest_to": "",
            "latitude": "12.77900335",
            "address": "Bannerghatta National Park, Anekal Road, Begihalli, Bangalore Urban, Karnataka, 560076, India"
        },
        "east": {
            "locType": "restaurant",
            "blogLinks": [
                "https://en.wikipedia.org/wiki/Tourism_in_Karnataka"
            ],
            "longitude": "77.6601401",
            "closest_to": "",
            "latitude": "12.8504319",
            "address": "East, 43, Velankani Drive, Electronics City Phase 1, Doddathoguru, Bangalore Urban, Karnataka, 560100, India"
        },
        "kaveri": {
            "locType": "river",
            "blogLinks": [
                "https://en.wikipedia.org/wiki/Tourism_in_Karnataka",
                "http://www.godakshin.com/travel-guides/4-exciting-places-visit-around-bangalore-732.html"
            ],
            "longitude": "77.0635531",
            "closest_to": "",
            "latitude": "12.1687878",
            "address": "Kaveri, Kollegala taluk, Chamarajanagar district, Karnataka, India"
        },
        "bidadi": {
            "locType": "town",
            "blogLinks": [
                "http://www.godakshin.com/travel-guides/4-exciting-places-visit-around-bangalore-732.html"
            ],
            "longitude": "77.3869947",
            "closest_to": "",
            "latitude": "12.7988507",
            "address": "Bidadi, Ramanagara taluk, Ramanagara district, Karnataka, India"
        },
        "tamil nadu": {
            "locType": "bank",
            "blogLinks": [
                "https://en.wikipedia.org/wiki/Tourism_in_Karnataka",
                "https://www.yatra.com/india-tourism/karnataka",
                "http://www.mapsofindia.com/maps/karnataka/"
            ],
            "longitude": "76.9514152",
            "closest_to": "",
            "latitude": "11.0025894",
            "address": "KARNATAKA BANK, Diwan Bhadur Road, Five Corner, RS Puram, Coimbatore, Coimbatore district, Tamil Nadu, 641001, India"
        },
        "karnataka": {
            "locType": "atm",
            "blogLinks": [
                "https://www.distancecalculator.net/from-belgaum-to-bellary",
                "https://www.makemytrip.com/flights/belgaum-bellary-air_india-tickets.html",
                "http://www.karnatakatourism.org/",
                "http://www.travelhaathi.com/hampi-travel-guide/",
                "http://distancecalculator.globefeed.com/India_Distance_Calculator.asp?state=19",
                "http://www.ticketgoose.com/bus-tickets/bellary-to-belgaum",
                "https://www.yatra.com/india-tourism/karnataka",
                "http://www.fameofcity.com/KARNATAKA/BELGAUM/BELGAUM",
                "https://en.wikipedia.org/wiki/Tourism_in_Karnataka",
                "http://www.sretravels.com/bus-tickets/25/Bellary-to-Belgaum/",
                "http://www.godakshin.com/travel-guides/4-exciting-places-visit-around-bangalore-732.html",
                "http://www.mapsofindia.com/karnataka/tourism/",
                "http://www.mapsofindia.com/maps/karnataka/"
            ],
            "longitude": "76.6639936",
            "closest_to": "",
            "latitude": "12.3084901",
            "address": "Karnataka, Shalivahana Road, Nazarbad, Mysuru, Mysuru taluk, Mysuru district, Karnataka, 570001, India"
        },
        "coastal karnataka": {
            "locType": "industrial",
            "blogLinks": [
                "https://en.wikipedia.org/wiki/Tourism_in_Karnataka"
            ],
            "longitude": "74.8137275833157",
            "closest_to": "",
            "latitude": "12.96014675",
            "address": "Bharat Petroleum Mangalore Coastal Installation, Baikampady, Mangaluru taluk, Dakshina Kannada, Karnataka, 575014, India"
        },
        "pune": {
            "locType": "trunk",
            "blogLinks": [
                "http://www.ticketgoose.com/bus-tickets/bellary-to-belgaum",
                "http://www.fameofcity.com/KARNATAKA/BELGAUM/BELGAUM"
            ],
            "longitude": "76.9479122",
            "closest_to": "",
            "latitude": "17.8199745",
            "address": "Pune - Machilipatnam Highway, Kaudiyala, Basavakalyana taluku, Bidar district, Karnataka, India"
        },
        "hassan": {
            "locType": "town",
            "blogLinks": [
                "https://en.wikipedia.org/wiki/Tourism_in_Karnataka"
            ],
            "longitude": "76.0992703",
            "closest_to": "",
            "latitude": "13.0070817",
            "address": "Hassan, Hasana taluk, Hassan district, Karnataka, 573201, India"
        },
        "kalaseshwara temple": {
            "locType": "place_of_worship",
            "blogLinks": [
                "http://www.godakshin.com/?q=travel-guides/sringeri-sightseeing-173.html"
            ],
            "longitude": "75.363446975",
            "closest_to": "",
            "latitude": "13.23228505",
            "address": "Kalaseshwara Temple, SH66, Kalasa, Mudigere taluk, Chikkamagaluru district, Karnataka, 577124, India"
        },
        "irupu falls": {
            "locType": "attraction",
            "blogLinks": [
                "https://en.wikipedia.org/wiki/Tourism_in_Karnataka"
            ],
            "longitude": "75.9839484",
            "closest_to": "",
            "latitude": "11.9667954",
            "address": "Iruppu Falls, SH89, Taila, Virajpet taluk, Kodagu, Karnataka, 571217, India"
        },
        "sharadamba": {
            "locType": "place_of_worship",
            "blogLinks": [
                "http://www.godakshin.com/?q=travel-guides/sringeri-sightseeing-173.html"
            ],
            "longitude": "77.5656194",
            "closest_to": "",
            "latitude": "12.9321898",
            "address": "Sharadamba Temple, 7th Main Road, Yediyur, Thyagaraja Nagar, Bengaluru, Bangalore Urban, Karnataka, 560001, India"
        },
        "mandya": {
            "locType": "town",
            "blogLinks": [
                "https://en.wikipedia.org/wiki/Tourism_in_Karnataka",
                "http://www.mapsofindia.com/maps/karnataka/"
            ],
            "longitude": "76.8937392",
            "closest_to": "",
            "latitude": "12.5217836",
            "address": "Mandya, Mandya taluk, Mandya district, Karnataka, 571401, India"
        },
        "srinagar": {
            "locType": "suburb",
            "blogLinks": [
                "https://www.makemytrip.com/flights/belgaum-bellary-air_india-tickets.html"
            ],
            "longitude": "77.5541768",
            "closest_to": "",
            "latitude": "12.9438817",
            "address": "Srinagar, Bengaluru, Bangalore Urban, Karnataka, 560001, India"
        },
        "bannerghatta": {
            "locType": "village",
            "blogLinks": [
                "https://en.wikipedia.org/wiki/Tourism_in_Karnataka"
            ],
            "longitude": "77.5789509",
            "closest_to": "",
            "latitude": "12.813337",
            "address": "Bannerghatta, Bangalore Urban, Karnataka, India"
        },
        "venugopalaswami temple": {
            "locType": "place_of_worship",
            "blogLinks": [
                "http://www.godakshin.com/?q=travel-guides/sringeri-sightseeing-173.html"
            ],
            "longitude": "76.6437385",
            "closest_to": "",
            "latitude": "12.5573364",
            "address": "Venugopalaswami Temple, NH150A, Nilanahalli, Pandavapura taluk, Mandya district, Karnataka, India"
        },
        "south kashi": {
            "locType": "town",
            "blogLinks": [
                "http://www.sretravels.com/bus-tickets/25/Bellary-to-Belgaum/"
            ],
            "longitude": "74.9977469",
            "closest_to": "",
            "latitude": "13.0699218",
            "address": "Moodabidri, Mangaluru taluk, Dakshina Kannada, Karnataka, 574227, India"
        }
    },
    "belgaum": {
        "osm_id": "316417174",
        "display_name": "Belgaum, Belgaum district, Karnataka, India",
        "importance": 0.65,
        "place_id": "1393576",
        "class": "place",
        "boundingbox": [
            "15.693333",
            "16.973333",
            "74.11",
            "75.39"
        ],
        "type": "county",
        "lon": "74.75",
        "licence": "Data \u00a9 OpenStreetMap contributors, ODbL 1.0. http://www.openstreetmap.org/copyright",
        "osm_type": "node",
        "lat": "16.333333",
        "icon": "https://nominatim.openstreetmap.org/images/mapicons/poi_boundary_administrative.p.20.png"
    },
    "bellary": {
        "osm_id": "316417114",
        "display_name": "Bellary, Bellary district, Karnataka, India",
        "importance": 0.65,
        "place_id": "1393549",
        "class": "place",
        "boundingbox": [
            "14.6085413",
            "15.8885413",
            "76.1923648",
            "77.4723648"
        ],
        "type": "county",
        "lon": "76.8323648",
        "licence": "Data \u00a9 OpenStreetMap contributors, ODbL 1.0. http://www.openstreetmap.org/copyright",
        "osm_type": "node",
        "lat": "15.2485413",
        "icon": "https://nominatim.openstreetmap.org/images/mapicons/poi_boundary_administrative.p.20.png"
    }
}