{
    "mentions": {
        "bijapur": {
            "locType": "city",
            "blogLinks": [
                "http://blog.indianluxurytrains.com/2014/09/best-places-to-visit-in-karnataka.html"
            ],
            "longitude": "75.7175387",
            "closest_to": "",
            "latitude": "16.8269911",
            "address": "Vijayapura, Vijayapura taluk, Bijapur district, Karnataka, 586101, India"
        },
        "delhi": {
            "locType": "trunk",
            "blogLinks": [
                "http://blog.indianluxurytrains.com/2014/09/best-places-to-visit-in-karnataka.html"
            ],
            "longitude": "77.6666062",
            "closest_to": "",
            "latitude": "12.9212473",
            "address": "Outer Ring Road, Green Glen Layout, Iblur, Bengaluru, Bangalore Urban, Karnataka, 560001, India"
        },
        "vittala": {
            "locType": "yes",
            "blogLinks": [
                "http://blog.indianluxurytrains.com/2014/09/best-places-to-visit-in-karnataka.html"
            ],
            "longitude": "76.6237847175927",
            "closest_to": "",
            "latitude": "12.30129655",
            "address": "Vijaya Vittala PU College, Sahukar Chennaiah Road, Sarasvatipuram, Mysuru, Mysuru taluk, Mysuru district, Karnataka, 570001, India"
        },
        "dharmastala": {
            "locType": "village",
            "blogLinks": [
                "http://wikitravel.org/en/Belur"
            ],
            "longitude": "75.3813122",
            "closest_to": "",
            "latitude": "12.9519571",
            "address": "Dharmasthala, Beltangadi taluk, Dakshina Kannada, Karnataka, 574216, India"
        },
        "manjunatha swamy": {
            "locType": "place_of_worship",
            "blogLinks": [
                "http://www.mygola.com/road-trip-from-bangalore-to-chikmagalur/q9090"
            ],
            "longitude": "77.5640116772773",
            "closest_to": "",
            "latitude": "12.9211928",
            "address": "Devagiri Manjunatha Swamy Temple, 30th Cross, Jayanagar 8th Block, Banashankari 2nd Stage, Bengaluru, Bangalore Urban, Karnataka, 560001, India"
        },
        "bagalkot": {
            "locType": "city",
            "blogLinks": [
                "http://blog.indianluxurytrains.com/2014/09/best-places-to-visit-in-karnataka.html"
            ],
            "longitude": "75.6967919",
            "closest_to": "",
            "latitude": "16.1853166",
            "address": "Bagalakote, Bagalakote taluk, Bagalkote district, Karnataka, India"
        },
        "rameshwara lake": {
            "locType": "place_of_worship",
            "blogLinks": [
                "http://www.promotraveller.com/2016/08/03/places-to-visit-around-chikmagalur/"
            ],
            "longitude": "77.5678621969321",
            "closest_to": "",
            "latitude": "12.99365815",
            "address": "Rameshwara Temple, Kranthikavi Sarvagnya Road, Rajajinagar 4th Block, Sriramapura, Bengaluru, Bangalore Urban, Karnataka, 560001, India"
        },
        "kundapura": {
            "locType": "town",
            "blogLinks": [
                "http://www.nivalink.com/destination/chikmagalur"
            ],
            "longitude": "74.6915722",
            "closest_to": "",
            "latitude": "13.6250993",
            "address": "Kundapura, \u0c95\u0cc1\u0c82\u0ca6\u0cbe\u0caa\u0cc1\u0cb0 \u0ca4\u0cbe\u0cb2\u0cc2\u0c95\u0cc1, Udupi district, Karnataka, 576200, India"
        },
        "tungabhadra river": {
            "locType": "river",
            "blogLinks": [
                "https://www.thrillophilia.com/places-to-visit-in-chikmagalur",
                "http://travel.india.com/chikmagalur/"
            ],
            "longitude": "76.4931607",
            "closest_to": "",
            "latitude": "15.3446123",
            "address": "Tungabhadra, Gangavati taluku, Koppal district, Karnataka, India"
        },
        "lakshmi": {
            "locType": "cinema",
            "blogLinks": [
                "http://wikitravel.org/en/Belur"
            ],
            "longitude": "77.6075298044091",
            "closest_to": "",
            "latitude": "12.9251835",
            "address": "Lakshmi, Tavarekere Main Road, Sadgunte Palya, Madivala, Bengaluru, Bangalore Urban, Karnataka, 560001, India"
        },
        "coorg": {
            "locType": "town",
            "blogLinks": [
                "https://www.thrillophilia.com/places-to-visit-in-chikmagalur"
            ],
            "longitude": "75.740031",
            "closest_to": "",
            "latitude": "12.4204003",
            "address": "Madikeri, Madikeri taluku, Kodagu, Karnataka, India"
        },
        "vijaya nagara": {
            "locType": "bank",
            "blogLinks": [
                "http://wikitravel.org/en/Belur"
            ],
            "longitude": "77.6108107",
            "closest_to": "",
            "latitude": "12.8925596",
            "address": "Vijaya Bank, Devarachikkanahalli Road, Mahadeshwara Nagara, BTM Layout, Bengaluru, Bangalore Urban, Karnataka, 560001, India"
        },
        "karnataka state": {
            "locType": "university",
            "blogLinks": [
                "http://www.promotraveller.com/2016/08/03/places-to-visit-around-chikmagalur/"
            ],
            "longitude": "76.6236231",
            "closest_to": "",
            "latitude": "12.315382",
            "address": "Karnataka State Open University, \u0cb9\u0cc1\u0ca3\u0cb8\u0cc2\u0cb0\u0cc1 \u0cb0\u0cb8\u0ccd\u0ca4\u0cc6, Gokulam, Mysuru, Mysuru taluk, Mysuru district, Karnataka, 570001, India"
        },
        "bangalore": {
            "locType": "city",
            "blogLinks": [
                "http://wikitravel.org/en/Belur",
                "https://www.thrillophilia.com/places-to-visit-in-chikmagalur",
                "http://www.promotraveller.com/2016/08/03/places-to-visit-around-chikmagalur/",
                "http://www.mygola.com/road-trip-from-bangalore-to-chikmagalur/q9090",
                "http://travel.india.com/chikmagalur/",
                "http://www.nivalink.com/destination/chikmagalur",
                "https://en.wikipedia.org/wiki/Chikkamagaluru_district",
                "https://rajeshchaunsali.wordpress.com/2013/10/16/chikmagalur-trip/"
            ],
            "longitude": "77.5912997",
            "closest_to": "",
            "latitude": "12.9791198",
            "address": "Bengaluru, Bangalore Urban, Karnataka, 560001, India"
        },
        "harangi dam": {
            "locType": "dam",
            "blogLinks": [
                "http://blog.indianluxurytrains.com/2014/09/best-places-to-visit-in-karnataka.html"
            ],
            "longitude": "75.9056999171375",
            "closest_to": "",
            "latitude": "12.4928663",
            "address": "Harangi dam, Somawarpet taluk, Kodagu, Karnataka, India"
        },
        "maharaja": {
            "locType": "restaurant",
            "blogLinks": [
                "http://travel.india.com/chikmagalur/"
            ],
            "longitude": "76.6438602",
            "closest_to": "",
            "latitude": "12.3047676",
            "address": "Maharaja, College Road, Vani Vilas, Mysuru, Mysuru taluk, Mysuru district, Karnataka, 570001, India"
        },
        "bahmani": {
            "locType": "castle",
            "blogLinks": [
                "http://blog.indianluxurytrains.com/2014/09/best-places-to-visit-in-karnataka.html"
            ],
            "longitude": "76.8315008",
            "closest_to": "",
            "latitude": "17.3415485",
            "address": "Bahmani Fort, Alanda Road, Fort, Rauza, Kalaburagi, Gulbarga taluku, Kalaburagi district, Karnataka, 585101, India"
        },
        "tumkur": {
            "locType": "county",
            "blogLinks": [
                "http://wikitravel.org/en/Belur",
                "https://en.wikipedia.org/wiki/Chikkamagaluru_district"
            ],
            "longitude": "77.0002445",
            "closest_to": "",
            "latitude": "13.4999406",
            "address": "Tumakuru, Tumkur district, Karnataka, India"
        },
        "pattadakal": {
            "locType": "attraction",
            "blogLinks": [
                "http://blog.indianluxurytrains.com/2014/09/best-places-to-visit-in-karnataka.html"
            ],
            "longitude": "75.815884048161",
            "closest_to": "",
            "latitude": "15.9506349",
            "address": "Pattadakal Temples, SH14, \u0cac\u0cbe\u0c9a\u0cbf\u0ca8\u0c97\u0cc1\u0ca1\u0ccd\u0ca1, Badami taluku, Bagalkote district, Karnataka, 587211, India"
        },
        "tamilnadu": {
            "locType": "bank",
            "blogLinks": [
                "http://wikitravel.org/en/Belur"
            ],
            "longitude": "76.9514152",
            "closest_to": "",
            "latitude": "11.0025894",
            "address": "KARNATAKA BANK, Diwan Bhadur Road, Five Corner, RS Puram, Coimbatore, Coimbatore district, Tamil Nadu, 641001, India"
        },
        "halebidu": {
            "locType": "village",
            "blogLinks": [
                "http://www.nivalink.com/destination/chikmagalur",
                "https://en.wikipedia.org/wiki/Chikkamagaluru_district",
                "http://www.promotraveller.com/2016/08/03/places-to-visit-around-chikmagalur/",
                "https://rajeshchaunsali.wordpress.com/2013/10/16/chikmagalur-trip/"
            ],
            "longitude": "76.4607075",
            "closest_to": "",
            "latitude": "12.359893",
            "address": "Halebidu, Hunasuru taluk, Mysuru district, Karnataka, India"
        },
        "mysore": {
            "locType": "city",
            "blogLinks": [
                "http://blog.indianluxurytrains.com/2014/09/best-places-to-visit-in-karnataka.html"
            ],
            "longitude": "76.6553609",
            "closest_to": "",
            "latitude": "12.3051828",
            "address": "Mysuru, Mysuru taluk, Mysuru district, Karnataka, 570001, India"
        },
        "northern india": {
            "locType": "company",
            "blogLinks": [
                "http://wikitravel.org/en/Belur"
            ],
            "longitude": "77.6804678",
            "closest_to": "",
            "latitude": "12.9257442",
            "address": "Northern Operating  Services Pvt Ltd, RMZ Ecospace, Internal Rd, RMZ Ecospace, Bellandur, Doddakannelli, Bangalore Urban, Karnataka, 560037, India"
        },
        "pondicherry": {
            "locType": "bank",
            "blogLinks": [
                "http://www.promotraveller.com/2016/08/03/places-to-visit-around-chikmagalur/"
            ],
            "longitude": "79.831569",
            "closest_to": "",
            "latitude": "11.9365727",
            "address": "Karnataka Bank, Mission Street, Grand Bazaar, Puducherry, Puducherry district, Puducherry, 605001, India"
        },
        "mercara": {
            "locType": "town",
            "blogLinks": [
                "http://wikitravel.org/en/Belur"
            ],
            "longitude": "75.740031",
            "closest_to": "",
            "latitude": "12.4204003",
            "address": "Madikeri, Madikeri taluku, Kodagu, Karnataka, India"
        },
        "talakad": {
            "locType": "picnic_site",
            "blogLinks": [
                "http://chikmagalurinfo.net/taditional-sculpture/"
            ],
            "longitude": "77.026146",
            "closest_to": "",
            "latitude": "12.1731685",
            "address": "Talakad Riverside, SH79, Mavinahalli, Tirumakudalu Narasipura taluk, Mysuru district, Karnataka, India"
        },
        "rock garden": {
            "locType": "waterfall",
            "blogLinks": [
                "https://www.thrillophilia.com/places-to-visit-in-chikmagalur"
            ],
            "longitude": "75.6142269",
            "closest_to": "",
            "latitude": "12.2248591",
            "address": "Waterfalls by the Rock site, Madikeri taluku, Kodagu, Karnataka, India"
        },
        "mumbai": {
            "locType": "restaurant",
            "blogLinks": [
                "http://travel.india.com/chikmagalur/",
                "http://www.mygola.com/road-trip-from-bangalore-to-chikmagalur/q9090"
            ],
            "longitude": "77.5718472",
            "closest_to": "",
            "latitude": "13.0002869",
            "address": "Mumbai Spice, 18/2, 10th Cross, Malleswaram, Vyalikaval, Malleswaram, Bengaluru, Bangalore Urban, Karnataka, 560003, India"
        },
        "nagarhole national park": {
            "locType": "national_park",
            "blogLinks": [
                "http://wikitravel.org/en/Belur",
                "http://blog.indianluxurytrains.com/2014/09/best-places-to-visit-in-karnataka.html"
            ],
            "longitude": "76.1537073415874",
            "closest_to": "",
            "latitude": "12.0600362",
            "address": "Nagarahole National Park, Virajpet taluk, Kodagu, Karnataka, India"
        },
        "malgudi": {
            "locType": "restaurant",
            "blogLinks": [
                "http://travel.india.com/chikmagalur/"
            ],
            "longitude": "77.7017267",
            "closest_to": "",
            "latitude": "12.9651193",
            "address": "Malgudi Southern Cuisine, 3, Outer Ring Road, Ananda Nagara, Doddanekundi, Garudacharpalya, Bangalore Urban, Karnataka, 560037, India"
        },
        "papanatha": {
            "locType": "yes",
            "blogLinks": [
                "http://blog.indianluxurytrains.com/2014/09/best-places-to-visit-in-karnataka.html"
            ],
            "longitude": "75.8164391839286",
            "closest_to": "",
            "latitude": "15.94762935",
            "address": "Papanatha Temple, SH14, \u0cac\u0cbe\u0c9a\u0cbf\u0ca8\u0c97\u0cc1\u0ca1\u0ccd\u0ca1, Badami taluku, Bagalkote district, Karnataka, 587211, India"
        },
        "bandipur national park": {
            "locType": "national_park",
            "blogLinks": [
                "http://blog.indianluxurytrains.com/2014/09/best-places-to-visit-in-karnataka.html"
            ],
            "longitude": "76.4314968740264",
            "closest_to": "",
            "latitude": "11.76682425",
            "address": "Bandipur National Park, Kozhikode - Kollegal Highway, Gundlupet taluk, Chamarajanagar district, Karnataka, India"
        },
        "kerala": {
            "locType": "restaurant",
            "blogLinks": [
                "http://wikitravel.org/en/Belur",
                "http://www.promotraveller.com/2016/08/03/places-to-visit-around-chikmagalur/"
            ],
            "longitude": "77.6382683",
            "closest_to": "",
            "latitude": "12.9726449",
            "address": "New Life Kerala Mess, Sai Baba Mandira Road, Mottappanapalaya, Indiranagar, Bengaluru, Bangalore Urban, Karnataka, 560001, India"
        },
        "goa": {
            "locType": "restaurant",
            "blogLinks": [
                "http://travel.india.com/chikmagalur/"
            ],
            "longitude": "77.6200027",
            "closest_to": "",
            "latitude": "12.9750047",
            "address": "Carnival De Goa, Bhaskaran Road, Gupta Layout, Halasuru, Bengaluru, Bangalore Urban, Karnataka, 560001, India"
        },
        "davangere": {
            "locType": "commercial",
            "blogLinks": [
                "https://en.wikipedia.org/wiki/Chikkamagaluru_district"
            ],
            "longitude": "75.9197507909343",
            "closest_to": "",
            "latitude": "14.4664457",
            "address": "Davangere City Corporation Offices, K.B. Extension, Davanagere, Davanagere taluku, Davanagere district, Karnataka, 577000, India"
        },
        "kaidala": {
            "locType": "village",
            "blogLinks": [
                "http://wikitravel.org/en/Belur"
            ],
            "longitude": "76.5487269",
            "closest_to": "",
            "latitude": "13.2052746",
            "address": "Kaidala, Tipaturu taluk, Tumkur district, Karnataka, India"
        },
        "vijaynagara": {
            "locType": "bus_stop",
            "blogLinks": [
                "http://blog.indianluxurytrains.com/2014/09/best-places-to-visit-in-karnataka.html"
            ],
            "longitude": "77.5383681",
            "closest_to": "",
            "latitude": "12.9726377",
            "address": "Vijaynagara, Chord Road, Marenahalli, Vijaya Nagar, Binny Layout, Bangalore Urban, Karnataka, 560040, India"
        },
        "nelamangala": {
            "locType": "town",
            "blogLinks": [
                "http://www.mygola.com/road-trip-from-bangalore-to-chikmagalur/q9090"
            ],
            "longitude": "77.3963586",
            "closest_to": "",
            "latitude": "13.0953024",
            "address": "Nelamangala, Nelamangala taluk, Bangalore Rural, Karnataka, India"
        },
        "rameshwara": {
            "locType": "place_of_worship",
            "blogLinks": [
                "http://www.nivalink.com/destination/chikmagalur"
            ],
            "longitude": "77.5678621969321",
            "closest_to": "",
            "latitude": "12.99365815",
            "address": "Rameshwara Temple, Kranthikavi Sarvagnya Road, Rajajinagar 4th Block, Sriramapura, Bengaluru, Bangalore Urban, Karnataka, 560001, India"
        },
        "sri krishnarajendra hill station": {
            "locType": "park",
            "blogLinks": [
                "https://www.thrillophilia.com/places-to-visit-in-chikmagalur",
                "http://www.nivalink.com/destination/chikmagalur"
            ],
            "longitude": "77.583027619944",
            "closest_to": "",
            "latitude": "12.96370475",
            "address": "Silver Jubilee Park, Narasimharaja Road, Ganigarpet, Kalasipalya, Bengaluru, Bangalore Urban, Karnataka, 560001, India"
        },
        "gowdanahalli": {
            "locType": "village",
            "blogLinks": [
                "https://en.wikipedia.org/wiki/Chikkamagaluru_district"
            ],
            "longitude": "77.7311552",
            "closest_to": "",
            "latitude": "13.2314551",
            "address": "Southe Gowdanahalli, Devanahalli taluk, Bangalore Rural, Karnataka, India"
        },
        "udupi": {
            "locType": "city",
            "blogLinks": [
                "https://en.wikipedia.org/wiki/Chikkamagaluru_district"
            ],
            "longitude": "74.7473232",
            "closest_to": "",
            "latitude": "13.3419169",
            "address": "Udupi, Udupi taluku, Udupi district, Karnataka, 576101, India"
        },
        "mecca": {
            "locType": "place_of_worship",
            "blogLinks": [
                "https://en.wikipedia.org/wiki/Chikkamagaluru_district"
            ],
            "longitude": "77.5509669",
            "closest_to": "",
            "latitude": "12.9618838",
            "address": "masjid e mecca, 7th cross padarayana pura, Hosahalli Main Road, Rajajinagar 6th Block, Goripalya, Bengaluru, Bangalore Urban, Karnataka, 560001, India"
        },
        "hampi": {
            "locType": "village",
            "blogLinks": [
                "http://blog.indianluxurytrains.com/2014/09/best-places-to-visit-in-karnataka.html"
            ],
            "longitude": "76.4606199",
            "closest_to": "",
            "latitude": "15.3359769",
            "address": "Hampe, Hosapete taluk, Bellary district, Karnataka, 583239, India"
        },
        "gandhi park": {
            "locType": "hamlet",
            "blogLinks": [
                "http://travel.india.com/chikmagalur/"
            ],
            "longitude": "75.9716938",
            "closest_to": "",
            "latitude": "16.9834411",
            "address": "Gandhi Nagara, Indi taluku, Bijapur district, Karnataka, India"
        },
        "mangalore": {
            "locType": "city",
            "blogLinks": [
                "http://wikitravel.org/en/Belur",
                "http://www.promotraveller.com/2016/08/03/places-to-visit-around-chikmagalur/",
                "http://www.mygola.com/road-trip-from-bangalore-to-chikmagalur/q9090",
                "http://travel.india.com/chikmagalur/",
                "http://www.nivalink.com/destination/chikmagalur",
                "https://en.wikipedia.org/wiki/Chikkamagaluru_district",
                "https://rajeshchaunsali.wordpress.com/2013/10/16/chikmagalur-trip/"
            ],
            "longitude": "74.8430082",
            "closest_to": "",
            "latitude": "12.8698101",
            "address": "Mangaluru, Mangaluru taluk, Dakshina Kannada, Karnataka, 575001, India"
        },
        "venkatappa art gallery": {
            "locType": "museum",
            "blogLinks": [
                "http://blog.indianluxurytrains.com/2014/09/best-places-to-visit-in-karnataka.html"
            ],
            "longitude": "77.5952077",
            "closest_to": "",
            "latitude": "12.9742592",
            "address": "Venkatappa Art Gallery, Kasturba Road, Shantala Nagar, MacIvor Town, Bengaluru, Bangalore Urban, Karnataka, 560001, India"
        },
        "jaladarshini": {
            "locType": "hamlet",
            "blogLinks": [
                "https://www.thrillophilia.com/places-to-visit-in-chikmagalur"
            ],
            "longitude": "77.5696419",
            "closest_to": "",
            "latitude": "13.0307999",
            "address": "Jaladarshini Layout, Bangalore Urban, Karnataka, India"
        },
        "krishnarajendra hill station": {
            "locType": "park",
            "blogLinks": [
                "http://www.promotraveller.com/2016/08/03/places-to-visit-around-chikmagalur/"
            ],
            "longitude": "77.583027619944",
            "closest_to": "",
            "latitude": "12.96370475",
            "address": "Silver Jubilee Park, Narasimharaja Road, Ganigarpet, Kalasipalya, Bengaluru, Bangalore Urban, Karnataka, 560001, India"
        },
        "chennai": {
            "locType": "bank",
            "blogLinks": [
                "http://www.mygola.com/road-trip-from-bangalore-to-chikmagalur/q9090",
                "https://en.wikipedia.org/wiki/Chikkamagaluru_district",
                "http://www.promotraveller.com/2016/08/03/places-to-visit-around-chikmagalur/"
            ],
            "longitude": "80.2197941",
            "closest_to": "",
            "latitude": "13.0365141",
            "address": "Karnataka Bank, Postal Colony 2nd Street, Postal Colony, Ashok Nagar, Chennai City Corporation Limits, Chennai district, Tamil Nadu, 600033, India"
        },
        "karanji lake": {
            "locType": "village",
            "blogLinks": [
                "http://blog.indianluxurytrains.com/2014/09/best-places-to-visit-in-karnataka.html"
            ],
            "longitude": "77.5474867",
            "closest_to": "",
            "latitude": "18.2681849",
            "address": "Karanji, Aurad taluku, Bidar district, Karnataka, India"
        },
        "venkataramana temple": {
            "locType": "place_of_worship",
            "blogLinks": [
                "http://blog.indianluxurytrains.com/2014/09/best-places-to-visit-in-karnataka.html"
            ],
            "longitude": "77.6895365754579",
            "closest_to": "",
            "latitude": "12.8380349",
            "address": "Venkataramana Temple, 20th Cross Road, Anantnagar, Sampige Nagara, Bangalore Urban, Karnataka, 560099, India"
        },
        "chelavara falls": {
            "locType": "waterfall",
            "blogLinks": [
                "http://blog.indianluxurytrains.com/2014/09/best-places-to-visit-in-karnataka.html"
            ],
            "longitude": "75.6734811730693",
            "closest_to": "",
            "latitude": "12.20601005",
            "address": "Chelavara Falls, Madikeri taluku, Kodagu, Karnataka, India"
        },
        "honnavar": {
            "locType": "town",
            "blogLinks": [
                "https://en.wikipedia.org/wiki/Chikkamagaluru_district"
            ],
            "longitude": "74.4446716",
            "closest_to": "",
            "latitude": "14.2810827",
            "address": "Honnavar, Honnavara taluku, Uttara Kannada, Karnataka, 581334, India"
        },
        "sala": {
            "locType": "hospital",
            "blogLinks": [
                "http://wikitravel.org/en/Belur",
                "https://en.wikipedia.org/wiki/Chikkamagaluru_district"
            ],
            "longitude": "77.5850591",
            "closest_to": "",
            "latitude": "12.9411061",
            "address": "Kottakkal Arya Vaidya Sala, 4th Cross Road, Mavalli, Basavanagudi, Bengaluru, Bangalore Urban, Karnataka, 560001, India"
        },
        "golden triangle": {
            "locType": "construction",
            "blogLinks": [
                "https://www.tripoto.com/places-to-visit/india/belur"
            ],
            "longitude": "77.7617021687636",
            "closest_to": "",
            "latitude": "13.05444825",
            "address": "Brigade Golden Triangle Apartments (Under Construction), Kattamanallur, Bangalore Urban, Karnataka, 560066, India"
        },
        "kodagu": {
            "locType": "administrative",
            "blogLinks": [
                "http://blog.indianluxurytrains.com/2014/09/best-places-to-visit-in-karnataka.html"
            ],
            "longitude": "75.6677235950852",
            "closest_to": "",
            "latitude": "12.38117345",
            "address": "Kodagu, Karnataka, India"
        },
        "mahatma gandhi park": {
            "locType": "park",
            "blogLinks": [
                "http://travel.india.com/chikmagalur/",
                "http://blog.indianluxurytrains.com/2014/09/best-places-to-visit-in-karnataka.html"
            ],
            "longitude": "77.5997033330292",
            "closest_to": "",
            "latitude": "12.9772144",
            "address": "Mahatma Gandhi Park, Mahatma Gandhi Road, Shantala Nagar, MacIvor Town, Bengaluru, Bangalore Urban, Karnataka, 560001, India"
        },
        "tungabhadra": {
            "locType": "river",
            "blogLinks": [
                "https://en.wikipedia.org/wiki/Chikkamagaluru_district"
            ],
            "longitude": "76.4931607",
            "closest_to": "",
            "latitude": "15.3446123",
            "address": "Tungabhadra, Gangavati taluku, Koppal district, Karnataka, India"
        },
        "mayura": {
            "locType": "village",
            "blogLinks": [
                "http://wikitravel.org/en/Belur",
                "https://rajeshchaunsali.wordpress.com/2013/10/16/chikmagalur-trip/"
            ],
            "longitude": "76.4982569",
            "closest_to": "",
            "latitude": "17.0307108",
            "address": "Mayura, Jevargi taluku, Kalaburagi district, Karnataka, India"
        },
        "udipi": {
            "locType": "restaurant",
            "blogLinks": [
                "http://www.nivalink.com/destination/chikmagalur"
            ],
            "longitude": "77.652888",
            "closest_to": "",
            "latitude": "12.9530588",
            "address": "Udipi Park, 2nd Cross Road, Muniyappa Layout, Murugeshpalaya, Belure Ambedkar Nagar, Bangalore Urban, Karnataka, 560067, India"
        },
        "railway museum": {
            "locType": "railway",
            "blogLinks": [
                "http://blog.indianluxurytrains.com/2014/09/best-places-to-visit-in-karnataka.html"
            ],
            "longitude": "77.6182271274845",
            "closest_to": "",
            "latitude": "13.001147",
            "address": "Bangalore East Railway Station, Cox Town, Bengaluru, Bangalore Urban, Karnataka, 560001, India"
        },
        "brahmagiri": {
            "locType": "peak",
            "blogLinks": [
                "https://www.thrillophilia.com/places-to-visit-in-chikmagalur"
            ],
            "longitude": "75.490746",
            "closest_to": "",
            "latitude": "12.3868578",
            "address": "Brahmagiri, Madikeri taluku, Kodagu, Karnataka, India"
        },
        "channarayapatna of hassan": {
            "locType": "primary",
            "blogLinks": [
                "http://blog.indianluxurytrains.com/2014/09/best-places-to-visit-in-karnataka.html"
            ],
            "longitude": "76.4628912",
            "closest_to": "",
            "latitude": "13.0775815",
            "address": "Tiptur - Channarayapatna Road, Rampura, Channarayapattana taluk, Hassan district, Karnataka, India"
        },
        "cubbon park": {
            "locType": "station",
            "blogLinks": [
                "http://blog.indianluxurytrains.com/2014/09/best-places-to-visit-in-karnataka.html"
            ],
            "longitude": "77.5977565",
            "closest_to": "",
            "latitude": "12.9808487",
            "address": "Cubbon Park, Cubbon Road, Tasker Town, Shivajinagar, Bengaluru, Bangalore Urban, Karnataka, 560001, India"
        },
        "middle-east": {
            "locType": "school",
            "blogLinks": [
                "http://wikitravel.org/en/Belur"
            ],
            "longitude": "77.3394684",
            "closest_to": "",
            "latitude": "13.1487605",
            "address": "Government Middle And Primary School, NH48, Dodderi, Nelamangala taluk, Bangalore Rural, Karnataka, India"
        },
        "panambur": {
            "locType": "village",
            "blogLinks": [
                "https://en.wikipedia.org/wiki/Chikkamagaluru_district"
            ],
            "longitude": "74.8031577",
            "closest_to": "",
            "latitude": "12.9535736",
            "address": "Panambur, Mangaluru taluk, Dakshina Kannada, Karnataka, India"
        },
        "talakaveri": {
            "locType": "hamlet",
            "blogLinks": [
                "http://wikitravel.org/en/Belur"
            ],
            "longitude": "75.4930074",
            "closest_to": "",
            "latitude": "12.3858456",
            "address": "Talakaveri, Madikeri taluku, Kodagu, Karnataka, India"
        },
        "sharadamba temple": {
            "locType": "place_of_worship",
            "blogLinks": [
                "https://www.thrillophilia.com/places-to-visit-in-chikmagalur"
            ],
            "longitude": "77.5656194",
            "closest_to": "",
            "latitude": "12.9321898",
            "address": "Sharadamba Temple, 7th Main Road, Yediyur, Thyagaraja Nagar, Bengaluru, Bangalore Urban, Karnataka, 560001, India"
        },
        "rose garden": {
            "locType": "garden",
            "blogLinks": [
                "https://www.thrillophilia.com/places-to-visit-in-chikmagalur"
            ],
            "longitude": "77.590382853852",
            "closest_to": "",
            "latitude": "12.97371325",
            "address": "Rose Garden, Dr B R Ambedkar Veedhi, Shantala Nagar, Gandhinagar, Bengaluru, Bangalore Urban, Karnataka, 560001, India"
        },
        "shringeri": {
            "locType": "village",
            "blogLinks": [
                "https://www.thrillophilia.com/places-to-visit-in-chikmagalur",
                "http://travel.india.com/chikmagalur/"
            ],
            "longitude": "75.0621168",
            "closest_to": "",
            "latitude": "14.7221214",
            "address": "Shringeri, Hanagal taluk, Haveri district, Karnataka, India"
        },
        "ooty": {
            "locType": "primary",
            "blogLinks": [
                "http://www.nivalink.com/destination/chikmagalur"
            ],
            "longitude": "76.6586807",
            "closest_to": "",
            "latitude": "12.2774807",
            "address": "Ooty Road, Vidyaranyapuram, Mysuru, Mysuru taluk, Mysuru district, Karnataka, 570001, India"
        },
        "temple road": {
            "locType": "residential",
            "blogLinks": [
                "http://wikitravel.org/en/Belur"
            ],
            "longitude": "77.6739071",
            "closest_to": "",
            "latitude": "12.9301233",
            "address": "Temple Road, Green Glen Layout, Bellandur, Bengaluru, Bangalore Urban, Karnataka, 530103, India"
        },
        "india": {
            "locType": "administrative",
            "blogLinks": [
                "http://wikitravel.org/en/Belur",
                "http://blog.indianluxurytrains.com/2014/09/best-places-to-visit-in-karnataka.html",
                "https://www.tripadvisor.in/Hotel_Review-g1676037-d1996140-Reviews-Karnataka_Hotels_Belur_KSTDC-Belur_Karnataka.html",
                "http://travel.india.com/chikmagalur/",
                "http://www.nivalink.com/destination/chikmagalur",
                "https://en.wikipedia.org/wiki/Chikkamagaluru_district"
            ],
            "longitude": "75.7223521",
            "closest_to": "",
            "latitude": "14.5203896",
            "address": "Karnataka, India"
        },
        "hoysala": {
            "locType": "administrative",
            "blogLinks": [
                "http://travel.india.com/chikmagalur/",
                "http://www.holidayiq.com/destinations/halebid-and-belur/pillars-photos-p67753.html",
                "https://en.wikipedia.org/wiki/Chikkamagaluru_district",
                "https://rajeshchaunsali.wordpress.com/2013/10/16/chikmagalur-trip/"
            ],
            "longitude": "77.6375990817051",
            "closest_to": "",
            "latitude": "12.97813815",
            "address": "Hoysala Nagar, Bengaluru, Bangalore Urban, Karnataka, 560001, India"
        },
        "us": {
            "locType": "administrative",
            "blogLinks": [
                "https://en.wikipedia.org/wiki/Chikkamagaluru_district"
            ],
            "longitude": "75.7223521",
            "closest_to": "",
            "latitude": "14.5203896",
            "address": "Karnataka, India"
        },
        "annapoorneshwari temple": {
            "locType": "place_of_worship",
            "blogLinks": [
                "https://en.wikipedia.org/wiki/Chikkamagaluru_district"
            ],
            "longitude": "74.9006001",
            "closest_to": "",
            "latitude": "12.97910715",
            "address": "Sri Ambika Annapoorneshwari Temple, SH101, Sunkadakatte, Mangaluru taluk, Dakshina Kannada, Karnataka, India"
        },
        "bengal": {
            "locType": "industrial",
            "blogLinks": [
                "https://en.wikipedia.org/wiki/Chikkamagaluru_district"
            ],
            "longitude": "77.7517038151245",
            "closest_to": "",
            "latitude": "13.0492646",
            "address": "Bengal Lamps, Konadasapura, Bangalore Urban, Karnataka, 560066, India"
        },
        "gudur": {
            "locType": "village",
            "blogLinks": [
                "http://travel.india.com/chikmagalur/"
            ],
            "longitude": "77.241526",
            "closest_to": "",
            "latitude": "16.4851262",
            "address": "Gudur, Yadagiri taluku, Yadagiri district, Karnataka, India"
        },
        "hubli": {
            "locType": "city",
            "blogLinks": [
                "http://travel.india.com/chikmagalur/",
                "https://en.wikipedia.org/wiki/Chikkamagaluru_district"
            ],
            "longitude": "75.1379848",
            "closest_to": "",
            "latitude": "15.3518378",
            "address": "Hubballi - \u0cb9\u0cc1\u0cac\u0ccd\u0cac\u0cb3\u0ccd\u0cb3\u0cbf, Hubballi taluku, Dharwad district, Karnataka, 580020, India"
        },
        "kappe": {
            "locType": "ruins",
            "blogLinks": [
                "http://wikitravel.org/en/Belur"
            ],
            "longitude": "75.685841",
            "closest_to": "",
            "latitude": "15.9221735",
            "address": "Kappe Arabatta Shilashasana, Station Road, Agastya Tirtha, Badami, Badami taluku, Bagalkote district, Karnataka, 587200, India"
        },
        "sykes point": {
            "locType": "viewpoint",
            "blogLinks": [
                "http://blog.indianluxurytrains.com/2014/09/best-places-to-visit-in-karnataka.html"
            ],
            "longitude": "74.6488754",
            "closest_to": "",
            "latitude": "15.0905368",
            "address": "Sykes point, Ambikanagar road, Haliyala taluku, Uttara Kannada, Karnataka, India"
        },
        "karnataka": {
            "locType": "atm",
            "blogLinks": [
                "http://wikitravel.org/en/Belur",
                "http://travel.india.com/belur/places-to-visit/",
                "http://blog.indianluxurytrains.com/2014/09/best-places-to-visit-in-karnataka.html",
                "https://www.thrillophilia.com/places-to-visit-in-chikmagalur",
                "http://www.holidayiq.com/destinations/halebid-and-belur/pillars-photos-p67753.html",
                "http://www.mygola.com/road-trip-from-bangalore-to-chikmagalur/q9090",
                "http://travel.india.com/chikmagalur/",
                "http://www.nivalink.com/destination/chikmagalur",
                "https://en.wikipedia.org/wiki/Chikkamagaluru_district",
                "https://www.tripoto.com/places-to-visit/india/belur",
                "https://rajeshchaunsali.wordpress.com/2013/10/16/chikmagalur-trip/"
            ],
            "longitude": "76.6639936",
            "closest_to": "",
            "latitude": "12.3084901",
            "address": "Karnataka, Shalivahana Road, Nazarbad, Mysuru, Mysuru taluk, Mysuru district, Karnataka, 570001, India"
        },
        "parvati": {
            "locType": "village",
            "blogLinks": [
                "http://www.nivalink.com/destination/chikmagalur"
            ],
            "longitude": "75.7898501",
            "closest_to": "",
            "latitude": "16.0395701",
            "address": "Parvati, Badami taluku, Bagalkote district, Karnataka, India"
        },
        "chitradurga district": {
            "locType": "administrative",
            "blogLinks": [
                "https://en.wikipedia.org/wiki/Chikkamagaluru_district"
            ],
            "longitude": "76.5299366059272",
            "closest_to": "",
            "latitude": "14.3051049",
            "address": "Chitradurga district, Karnataka, India"
        },
        "tarikere taluk": {
            "locType": "village",
            "blogLinks": [
                "https://en.wikipedia.org/wiki/Chikkamagaluru_district"
            ],
            "longitude": "76.9606245",
            "closest_to": "",
            "latitude": "12.7569125",
            "address": "Tarikere, Madduru taluk, Mandya district, Karnataka, India"
        },
        "ganesha": {
            "locType": "place_of_worship",
            "blogLinks": [
                "http://wikitravel.org/en/Belur"
            ],
            "longitude": "77.5663029",
            "closest_to": "",
            "latitude": "13.0029248",
            "address": "Ganesha, 12th Cross Road, Vyalikaval, Malleswaram, Bengaluru, Bangalore Urban, Karnataka, 560001, India"
        },
        "dakshina kannada": {
            "locType": "administrative",
            "blogLinks": [
                "https://en.wikipedia.org/wiki/Chikkamagaluru_district"
            ],
            "longitude": "75.1008028650794",
            "closest_to": "",
            "latitude": "12.8114089",
            "address": "Dakshina Kannada, Karnataka, India"
        },
        "uma maheshwara temple": {
            "locType": "place_of_worship",
            "blogLinks": [
                "http://blog.indianluxurytrains.com/2014/09/best-places-to-visit-in-karnataka.html"
            ],
            "longitude": "74.3120254424635",
            "closest_to": "",
            "latitude": "14.5234594",
            "address": "Uma-maheshwara temple, Om beach road, Gokarna, Kumata taluk, Uttara Kannada, Karnataka, 581326, India"
        },
        "kannur": {
            "locType": "construction",
            "blogLinks": [
                "http://www.nivalink.com/destination/chikmagalur"
            ],
            "longitude": "74.8858161",
            "closest_to": "",
            "latitude": "12.8487602",
            "address": "Netravati bridge - Kannur Bypass Road (Proposed), Padil, Bajal, Mangaluru taluk, Dakshina Kannada, Karnataka, 575007, India"
        },
        "national park": {
            "locType": "national_park",
            "blogLinks": [
                "http://travel.india.com/chikmagalur/"
            ],
            "longitude": "77.5722783830694",
            "closest_to": "",
            "latitude": "12.77900335",
            "address": "Bannerghatta National Park, Anekal Road, Begihalli, Bangalore Urban, Karnataka, 560076, India"
        },
        "atishaya": {
            "locType": "place_of_worship",
            "blogLinks": [
                "https://en.wikipedia.org/wiki/Chikkamagaluru_district"
            ],
            "longitude": "75.6959636",
            "closest_to": "",
            "latitude": "16.850099",
            "address": "Shri Atishaya Kshetra 1008 Sahastra Fani Parshwanath Digamber Jain Temple, Ring Road, Vijayapura, Vijayapura taluk, Bijapur district, Karnataka, 586101, India"
        },
        "north kerala": {
            "locType": "restaurant",
            "blogLinks": [
                "http://www.nivalink.com/destination/chikmagalur"
            ],
            "longitude": "77.6382683",
            "closest_to": "",
            "latitude": "12.9726449",
            "address": "New Life Kerala Mess, Sai Baba Mandira Road, Mottappanapalaya, Indiranagar, Bengaluru, Bangalore Urban, Karnataka, 560001, India"
        }
    },
    "belur": {
        "osm_id": "245618812",
        "display_name": "Belur, Beluru taluk, Hassan district, Karnataka, 573115, India",
        "importance": 0.5,
        "place_id": "633330",
        "class": "place",
        "boundingbox": [
            "13.1245671",
            "13.2045671",
            "75.8234851",
            "75.9034851"
        ],
        "type": "town",
        "lon": "75.8634851",
        "licence": "Data \u00a9 OpenStreetMap contributors, ODbL 1.0. http://www.openstreetmap.org/copyright",
        "osm_type": "node",
        "lat": "13.1645671",
        "icon": "https://nominatim.openstreetmap.org/images/mapicons/poi_place_town.p.20.png"
    },
    "chikmagalur": {
        "osm_id": "316417001",
        "display_name": "Chikmagalur, Chikkamagaluru district, Karnataka, India",
        "importance": 0.65,
        "place_id": "1426840",
        "class": "place",
        "boundingbox": [
            "12.86",
            "14.14",
            "74.86",
            "76.14"
        ],
        "type": "county",
        "lon": "75.5",
        "licence": "Data \u00a9 OpenStreetMap contributors, ODbL 1.0. http://www.openstreetmap.org/copyright",
        "osm_type": "node",
        "lat": "13.5",
        "icon": "https://nominatim.openstreetmap.org/images/mapicons/poi_boundary_administrative.p.20.png"
    }
}