{
    "sirsi": {
        "osm_id": "245628312",
        "display_name": "Sirsi, Shirasi taluk, Uttara Kannada, Karnataka, 581400, India",
        "importance": 0.5,
        "place_id": "630058",
        "class": "place",
        "boundingbox": [
            "14.5792362",
            "14.6592362",
            "74.7988611",
            "74.8788611"
        ],
        "type": "town",
        "lon": "74.8388611",
        "licence": "Data \u00a9 OpenStreetMap contributors, ODbL 1.0. http://www.openstreetmap.org/copyright",
        "osm_type": "node",
        "lat": "14.6192362",
        "icon": "https://nominatim.openstreetmap.org/images/mapicons/poi_place_town.p.20.png"
    },
    "belur": {
        "osm_id": "245618812",
        "display_name": "Belur, Beluru taluk, Hassan district, Karnataka, 573115, India",
        "importance": 0.5,
        "place_id": "633330",
        "class": "place",
        "boundingbox": [
            "13.1245671",
            "13.2045671",
            "75.8234851",
            "75.9034851"
        ],
        "type": "town",
        "lon": "75.8634851",
        "licence": "Data \u00a9 OpenStreetMap contributors, ODbL 1.0. http://www.openstreetmap.org/copyright",
        "osm_type": "node",
        "lat": "13.1645671",
        "icon": "https://nominatim.openstreetmap.org/images/mapicons/poi_place_town.p.20.png"
    },
    "mentions": {
        "west bengal": {
            "locType": "industrial",
            "blogLinks": [
                "https://www.tripoto.com/weekend-getaways/from-sirsi"
            ],
            "longitude": "77.7517038151245",
            "closest_to": "",
            "latitude": "13.0492646",
            "address": "Bengal Lamps, Konadasapura, Bangalore Urban, Karnataka, 560066, India"
        },
        "bengal": {
            "locType": "industrial",
            "blogLinks": [
                "https://www.tripoto.com/weekend-getaways/from-belur"
            ],
            "longitude": "77.7517038151245",
            "closest_to": "",
            "latitude": "13.0492646",
            "address": "Bengal Lamps, Konadasapura, Bangalore Urban, Karnataka, 560066, India"
        },
        "hong kong": {
            "locType": "restaurant",
            "blogLinks": [
                "https://www.travelblog.org/Asia/India/Karnataka/Hassan/blog-5839.html"
            ],
            "longitude": "77.6768991",
            "closest_to": "",
            "latitude": "13.020749",
            "address": "Hong Kong Noodles, Kalkere Main road, Ramamurthy Nagar, Varanasi, Bangalore Urban, Karnataka, 600042, India"
        },
        "chennai": {
            "locType": "bank",
            "blogLinks": [
                "https://en.wikipedia.org/wiki/Sirsi,_Karnataka",
                "https://www.tripoto.com/weekend-getaways/from-belur"
            ],
            "longitude": "80.2197941",
            "closest_to": "",
            "latitude": "13.0365141",
            "address": "Karnataka Bank, Postal Colony 2nd Street, Postal Colony, Ashok Nagar, Chennai City Corporation Limits, Chennai district, Tamil Nadu, 600033, India"
        },
        "golden triangle": {
            "locType": "construction",
            "blogLinks": [
                "https://www.tripoto.com/weekend-getaways/from-belur"
            ],
            "longitude": "77.7617021687636",
            "closest_to": "",
            "latitude": "13.05444825",
            "address": "Brigade Golden Triangle Apartments (Under Construction), Kattamanallur, Bangalore Urban, Karnataka, 560066, India"
        },
        "south": {
            "locType": "residential",
            "blogLinks": [
                "http://www.nivalink.com/destination/hassan"
            ],
            "longitude": "77.8040874",
            "closest_to": "",
            "latitude": "13.2942848",
            "address": "s, Vijayapura, Devanahalli taluk, Bangalore Rural, Karnataka, 562135, India"
        },
        "devanahalli": {
            "locType": "town",
            "blogLinks": [
                "https://raobharata.wordpress.com/2012/04/21/more-waterfalls-around-sonda-sirsi/"
            ],
            "longitude": "77.7134377",
            "closest_to": "",
            "latitude": "13.2483502",
            "address": "Devanahalli, Devanahalli taluk, Bangalore Rural, Karnataka, India"
        },
        "varanasi": {
            "locType": "village",
            "blogLinks": [
                "https://en.wikipedia.org/wiki/Sirsi,_Karnataka"
            ],
            "longitude": "77.6860657",
            "closest_to": "",
            "latitude": "13.0304962",
            "address": "Varanasi, Bangalore Urban, Karnataka, India"
        },
        "earth": {
            "locType": "industrial",
            "blogLinks": [
                "https://www.tripoto.com/weekend-getaways/from-belur",
                "https://www.tripoto.com/weekend-getaways/from-sirsi"
            ],
            "longitude": "77.659986649248",
            "closest_to": "",
            "latitude": "12.9740596",
            "address": "Bharat Earth Movers Limited - BEML, GM Palya, Bengaluru, Bangalore Urban, Karnataka, 560001, India"
        },
        "garden city": {
            "locType": "bank",
            "blogLinks": [
                "https://www.tripoto.com/weekend-getaways/from-belur"
            ],
            "longitude": "80.2197941",
            "closest_to": "",
            "latitude": "13.0365141",
            "address": "Karnataka Bank, Postal Colony 2nd Street, Postal Colony, Ashok Nagar, Chennai City Corporation Limits, Chennai district, Tamil Nadu, 600033, India"
        },
        "tamil nadu": {
            "locType": "bank",
            "blogLinks": [
                "https://www.tripoto.com/weekend-getaways/from-belur"
            ],
            "longitude": "76.9514152",
            "closest_to": "",
            "latitude": "11.0025894",
            "address": "KARNATAKA BANK, Diwan Bhadur Road, Five Corner, RS Puram, Coimbatore, Coimbatore district, Tamil Nadu, 641001, India"
        },
        "emerald lake": {
            "locType": "hotel",
            "blogLinks": [
                "https://www.tripoto.com/weekend-getaways/from-belur"
            ],
            "longitude": "77.8188013",
            "closest_to": "",
            "latitude": "13.0833534",
            "address": "Emerald Isle Resort, NH75, Lakshmisagara, Kolar taluk, Kolar district, Karnataka, 563133, India"
        },
        "udipi": {
            "locType": "restaurant",
            "blogLinks": [
                "http://www.nivalink.com/destination/hassan",
                "http://www.nivalink.com/destination/belur"
            ],
            "longitude": "77.652888",
            "closest_to": "",
            "latitude": "12.9530588",
            "address": "Udipi Park, 2nd Cross Road, Muniyappa Layout, Murugeshpalaya, Belure Ambedkar Nagar, Bangalore Urban, Karnataka, 560067, India"
        },
        "rajasthan": {
            "locType": "atm",
            "blogLinks": [
                "https://www.tripoto.com/weekend-getaways/from-sirsi"
            ],
            "longitude": "75.7985653",
            "closest_to": "",
            "latitude": "26.91869",
            "address": "Karnataka Bank, Mirza Ismail Road, Hasanpura, Bani Park, Jaipur, Rajasthan, 302006, India"
        },
        "uttar pradesh": {
            "locType": "bank",
            "blogLinks": [
                "https://www.tripoto.com/weekend-getaways/from-sirsi"
            ],
            "longitude": "78.0042192",
            "closest_to": "",
            "latitude": "27.2058869",
            "address": "Karnataka Bank, Mahatma Gandhi Road, Shahganj, Agra, Uttar Pradesh, 282003, India"
        },
        "chhattisgarh": {
            "locType": "atm",
            "blogLinks": [
                "https://www.tripoto.com/weekend-getaways/from-sirsi"
            ],
            "longitude": "82.1706554",
            "closest_to": "",
            "latitude": "22.0573049",
            "address": "KARNATAKA ATM, Bilaspur Bypass, Bilaspur, Bil\u0101spur, Bilaspur, Chhattisgarh, 495004, India"
        }
    }
}