{
    "chikmagalur": {
        "lat": "13.5",
        "class": "place",
        "importance": 0.65,
        "osm_type": "node",
        "lon": "75.5",
        "place_id": "1426840",
        "display_name": "Chikmagalur, Chikkamagaluru district, Karnataka, India",
        "osm_id": "316417001",
        "boundingbox": [
            "12.86",
            "14.14",
            "74.86",
            "76.14"
        ],
        "type": "county",
        "licence": "Data \u00a9 OpenStreetMap contributors, ODbL 1.0. http://www.openstreetmap.org/copyright",
        "icon": "https://nominatim.openstreetmap.org/images/mapicons/poi_boundary_administrative.p.20.png"
    },
    "mentions": {
        "national park": {
            "blogLinks": [
                "http://travel.india.com/chikmagalur/"
            ],
            "longitude": "77.5722783830694",
            "address": "Bannerghatta National Park, Anekal Road, Begihalli, Bangalore Urban, Karnataka, 560076, India",
            "latitude": "12.77900335",
            "locType": "national_park",
            "closest_to": ""
        },
        "south": {
            "blogLinks": [
                "http://www.nivalink.com/destination/shimoga"
            ],
            "longitude": "77.8040874",
            "address": "s, Vijayapura, Devanahalli taluk, Bangalore Rural, Karnataka, 562135, India",
            "latitude": "13.2942848",
            "locType": "residential",
            "closest_to": ""
        },
        "maradi": {
            "blogLinks": [
                "http://travel.india.com/chikmagalur/",
                "http://wikitravel.org/en/Chikmagalur"
            ],
            "longitude": "76.0757799",
            "address": "Maradi, Arakalagudu taluk, Hassan district, Karnataka, India",
            "latitude": "12.8130205",
            "locType": "village",
            "closest_to": ""
        },
        "maharaja": {
            "blogLinks": [
                "http://travel.india.com/chikmagalur/"
            ],
            "longitude": "76.6438602",
            "address": "Maharaja, College Road, Vani Vilas, Mysuru, Mysuru taluk, Mysuru district, Karnataka, 570001, India",
            "latitude": "12.3047676",
            "locType": "restaurant",
            "closest_to": ""
        },
        "sri krishnarajendra hill station": {
            "blogLinks": [
                "http://www.nivalink.com/destination/chikmagalur",
                "https://www.thrillophilia.com/places-to-visit-in-chikmagalur"
            ],
            "longitude": "77.583027619944",
            "address": "Silver Jubilee Park, Narasimharaja Road, Ganigarpet, Kalasipalya, Bengaluru, Bangalore Urban, Karnataka, 560001, India",
            "latitude": "12.96370475",
            "locType": "park",
            "closest_to": ""
        },
        "subrahmanya temple": {
            "blogLinks": [
                "http://www.nivalink.com/destination/shimoga"
            ],
            "longitude": "76.2499985",
            "address": "Subrahmanya Temple Road, Lakshmi Puram, Arasikere, Arasikere taluku, Hassan district, Karnataka, 573103, India",
            "latitude": "13.3105901",
            "locType": "residential",
            "closest_to": ""
        },
        "gorur dam - gorur": {
            "blogLinks": [
                "http://www.mygola.com/road-trip-from-bangalore-to-chikmagalur/q9090"
            ],
            "longitude": "76.0644435",
            "address": "Gorur, Hasana taluk, Hassan district, Karnataka, 573120, India",
            "latitude": "12.8238999",
            "locType": "village",
            "closest_to": ""
        },
        "sharadamba temple": {
            "blogLinks": [
                "https://www.thrillophilia.com/places-to-visit-in-chikmagalur"
            ],
            "longitude": "77.5656194",
            "address": "Sharadamba Temple, 7th Main Road, Yediyur, Thyagaraja Nagar, Bengaluru, Bangalore Urban, Karnataka, 560001, India",
            "latitude": "12.9321898",
            "locType": "place_of_worship",
            "closest_to": ""
        },
        "yagachi": {
            "blogLinks": [
                "http://wikitravel.org/en/Chikmagalur"
            ],
            "longitude": "75.950911",
            "address": "Yagachi, Beluru taluk, Hassan district, Karnataka, India",
            "latitude": "13.0658494",
            "locType": "river",
            "closest_to": ""
        },
        "sakleshpur": {
            "blogLinks": [
                "http://www.mygola.com/road-trip-from-bangalore-to-chikmagalur/q9090"
            ],
            "longitude": "75.7862318",
            "address": "Sakaleshpura, Sakaleshapura taluk, Hassan district, Karnataka, 573134, India",
            "latitude": "12.9434349",
            "locType": "town",
            "closest_to": ""
        },
        "chennai": {
            "blogLinks": [
                "http://www.mygola.com/road-trip-from-bangalore-to-chikmagalur/q9090"
            ],
            "longitude": "80.2197941",
            "address": "Karnataka Bank, Postal Colony 2nd Street, Postal Colony, Ashok Nagar, Chennai City Corporation Limits, Chennai district, Tamil Nadu, 600033, India",
            "latitude": "13.0365141",
            "locType": "bank",
            "closest_to": ""
        },
        "rameshwara": {
            "blogLinks": [
                "http://www.nivalink.com/destination/chikmagalur"
            ],
            "longitude": "77.5678621969321",
            "address": "Rameshwara Temple, Kranthikavi Sarvagnya Road, Rajajinagar 4th Block, Sriramapura, Bengaluru, Bangalore Urban, Karnataka, 560001, India",
            "latitude": "12.99365815",
            "locType": "place_of_worship",
            "closest_to": ""
        },
        "gandhi park": {
            "blogLinks": [
                "http://travel.india.com/chikmagalur/"
            ],
            "longitude": "75.9716938",
            "address": "Gandhi Nagara, Indi taluku, Bijapur district, Karnataka, India",
            "latitude": "16.9834411",
            "locType": "hamlet",
            "closest_to": ""
        },
        "vijayapura main road": {
            "blogLinks": [
                "http://wikitravel.org/en/Chikmagalur"
            ],
            "longitude": "75.6425088",
            "address": "Karnataka State Women's University, Athani Road, Ratnapura, Vijayapura taluk, Bijapur district, Karnataka, India",
            "latitude": "16.8319715",
            "locType": "college",
            "closest_to": ""
        },
        "shantigrama": {
            "blogLinks": [
                "http://www.mygola.com/road-trip-from-bangalore-to-chikmagalur/q9090"
            ],
            "longitude": "76.2166763",
            "address": "Shantigrama, Hasana taluk, Hassan district, Karnataka, India",
            "latitude": "12.983428",
            "locType": "village",
            "closest_to": ""
        },
        "tumkur": {
            "blogLinks": [
                "http://wikitravel.org/en/Chikmagalur"
            ],
            "longitude": "77.0002445",
            "address": "Tumakuru, Tumkur district, Karnataka, India",
            "latitude": "13.4999406",
            "locType": "county",
            "closest_to": ""
        },
        "belur": {
            "blogLinks": [
                "http://www.nivalink.com/destination/chikmagalur",
                "http://travel.india.com/chikmagalur/",
                "http://www.mygola.com/road-trip-from-bangalore-to-chikmagalur/q9090",
                "http://wikitravel.org/en/Chikmagalur"
            ],
            "longitude": "75.8634851",
            "address": "Belur, Beluru taluk, Hassan district, Karnataka, 573115, India",
            "latitude": "13.1645671",
            "locType": "town",
            "closest_to": ""
        },
        "sagar": {
            "blogLinks": [
                "https://www.thrillophilia.com/places-to-visit-in-chikmagalur"
            ],
            "longitude": "75.0262551",
            "address": "Sagara, Sagara taluk, Shimoga district, Karnataka, 577400, India",
            "latitude": "14.1666594",
            "locType": "town",
            "closest_to": ""
        },
        "lakkavalli": {
            "blogLinks": [
                "http://wikitravel.org/en/Chikmagalur"
            ],
            "longitude": "75.1078097",
            "address": "Lakkavalli, Soraba taluk, Shimoga district, Karnataka, India",
            "latitude": "14.5841018",
            "locType": "village",
            "closest_to": ""
        },
        "goa": {
            "blogLinks": [
                "http://travel.india.com/chikmagalur/"
            ],
            "longitude": "77.6200027",
            "address": "Carnival De Goa, Bhaskaran Road, Gupta Layout, Halasuru, Bengaluru, Bangalore Urban, Karnataka, 560001, India",
            "latitude": "12.9750047",
            "locType": "restaurant",
            "closest_to": ""
        },
        "koodli": {
            "blogLinks": [
                "http://www.nivalink.com/destination/shimoga"
            ],
            "longitude": "74.7671",
            "address": "Koodli Road, Yadtadi, Udupi taluku, Udupi district, Karnataka, India",
            "latitude": "13.4868433",
            "locType": "tertiary",
            "closest_to": ""
        },
        "mudigere": {
            "blogLinks": [
                "https://www.thrillophilia.com/places-to-visit-in-chikmagalur"
            ],
            "longitude": "76.0185988",
            "address": "Mudigere, Aluru taluk, Hassan district, Karnataka, India",
            "latitude": "13.0093567",
            "locType": "village",
            "closest_to": ""
        },
        "coorg": {
            "blogLinks": [
                "https://www.thrillophilia.com/places-to-visit-in-chikmagalur"
            ],
            "longitude": "75.740031",
            "address": "Madikeri, Madikeri taluku, Kodagu, Karnataka, India",
            "latitude": "12.4204003",
            "locType": "town",
            "closest_to": ""
        },
        "south karnataka": {
            "blogLinks": [
                "http://wikitravel.org/en/Chikmagalur"
            ],
            "longitude": "77.8040874",
            "address": "s, Vijayapura, Devanahalli taluk, Bangalore Rural, Karnataka, 562135, India",
            "latitude": "13.2942848",
            "locType": "residential",
            "closest_to": ""
        },
        "halebid": {
            "blogLinks": [
                "http://www.mygola.com/road-trip-from-bangalore-to-chikmagalur/q9090"
            ],
            "longitude": "75.9918793",
            "address": "Halebidu, Beluru taluk, Hassan district, Karnataka, 573121, India",
            "latitude": "13.2167959",
            "locType": "village",
            "closest_to": ""
        },
        "manjarabad fort": {
            "blogLinks": [
                "http://www.mygola.com/road-trip-from-bangalore-to-chikmagalur/q9090"
            ],
            "longitude": "75.7580572896098",
            "address": "Manjarabad Fort, SH27, Hullahalli, Sakaleshapura taluk, Hassan district, Karnataka, 573134, India",
            "latitude": "12.9173302",
            "locType": "attraction",
            "closest_to": ""
        },
        "tungabhadra river": {
            "blogLinks": [
                "http://travel.india.com/chikmagalur/",
                "https://www.thrillophilia.com/places-to-visit-in-chikmagalur",
                "http://www.nivalink.com/destination/shimoga"
            ],
            "longitude": "76.4931607",
            "address": "Tungabhadra, Gangavati taluku, Koppal district, Karnataka, India",
            "latitude": "15.3446123",
            "locType": "river",
            "closest_to": ""
        },
        "halebidu": {
            "blogLinks": [
                "http://www.nivalink.com/destination/chikmagalur"
            ],
            "longitude": "76.4607075",
            "address": "Halebidu, Hunasuru taluk, Mysuru district, Karnataka, India",
            "latitude": "12.359893",
            "locType": "village",
            "closest_to": ""
        },
        "river sharavathi": {
            "blogLinks": [
                "http://www.mygola.com/road-trip-from-bangalore-to-chikmagalur/q9090"
            ],
            "longitude": "77.5476521",
            "address": "Vrishabavathi, Bengaluru, Bangalore Urban, Karnataka, 560001, India",
            "latitude": "12.967526",
            "locType": "river",
            "closest_to": ""
        },
        "rose garden": {
            "blogLinks": [
                "https://www.thrillophilia.com/places-to-visit-in-chikmagalur"
            ],
            "longitude": "77.590382853852",
            "address": "Rose Garden, Dr B R Ambedkar Veedhi, Shantala Nagar, Gandhinagar, Bengaluru, Bangalore Urban, Karnataka, 560001, India",
            "latitude": "12.97371325",
            "locType": "garden",
            "closest_to": ""
        },
        "india": {
            "blogLinks": [
                "http://www.nivalink.com/destination/shimoga",
                "http://wikitravel.org/en/Chikmagalur",
                "https://www.distancecalculator.net/from-chikmagalur-to-shimoga",
                "http://travel.india.com/chikmagalur/",
                "http://www.nivalink.com/destination/chikmagalur",
                "http://www.karnatakatourism.org/",
                "http://www.holidayiq.com/Shimoga-Sightseeing-748.html"
            ],
            "longitude": "75.7223521",
            "address": "Karnataka, India",
            "latitude": "14.5203896",
            "locType": "administrative",
            "closest_to": ""
        },
        "mangalore": {
            "blogLinks": [
                "http://www.nivalink.com/destination/chikmagalur",
                "https://www.distancecalculator.net/from-chikmagalur-to-shimoga",
                "http://travel.india.com/chikmagalur/",
                "http://www.mygola.com/road-trip-from-bangalore-to-chikmagalur/q9090",
                "http://wikitravel.org/en/Chikmagalur"
            ],
            "longitude": "74.8430082",
            "address": "Mangaluru, Mangaluru taluk, Dakshina Kannada, Karnataka, 575001, India",
            "latitude": "12.8698101",
            "locType": "city",
            "closest_to": ""
        },
        "kappe chennigaraya": {
            "blogLinks": [
                "http://travel.india.com/chikmagalur/"
            ],
            "longitude": "75.8603867",
            "address": "Kappe Chennigaraya Temple, NH73, Navilahalli, Beluru taluk, Hassan district, Karnataka, India",
            "latitude": "13.1624691",
            "locType": "archaeological_site",
            "closest_to": ""
        },
        "sagara": {
            "blogLinks": [
                "http://www.holidayiq.com/Shimoga-Sightseeing-748.html"
            ],
            "longitude": "75.0262551",
            "address": "Sagara, Sagara taluk, Shimoga district, Karnataka, 577400, India",
            "latitude": "14.1666594",
            "locType": "town",
            "closest_to": ""
        },
        "parvati": {
            "blogLinks": [
                "http://www.nivalink.com/destination/chikmagalur"
            ],
            "longitude": "75.7898501",
            "address": "Parvati, Badami taluku, Bagalkote district, Karnataka, India",
            "latitude": "16.0395701",
            "locType": "village",
            "closest_to": ""
        },
        "gudur": {
            "blogLinks": [
                "http://travel.india.com/chikmagalur/"
            ],
            "longitude": "77.241526",
            "address": "Gudur, Yadagiri taluku, Yadagiri district, Karnataka, India",
            "latitude": "16.4851262",
            "locType": "village",
            "closest_to": ""
        },
        "udipi": {
            "blogLinks": [
                "http://www.nivalink.com/destination/chikmagalur",
                "http://www.nivalink.com/destination/shimoga"
            ],
            "longitude": "77.652888",
            "address": "Udipi Park, 2nd Cross Road, Muniyappa Layout, Murugeshpalaya, Belure Ambedkar Nagar, Bangalore Urban, Karnataka, 560067, India",
            "latitude": "12.9530588",
            "locType": "restaurant",
            "closest_to": ""
        },
        "hubli": {
            "blogLinks": [
                "http://travel.india.com/chikmagalur/",
                "http://www.nivalink.com/destination/shimoga"
            ],
            "longitude": "75.1379848",
            "address": "Hubballi - \u0cb9\u0cc1\u0cac\u0ccd\u0cac\u0cb3\u0ccd\u0cb3\u0cbf, Hubballi taluku, Dharwad district, Karnataka, 580020, India",
            "latitude": "15.3518378",
            "locType": "city",
            "closest_to": ""
        },
        "north kerala": {
            "blogLinks": [
                "http://www.nivalink.com/destination/chikmagalur"
            ],
            "longitude": "77.6382683",
            "address": "New Life Kerala Mess, Sai Baba Mandira Road, Mottappanapalaya, Indiranagar, Bengaluru, Bangalore Urban, Karnataka, 560001, India",
            "latitude": "12.9726449",
            "locType": "restaurant",
            "closest_to": ""
        },
        "hemavati": {
            "blogLinks": [
                "http://wikitravel.org/en/Chikmagalur"
            ],
            "longitude": "76.0723187",
            "address": "Hemavati, Hasana taluk, Hassan district, Karnataka, India",
            "latitude": "12.8179996",
            "locType": "river",
            "closest_to": ""
        },
        "hassan": {
            "blogLinks": [
                "http://travel.india.com/chikmagalur/"
            ],
            "longitude": "76.0992703",
            "address": "Hassan, Hasana taluk, Hassan district, Karnataka, 573201, India",
            "latitude": "13.0070817",
            "locType": "town",
            "closest_to": ""
        },
        "nelamangala": {
            "blogLinks": [
                "http://www.mygola.com/road-trip-from-bangalore-to-chikmagalur/q9090"
            ],
            "longitude": "77.3963586",
            "address": "Nelamangala, Nelamangala taluk, Bangalore Rural, Karnataka, India",
            "latitude": "13.0953024",
            "locType": "town",
            "closest_to": ""
        },
        "mumbai": {
            "blogLinks": [
                "http://travel.india.com/chikmagalur/",
                "http://www.mygola.com/road-trip-from-bangalore-to-chikmagalur/q9090"
            ],
            "longitude": "77.5718472",
            "address": "Mumbai Spice, 18/2, 10th Cross, Malleswaram, Vyalikaval, Malleswaram, Bengaluru, Bangalore Urban, Karnataka, 560003, India",
            "latitude": "13.0002869",
            "locType": "restaurant",
            "closest_to": ""
        },
        "hoysala": {
            "blogLinks": [
                "http://travel.india.com/chikmagalur/",
                "http://www.nivalink.com/destination/shimoga"
            ],
            "longitude": "77.6375990817051",
            "address": "Hoysala Nagar, Bengaluru, Bangalore Urban, Karnataka, 560001, India",
            "latitude": "12.97813815",
            "locType": "administrative",
            "closest_to": ""
        },
        "shimoga district of karnataka": {
            "blogLinks": [
                "http://www.holidayiq.com/Shimoga-Sightseeing-748.html"
            ],
            "longitude": "75.1312533993886",
            "address": "Shimoga district, Karnataka, India",
            "latitude": "14.0558284",
            "locType": "administrative",
            "closest_to": ""
        },
        "lingadahalli": {
            "blogLinks": [
                "http://thinkingparticle.com/articles/kemmangundi-and-hebbe-falls-trek"
            ],
            "longitude": "77.0452806",
            "address": "Lingadahalli, Pavagada taluk, Tumkur district, Karnataka, India",
            "latitude": "14.1882016",
            "locType": "village",
            "closest_to": ""
        },
        "bangalore": {
            "blogLinks": [
                "http://www.mygola.com/road-trip-from-bangalore-to-chikmagalur/q9090",
                "http://www.nivalink.com/destination/shimoga",
                "http://wikitravel.org/en/Chikmagalur",
                "http://thinkingparticle.com/articles/kemmangundi-and-hebbe-falls-trek",
                "http://travel.india.com/chikmagalur/",
                "http://www.nivalink.com/destination/chikmagalur",
                "https://www.thrillophilia.com/places-to-visit-in-chikmagalur"
            ],
            "longitude": "77.5912997",
            "address": "Bengaluru, Bangalore Urban, Karnataka, 560001, India",
            "latitude": "12.9791198",
            "locType": "city",
            "closest_to": ""
        },
        "vedavati": {
            "blogLinks": [
                "http://wikitravel.org/en/Chikmagalur"
            ],
            "longitude": "76.1347937",
            "address": "Vedavati, Kaduru taluk, Chikkamagaluru district, Karnataka, India",
            "latitude": "13.6048777",
            "locType": "river",
            "closest_to": ""
        },
        "jaladarshini": {
            "blogLinks": [
                "https://www.thrillophilia.com/places-to-visit-in-chikmagalur"
            ],
            "longitude": "77.5696419",
            "address": "Jaladarshini Layout, Bangalore Urban, Karnataka, India",
            "latitude": "13.0307999",
            "locType": "hamlet",
            "closest_to": ""
        },
        "kannur": {
            "blogLinks": [
                "http://www.nivalink.com/destination/chikmagalur"
            ],
            "longitude": "74.8858161",
            "address": "Netravati bridge - Kannur Bypass Road (Proposed), Padil, Bajal, Mangaluru taluk, Dakshina Kannada, Karnataka, 575007, India",
            "latitude": "12.8487602",
            "locType": "construction",
            "closest_to": ""
        },
        "gowdahalli": {
            "blogLinks": [
                "http://wikitravel.org/en/Chikmagalur"
            ],
            "longitude": "75.5981999",
            "address": "Gowdahalli, Mudigere taluk, Chikkamagaluru district, Karnataka, India",
            "latitude": "13.0422415",
            "locType": "village",
            "closest_to": ""
        },
        "sorab": {
            "blogLinks": [
                "http://www.holidayiq.com/Shimoga-Sightseeing-748.html"
            ],
            "longitude": "75.1114212",
            "address": "Sorab Ulavi Rd, Ulavi, Soraba taluk, Shimoga district, Karnataka, 577434, India",
            "latitude": "14.2779168",
            "locType": "secondary",
            "closest_to": ""
        },
        "riversidedam28kundadrikundagiri hills": {
            "blogLinks": [
                "http://www.nivalink.com/destination/shimoga"
            ],
            "longitude": "74.860152",
            "address": "Kadri Hills, Mangaluru, Mangaluru taluk, Dakshina Kannada, Karnataka, 575001, India",
            "latitude": "12.8935998",
            "locType": "suburb",
            "closest_to": ""
        },
        "keladi": {
            "blogLinks": [
                "http://www.holidayiq.com/Shimoga-Sightseeing-748.html"
            ],
            "longitude": "75.0165753",
            "address": "Keladi, Sagara taluk, Shimoga district, Karnataka, India",
            "latitude": "14.2214761",
            "locType": "village",
            "closest_to": ""
        },
        "malgudi": {
            "blogLinks": [
                "http://travel.india.com/chikmagalur/"
            ],
            "longitude": "77.7017267",
            "address": "Malgudi Southern Cuisine, 3, Outer Ring Road, Ananda Nagara, Doddanekundi, Garudacharpalya, Bangalore Urban, Karnataka, 560037, India",
            "latitude": "12.9651193",
            "locType": "restaurant",
            "closest_to": ""
        },
        "jog falls": {
            "blogLinks": [
                "http://www.holidayiq.com/Shimoga-Sightseeing-748.html"
            ],
            "longitude": "74.8128715",
            "address": "Jog Falls, Joga - Kargal, Sagara taluk, Shimoga district, Karnataka, India",
            "latitude": "14.2276106",
            "locType": "locality",
            "closest_to": ""
        },
        "kundapura": {
            "blogLinks": [
                "http://www.nivalink.com/destination/chikmagalur",
                "http://www.nivalink.com/destination/shimoga"
            ],
            "longitude": "74.6915722",
            "address": "Kundapura, \u0c95\u0cc1\u0c82\u0ca6\u0cbe\u0caa\u0cc1\u0cb0 \u0ca4\u0cbe\u0cb2\u0cc2\u0c95\u0cc1, Udupi district, Karnataka, 576200, India",
            "latitude": "13.6250993",
            "locType": "town",
            "closest_to": ""
        },
        "golden triangle of karnataka": {
            "blogLinks": [
                "http://travel.india.com/chikmagalur/"
            ],
            "longitude": "77.7617021687636",
            "address": "Brigade Golden Triangle Apartments (Under Construction), Kattamanallur, Bangalore Urban, Karnataka, 560066, India",
            "latitude": "13.05444825",
            "locType": "construction",
            "closest_to": ""
        },
        "chennakesava": {
            "blogLinks": [
                "http://travel.india.com/chikmagalur/"
            ],
            "longitude": "75.8603311",
            "address": "Chennakesava Temple, NH73, Navilahalli, Beluru taluk, Hassan district, Karnataka, India",
            "latitude": "13.1629239",
            "locType": "place_of_worship",
            "closest_to": ""
        },
        "karnataka": {
            "blogLinks": [
                "http://www.mygola.com/road-trip-from-bangalore-to-chikmagalur/q9090",
                "http://www.nivalink.com/destination/shimoga",
                "http://wikitravel.org/en/Chikmagalur",
                "http://thinkingparticle.com/articles/kemmangundi-and-hebbe-falls-trek",
                "http://travel.india.com/chikmagalur/",
                "http://www.nivalink.com/destination/chikmagalur",
                "http://www.karnatakatourism.org/",
                "https://www.thrillophilia.com/places-to-visit-in-chikmagalur"
            ],
            "longitude": "76.6639936",
            "address": "Karnataka, Shalivahana Road, Nazarbad, Mysuru, Mysuru taluk, Mysuru district, Karnataka, 570001, India",
            "latitude": "12.3084901",
            "locType": "atm",
            "closest_to": ""
        },
        "mahatma gandhi park": {
            "blogLinks": [
                "http://travel.india.com/chikmagalur/"
            ],
            "longitude": "77.5997033330292",
            "address": "Mahatma Gandhi Park, Mahatma Gandhi Road, Shantala Nagar, MacIvor Town, Bengaluru, Bangalore Urban, Karnataka, 560001, India",
            "latitude": "12.9772144",
            "locType": "park",
            "closest_to": ""
        },
        "shringeri": {
            "blogLinks": [
                "http://travel.india.com/chikmagalur/",
                "https://www.thrillophilia.com/places-to-visit-in-chikmagalur"
            ],
            "longitude": "75.0621168",
            "address": "Shringeri, Hanagal taluk, Haveri district, Karnataka, India",
            "latitude": "14.7221214",
            "locType": "village",
            "closest_to": ""
        },
        "rock garden": {
            "blogLinks": [
                "https://www.thrillophilia.com/places-to-visit-in-chikmagalur"
            ],
            "longitude": "75.6142269",
            "address": "Waterfalls by the Rock site, Madikeri taluku, Kodagu, Karnataka, India",
            "latitude": "12.2248591",
            "locType": "waterfall",
            "closest_to": ""
        }
    },
    "shimoga": {
        "lat": "13.9311723",
        "class": "place",
        "importance": 0.55,
        "osm_type": "node",
        "lon": "75.569737",
        "place_id": "639702",
        "display_name": "Shivamogga, Shivamogga taluku, Shimoga district, Karnataka, 577200, India",
        "osm_id": "245625473",
        "boundingbox": [
            "13.7711723",
            "14.0911723",
            "75.409737",
            "75.729737"
        ],
        "type": "city",
        "licence": "Data \u00a9 OpenStreetMap contributors, ODbL 1.0. http://www.openstreetmap.org/copyright",
        "icon": "https://nominatim.openstreetmap.org/images/mapicons/poi_place_city.p.20.png"
    }
}