{
    "sringeri": {
        "lat": "13.4261724",
        "class": "place",
        "importance": 0.5,
        "osm_type": "node",
        "lon": "75.2553718",
        "place_id": "15363578",
        "display_name": "Sringeri, Sringeri taluku, Chikkamagaluru district, Karnataka, 577592, India",
        "osm_id": "1422424829",
        "boundingbox": [
            "13.3861724",
            "13.4661724",
            "75.2153718",
            "75.2953718"
        ],
        "type": "town",
        "licence": "Data \u00a9 OpenStreetMap contributors, ODbL 1.0. http://www.openstreetmap.org/copyright",
        "icon": "https://nominatim.openstreetmap.org/images/mapicons/poi_place_town.p.20.png"
    },
    "chikmagalur": {
        "lat": "13.5",
        "class": "place",
        "importance": 0.65,
        "osm_type": "node",
        "lon": "75.5",
        "place_id": "1426840",
        "display_name": "Chikmagalur, Chikkamagaluru district, Karnataka, India",
        "osm_id": "316417001",
        "boundingbox": [
            "12.86",
            "14.14",
            "74.86",
            "76.14"
        ],
        "type": "county",
        "licence": "Data \u00a9 OpenStreetMap contributors, ODbL 1.0. http://www.openstreetmap.org/copyright",
        "icon": "https://nominatim.openstreetmap.org/images/mapicons/poi_boundary_administrative.p.20.png"
    },
    "mentions": {
        "kudremukh road": {
            "blogLinks": [
                "http://www.homestayadvisor.in/places-to-visit-page3.html"
            ],
            "longitude": "75.2748196",
            "address": "Kudremukha, Mudigere taluk, Chikkamagaluru district, Karnataka, India",
            "latitude": "13.1255691",
            "locType": "peak",
            "closest_to": ""
        },
        "maradi": {
            "blogLinks": [
                "http://wikitravel.org/en/Chikmagalur"
            ],
            "longitude": "76.0757799",
            "address": "Maradi, Arakalagudu taluk, Hassan district, Karnataka, India",
            "latitude": "12.8130205",
            "locType": "village",
            "closest_to": ""
        },
        "india": {
            "blogLinks": [
                "https://www.tripoto.com/travel-guide/sringeri",
                "http://www.nivalink.com/destination/chikmagalur",
                "https://www.quora.com/What-are-the-best-places-to-visit-in-Chikmagalur",
                "http://wikitravel.org/en/Chikmagalur",
                "https://www.ixigo.com/from-by-road/chikmagalur-to-sringeri-by-road",
                "http://www.mapsofindia.com/karnataka/travel-to-sringeri.html",
                "http://www.buzzntravel.com/chikmagalur",
                "http://www.homestayadvisor.in/places-to-visit-page3.html",
                "https://www.mekanagadde.com/tourist-places-nearby-to-visit/",
                "http://www.karnatakatourism.org/",
                "https://en.wikipedia.org/wiki/Chikkamagaluru_district"
            ],
            "longitude": "75.7223521",
            "address": "Karnataka, India",
            "latitude": "14.5203896",
            "locType": "administrative",
            "closest_to": ""
        },
        "yagachi": {
            "blogLinks": [
                "http://wikitravel.org/en/Chikmagalur"
            ],
            "longitude": "75.950911",
            "address": "Yagachi, Beluru taluk, Hassan district, Karnataka, India",
            "latitude": "13.0658494",
            "locType": "river",
            "closest_to": ""
        },
        "bababudangiri": {
            "blogLinks": [
                "http://wikitravel.org/en/Chikmagalur"
            ],
            "longitude": "75.7486618",
            "address": "Bababudangiri Road, Inam Dattatreya Pitha, Chikkamagaluru taluku, Chikkamagaluru district, Karnataka, India",
            "latitude": "13.4297401",
            "locType": "tertiary",
            "closest_to": ""
        },
        "tungabhadra": {
            "blogLinks": [
                "https://en.wikipedia.org/wiki/Chikkamagaluru_district"
            ],
            "longitude": "76.4931607",
            "address": "Tungabhadra, Gangavati taluku, Koppal district, Karnataka, India",
            "latitude": "15.3446123",
            "locType": "river",
            "closest_to": ""
        },
        "rameshwara": {
            "blogLinks": [
                "http://www.nivalink.com/destination/chikmagalur"
            ],
            "longitude": "77.5678621969321",
            "address": "Rameshwara Temple, Kranthikavi Sarvagnya Road, Rajajinagar 4th Block, Sriramapura, Bengaluru, Bangalore Urban, Karnataka, 560001, India",
            "latitude": "12.99365815",
            "locType": "place_of_worship",
            "closest_to": ""
        },
        "birur": {
            "blogLinks": [
                "https://en.wikipedia.org/wiki/Chikkamagaluru_district"
            ],
            "longitude": "75.9731786",
            "address": "Birur Junction, NH69, Byagadehalli, Kaduru taluk, Chikkamagaluru district, Karnataka, 577548, India",
            "latitude": "13.5928214",
            "locType": "station",
            "closest_to": ""
        },
        "vijayapura main road": {
            "blogLinks": [
                "http://wikitravel.org/en/Chikmagalur"
            ],
            "longitude": "75.6425088",
            "address": "Karnataka State Women's University, Athani Road, Ratnapura, Vijayapura taluk, Bijapur district, Karnataka, India",
            "latitude": "16.8319715",
            "locType": "college",
            "closest_to": ""
        },
        "atishaya": {
            "blogLinks": [
                "https://en.wikipedia.org/wiki/Chikkamagaluru_district"
            ],
            "longitude": "75.6959636",
            "address": "Shri Atishaya Kshetra 1008 Sahastra Fani Parshwanath Digamber Jain Temple, Ring Road, Vijayapura, Vijayapura taluk, Bijapur district, Karnataka, 586101, India",
            "latitude": "16.850099",
            "locType": "place_of_worship",
            "closest_to": ""
        },
        "chennai": {
            "blogLinks": [
                "http://www.mapsofindia.com/karnataka/travel-to-sringeri.html",
                "https://en.wikipedia.org/wiki/Chikkamagaluru_district"
            ],
            "longitude": "80.2197941",
            "address": "Karnataka Bank, Postal Colony 2nd Street, Postal Colony, Ashok Nagar, Chennai City Corporation Limits, Chennai district, Tamil Nadu, 600033, India",
            "latitude": "13.0365141",
            "locType": "bank",
            "closest_to": ""
        },
        "chitradurga district": {
            "blogLinks": [
                "https://en.wikipedia.org/wiki/Chikkamagaluru_district"
            ],
            "longitude": "76.5299366059272",
            "address": "Chitradurga district, Karnataka, India",
            "latitude": "14.3051049",
            "locType": "administrative",
            "closest_to": ""
        },
        "annapoorna": {
            "blogLinks": [
                "https://www.mekanagadde.com/tourist-places-nearby-to-visit/"
            ],
            "longitude": "74.7952585267652",
            "address": "Annapoorna, Malpe - Manipal Road, End Point, Manipal, Udupi taluku, Udupi district, Karnataka, 576102, India",
            "latitude": "13.3434791",
            "locType": "yes",
            "closest_to": ""
        },
        "kaimara": {
            "blogLinks": [
                "http://wikitravel.org/en/Chikmagalur"
            ],
            "longitude": "75.7448654",
            "address": "Kaimara, Chikkamagaluru taluku, Chikkamagaluru district, Karnataka, India",
            "latitude": "13.3713857",
            "locType": "village",
            "closest_to": ""
        },
        "lakkavalli": {
            "blogLinks": [
                "http://wikitravel.org/en/Chikmagalur"
            ],
            "longitude": "75.1078097",
            "address": "Lakkavalli, Soraba taluk, Shimoga district, Karnataka, India",
            "latitude": "14.5841018",
            "locType": "village",
            "closest_to": ""
        },
        "chikkamagaluru": {
            "blogLinks": [
                "https://www.mekanagadde.com/tourist-places-nearby-to-visit/",
                "https://en.wikipedia.org/wiki/Chikkamagaluru_district",
                "http://wikitravel.org/en/Chikmagalur"
            ],
            "longitude": "75.7738743",
            "address": "Chikkamagaluru, Chikkamagaluru taluku, Chikkamagaluru district, Karnataka, 577101, India",
            "latitude": "13.318014",
            "locType": "city",
            "closest_to": ""
        },
        "mangalore": {
            "blogLinks": [
                "https://www.tripoto.com/travel-guide/sringeri",
                "http://www.nivalink.com/destination/chikmagalur",
                "http://www.team-bhp.com/forum/travelogues/94368-horanadu-sringeri-kollur-gokarna-udupi-karkala-moo-dbidri-mangalore-dharmasthala-kukke.html",
                "http://wikitravel.org/en/Chikmagalur",
                "http://www.mapsofindia.com/karnataka/travel-to-sringeri.html",
                "https://www.tripadvisor.in/ShowTopic-g297629-i11557-k6925714-Travel_from_Bangalore_to_sringeri_hornadu_and_murudeshwar-Chikamagalur_Karnataka.html",
                "http://www.homestayadvisor.in/places-to-visit-page3.html",
                "https://www.mekanagadde.com/tourist-places-nearby-to-visit/",
                "https://en.wikipedia.org/wiki/Chikkamagaluru_district"
            ],
            "longitude": "74.8430082",
            "address": "Mangaluru, Mangaluru taluk, Dakshina Kannada, Karnataka, 575001, India",
            "latitude": "12.8698101",
            "locType": "city",
            "closest_to": ""
        },
        "dakshina kannada": {
            "blogLinks": [
                "https://en.wikipedia.org/wiki/Chikkamagaluru_district"
            ],
            "longitude": "75.1008028650794",
            "address": "Dakshina Kannada, Karnataka, India",
            "latitude": "12.8114089",
            "locType": "administrative",
            "closest_to": ""
        },
        "halebidu": {
            "blogLinks": [
                "http://www.nivalink.com/destination/chikmagalur",
                "https://en.wikipedia.org/wiki/Chikkamagaluru_district"
            ],
            "longitude": "76.4607075",
            "address": "Halebidu, Hunasuru taluk, Mysuru district, Karnataka, India",
            "latitude": "12.359893",
            "locType": "village",
            "closest_to": ""
        },
        "karnataka": {
            "blogLinks": [
                "https://www.tripoto.com/travel-guide/sringeri",
                "http://www.nivalink.com/destination/chikmagalur",
                "https://www.quora.com/What-are-the-best-places-to-visit-in-Chikmagalur",
                "http://www.team-bhp.com/forum/travelogues/94368-horanadu-sringeri-kollur-gokarna-udupi-karkala-moo-dbidri-mangalore-dharmasthala-kukke.html",
                "http://wikitravel.org/en/Chikmagalur",
                "https://www.ixigo.com/from-by-road/chikmagalur-to-sringeri-by-road",
                "http://www.mapsofindia.com/karnataka/travel-to-sringeri.html",
                "http://www.holidayiq.com/Mullayanagiri-Sightseeing-Photos-Chikmagalur-330-8180-ap4.html",
                "http://www.homestayadvisor.in/places-to-visit-page3.html",
                "http://www.holidayiq.com/Sringeri-Sightseeing-974-p2.html",
                "https://www.mekanagadde.com/tourist-places-nearby-to-visit/",
                "http://www.nivalink.com/destination/sringeri",
                "https://www.tripoto.com/trip/from-chikmagalur-to-sringeri-through-my-eyes-5744a17c2d414",
                "http://www.karnatakatourism.org/",
                "https://en.wikipedia.org/wiki/Chikkamagaluru_district"
            ],
            "longitude": "76.6639936",
            "address": "Karnataka, Shalivahana Road, Nazarbad, Mysuru, Mysuru taluk, Mysuru district, Karnataka, 570001, India",
            "latitude": "12.3084901",
            "locType": "atm",
            "closest_to": ""
        },
        "sala": {
            "blogLinks": [
                "https://en.wikipedia.org/wiki/Chikkamagaluru_district"
            ],
            "longitude": "77.5850591",
            "address": "Kottakkal Arya Vaidya Sala, 4th Cross Road, Mavalli, Basavanagudi, Bengaluru, Bangalore Urban, Karnataka, 560001, India",
            "latitude": "12.9411061",
            "locType": "hospital",
            "closest_to": ""
        },
        "parvati": {
            "blogLinks": [
                "http://www.nivalink.com/destination/chikmagalur",
                "https://www.mekanagadde.com/tourist-places-nearby-to-visit/"
            ],
            "longitude": "75.7898501",
            "address": "Parvati, Badami taluku, Bagalkote district, Karnataka, India",
            "latitude": "16.0395701",
            "locType": "village",
            "closest_to": ""
        },
        "gowdanahalli": {
            "blogLinks": [
                "https://en.wikipedia.org/wiki/Chikkamagaluru_district"
            ],
            "longitude": "77.7311552",
            "address": "Southe Gowdanahalli, Devanahalli taluk, Bangalore Rural, Karnataka, India",
            "latitude": "13.2314551",
            "locType": "village",
            "closest_to": ""
        },
        "honnavar": {
            "blogLinks": [
                "https://en.wikipedia.org/wiki/Chikkamagaluru_district"
            ],
            "longitude": "74.4446716",
            "address": "Honnavar, Honnavara taluku, Uttara Kannada, Karnataka, 581334, India",
            "latitude": "14.2810827",
            "locType": "town",
            "closest_to": ""
        },
        "mumbai": {
            "blogLinks": [
                "http://www.mapsofindia.com/karnataka/travel-to-sringeri.html"
            ],
            "longitude": "77.5718472",
            "address": "Mumbai Spice, 18/2, 10th Cross, Malleswaram, Vyalikaval, Malleswaram, Bengaluru, Bangalore Urban, Karnataka, 560003, India",
            "latitude": "13.0002869",
            "locType": "restaurant",
            "closest_to": ""
        },
        "kannada": {
            "blogLinks": [
                "http://www.buzzntravel.com/chikmagalur",
                "https://www.mekanagadde.com/tourist-places-nearby-to-visit/"
            ],
            "longitude": "75.1008028650794",
            "address": "Dakshina Kannada, Karnataka, India",
            "latitude": "12.8114089",
            "locType": "administrative",
            "closest_to": ""
        },
        "north kerala": {
            "blogLinks": [
                "http://www.nivalink.com/destination/chikmagalur",
                "http://www.nivalink.com/destination/sringeri"
            ],
            "longitude": "77.6382683",
            "address": "New Life Kerala Mess, Sai Baba Mandira Road, Mottappanapalaya, Indiranagar, Bengaluru, Bangalore Urban, Karnataka, 560001, India",
            "latitude": "12.9726449",
            "locType": "restaurant",
            "closest_to": ""
        },
        "bengal": {
            "blogLinks": [
                "https://en.wikipedia.org/wiki/Chikkamagaluru_district"
            ],
            "longitude": "77.7517038151245",
            "address": "Bengal Lamps, Konadasapura, Bangalore Urban, Karnataka, 560066, India",
            "latitude": "13.0492646",
            "locType": "industrial",
            "closest_to": ""
        },
        "hemavati": {
            "blogLinks": [
                "http://wikitravel.org/en/Chikmagalur"
            ],
            "longitude": "76.0723187",
            "address": "Hemavati, Hasana taluk, Hassan district, Karnataka, India",
            "latitude": "12.8179996",
            "locType": "river",
            "closest_to": ""
        },
        "hassan": {
            "blogLinks": [
                "https://en.wikipedia.org/wiki/Chikkamagaluru_district",
                "http://wikitravel.org/en/Chikmagalur"
            ],
            "longitude": "76.0992703",
            "address": "Hassan, Hasana taluk, Hassan district, Karnataka, 573201, India",
            "latitude": "13.0070817",
            "locType": "town",
            "closest_to": ""
        },
        "kadur": {
            "blogLinks": [
                "https://en.wikipedia.org/wiki/Chikkamagaluru_district",
                "http://wikitravel.org/en/Chikmagalur"
            ],
            "longitude": "75.7820095",
            "address": "Mudigere-Kadur Road, Basavannahalli, Chikkamagaluru, Chikkamagaluru taluku, Chikkamagaluru district, Karnataka, 577101, India",
            "latitude": "13.3283654",
            "locType": "trunk",
            "closest_to": ""
        },
        "hyderabad": {
            "blogLinks": [
                "http://www.mapsofindia.com/karnataka/travel-to-sringeri.html"
            ],
            "longitude": "77.5344002",
            "address": "Hyderabad Road, Old City, Bidar, Bidar taluku, Bidar district, Karnataka, 585400, India",
            "latitude": "17.9003114",
            "locType": "primary",
            "closest_to": ""
        },
        "kalhatti falls": {
            "blogLinks": [
                "https://www.quora.com/What-are-the-best-places-to-visit-in-Chikmagalur"
            ],
            "longitude": "75.7889882",
            "address": "Kallathgiri falls, Tarikere taluku, Chikkamagaluru district, Karnataka, India",
            "latitude": "13.5499877",
            "locType": "waterfall",
            "closest_to": ""
        },
        "belur": {
            "blogLinks": [
                "http://www.nivalink.com/destination/chikmagalur",
                "http://www.team-bhp.com/forum/travelogues/94368-horanadu-sringeri-kollur-gokarna-udupi-karkala-moo-dbidri-mangalore-dharmasthala-kukke.html",
                "http://wikitravel.org/en/Chikmagalur"
            ],
            "longitude": "75.8634851",
            "address": "Belur, Beluru taluk, Hassan district, Karnataka, 573115, India",
            "latitude": "13.1645671",
            "locType": "town",
            "closest_to": ""
        },
        "kateel": {
            "blogLinks": [
                "https://www.tripadvisor.in/ShowTopic-g297629-i11557-k6925714-Travel_from_Bangalore_to_sringeri_hornadu_and_murudeshwar-Chikamagalur_Karnataka.html"
            ],
            "longitude": "74.8698735",
            "address": "Kateel Durgaparameshwari Temple, SH67, Kondemula, Mangaluru taluk, Dakshina Kannada, Karnataka, India",
            "latitude": "13.0436723",
            "locType": "place_of_worship",
            "closest_to": ""
        },
        "hoysala": {
            "blogLinks": [
                "https://en.wikipedia.org/wiki/Chikkamagaluru_district"
            ],
            "longitude": "77.6375990817051",
            "address": "Hoysala Nagar, Bengaluru, Bangalore Urban, Karnataka, 560001, India",
            "latitude": "12.97813815",
            "locType": "administrative",
            "closest_to": ""
        },
        "sharadamba temple": {
            "blogLinks": [
                "https://www.tripoto.com/travel-guide/sringeri",
                "https://www.quora.com/What-are-the-best-places-to-visit-in-Chikmagalur",
                "http://www.mapsofindia.com/karnataka/travel-to-sringeri.html"
            ],
            "longitude": "77.5656194",
            "address": "Sharadamba Temple, 7th Main Road, Yediyur, Thyagaraja Nagar, Bengaluru, Bangalore Urban, Karnataka, 560001, India",
            "latitude": "12.9321898",
            "locType": "place_of_worship",
            "closest_to": ""
        },
        "gokarna": {
            "blogLinks": [
                "http://www.team-bhp.com/forum/travelogues/94368-horanadu-sringeri-kollur-gokarna-udupi-karkala-moo-dbidri-mangalore-dharmasthala-kukke.html"
            ],
            "longitude": "74.3184418",
            "address": "Gokarna, Kumata taluk, Uttara Kannada, Karnataka, 581326, India",
            "latitude": "14.5439629",
            "locType": "town",
            "closest_to": ""
        },
        "panambur": {
            "blogLinks": [
                "http://www.team-bhp.com/forum/travelogues/94368-horanadu-sringeri-kollur-gokarna-udupi-karkala-moo-dbidri-mangalore-dharmasthala-kukke.html",
                "https://en.wikipedia.org/wiki/Chikkamagaluru_district"
            ],
            "longitude": "74.8031577",
            "address": "Panambur, Mangaluru taluk, Dakshina Kannada, Karnataka, India",
            "latitude": "12.9535736",
            "locType": "village",
            "closest_to": ""
        },
        "vedavati": {
            "blogLinks": [
                "http://wikitravel.org/en/Chikmagalur"
            ],
            "longitude": "76.1347937",
            "address": "Vedavati, Kaduru taluk, Chikkamagaluru district, Karnataka, India",
            "latitude": "13.6048777",
            "locType": "river",
            "closest_to": ""
        },
        "kannur": {
            "blogLinks": [
                "http://www.nivalink.com/destination/chikmagalur",
                "http://www.nivalink.com/destination/sringeri"
            ],
            "longitude": "74.8858161",
            "address": "Netravati bridge - Kannur Bypass Road (Proposed), Padil, Bajal, Mangaluru taluk, Dakshina Kannada, Karnataka, 575007, India",
            "latitude": "12.8487602",
            "locType": "construction",
            "closest_to": ""
        },
        "tumkur": {
            "blogLinks": [
                "https://en.wikipedia.org/wiki/Chikkamagaluru_district",
                "http://wikitravel.org/en/Chikmagalur"
            ],
            "longitude": "77.0002445",
            "address": "Tumakuru, Tumkur district, Karnataka, India",
            "latitude": "13.4999406",
            "locType": "county",
            "closest_to": ""
        },
        "manikyadhara": {
            "blogLinks": [
                "https://en.wikipedia.org/wiki/Chikkamagaluru_district",
                "http://wikitravel.org/en/Chikmagalur"
            ],
            "longitude": "75.7701434",
            "address": "Manikyadhara, Bababudangiri Road, Inam Dattatreya Pitha, Chikkamagaluru taluku, Chikkamagaluru district, Karnataka, India",
            "latitude": "13.4220248",
            "locType": "attraction",
            "closest_to": ""
        },
        "karkala": {
            "blogLinks": [
                "http://www.team-bhp.com/forum/travelogues/94368-horanadu-sringeri-kollur-gokarna-udupi-karkala-moo-dbidri-mangalore-dharmasthala-kukke.html"
            ],
            "longitude": "74.9959586",
            "address": "Karkala, Karkala taluk, Udupi district, Karnataka, 574104, India",
            "latitude": "13.2112826",
            "locType": "town",
            "closest_to": ""
        },
        "dakshina kannada district": {
            "blogLinks": [
                "https://www.mekanagadde.com/tourist-places-nearby-to-visit/"
            ],
            "longitude": "74.9813132",
            "address": "Dakshina Kannada, Karnataka, India",
            "latitude": "12.9324457",
            "locType": "county",
            "closest_to": ""
        },
        "sullia": {
            "blogLinks": [
                "https://www.mekanagadde.com/tourist-places-nearby-to-visit/"
            ],
            "longitude": "75.3907575",
            "address": "Sulya, Sulya taluk, Dakshina Kannada, Karnataka, 574239, India",
            "latitude": "12.5576644",
            "locType": "town",
            "closest_to": ""
        },
        "sakleshpur": {
            "blogLinks": [
                "https://www.tripoto.com/trip/from-chikmagalur-to-sringeri-through-my-eyes-5744a17c2d414",
                "https://www.mekanagadde.com/tourist-places-nearby-to-visit/"
            ],
            "longitude": "75.7862318",
            "address": "Sakaleshpura, Sakaleshapura taluk, Hassan district, Karnataka, 573134, India",
            "latitude": "12.9434349",
            "locType": "town",
            "closest_to": ""
        },
        "mecca": {
            "blogLinks": [
                "https://en.wikipedia.org/wiki/Chikkamagaluru_district"
            ],
            "longitude": "77.5509669",
            "address": "masjid e mecca, 7th cross padarayana pura, Hosahalli Main Road, Rajajinagar 6th Block, Goripalya, Bengaluru, Bangalore Urban, Karnataka, 560001, India",
            "latitude": "12.9618838",
            "locType": "place_of_worship",
            "closest_to": ""
        },
        "chikkamagalur": {
            "blogLinks": [
                "http://www.nivalink.com/destination/chikmagalur",
                "https://en.wikipedia.org/wiki/Chikkamagaluru_district"
            ],
            "longitude": "75.789501",
            "address": "Chikkamagalur, SH57, Hosamane Badavane, Hiremagaluru, Chikkamagaluru taluku, Chikkamagaluru district, Karnataka, 577101, India",
            "latitude": "13.3030706",
            "locType": "station",
            "closest_to": ""
        },
        "dharmasthala temple": {
            "blogLinks": [
                "https://www.mekanagadde.com/tourist-places-nearby-to-visit/"
            ],
            "longitude": "77.5682163",
            "address": "Sri Dharmasthala Manjunathaswamy Kalyana Mantapa, Bull Temple Road, Yediyur, Hanumantha Nagar, Bengaluru, Bangalore Urban, Karnataka, 560001, India",
            "latitude": "12.9433356",
            "locType": "townhall",
            "closest_to": ""
        },
        "sri krishnarajendra hill station": {
            "blogLinks": [
                "http://www.nivalink.com/destination/chikmagalur",
                "https://www.quora.com/What-are-the-best-places-to-visit-in-Chikmagalur"
            ],
            "longitude": "77.583027619944",
            "address": "Silver Jubilee Park, Narasimharaja Road, Ganigarpet, Kalasipalya, Bengaluru, Bangalore Urban, Karnataka, 560001, India",
            "latitude": "12.96370475",
            "locType": "park",
            "closest_to": ""
        },
        "kemmangundi": {
            "blogLinks": [
                "https://www.quora.com/What-are-the-best-places-to-visit-in-Chikmagalur",
                "https://en.wikipedia.org/wiki/Chikkamagaluru_district"
            ],
            "longitude": "75.7520082",
            "address": "Kemmannagundi, Tarikere taluku, Chikkamagaluru district, Karnataka, India",
            "latitude": "13.5463048",
            "locType": "village",
            "closest_to": ""
        },
        "tarikere taluk": {
            "blogLinks": [
                "https://en.wikipedia.org/wiki/Chikkamagaluru_district"
            ],
            "longitude": "76.9606245",
            "address": "Tarikere, Madduru taluk, Mandya district, Karnataka, India",
            "latitude": "12.7569125",
            "locType": "village",
            "closest_to": ""
        },
        "kudremukha": {
            "blogLinks": [
                "https://www.tripadvisor.in/ShowTopic-g297629-i11557-k6925714-Travel_from_Bangalore_to_sringeri_hornadu_and_murudeshwar-Chikamagalur_Karnataka.html"
            ],
            "longitude": "75.2748196",
            "address": "Kudremukha, Mudigere taluk, Chikkamagaluru district, Karnataka, India",
            "latitude": "13.1255691",
            "locType": "peak",
            "closest_to": ""
        },
        "hoysaleswara": {
            "blogLinks": [
                "https://www.mekanagadde.com/tourist-places-nearby-to-visit/"
            ],
            "longitude": "75.9941649",
            "address": "Hoysaleswara Temple, SH21, Halebidu, Beluru taluk, Hassan district, Karnataka, 573121, India",
            "latitude": "13.2127193",
            "locType": "place_of_worship",
            "closest_to": ""
        },
        "dharmasthala": {
            "blogLinks": [
                "https://www.tripadvisor.in/ShowTopic-g297629-i11557-k6925714-Travel_from_Bangalore_to_sringeri_hornadu_and_murudeshwar-Chikamagalur_Karnataka.html",
                "http://www.team-bhp.com/forum/travelogues/94368-horanadu-sringeri-kollur-gokarna-udupi-karkala-moo-dbidri-mangalore-dharmasthala-kukke.html"
            ],
            "longitude": "75.3813122",
            "address": "Dharmasthala, Beltangadi taluk, Dakshina Kannada, Karnataka, 574216, India",
            "latitude": "12.9519571",
            "locType": "village",
            "closest_to": ""
        },
        "netravati": {
            "blogLinks": [
                "https://en.wikipedia.org/wiki/Chikkamagaluru_district"
            ],
            "longitude": "75.1562182",
            "address": "Netravati, Bantwal taluk, Dakshina Kannada, Karnataka, India",
            "latitude": "12.8537655",
            "locType": "river",
            "closest_to": ""
        },
        "dattagiri hill range": {
            "blogLinks": [
                "http://www.holidayiq.com/Mullayanagiri-Sightseeing-Photos-Chikmagalur-330-8180-ap4.html"
            ],
            "longitude": "75.7606996",
            "address": "Baba Budangiri, Chikkamagaluru, Chikkamagaluru taluku, Chikkamagaluru district, Karnataka, 577101, India",
            "latitude": "13.4210884",
            "locType": "peak",
            "closest_to": ""
        },
        "mallikarjuna temple": {
            "blogLinks": [
                "https://www.tripoto.com/travel-guide/sringeri",
                "http://www.mapsofindia.com/karnataka/travel-to-sringeri.html"
            ],
            "longitude": "75.7213492",
            "address": "Mallikarjuna Temple, SH135, Nelavagi, Badami taluku, Bagalkote district, Karnataka, India",
            "latitude": "15.9321101",
            "locType": "place_of_worship",
            "closest_to": ""
        },
        "annapoorneshwari temple": {
            "blogLinks": [
                "http://www.mapsofindia.com/karnataka/travel-to-sringeri.html",
                "https://en.wikipedia.org/wiki/Chikkamagaluru_district"
            ],
            "longitude": "74.9006001",
            "address": "Sri Ambika Annapoorneshwari Temple, SH101, Sunkadakatte, Mangaluru taluk, Dakshina Kannada, Karnataka, India",
            "latitude": "12.97910715",
            "locType": "place_of_worship",
            "closest_to": ""
        },
        "south karnataka": {
            "blogLinks": [
                "http://wikitravel.org/en/Chikmagalur"
            ],
            "longitude": "77.8040874",
            "address": "s, Vijayapura, Devanahalli taluk, Bangalore Rural, Karnataka, 562135, India",
            "latitude": "13.2942848",
            "locType": "residential",
            "closest_to": ""
        },
        "hemavathi": {
            "blogLinks": [
                "https://en.wikipedia.org/wiki/Chikkamagaluru_district"
            ],
            "longitude": "76.0556931",
            "address": "Hemavathi Reservoir, Hasana taluk, Hassan district, Karnataka, India",
            "latitude": "12.8267596",
            "locType": "dam",
            "closest_to": ""
        },
        "sakleshpur chikmagalur": {
            "blogLinks": [
                "https://www.mekanagadde.com/tourist-places-nearby-to-visit/"
            ],
            "longitude": "75.7862318",
            "address": "Sakaleshpura, Sakaleshapura taluk, Hassan district, Karnataka, 573134, India",
            "latitude": "12.9434349",
            "locType": "town",
            "closest_to": ""
        },
        "tungabhadra river": {
            "blogLinks": [
                "https://www.quora.com/What-are-the-best-places-to-visit-in-Chikmagalur"
            ],
            "longitude": "76.4931607",
            "address": "Tungabhadra, Gangavati taluku, Koppal district, Karnataka, India",
            "latitude": "15.3446123",
            "locType": "river",
            "closest_to": ""
        },
        "goa": {
            "blogLinks": [
                "http://www.team-bhp.com/forum/travelogues/94368-horanadu-sringeri-kollur-gokarna-udupi-karkala-moo-dbidri-mangalore-dharmasthala-kukke.html"
            ],
            "longitude": "77.6200027",
            "address": "Carnival De Goa, Bhaskaran Road, Gupta Layout, Halasuru, Bengaluru, Bangalore Urban, Karnataka, 560001, India",
            "latitude": "12.9750047",
            "locType": "restaurant",
            "closest_to": ""
        },
        "rose garden": {
            "blogLinks": [
                "https://www.quora.com/What-are-the-best-places-to-visit-in-Chikmagalur"
            ],
            "longitude": "77.590382853852",
            "address": "Rose Garden, Dr B R Ambedkar Veedhi, Shantala Nagar, Gandhinagar, Bengaluru, Bangalore Urban, Karnataka, 560001, India",
            "latitude": "12.97371325",
            "locType": "garden",
            "closest_to": ""
        },
        "us": {
            "blogLinks": [
                "https://en.wikipedia.org/wiki/Chikkamagaluru_district"
            ],
            "longitude": "75.7223521",
            "address": "Karnataka, India",
            "latitude": "14.5203896",
            "locType": "administrative",
            "closest_to": ""
        },
        "amrutapura": {
            "blogLinks": [
                "http://wikitravel.org/en/Chikmagalur"
            ],
            "longitude": "75.8535015",
            "address": "Amrutapura, Tarikere taluku, Chikkamagaluru district, Karnataka, India",
            "latitude": "13.7425193",
            "locType": "village",
            "closest_to": ""
        },
        "shankaracharya": {
            "blogLinks": [
                "http://www.homestayadvisor.in/places-to-visit-page3.html",
                "http://www.mapsofindia.com/karnataka/travel-to-sringeri.html"
            ],
            "longitude": "74.47864105",
            "address": "Jagadguru Shankaracharya Math, NH48, Bhimnagar, Sankeshwara, Hukkeri taluku, Belgaum district, Karnataka, 591313, India",
            "latitude": "16.25114055",
            "locType": "place_of_worship",
            "closest_to": ""
        },
        "udipi": {
            "blogLinks": [
                "http://www.nivalink.com/destination/chikmagalur",
                "http://www.mapsofindia.com/karnataka/travel-to-sringeri.html",
                "http://www.nivalink.com/destination/sringeri"
            ],
            "longitude": "77.652888",
            "address": "Udipi Park, 2nd Cross Road, Muniyappa Layout, Murugeshpalaya, Belure Ambedkar Nagar, Bangalore Urban, Karnataka, 560067, India",
            "latitude": "12.9530588",
            "locType": "restaurant",
            "closest_to": ""
        },
        "pune": {
            "blogLinks": [
                "http://www.mapsofindia.com/karnataka/travel-to-sringeri.html"
            ],
            "longitude": "76.9479122",
            "address": "Pune - Machilipatnam Highway, Kaudiyala, Basavakalyana taluku, Bidar district, Karnataka, India",
            "latitude": "17.8199745",
            "locType": "trunk",
            "closest_to": ""
        },
        "bharathi street": {
            "blogLinks": [
                "http://www.mapsofindia.com/karnataka/travel-to-sringeri.html"
            ],
            "longitude": "77.5112326",
            "address": "Jnana Bharathi, Bengaluru, Bangalore Urban, Karnataka, 560001, India",
            "latitude": "12.9433485",
            "locType": "suburb",
            "closest_to": ""
        },
        "kemmannagundi": {
            "blogLinks": [
                "http://wikitravel.org/en/Chikmagalur"
            ],
            "longitude": "75.7520082",
            "address": "Kemmannagundi, Tarikere taluku, Chikkamagaluru district, Karnataka, India",
            "latitude": "13.5463048",
            "locType": "village",
            "closest_to": ""
        },
        "hubli": {
            "blogLinks": [
                "http://www.nivalink.com/destination/sringeri",
                "https://en.wikipedia.org/wiki/Chikkamagaluru_district"
            ],
            "longitude": "75.1379848",
            "address": "Hubballi - \u0cb9\u0cc1\u0cac\u0ccd\u0cac\u0cb3\u0ccd\u0cb3\u0cbf, Hubballi taluku, Dharwad district, Karnataka, 580020, India",
            "latitude": "15.3518378",
            "locType": "city",
            "closest_to": ""
        },
        "subramanya": {
            "blogLinks": [
                "https://www.mekanagadde.com/tourist-places-nearby-to-visit/"
            ],
            "longitude": "77.6015800913134",
            "address": "Subramanya Arcade, Marenahalli, Bengaluru, Bangalore Urban, Karnataka, 560001, India",
            "latitude": "12.9251206",
            "locType": "commercial",
            "closest_to": ""
        },
        "bangalore": {
            "blogLinks": [
                "http://www.nivalink.com/destination/chikmagalur",
                "http://www.team-bhp.com/forum/travelogues/94368-horanadu-sringeri-kollur-gokarna-udupi-karkala-moo-dbidri-mangalore-dharmasthala-kukke.html",
                "http://wikitravel.org/en/Chikmagalur",
                "http://www.mapsofindia.com/karnataka/travel-to-sringeri.html",
                "https://www.tripadvisor.in/ShowTopic-g297629-i11557-k6925714-Travel_from_Bangalore_to_sringeri_hornadu_and_murudeshwar-Chikamagalur_Karnataka.html",
                "http://www.nivalink.com/destination/sringeri",
                "https://www.mekanagadde.com/tourist-places-nearby-to-visit/",
                "http://www.buzzntravel.com/sringeri--travel-tips",
                "https://www.tripoto.com/trip/from-chikmagalur-to-sringeri-through-my-eyes-5744a17c2d414",
                "https://en.wikipedia.org/wiki/Chikkamagaluru_district"
            ],
            "longitude": "77.5912997",
            "address": "Bengaluru, Bangalore Urban, Karnataka, 560001, India",
            "latitude": "12.9791198",
            "locType": "city",
            "closest_to": ""
        },
        "kundapura": {
            "blogLinks": [
                "http://www.nivalink.com/destination/chikmagalur",
                "http://www.nivalink.com/destination/sringeri"
            ],
            "longitude": "74.6915722",
            "address": "Kundapura, \u0c95\u0cc1\u0c82\u0ca6\u0cbe\u0caa\u0cc1\u0cb0 \u0ca4\u0cbe\u0cb2\u0cc2\u0c95\u0cc1, Udupi district, Karnataka, 576200, India",
            "latitude": "13.6250993",
            "locType": "town",
            "closest_to": ""
        },
        "charmadi": {
            "blogLinks": [
                "http://www.team-bhp.com/forum/travelogues/94368-horanadu-sringeri-kollur-gokarna-udupi-karkala-moo-dbidri-mangalore-dharmasthala-kukke.html"
            ],
            "longitude": "75.3967377",
            "address": "Charmadi, Beltangadi taluk, Dakshina Kannada, Karnataka, 574290, India",
            "latitude": "13.0365436",
            "locType": "village",
            "closest_to": ""
        },
        "mangalore international airport": {
            "blogLinks": [
                "http://www.mapsofindia.com/karnataka/travel-to-sringeri.html"
            ],
            "longitude": "74.887492668144",
            "address": "Mangalore International Airport, Airport Entry Road, Gandhinagar, Kenjar, Mangaluru taluk, Dakshina Kannada, Karnataka, 575015, India",
            "latitude": "12.95518575",
            "locType": "aerodrome",
            "closest_to": ""
        },
        "gowdahalli": {
            "blogLinks": [
                "http://wikitravel.org/en/Chikmagalur"
            ],
            "longitude": "75.5981999",
            "address": "Gowdahalli, Mudigere taluk, Chikkamagaluru district, Karnataka, India",
            "latitude": "13.0422415",
            "locType": "village",
            "closest_to": ""
        },
        "shringeri": {
            "blogLinks": [
                "https://www.quora.com/What-are-the-best-places-to-visit-in-Chikmagalur",
                "https://www.tripadvisor.in/ShowTopic-g297629-i11557-k6925714-Travel_from_Bangalore_to_sringeri_hornadu_and_murudeshwar-Chikamagalur_Karnataka.html",
                "http://www.nivalink.com/destination/sringeri"
            ],
            "longitude": "75.0621168",
            "address": "Shringeri, Hanagal taluk, Haveri district, Karnataka, India",
            "latitude": "14.7221214",
            "locType": "village",
            "closest_to": ""
        },
        "davangere": {
            "blogLinks": [
                "https://en.wikipedia.org/wiki/Chikkamagaluru_district"
            ],
            "longitude": "75.9197507909343",
            "address": "Davangere City Corporation Offices, K.B. Extension, Davanagere, Davanagere taluku, Davanagere district, Karnataka, 577000, India",
            "latitude": "14.4664457",
            "locType": "commercial",
            "closest_to": ""
        },
        "chennakesava": {
            "blogLinks": [
                "https://www.mekanagadde.com/tourist-places-nearby-to-visit/"
            ],
            "longitude": "75.8603311",
            "address": "Chennakesava Temple, NH73, Navilahalli, Beluru taluk, Hassan district, Karnataka, India",
            "latitude": "13.1629239",
            "locType": "place_of_worship",
            "closest_to": ""
        },
        "hassan district": {
            "blogLinks": [
                "https://www.mekanagadde.com/tourist-places-nearby-to-visit/"
            ],
            "longitude": "76.1745460751981",
            "address": "Hassan district, Karnataka, India",
            "latitude": "13.0315068",
            "locType": "administrative",
            "closest_to": ""
        },
        "udupi": {
            "blogLinks": [
                "https://www.tripoto.com/travel-guide/sringeri",
                "http://www.team-bhp.com/forum/travelogues/94368-horanadu-sringeri-kollur-gokarna-udupi-karkala-moo-dbidri-mangalore-dharmasthala-kukke.html",
                "https://en.wikipedia.org/wiki/Chikkamagaluru_district"
            ],
            "longitude": "74.7473232",
            "address": "Udupi, Udupi taluku, Udupi district, Karnataka, 576101, India",
            "latitude": "13.3419169",
            "locType": "city",
            "closest_to": ""
        },
        "kadur taluk": {
            "blogLinks": [
                "https://en.wikipedia.org/wiki/Chikkamagaluru_district"
            ],
            "longitude": "76.0140256",
            "address": "Mudigere-Kadur Road, Kaduru, Kaduru taluk, Chikkamagaluru district, Karnataka, 577548, India",
            "latitude": "13.5484665",
            "locType": "trunk",
            "closest_to": ""
        },
        "rock garden": {
            "blogLinks": [
                "https://www.quora.com/What-are-the-best-places-to-visit-in-Chikmagalur"
            ],
            "longitude": "75.6142269",
            "address": "Waterfalls by the Rock site, Madikeri taluku, Kodagu, Karnataka, India",
            "latitude": "12.2248591",
            "locType": "waterfall",
            "closest_to": ""
        }
    }
}