{
    "dandeli": {
        "place_id": "5820025",
        "osm_id": "612546262",
        "icon": "https://nominatim.openstreetmap.org/images/mapicons/poi_place_town.p.20.png",
        "osm_type": "node",
        "licence": "Data \u00a9 OpenStreetMap contributors, ODbL 1.0. http://www.openstreetmap.org/copyright",
        "display_name": "Dandeli, Haliyala taluku, Uttara Kannada, Karnataka, 581325, India",
        "type": "town",
        "lon": "74.6236037",
        "boundingbox": [
            "15.2090284",
            "15.2890284",
            "74.5836037",
            "74.6636037"
        ],
        "importance": 0.5,
        "lat": "15.2490284",
        "class": "place"
    },
    "manipal": {
        "place_id": "14794110",
        "osm_id": "1351009057",
        "icon": "https://nominatim.openstreetmap.org/images/mapicons/poi_place_town.p.20.png",
        "osm_type": "node",
        "licence": "Data \u00a9 OpenStreetMap contributors, ODbL 1.0. http://www.openstreetmap.org/copyright",
        "display_name": "Manipal, Udupi taluku, Udupi district, Karnataka, India",
        "type": "town",
        "lon": "74.7870308",
        "boundingbox": [
            "13.3119723",
            "13.3919723",
            "74.7470308",
            "74.8270308"
        ],
        "importance": 0.5,
        "lat": "13.3519723",
        "class": "place"
    },
    "mentions": {
        "coimbatore": {
            "closest_to": "",
            "address": "Gundlupet - Coimbatore Highway, Bandipur, Gundlupet taluk, Chamarajanagar district, Karnataka, India",
            "longitude": "76.6318246",
            "latitude": "11.6793976",
            "blogLinks": [
                "https://www.tripoto.com/weekend-getaways/from-manipal"
            ],
            "locType": "trunk"
        },
        "hong kong": {
            "closest_to": "",
            "address": "Hong Kong Noodles, Kalkere Main road, Ramamurthy Nagar, Varanasi, Bangalore Urban, Karnataka, 600042, India",
            "longitude": "77.6768991",
            "latitude": "13.020749",
            "blogLinks": [
                "https://www.yatra.com/india-tourism/jabalpur-travel-guide",
                "https://www.yatra.com/travel/weekend/"
            ],
            "locType": "restaurant"
        },
        "udipi": {
            "closest_to": "",
            "address": "Udipi Park, 2nd Cross Road, Muniyappa Layout, Murugeshpalaya, Belure Ambedkar Nagar, Bangalore Urban, Karnataka, 560067, India",
            "longitude": "77.652888",
            "latitude": "12.9530588",
            "blogLinks": [
                "http://www.nivalink.com/destination/manipal",
                "http://www.nivalink.com/destination/dandeli"
            ],
            "locType": "restaurant"
        },
        "manali": {
            "closest_to": "",
            "address": "Manali Sugar, Malaghana, Sindagi taluku, Bijapur district, Karnataka, India",
            "longitude": "76.2758251256998",
            "latitude": "17.0266098",
            "blogLinks": [
                "https://www.yatra.com/travel/weekend/"
            ],
            "locType": "industrial"
        },
        "tamilnadu": {
            "closest_to": "",
            "address": "KARNATAKA BANK, Diwan Bhadur Road, Five Corner, RS Puram, Coimbatore, Coimbatore district, Tamil Nadu, 641001, India",
            "longitude": "76.9514152",
            "latitude": "11.0025894",
            "blogLinks": [
                "http://www.hoparoundindia.com/state-guides/karnataka.aspx"
            ],
            "locType": "bank"
        },
        "maharashtra": {
            "closest_to": "",
            "address": "Bank of Maharashtra, 24th Main, K R Layout, Puttenahalli, Bengaluru, Bangalore Urban, Karnataka, 560001, India",
            "longitude": "77.5856013",
            "latitude": "12.9049455",
            "blogLinks": [
                "http://www.hoparoundindia.com/state-guides/karnataka.aspx",
                "http://www.nivalink.com/destination/dandeli"
            ],
            "locType": "bank"
        },
        "singapore": {
            "closest_to": "",
            "address": "Singapore Gardens, Vajrahalli, Bengaluru, Bangalore Urban, Karnataka, 560001, India",
            "longitude": "77.5483703",
            "latitude": "12.8861812",
            "blogLinks": [
                "https://www.yatra.com/india-tourism/jabalpur-travel-guide",
                "https://www.yatra.com/travel/weekend/"
            ],
            "locType": "neighbourhood"
        },
        "middle east": {
            "closest_to": "",
            "address": "Government Middle And Primary School, NH48, Dodderi, Nelamangala taluk, Bangalore Rural, Karnataka, India",
            "longitude": "77.3394684",
            "latitude": "13.1487605",
            "blogLinks": [
                "https://www.yatra.com/india-tourism/jabalpur-travel-guide",
                "https://www.yatra.com/travel/weekend/"
            ],
            "locType": "school"
        },
        "mahabaleshwara temple": {
            "closest_to": "",
            "address": "Mahabaleshwara Temple, Mission Road (Kalinga Rao Road ), Sampangirama Nagar, Shanti Nagar, Bengaluru, Bangalore Urban, Karnataka, 560001, India",
            "longitude": "77.5899749843004",
            "latitude": "12.96264945",
            "blogLinks": [
                "https://www.quora.com/What-are-some-good-places-to-visit-on-the-Goa-Mangalore-route"
            ],
            "locType": "place_of_worship"
        },
        "hogenakkal": {
            "closest_to": "",
            "address": "Hogenakkal Falls, Kollegala taluk, Chamarajanagar district, Karnataka, India",
            "longitude": "77.7758632",
            "latitude": "12.1184195",
            "blogLinks": [
                "http://www.beontheroad.com/2014/06/top-10-monsoon-holidays-in-karnataka.html"
            ],
            "locType": "waterfall"
        },
        "chennai": {
            "closest_to": "",
            "address": "Karnataka Bank, Postal Colony 2nd Street, Postal Colony, Ashok Nagar, Chennai City Corporation Limits, Chennai district, Tamil Nadu, 600033, India",
            "longitude": "80.2197941",
            "latitude": "13.0365141",
            "blogLinks": [
                "https://www.yatra.com/travel/weekend/"
            ],
            "locType": "bank"
        },
        "bangalore": {
            "closest_to": "",
            "address": "Bengaluru, Bangalore Urban, Karnataka, 560001, India",
            "longitude": "77.5912997",
            "latitude": "12.9791198",
            "blogLinks": [
                "http://www.nivalink.com/destination/dandeli",
                "http://www.ticketgoose.com/bus-tickets/dandeli-to-manipal",
                "http://www.beontheroad.com/2014/06/top-10-monsoon-holidays-in-karnataka.html",
                "https://www.tripoto.com/weekend-getaways/from-manipal",
                "https://www.tripoto.com/weekend-getaways/from-dandeli",
                "http://www.nivalink.com/destination/manipal",
                "https://www.yatra.com/travel/weekend/"
            ],
            "locType": "city"
        },
        "north kerala": {
            "closest_to": "",
            "address": "New Life Kerala Mess, Sai Baba Mandira Road, Mottappanapalaya, Indiranagar, Bengaluru, Bangalore Urban, Karnataka, 560001, India",
            "longitude": "77.6382683",
            "latitude": "12.9726449",
            "blogLinks": [
                "http://www.nivalink.com/destination/manipal"
            ],
            "locType": "restaurant"
        },
        "hyderabad": {
            "closest_to": "",
            "address": "Hyderabad Road, Old City, Bidar, Bidar taluku, Bidar district, Karnataka, 585400, India",
            "longitude": "77.5344002",
            "latitude": "17.9003114",
            "blogLinks": [
                "https://www.quora.com/What-are-some-good-places-to-visit-on-the-Goa-Mangalore-route"
            ],
            "locType": "primary"
        },
        "dubai": {
            "closest_to": "",
            "address": "Dubai Plaza, Rest House Road, Shantala Nagar, Ashok Nagar, Bengaluru, Bangalore Urban, Karnataka, 560001, India",
            "longitude": "77.6067717",
            "latitude": "12.9737065",
            "blogLinks": [
                "https://www.yatra.com/india-tourism/jabalpur-travel-guide",
                "https://www.yatra.com/travel/weekend/"
            ],
            "locType": "gift"
        },
        "earth": {
            "closest_to": "",
            "address": "Bharat Earth Movers Limited - BEML, GM Palya, Bengaluru, Bangalore Urban, Karnataka, 560001, India",
            "longitude": "77.659986649248",
            "latitude": "12.9740596",
            "blogLinks": [
                "https://www.tripoto.com/weekend-getaways/from-dandeli"
            ],
            "locType": "industrial"
        },
        "kabini": {
            "closest_to": "",
            "address": "Kabini, Heggadadevanakote taluk, Mysuru district, Karnataka, India",
            "longitude": "76.4152088",
            "latitude": "12.0140065",
            "blogLinks": [
                "http://www.beontheroad.com/2014/06/top-10-monsoon-holidays-in-karnataka.html"
            ],
            "locType": "river"
        },
        "north karnataka": {
            "closest_to": "",
            "address": "N, Chaithanya Samarpan, Kadugodi, Kannamangala, Bangalore Urban, Karnataka, 560066, India",
            "longitude": "77.7660547",
            "latitude": "13.0217151",
            "blogLinks": [
                "http://www.nivalink.com/destination/dandeli"
            ],
            "locType": "service"
        },
        "red fort": {
            "closest_to": "",
            "address": "Calliandra Haematocephala - Red powderpuff, Lalbagh Fort Road, Mavalli, Wilson Garden, Bengaluru, Bangalore Urban, Karnataka, 560001, India",
            "longitude": "77.5854655",
            "latitude": "12.9527112",
            "blogLinks": [
                "https://www.yatra.com/travel/weekend/"
            ],
            "locType": "tree"
        },
        "north goa": {
            "closest_to": "",
            "address": "Carnival De Goa, Bhaskaran Road, Gupta Layout, Halasuru, Bengaluru, Bangalore Urban, Karnataka, 560001, India",
            "longitude": "77.6200027",
            "latitude": "12.9750047",
            "blogLinks": [
                "https://www.tripoto.com/weekend-getaways/from-manipal",
                "https://www.tripoto.com/weekend-getaways/from-dandeli"
            ],
            "locType": "restaurant"
        },
        "old delhi": {
            "closest_to": "",
            "address": "Outer Ring Road, Green Glen Layout, Iblur, Bengaluru, Bangalore Urban, Karnataka, 560001, India",
            "longitude": "77.6666062",
            "latitude": "12.9212473",
            "blogLinks": [
                "https://www.yatra.com/travel/weekend/"
            ],
            "locType": "trunk"
        },
        "kerala": {
            "closest_to": "",
            "address": "New Life Kerala Mess, Sai Baba Mandira Road, Mottappanapalaya, Indiranagar, Bengaluru, Bangalore Urban, Karnataka, 560001, India",
            "longitude": "77.6382683",
            "latitude": "12.9726449",
            "blogLinks": [
                "http://www.ticketgoose.com/bus-tickets/dandeli-to-manipal",
                "https://www.yatra.com/travel/weekend/",
                "http://www.hoparoundindia.com/state-guides/karnataka.aspx"
            ],
            "locType": "restaurant"
        },
        "ooty": {
            "closest_to": "",
            "address": "Ooty Road, Vidyaranyapuram, Mysuru, Mysuru taluk, Mysuru district, Karnataka, 570001, India",
            "longitude": "76.6586807",
            "latitude": "12.2774807",
            "blogLinks": [
                "https://www.yatra.com/travel/weekend/",
                "http://www.hoparoundindia.com/state-guides/karnataka.aspx"
            ],
            "locType": "primary"
        },
        "palani": {
            "closest_to": "",
            "address": "Palani, Neelasandra Bazaar Street, Austin Town BDA Layout, Neelasandra, Bengaluru, Bangalore Urban, Karnataka, 560001, India",
            "longitude": "77.6168951",
            "latitude": "12.9537341",
            "blogLinks": [
                "https://www.tripoto.com/weekend-getaways/from-manipal"
            ],
            "locType": "recycling"
        },
        "mall road": {
            "closest_to": "",
            "address": "Garuda Mall, Magrath Road, Tasker Town, Ashok Nagar, Bengaluru, Bangalore Urban, Karnataka, 560001, India",
            "longitude": "77.6096701741191",
            "latitude": "12.9700507",
            "blogLinks": [
                "https://www.yatra.com/travel/weekend/"
            ],
            "locType": "mall"
        },
        "baga": {
            "closest_to": "",
            "address": "Baga Hipparaga, Basavakalyana taluku, Bidar district, Karnataka, India",
            "longitude": "76.9300452",
            "latitude": "17.6148763",
            "blogLinks": [
                "https://www.tripoto.com/weekend-getaways/from-manipal",
                "https://www.tripoto.com/weekend-getaways/from-dandeli"
            ],
            "locType": "village"
        },
        "california": {
            "closest_to": "",
            "address": "California Pizza Kitchen, 10th Main Road, Indiranagar 2nd Stage, Indiranagar, Bengaluru, Bangalore Urban, Karnataka, 560001, India",
            "longitude": "77.640789",
            "latitude": "12.9759858",
            "blogLinks": [
                "https://www.quora.com/What-are-some-good-places-to-visit-on-the-Goa-Mangalore-route"
            ],
            "locType": "restaurant"
        },
        "madurai": {
            "closest_to": "",
            "address": "Madurai Idly Shop, 5th Main Road, Teachers Colony, HSR Layout, Bengaluru, Bangalore Urban, Karnataka, 560001, India",
            "longitude": "77.6320535",
            "latitude": "12.9185419",
            "blogLinks": [
                "https://www.tripoto.com/weekend-getaways/from-manipal"
            ],
            "locType": "restaurant"
        },
        "india bengaluru": {
            "closest_to": "",
            "address": "Karnataka High Court, Dr B R Ambedkar Veedhi, Shantala Nagar, Gandhinagar, Bengaluru, Bangalore Urban, Karnataka, 560001, India",
            "longitude": "77.5925914",
            "latitude": "12.977944",
            "blogLinks": [
                "https://www.quora.com/What-are-some-good-places-to-visit-on-the-Goa-Mangalore-route"
            ],
            "locType": "courthouse"
        },
        "kerela": {
            "closest_to": "",
            "address": "Kerela Pavilion, 1st Main Road, Domlur 1st Stage, Domlur, Bengaluru, Bangalore Urban, Karnataka, 560001, India",
            "longitude": "77.6371987",
            "latitude": "12.9603147",
            "blogLinks": [
                "https://www.yatra.com/travel/weekend/"
            ],
            "locType": "restaurant"
        },
        "agra": {
            "closest_to": "",
            "address": "Agara, Geddalahalli, Bangalore Urban, Karnataka, India",
            "longitude": "77.6468085",
            "latitude": "13.0386734",
            "blogLinks": [
                "https://www.yatra.com/travel/weekend/"
            ],
            "locType": "suburb"
        },
        "mumbai": {
            "closest_to": "",
            "address": "Mumbai Spice, 18/2, 10th Cross, Malleswaram, Vyalikaval, Malleswaram, Bengaluru, Bangalore Urban, Karnataka, 560003, India",
            "longitude": "77.5718472",
            "latitude": "13.0002869",
            "blogLinks": [
                "https://www.quora.com/What-are-some-good-places-to-visit-on-the-Goa-Mangalore-route"
            ],
            "locType": "restaurant"
        },
        "mysore": {
            "closest_to": "",
            "address": "Mysuru, Mysuru taluk, Mysuru district, Karnataka, 570001, India",
            "longitude": "76.6553609",
            "latitude": "12.3051828",
            "blogLinks": [
                "http://www.hoparoundindia.com/state-guides/karnataka.aspx"
            ],
            "locType": "city"
        },
        "keshava temple": {
            "closest_to": "",
            "address": "\u0c9a\u0cc6\u0ca8\u0ccd\u0ca8\u0c95\u0cc7\u0cb6\u0cb5 \u0ca6\u0cc7\u0cb5\u0cb8\u0ccd\u0ca5\u0cbe\u0ca8, SH79, Bevinahalli, Tirumakudalu Narasipura taluk, Mysuru district, Karnataka, India",
            "longitude": "76.8815598",
            "latitude": "12.27576785",
            "blogLinks": [
                "http://www.hoparoundindia.com/state-guides/karnataka.aspx"
            ],
            "locType": "attraction"
        },
        "tagore": {
            "closest_to": "",
            "address": "Rabindranath Tagore Nagar, Bengaluru, Bangalore Urban, Karnataka, 560001, India",
            "longitude": "77.595715",
            "latitude": "13.0227204",
            "blogLinks": [
                "https://www.quora.com/What-are-some-good-places-to-visit-on-the-Goa-Mangalore-route"
            ],
            "locType": "suburb"
        },
        "mandovi river": {
            "closest_to": "",
            "address": "Mandovi Motors, Wheeler Road Flyover, MSO Colony, Cox Town, Bengaluru, Bangalore Urban, Karnataka, 560001, India",
            "longitude": "77.6190505",
            "latitude": "12.9965335",
            "blogLinks": [
                "https://www.tripoto.com/weekend-getaways/from-dandeli"
            ],
            "locType": "car"
        },
        "sri krishna temple": {
            "closest_to": "",
            "address": "Sri Krishna Temple Road, Old Binnamangala, Hoysala Nagar, Bengaluru, Bangalore Urban, Karnataka, 560001, India",
            "longitude": "77.6437236",
            "latitude": "12.9791699",
            "blogLinks": [
                "http://www.hoparoundindia.com/state-guides/karnataka.aspx"
            ],
            "locType": "unclassified"
        },
        "halebidu": {
            "closest_to": "",
            "address": "Halebidu, Hunasuru taluk, Mysuru district, Karnataka, India",
            "longitude": "76.4607075",
            "latitude": "12.359893",
            "blogLinks": [
                "http://www.hoparoundindia.com/state-guides/karnataka.aspx"
            ],
            "locType": "village"
        },
        "vinayaka temple": {
            "closest_to": "",
            "address": "Vinayaka Temple, Rashtriya Vidyalaya Road, Mavalli, Basavanagudi, Bengaluru, Bangalore Urban, Karnataka, 560004, India",
            "longitude": "77.580180492541",
            "latitude": "12.94308625",
            "blogLinks": [
                "http://www.hoparoundindia.com/state-guides/karnataka.aspx"
            ],
            "locType": "place_of_worship"
        },
        "bandipur": {
            "closest_to": "",
            "address": "Bandipur, Gundlupet taluk, Chamarajanagar district, Karnataka, India",
            "longitude": "76.6285739",
            "latitude": "11.6662708",
            "blogLinks": [
                "http://www.hoparoundindia.com/state-guides/karnataka.aspx"
            ],
            "locType": "village"
        },
        "malgudi": {
            "closest_to": "",
            "address": "Malgudi Southern Cuisine, 3, Outer Ring Road, Ananda Nagara, Doddanekundi, Garudacharpalya, Bangalore Urban, Karnataka, 560037, India",
            "longitude": "77.7017267",
            "latitude": "12.9651193",
            "blogLinks": [
                "http://www.beontheroad.com/2014/06/top-10-monsoon-holidays-in-karnataka.html"
            ],
            "locType": "restaurant"
        },
        "karnataka": {
            "closest_to": "",
            "address": "Karnataka, Shalivahana Road, Nazarbad, Mysuru, Mysuru taluk, Mysuru district, Karnataka, 570001, India",
            "longitude": "76.6639936",
            "latitude": "12.3084901",
            "blogLinks": [
                "http://travel.india.com/dandeli/",
                "http://www.karnatakatourism.org/",
                "http://www.nivalink.com/destination/dandeli",
                "http://www.ticketgoose.com/bus-tickets/dandeli-to-manipal",
                "http://www.beontheroad.com/2014/06/top-10-monsoon-holidays-in-karnataka.html",
                "http://manipalblog.com/2012/05/25/9-places-of-interest-around-mangalore-you-can-visit-this-weekend/",
                "https://www.tripoto.com/weekend-getaways/from-manipal",
                "https://www.quora.com/What-are-some-good-places-to-visit-on-the-Goa-Mangalore-route",
                "http://www.nivalink.com/destination/manipal",
                "https://www.yatra.com/travel/weekend/",
                "http://www.hoparoundindia.com/state-guides/karnataka.aspx"
            ],
            "locType": "atm"
        },
        "emirates": {
            "closest_to": "",
            "address": "Emirates, Rahman Khan Road, Rajajinagar 1st Block, Yeshwantpur, Deewanarapalya, Bangalore Urban, Karnataka, 560022, India",
            "longitude": "77.5572955",
            "latitude": "13.0192135",
            "blogLinks": [
                "https://www.yatra.com/india-tourism/jabalpur-travel-guide",
                "https://www.yatra.com/travel/weekend/"
            ],
            "locType": "restaurant"
        },
        "japanese garden": {
            "closest_to": "",
            "address": "Hae Kum Gang (Korean/Japanese), 20, Castle Street, Shantala Nagar, Ashok Nagar, Bengaluru, Bangalore Urban, Karnataka, 560001, India",
            "longitude": "77.6055915",
            "latitude": "12.9655328",
            "blogLinks": [
                "https://www.tripoto.com/weekend-getaways/from-manipal",
                "https://www.tripoto.com/weekend-getaways/from-dandeli"
            ],
            "locType": "restaurant"
        },
        "silicon city": {
            "closest_to": "",
            "address": "Concorde Silicon Valley, Electronics City Phase 1, Doddathoguru, Bangalore Urban, Karnataka, 560100, India",
            "longitude": "77.6518846392183",
            "latitude": "12.8387524",
            "blogLinks": [
                "http://www.hoparoundindia.com/state-guides/karnataka.aspx"
            ],
            "locType": "residential"
        },
        "goa": {
            "closest_to": "",
            "address": "Carnival De Goa, Bhaskaran Road, Gupta Layout, Halasuru, Bengaluru, Bangalore Urban, Karnataka, 560001, India",
            "longitude": "77.6200027",
            "latitude": "12.9750047",
            "blogLinks": [
                "https://www.quora.com/What-are-some-good-places-to-visit-on-the-Goa-Mangalore-route",
                "https://www.tripoto.com/weekend-getaways/from-manipal",
                "https://www.tripoto.com/weekend-getaways/from-dandeli",
                "https://www.yatra.com/travel/weekend/"
            ],
            "locType": "restaurant"
        },
        "rajasthan": {
            "closest_to": "",
            "address": "Karnataka Bank, Mirza Ismail Road, Hasanpura, Bani Park, Jaipur, Rajasthan, 302006, India",
            "longitude": "75.7985653",
            "latitude": "26.91869",
            "blogLinks": [
                "https://www.yatra.com/travel/weekend/"
            ],
            "locType": "atm"
        },
        "andhra pradesh": {
            "closest_to": "",
            "address": "Karnataka, West Mada Street, Srivari Temple, Tirumala, Chittoor, Andhra Pradesh, 517504, India",
            "longitude": "79.3452447",
            "latitude": "13.6841958",
            "blogLinks": [
                "http://www.hoparoundindia.com/state-guides/karnataka.aspx"
            ],
            "locType": "hotel"
        },
        "tamil nadu": {
            "closest_to": "",
            "address": "KARNATAKA BANK, Diwan Bhadur Road, Five Corner, RS Puram, Coimbatore, Coimbatore district, Tamil Nadu, 641001, India",
            "longitude": "76.9514152",
            "latitude": "11.0025894",
            "blogLinks": [
                "https://www.tripoto.com/weekend-getaways/from-manipal",
                "http://www.beontheroad.com/2014/06/top-10-monsoon-holidays-in-karnataka.html",
                "https://www.yatra.com/travel/weekend/"
            ],
            "locType": "bank"
        },
        "jaipur": {
            "closest_to": "",
            "address": "Karnataka Bank, Mirza Ismail Road, Hasanpura, Bani Park, Jaipur, Rajasthan, 302006, India",
            "longitude": "75.7985653",
            "latitude": "26.91869",
            "blogLinks": [
                "https://www.yatra.com/travel/weekend/"
            ],
            "locType": "atm"
        },
        "garden city": {
            "closest_to": "",
            "address": "Karnataka Bank, Postal Colony 2nd Street, Postal Colony, Ashok Nagar, Chennai City Corporation Limits, Chennai district, Tamil Nadu, 600033, India",
            "longitude": "80.2197941",
            "latitude": "13.0365141",
            "blogLinks": [
                "https://www.tripoto.com/weekend-getaways/from-manipal"
            ],
            "locType": "bank"
        },
        "delhi": {
            "closest_to": "",
            "address": "Outer Ring Road, Green Glen Layout, Iblur, Bengaluru, Bangalore Urban, Karnataka, 560001, India",
            "longitude": "77.6666062",
            "latitude": "12.9212473",
            "blogLinks": [
                "https://www.yatra.com/travel/weekend/"
            ],
            "locType": "trunk"
        }
    }
}