{
    "dandeli": {
        "place_id": "5820025",
        "osm_id": "612546262",
        "icon": "https://nominatim.openstreetmap.org/images/mapicons/poi_place_town.p.20.png",
        "osm_type": "node",
        "licence": "Data \u00a9 OpenStreetMap contributors, ODbL 1.0. http://www.openstreetmap.org/copyright",
        "display_name": "Dandeli, Haliyala taluku, Uttara Kannada, Karnataka, 581325, India",
        "type": "town",
        "lon": "74.6236037",
        "boundingbox": [
            "15.2090284",
            "15.2890284",
            "74.5836037",
            "74.6636037"
        ],
        "importance": 0.5,
        "lat": "15.2490284",
        "class": "place"
    },
    "yana": {
        "place_id": "196766914",
        "osm_id": "1890842669",
        "icon": "https://nominatim.openstreetmap.org/images/mapicons/poi_place_village.p.20.png",
        "osm_type": "node",
        "licence": "Data \u00a9 OpenStreetMap contributors, ODbL 1.0. http://www.openstreetmap.org/copyright",
        "display_name": "Yana, Kumata taluk, Uttara Kannada, Karnataka, India",
        "type": "village",
        "lon": "74.5598169",
        "boundingbox": [
            "14.5586094",
            "14.5986094",
            "74.5398169",
            "74.5798169"
        ],
        "importance": 0.475,
        "lat": "14.5786094",
        "class": "place"
    },
    "mentions": {
        "badami": {
            "closest_to": "",
            "address": "Badami, Badami taluku, Bagalkote district, Karnataka, 587200, India",
            "longitude": "75.6807865",
            "latitude": "15.9203874",
            "blogLinks": [
                "https://en.wikipedia.org/wiki/Tourism_in_Karnataka",
                "https://www.quora.com/What-are-the-best-places-to-visit-on-a-3-day-trip-in-and-around-Karnataka"
            ],
            "locType": "town"
        },
        "bellary district": {
            "closest_to": "",
            "address": "Bellary district, Karnataka, India",
            "longitude": "76.7137978546465",
            "latitude": "15.20597305",
            "blogLinks": [
                "https://en.wikipedia.org/wiki/Tourism_in_Karnataka"
            ],
            "locType": "administrative"
        },
        "coastal karnataka": {
            "closest_to": "",
            "address": "Bharat Petroleum Mangalore Coastal Installation, Baikampady, Mangaluru taluk, Dakshina Kannada, Karnataka, 575014, India",
            "longitude": "74.8137275833157",
            "latitude": "12.96014675",
            "blogLinks": [
                "https://en.wikipedia.org/wiki/Tourism_in_Karnataka"
            ],
            "locType": "industrial"
        },
        "himavad gopalaswamy betta": {
            "closest_to": "",
            "address": "Gopalaswami Temple, Gopal Swami Betta road, Devarahalli, Gundlupet taluk, Chamarajanagar district, Karnataka, India",
            "longitude": "76.5804063",
            "latitude": "11.7206016",
            "blogLinks": [
                "https://www.quora.com/What-are-the-best-places-to-visit-on-a-3-day-trip-in-and-around-Karnataka"
            ],
            "locType": "place_of_worship"
        },
        "belgaum": {
            "closest_to": "",
            "address": "Belgaum, Belgaum district, Karnataka, India",
            "longitude": "74.75",
            "latitude": "16.333333",
            "blogLinks": [
                "https://en.wikipedia.org/wiki/Tourism_in_Karnataka",
                "https://www.quora.com/What-are-the-best-places-to-visit-on-a-3-day-trip-in-and-around-Karnataka"
            ],
            "locType": "county"
        },
        "maharashtra": {
            "closest_to": "",
            "address": "Bank of Maharashtra, 24th Main, K R Layout, Puttenahalli, Bengaluru, Bangalore Urban, Karnataka, 560001, India",
            "longitude": "77.5856013",
            "latitude": "12.9049455",
            "blogLinks": [
                "https://en.wikipedia.org/wiki/Tourism_in_Karnataka",
                "http://www.holidayiq.com/Dandeli-Sightseeing-345.html",
                "http://www.nivalink.com/destination/dandeli"
            ],
            "locType": "bank"
        },
        "district bagalkot": {
            "closest_to": "",
            "address": "District Commissioner's Office, Bagalkot, Navanagara, Bagalakote, Bagalakote taluk, Bagalkote district, Karnataka, India",
            "longitude": "75.6736388363024",
            "latitude": "16.16028195",
            "blogLinks": [
                "https://en.wikipedia.org/wiki/Tourism_in_Karnataka"
            ],
            "locType": "commercial"
        },
        "venur": {
            "closest_to": "",
            "address": "Venoor, Beltangadi taluk, Dakshina Kannada, Karnataka, 574242, India",
            "longitude": "75.1443252",
            "latitude": "13.0122097",
            "blogLinks": [
                "https://en.wikipedia.org/wiki/Tourism_in_Karnataka"
            ],
            "locType": "village"
        },
        "panambur - panambur beach": {
            "closest_to": "",
            "address": "Panambur Beach, Panambur Beach Road, Gandhinagar, Panambur, Mangaluru taluk, Dakshina Kannada, Karnataka, 575013, India",
            "longitude": "74.8034667207214",
            "latitude": "12.93907195",
            "blogLinks": [
                "https://www.quora.com/What-are-the-best-places-to-visit-on-a-3-day-trip-in-and-around-Karnataka"
            ],
            "locType": "beach"
        },
        "ratnagiri highway": {
            "closest_to": "",
            "address": "Ratnagiri Road, Basavannahalli, Chikkamagaluru, Chikkamagaluru taluku, Chikkamagaluru district, Karnataka, 577101, India",
            "longitude": "75.7727724",
            "latitude": "13.3292344",
            "blogLinks": [
                "http://www.nivalink.com/destination/dandeli"
            ],
            "locType": "secondary"
        },
        "mahabaleshwara": {
            "closest_to": "",
            "address": "Mahabaleshwara Temple, Mission Road (Kalinga Rao Road ), Sampangirama Nagar, Shanti Nagar, Bengaluru, Bangalore Urban, Karnataka, 560001, India",
            "longitude": "77.5899749843004",
            "latitude": "12.96264945",
            "blogLinks": [
                "https://www.quora.com/What-are-the-best-places-to-visit-on-a-3-day-trip-in-and-around-Karnataka"
            ],
            "locType": "place_of_worship"
        },
        "hyderabad": {
            "closest_to": "",
            "address": "Hyderabad Road, Old City, Bidar, Bidar taluku, Bidar district, Karnataka, 585400, India",
            "longitude": "77.5344002",
            "latitude": "17.9003114",
            "blogLinks": [
                "https://www.quora.com/What-are-the-places-to-visit-near-Karwar-in-Monsoon-time"
            ],
            "locType": "primary"
        },
        "kudalasangama": {
            "closest_to": "",
            "address": "Kudala Sangama, Hunagunda taluku, Bagalkote district, Karnataka, India",
            "longitude": "76.0604244",
            "latitude": "16.2033992",
            "blogLinks": [
                "https://en.wikipedia.org/wiki/Tourism_in_Karnataka"
            ],
            "locType": "village"
        },
        "gulbarga": {
            "closest_to": "",
            "address": "Kalaburgi, Kalaburagi district, Karnataka, India",
            "longitude": "77.083333",
            "latitude": "17.166667",
            "blogLinks": [
                "https://en.wikipedia.org/wiki/Tourism_in_Karnataka",
                "https://www.quora.com/What-are-the-best-places-to-visit-on-a-3-day-trip-in-and-around-Karnataka"
            ],
            "locType": "county"
        },
        "hassan district": {
            "closest_to": "",
            "address": "Hassan district, Karnataka, India",
            "longitude": "76.1745460751981",
            "latitude": "13.0315068",
            "blogLinks": [
                "https://en.wikipedia.org/wiki/Tourism_in_Karnataka"
            ],
            "locType": "administrative"
        },
        "sahyadri": {
            "closest_to": "",
            "address": "Sahyadri Polytechnic, SH1, Seebinakere, Sankadahole, Tirthahalli taluk, Shimoga district, Karnataka, 577432, India",
            "longitude": "75.2317987800043",
            "latitude": "13.6983273",
            "blogLinks": [
                "http://giriprasadm.blogspot.com/"
            ],
            "locType": "school"
        },
        "bagalkot district": {
            "closest_to": "",
            "address": "Bagalakote, Bagalakote taluk, Bagalkote district, Karnataka, India",
            "longitude": "75.6967919",
            "latitude": "16.1853166",
            "blogLinks": [
                "https://en.wikipedia.org/wiki/Tourism_in_Karnataka"
            ],
            "locType": "city"
        },
        "mullayanagiri range": {
            "closest_to": "",
            "address": "Mullayyanagiri, Chikkamagaluru, Chikkamagaluru taluku, Chikkamagaluru district, Karnataka, 577101, India",
            "longitude": "75.7214034",
            "latitude": "13.3909217",
            "blogLinks": [
                "https://www.quora.com/What-are-the-best-places-to-visit-on-a-3-day-trip-in-and-around-Karnataka"
            ],
            "locType": "peak"
        },
        "bijapur": {
            "closest_to": "",
            "address": "Vijayapura, Vijayapura taluk, Bijapur district, Karnataka, 586101, India",
            "longitude": "75.7175387",
            "latitude": "16.8269911",
            "blogLinks": [
                "https://en.wikipedia.org/wiki/Tourism_in_Karnataka",
                "https://www.quora.com/What-are-the-best-places-to-visit-on-a-3-day-trip-in-and-around-Karnataka",
                "http://www.nivalink.com/destination/dandeli"
            ],
            "locType": "city"
        },
        "karanji lake": {
            "closest_to": "",
            "address": "Karanji, Aurad taluku, Bidar district, Karnataka, India",
            "longitude": "77.5474867",
            "latitude": "18.2681849",
            "blogLinks": [
                "https://www.quora.com/What-are-the-best-places-to-visit-on-a-3-day-trip-in-and-around-Karnataka"
            ],
            "locType": "village"
        },
        "malaprabha": {
            "closest_to": "",
            "address": "Malaprabha, Ramadurga taluku, Belgaum district, Karnataka, India",
            "longitude": "75.1982668",
            "latitude": "15.8914192",
            "blogLinks": [
                "https://en.wikipedia.org/wiki/Tourism_in_Karnataka"
            ],
            "locType": "river"
        },
        "mookambika": {
            "closest_to": "",
            "address": "Mukambika Devasthana, NH766C;SH26, Halkal, \u0c95\u0cc1\u0c82\u0ca6\u0cbe\u0caa\u0cc1\u0cb0 \u0ca4\u0cbe\u0cb2\u0cc2\u0c95\u0cc1, Udupi district, Karnataka, 576220, India",
            "longitude": "74.8145296",
            "latitude": "13.8638043",
            "blogLinks": [
                "https://en.wikipedia.org/wiki/Tourism_in_Karnataka",
                "https://www.quora.com/What-are-the-best-places-to-visit-on-a-3-day-trip-in-and-around-Karnataka"
            ],
            "locType": "place_of_worship"
        },
        "mandya district": {
            "closest_to": "",
            "address": "Mandya district, Karnataka, India",
            "longitude": "76.7302318329607",
            "latitude": "12.6336348",
            "blogLinks": [
                "https://en.wikipedia.org/wiki/Tourism_in_Karnataka"
            ],
            "locType": "administrative"
        },
        "rose garden": {
            "closest_to": "",
            "address": "Rose Garden, Dr B R Ambedkar Veedhi, Shantala Nagar, Gandhinagar, Bengaluru, Bangalore Urban, Karnataka, 560001, India",
            "longitude": "77.590382853852",
            "latitude": "12.97371325",
            "blogLinks": [
                "https://www.quora.com/What-are-the-best-places-to-visit-on-a-3-day-trip-in-and-around-Karnataka"
            ],
            "locType": "garden"
        },
        "golden temple": {
            "closest_to": "",
            "address": "Padmasambhava Buddhist Vihara (Golden Temple), MDR21, Koppa, Piriyapattana taluk, Mysuru district, Karnataka, India",
            "longitude": "75.9674656",
            "latitude": "12.430821",
            "blogLinks": [
                "https://www.quora.com/What-are-the-best-places-to-visit-on-a-3-day-trip-in-and-around-Karnataka"
            ],
            "locType": "place_of_worship"
        },
        "varadaraja": {
            "closest_to": "",
            "address": "Varadaraja Petrol / Gas Station, Dr. Rajkumar Road, Rajajinagar 1st Block, Subrahmanya Nagar, Bengaluru, Bangalore Urban, Karnataka, 560001, India",
            "longitude": "77.5542736",
            "latitude": "13.005885",
            "blogLinks": [
                "https://en.wikipedia.org/wiki/Tourism_in_Karnataka"
            ],
            "locType": "fuel"
        },
        "pune": {
            "closest_to": "",
            "address": "Pune - Machilipatnam Highway, Kaudiyala, Basavakalyana taluku, Bidar district, Karnataka, India",
            "longitude": "76.9479122",
            "latitude": "17.8199745",
            "blogLinks": [
                "https://www.quora.com/What-are-the-places-to-visit-near-Karwar-in-Monsoon-time"
            ],
            "locType": "trunk"
        },
        "gokak": {
            "closest_to": "",
            "address": "Gokak, Gokak taluku, Belgaum district, Karnataka, 591307, India",
            "longitude": "74.8224338",
            "latitude": "16.1693033",
            "blogLinks": [
                "https://en.wikipedia.org/wiki/Tourism_in_Karnataka",
                "https://www.quora.com/What-are-the-best-places-to-visit-on-a-3-day-trip-in-and-around-Karnataka"
            ],
            "locType": "town"
        },
        "sri mallikarjuna temple": {
            "closest_to": "",
            "address": "Sri Mallikarjuna Temple, Parking, Sringeri, Sringeri taluku, Chikkamagaluru district, Karnataka, 577592, India",
            "longitude": "75.2508225556439",
            "latitude": "13.4188371",
            "blogLinks": [
                "http://www.holidayiq.com/Dandeli-Sightseeing-345.html"
            ],
            "locType": "place_of_worship"
        },
        "mysore": {
            "closest_to": "",
            "address": "Mysuru, Mysuru taluk, Mysuru district, Karnataka, 570001, India",
            "longitude": "76.6553609",
            "latitude": "12.3051828",
            "blogLinks": [
                "https://www.quora.com/What-are-the-best-places-to-visit-on-a-3-day-trip-in-and-around-Karnataka"
            ],
            "locType": "city"
        },
        "chamarajanagar": {
            "closest_to": "",
            "address": "Chamarajanagar, Nanjangudu-Chamarajanagar Road, Kadahalli, Chamarajanagara taluk, Chamarajanagar district, Karnataka, 571313, India",
            "longitude": "76.9331345",
            "latitude": "11.9346624",
            "blogLinks": [
                "https://en.wikipedia.org/wiki/Tourism_in_Karnataka"
            ],
            "locType": "station"
        },
        "malpe": {
            "closest_to": "",
            "address": "Malpe, Udupi taluku, Udupi district, Karnataka, India",
            "longitude": "74.7036914",
            "latitude": "13.3507423",
            "blogLinks": [
                "https://en.wikipedia.org/wiki/Tourism_in_Karnataka",
                "https://www.quora.com/What-are-the-best-places-to-visit-on-a-3-day-trip-in-and-around-Karnataka"
            ],
            "locType": "village"
        },
        "koppal district": {
            "closest_to": "",
            "address": "Koppal district, Karnataka, India",
            "longitude": "76.310639117029",
            "latitude": "15.57825725",
            "blogLinks": [
                "https://en.wikipedia.org/wiki/Tourism_in_Karnataka"
            ],
            "locType": "administrative"
        },
        "kollur": {
            "closest_to": "",
            "address": "Kollur, \u0c95\u0cc1\u0c82\u0ca6\u0cbe\u0caa\u0cc1\u0cb0 \u0ca4\u0cbe\u0cb2\u0cc2\u0c95\u0cc1, Udupi district, Karnataka, 576220, India",
            "longitude": "74.8137959",
            "latitude": "13.8634049",
            "blogLinks": [
                "http://www.nivalink.com/destination/dandeli"
            ],
            "locType": "village"
        },
        "kemmangundi": {
            "closest_to": "",
            "address": "Kemmannagundi, Tarikere taluku, Chikkamagaluru district, Karnataka, India",
            "longitude": "75.7520082",
            "latitude": "13.5463048",
            "blogLinks": [
                "https://en.wikipedia.org/wiki/Tourism_in_Karnataka"
            ],
            "locType": "village"
        },
        "ooty lake": {
            "closest_to": "",
            "address": "Ooty Road, Vidyaranyapuram, Mysuru, Mysuru taluk, Mysuru district, Karnataka, 570001, India",
            "longitude": "76.6586807",
            "latitude": "12.2774807",
            "blogLinks": [
                "https://www.quora.com/What-are-the-best-places-to-visit-on-a-3-day-trip-in-and-around-Karnataka"
            ],
            "locType": "primary"
        },
        "banashankari temple": {
            "closest_to": "",
            "address": "Banashankari Temple, Kanakapura Road, JP Nagar 1st Phase, Kaderenahalli, Bengaluru, Bangalore Urban, Karnataka, 560001, India",
            "longitude": "77.5731752886765",
            "latitude": "12.91568785",
            "blogLinks": [
                "https://en.wikipedia.org/wiki/Tourism_in_Karnataka"
            ],
            "locType": "place_of_worship"
        },
        "shivanasamudra": {
            "closest_to": "",
            "address": "Shivanasamudra, Kollegala taluk, Chamarajanagar district, Karnataka, India",
            "longitude": "77.1703215",
            "latitude": "12.2719056",
            "blogLinks": [
                "https://en.wikipedia.org/wiki/Tourism_in_Karnataka"
            ],
            "locType": "village"
        },
        "sannati": {
            "closest_to": "",
            "address": "Sannati, Chitapura taluku, Kalaburagi district, Karnataka, India",
            "longitude": "76.9080631",
            "latitude": "16.8293201",
            "blogLinks": [
                "https://en.wikipedia.org/wiki/Tourism_in_Karnataka"
            ],
            "locType": "village"
        },
        "bandipur": {
            "closest_to": "",
            "address": "Bandipur, Gundlupet taluk, Chamarajanagar district, Karnataka, India",
            "longitude": "76.6285739",
            "latitude": "11.6662708",
            "blogLinks": [
                "https://en.wikipedia.org/wiki/Tourism_in_Karnataka"
            ],
            "locType": "village"
        },
        "kalyani": {
            "closest_to": "",
            "address": "Kalyani, Neeladri Road, Electronics City Phase 1, Bettadasana Pura, Bangalore Urban, Karnataka, 560100, India",
            "longitude": "77.6286090192686",
            "latitude": "12.8406466",
            "blogLinks": [
                "https://en.wikipedia.org/wiki/Tourism_in_Karnataka"
            ],
            "locType": "water"
        },
        "bandipur national park": {
            "closest_to": "",
            "address": "Bandipur National Park, Kozhikode - Kollegal Highway, Gundlupet taluk, Chamarajanagar district, Karnataka, India",
            "longitude": "76.4314968740264",
            "latitude": "11.76682425",
            "blogLinks": [
                "https://en.wikipedia.org/wiki/Tourism_in_Karnataka",
                "https://www.quora.com/What-are-the-best-places-to-visit-on-a-3-day-trip-in-and-around-Karnataka"
            ],
            "locType": "national_park"
        },
        "nilgiris": {
            "closest_to": "",
            "address": "Nilgiris, Brigade Road, Tasker Town, Ashok Nagar, Bengaluru, Bangalore Urban, Karnataka, 560001, India",
            "longitude": "77.6069792",
            "latitude": "12.9725052",
            "blogLinks": [
                "https://en.wikipedia.org/wiki/Tourism_in_Karnataka"
            ],
            "locType": "supermarket"
        },
        "brahmagiri range": {
            "closest_to": "",
            "address": "Brahmagiri Betta, Molakalmuru taluku, Chitradurga district, Karnataka, India",
            "longitude": "76.8122474",
            "latitude": "14.8001586",
            "blogLinks": [
                "https://www.quora.com/What-are-the-best-places-to-visit-on-a-3-day-trip-in-and-around-Karnataka"
            ],
            "locType": "peak"
        },
        "lakkundi": {
            "closest_to": "",
            "address": "Lakkundi, Muddebihala taluku, Bijapur district, Karnataka, India",
            "longitude": "76.4084687",
            "latitude": "16.5255464",
            "blogLinks": [
                "https://en.wikipedia.org/wiki/Tourism_in_Karnataka"
            ],
            "locType": "village"
        },
        "chola": {
            "closest_to": "",
            "address": "Chola Gold Loan, Bengaluru - Mangaluru Road, Ravindra Nagar, Santhe Pete, Hassan, Hasana taluk, Hassan district, Karnataka, 573201, India",
            "longitude": "76.098782",
            "latitude": "13.0023906",
            "blogLinks": [
                "https://en.wikipedia.org/wiki/Tourism_in_Karnataka"
            ],
            "locType": "yes"
        },
        "sharavathi river": {
            "closest_to": "",
            "address": "Sharavathi Block, National Games Village Road, Ambedkar Nagar, Ejipura, Bengaluru, Bangalore Urban, Karnataka, 560001, India",
            "longitude": "77.6216184337102",
            "latitude": "12.9464709",
            "blogLinks": [
                "https://www.triphobo.com/blog/offbeat-destinations-in-karnataka"
            ],
            "locType": "yes"
        },
        "gadag": {
            "closest_to": "",
            "address": "Gadag, Gadag taluk, Gadag district, Karnataka, 582101, India",
            "longitude": "75.6300786",
            "latitude": "15.4263647",
            "blogLinks": [
                "https://en.wikipedia.org/wiki/Tourism_in_Karnataka"
            ],
            "locType": "town"
        },
        "south karnataka": {
            "closest_to": "",
            "address": "s, Vijayapura, Devanahalli taluk, Bangalore Rural, Karnataka, 562135, India",
            "longitude": "77.8040874",
            "latitude": "13.2942848",
            "blogLinks": [
                "https://en.wikipedia.org/wiki/Tourism_in_Karnataka"
            ],
            "locType": "residential"
        },
        "south": {
            "closest_to": "",
            "address": "s, Vijayapura, Devanahalli taluk, Bangalore Rural, Karnataka, 562135, India",
            "longitude": "77.8040874",
            "latitude": "13.2942848",
            "blogLinks": [
                "https://en.wikipedia.org/wiki/Tourism_in_Karnataka",
                "https://www.quora.com/What-are-the-best-places-to-visit-on-a-3-day-trip-in-and-around-Karnataka"
            ],
            "locType": "residential"
        },
        "kaveri": {
            "closest_to": "",
            "address": "Kaveri, Kollegala taluk, Chamarajanagar district, Karnataka, India",
            "longitude": "77.0635531",
            "latitude": "12.1687878",
            "blogLinks": [
                "https://en.wikipedia.org/wiki/Tourism_in_Karnataka",
                "https://www.quora.com/What-are-the-best-places-to-visit-on-a-3-day-trip-in-and-around-Karnataka"
            ],
            "locType": "river"
        },
        "haveri": {
            "closest_to": "",
            "address": "Haveri, Haveri taluku, Haveri district, Karnataka, 581110, India",
            "longitude": "75.3996731",
            "latitude": "14.7874825",
            "blogLinks": [
                "https://en.wikipedia.org/wiki/Tourism_in_Karnataka"
            ],
            "locType": "town"
        },
        "linganamakki reservoir": {
            "closest_to": "",
            "address": "Linganamakki Reservoir, Hosanagara taluk, Shimoga district, Karnataka, India",
            "longitude": "75.0410123818511",
            "latitude": "14.0035104",
            "blogLinks": [
                "https://www.triphobo.com/blog/offbeat-destinations-in-karnataka"
            ],
            "locType": "water"
        },
        "kamala": {
            "closest_to": "",
            "address": "Kamala Nehru Patashala (Emmanual English School), 5th A Cross Road, Yediyur, Thyagaraja Nagar, Bengaluru, Bangalore Urban, Karnataka, 560001, India",
            "longitude": "77.5664867",
            "latitude": "12.9339482",
            "blogLinks": [
                "https://en.wikipedia.org/wiki/Tourism_in_Karnataka"
            ],
            "locType": "school"
        },
        "udipi": {
            "closest_to": "",
            "address": "Udipi Park, 2nd Cross Road, Muniyappa Layout, Murugeshpalaya, Belure Ambedkar Nagar, Bangalore Urban, Karnataka, 560067, India",
            "longitude": "77.652888",
            "latitude": "12.9530588",
            "blogLinks": [
                "http://www.nivalink.com/destination/dandeli"
            ],
            "locType": "restaurant"
        },
        "aihole": {
            "closest_to": "",
            "address": "Aihole, Hunagunda taluku, Bagalkote district, Karnataka, India",
            "longitude": "75.8819129",
            "latitude": "16.0192298",
            "blogLinks": [
                "https://en.wikipedia.org/wiki/Tourism_in_Karnataka"
            ],
            "locType": "village"
        },
        "iruppu falls": {
            "closest_to": "",
            "address": "Iruppu Falls, SH89, Taila, Virajpet taluk, Kodagu, Karnataka, 571217, India",
            "longitude": "75.9839484",
            "latitude": "11.9667954",
            "blogLinks": [
                "https://www.quora.com/What-are-the-best-places-to-visit-on-a-3-day-trip-in-and-around-Karnataka"
            ],
            "locType": "attraction"
        },
        "chikmagalur district": {
            "closest_to": "",
            "address": "Chikmagalur, Chikkamagaluru district, Karnataka, India",
            "longitude": "75.5",
            "latitude": "13.5",
            "blogLinks": [
                "https://en.wikipedia.org/wiki/Tourism_in_Karnataka"
            ],
            "locType": "county"
        },
        "bangalore": {
            "closest_to": "",
            "address": "Bengaluru, Bangalore Urban, Karnataka, 560001, India",
            "longitude": "77.5912997",
            "latitude": "12.9791198",
            "blogLinks": [
                "http://www.nivalink.com/destination/dandeli",
                "https://www.quora.com/What-are-the-places-to-visit-near-Karwar-in-Monsoon-time",
                "http://giriprasadm.blogspot.com/",
                "https://www.quora.com/What-are-the-best-places-to-visit-on-a-3-day-trip-in-and-around-Karnataka",
                "https://www.triphobo.com/blog/offbeat-destinations-in-karnataka",
                "https://en.wikipedia.org/wiki/Tourism_in_Karnataka"
            ],
            "locType": "city"
        },
        "koppal": {
            "closest_to": "",
            "address": "Koppala, Koppala taluku, Koppal district, Karnataka, 583231, India",
            "longitude": "76.1547421",
            "latitude": "15.3484144",
            "blogLinks": [
                "https://en.wikipedia.org/wiki/Tourism_in_Karnataka"
            ],
            "locType": "town"
        },
        "parvati": {
            "closest_to": "",
            "address": "Parvati, Badami taluku, Bagalkote district, Karnataka, India",
            "longitude": "75.7898501",
            "latitude": "16.0395701",
            "blogLinks": [
                "https://www.quora.com/What-are-the-best-places-to-visit-on-a-3-day-trip-in-and-around-Karnataka"
            ],
            "locType": "village"
        },
        "ghataprabha river": {
            "closest_to": "",
            "address": "Ghataprabha, Gokak taluku, Belgaum district, Karnataka, India",
            "longitude": "74.9165235",
            "latitude": "16.2124344",
            "blogLinks": [
                "https://en.wikipedia.org/wiki/Tourism_in_Karnataka"
            ],
            "locType": "river"
        },
        "kuknur": {
            "closest_to": "",
            "address": "Kukanura, Yelaburga taluku, Koppal district, Karnataka, 583232, India",
            "longitude": "75.9934934",
            "latitude": "15.4902753",
            "blogLinks": [
                "https://en.wikipedia.org/wiki/Tourism_in_Karnataka"
            ],
            "locType": "village"
        },
        "gadag district": {
            "closest_to": "",
            "address": "Gadag district, Karnataka, India",
            "longitude": "75.6807542794645",
            "latitude": "15.416337",
            "blogLinks": [
                "https://en.wikipedia.org/wiki/Tourism_in_Karnataka"
            ],
            "locType": "administrative"
        },
        "u.s.": {
            "closest_to": "",
            "address": "Karnataka, India",
            "longitude": "75.7223521",
            "latitude": "14.5203896",
            "blogLinks": [
                "http://www.holidayiq.com/How-To-Reach/From-Yana-To-Dandeli-749-345"
            ],
            "locType": "administrative"
        },
        "north karnataka": {
            "closest_to": "",
            "address": "N, Chaithanya Samarpan, Kadugodi, Kannamangala, Bangalore Urban, Karnataka, 560066, India",
            "longitude": "77.7660547",
            "latitude": "13.0217151",
            "blogLinks": [
                "https://en.wikipedia.org/wiki/Tourism_in_Karnataka",
                "https://www.quora.com/What-are-the-best-places-to-visit-on-a-3-day-trip-in-and-around-Karnataka",
                "http://www.nivalink.com/destination/dandeli"
            ],
            "locType": "service"
        },
        "dharmastala": {
            "closest_to": "",
            "address": "Dharmasthala, Beltangadi taluk, Dakshina Kannada, Karnataka, 574216, India",
            "longitude": "75.3813122",
            "latitude": "12.9519571",
            "blogLinks": [
                "https://en.wikipedia.org/wiki/Tourism_in_Karnataka"
            ],
            "locType": "village"
        },
        "beluru": {
            "closest_to": "",
            "address": "Belur, Beluru taluk, Hassan district, Karnataka, 573115, India",
            "longitude": "75.8634851",
            "latitude": "13.1645671",
            "blogLinks": [
                "https://en.wikipedia.org/wiki/Tourism_in_Karnataka"
            ],
            "locType": "town"
        },
        "ooty": {
            "closest_to": "",
            "address": "Ooty Road, Vidyaranyapuram, Mysuru, Mysuru taluk, Mysuru district, Karnataka, 570001, India",
            "longitude": "76.6586807",
            "latitude": "12.2774807",
            "blogLinks": [
                "https://www.quora.com/What-are-the-best-places-to-visit-on-a-3-day-trip-in-and-around-Karnataka"
            ],
            "locType": "primary"
        },
        "nandi hills": {
            "closest_to": "",
            "address": "Nandi Upahara, Nandhi Hills Road, Kottige Thimmanahalli, Devanahalli taluk, Bangalore Rural, Karnataka, India",
            "longitude": "77.7194741670394",
            "latitude": "13.268142",
            "blogLinks": [
                "https://www.quora.com/What-are-the-best-places-to-visit-on-a-3-day-trip-in-and-around-Karnataka"
            ],
            "locType": "hotel"
        },
        "hassan": {
            "closest_to": "",
            "address": "Hassan, Hasana taluk, Hassan district, Karnataka, 573201, India",
            "longitude": "76.0992703",
            "latitude": "13.0070817",
            "blogLinks": [
                "https://en.wikipedia.org/wiki/Tourism_in_Karnataka"
            ],
            "locType": "town"
        },
        "bidar": {
            "closest_to": "",
            "address": "Bidar, Bidar district, Karnataka, India",
            "longitude": "77.333333",
            "latitude": "18.083333",
            "blogLinks": [
                "https://www.quora.com/What-are-the-best-places-to-visit-on-a-3-day-trip-in-and-around-Karnataka"
            ],
            "locType": "county"
        },
        "nagarahole": {
            "closest_to": "",
            "address": "Nagarahole, Heggadadevanakote taluk, Mysuru district, Karnataka, India",
            "longitude": "76.2286805",
            "latitude": "12.0229466",
            "blogLinks": [
                "https://en.wikipedia.org/wiki/Tourism_in_Karnataka"
            ],
            "locType": "river"
        },
        "chalukya": {
            "closest_to": "",
            "address": "Chalukya Nagar, Chandra Layout, GKW Layout, Bangalore Urban, Karnataka, 560072, India",
            "longitude": "77.5192989605445",
            "latitude": "12.9617207",
            "blogLinks": [
                "https://en.wikipedia.org/wiki/Tourism_in_Karnataka"
            ],
            "locType": "residential"
        },
        "mercara": {
            "closest_to": "",
            "address": "Madikeri, Madikeri taluku, Kodagu, Karnataka, India",
            "longitude": "75.740031",
            "latitude": "12.4204003",
            "blogLinks": [
                "https://en.wikipedia.org/wiki/Tourism_in_Karnataka"
            ],
            "locType": "town"
        },
        "sirigere": {
            "closest_to": "",
            "address": "Sirigere, Chitradurga taluku, Chitradurga district, Karnataka, India",
            "longitude": "76.2051907",
            "latitude": "14.2840739",
            "blogLinks": [
                "https://en.wikipedia.org/wiki/Tourism_in_Karnataka"
            ],
            "locType": "village"
        },
        "chennakeshava": {
            "closest_to": "",
            "address": "Chennakeshava Temple, NH73, Arakere, Arasikere taluku, Hassan district, Karnataka, 573112, India",
            "longitude": "76.1294164",
            "latitude": "13.3748908",
            "blogLinks": [
                "https://www.quora.com/What-are-the-best-places-to-visit-on-a-3-day-trip-in-and-around-Karnataka"
            ],
            "locType": "place_of_worship"
        },
        "haveri district": {
            "closest_to": "",
            "address": "Haveri district, Karnataka, India",
            "longitude": "75.3845674304742",
            "latitude": "14.714635",
            "blogLinks": [
                "https://en.wikipedia.org/wiki/Tourism_in_Karnataka"
            ],
            "locType": "administrative"
        },
        "mumbai": {
            "closest_to": "",
            "address": "Mumbai Spice, 18/2, 10th Cross, Malleswaram, Vyalikaval, Malleswaram, Bengaluru, Bangalore Urban, Karnataka, 560003, India",
            "longitude": "77.5718472",
            "latitude": "13.0002869",
            "blogLinks": [
                "https://www.tripoto.com/trip/dandeli-a-jungle-visit-570807194ebe4",
                "https://www.quora.com/What-are-the-places-to-visit-near-Karwar-in-Monsoon-time"
            ],
            "locType": "restaurant"
        },
        "botanical garden": {
            "closest_to": "",
            "address": "Botanical Garden, Cart road, Judicial Layout, Jakkur, Bangalore Urban, Karnataka, 560065, India",
            "longitude": "77.5744817798899",
            "latitude": "13.08099125",
            "blogLinks": [
                "https://www.quora.com/What-are-the-best-places-to-visit-on-a-3-day-trip-in-and-around-Karnataka"
            ],
            "locType": "protected_area"
        },
        "heart lake": {
            "closest_to": "",
            "address": "Sacred Heart Cemetry, Shanti Nagar, Bengaluru, Bangalore Urban, Karnataka, 560001, India",
            "longitude": "77.6033149073313",
            "latitude": "12.9542916",
            "blogLinks": [
                "https://www.quora.com/What-are-the-best-places-to-visit-on-a-3-day-trip-in-and-around-Karnataka"
            ],
            "locType": "cemetery"
        },
        "bagamandala": {
            "closest_to": "",
            "address": "Madikeri - Bagamandala ,Tala Kaveri Road, Mekeri, Madikeri taluku, Kodagu, Karnataka, India",
            "longitude": "75.748408",
            "latitude": "12.388062",
            "blogLinks": [
                "https://en.wikipedia.org/wiki/Tourism_in_Karnataka"
            ],
            "locType": "primary"
        },
        "anegundi": {
            "closest_to": "",
            "address": "Anegundi, Gangavati taluku, Koppal district, Karnataka, India",
            "longitude": "76.4924232",
            "latitude": "15.3509583",
            "blogLinks": [
                "https://en.wikipedia.org/wiki/Tourism_in_Karnataka"
            ],
            "locType": "village"
        },
        "ocean": {
            "closest_to": "",
            "address": "Gayatri Ocean Blue Apartments, Thubarahalli, Siddapura, Bangalore Urban, Karnataka, 560066, India",
            "longitude": "77.7178261979437",
            "latitude": "12.95490595",
            "blogLinks": [
                "https://www.quora.com/What-are-the-best-places-to-visit-on-a-3-day-trip-in-and-around-Karnataka"
            ],
            "locType": "residential"
        },
        "air india": {
            "closest_to": "",
            "address": "Spring Air Bedding Company (INDIA) ltd, 82/1, 2nd Cross Road, Goragunte Palya, Peenya, Bengaluru, Bangalore Urban, Karnataka, 560058, India",
            "longitude": "77.5272698",
            "latitude": "13.0340594",
            "blogLinks": [
                "https://www.quora.com/What-are-the-best-places-to-visit-on-a-3-day-trip-in-and-around-Karnataka"
            ],
            "locType": "works"
        },
        "narasimha swamy temple": {
            "closest_to": "",
            "address": "Narasimha Swamy Temple, Attavara Mudigere Road, Attavara, Hasana taluk, Hassan district, Karnataka, India",
            "longitude": "76.2427318",
            "latitude": "13.0943931",
            "blogLinks": [
                "https://en.wikipedia.org/wiki/Tourism_in_Karnataka"
            ],
            "locType": "place_of_worship"
        },
        "sakleshpur": {
            "closest_to": "",
            "address": "Sakaleshpura, Sakaleshapura taluk, Hassan district, Karnataka, 573134, India",
            "longitude": "75.7862318",
            "latitude": "12.9434349",
            "blogLinks": [
                "https://www.quora.com/What-are-the-best-places-to-visit-on-a-3-day-trip-in-and-around-Karnataka"
            ],
            "locType": "town"
        },
        "tagore": {
            "closest_to": "",
            "address": "Rabindranath Tagore Nagar, Bengaluru, Bangalore Urban, Karnataka, 560001, India",
            "longitude": "77.595715",
            "latitude": "13.0227204",
            "blogLinks": [
                "https://www.quora.com/What-are-the-best-places-to-visit-on-a-3-day-trip-in-and-around-Karnataka"
            ],
            "locType": "suburb"
        },
        "lakshmeshwar": {
            "closest_to": "",
            "address": "Lakshmeshwar KSRTC Bus stand, SH6, Bastibana, Lakshmeshvara, Shirahatti taluku, Gadag district, Karnataka, 582116, India",
            "longitude": "75.4741167",
            "latitude": "15.12373",
            "blogLinks": [
                "https://en.wikipedia.org/wiki/Tourism_in_Karnataka"
            ],
            "locType": "bus_station"
        },
        "siddheshwara": {
            "closest_to": "",
            "address": "Siddheshwara Medicals, Judicial Layout, Allalasandra, Bangalore, 7th Main Road, Judicial Layout, Bengaluru, Bangalore Urban, Karnataka, 560001, India",
            "longitude": "77.5876527",
            "latitude": "13.0797146",
            "blogLinks": [
                "https://en.wikipedia.org/wiki/Tourism_in_Karnataka"
            ],
            "locType": "pharmacy"
        },
        "arabhavi": {
            "closest_to": "",
            "address": "Arabhavi, Gokak taluku, Belgaum district, Karnataka, India",
            "longitude": "74.8213227",
            "latitude": "16.2193552",
            "blogLinks": [
                "https://en.wikipedia.org/wiki/Tourism_in_Karnataka"
            ],
            "locType": "village"
        },
        "kuvempu": {
            "closest_to": "",
            "address": "Kuvempu, Kengeri Main Road, ITI Layout, Jnana Bharathi, Nagadevanahalli, Bangalore Urban, Karnataka, 560056, India",
            "longitude": "77.5064032",
            "latitude": "12.9560369",
            "blogLinks": [
                "https://www.quora.com/What-are-the-best-places-to-visit-on-a-3-day-trip-in-and-around-Karnataka"
            ],
            "locType": "artwork"
        },
        "bellary": {
            "closest_to": "",
            "address": "Bellary, Bellary district, Karnataka, India",
            "longitude": "76.8323648",
            "latitude": "15.2485413",
            "blogLinks": [
                "https://en.wikipedia.org/wiki/Tourism_in_Karnataka"
            ],
            "locType": "county"
        },
        "mandovi": {
            "closest_to": "",
            "address": "Mandovi Motors, Wheeler Road Flyover, MSO Colony, Cox Town, Bengaluru, Bangalore Urban, Karnataka, 560001, India",
            "longitude": "77.6190505",
            "latitude": "12.9965335",
            "blogLinks": [
                "https://www.quora.com/What-are-the-best-places-to-visit-on-a-3-day-trip-in-and-around-Karnataka"
            ],
            "locType": "car"
        },
        "kannada": {
            "closest_to": "",
            "address": "Dakshina Kannada, Karnataka, India",
            "longitude": "75.1008028650794",
            "latitude": "12.8114089",
            "blogLinks": [
                "https://www.quora.com/What-are-the-best-places-to-visit-on-a-3-day-trip-in-and-around-Karnataka"
            ],
            "locType": "administrative"
        },
        "ananthapadmanabha": {
            "closest_to": "",
            "address": "Kudupu Ananthapadmanabha Temple, Solapur-Mangalore Highway, Shakthinagar, Kulashekara, Kudupu, Mangaluru taluk, Dakshina Kannada, Karnataka, 575007, India",
            "longitude": "74.8937899082456",
            "latitude": "12.9039019",
            "blogLinks": [
                "https://www.quora.com/What-are-the-best-places-to-visit-on-a-3-day-trip-in-and-around-Karnataka"
            ],
            "locType": "place_of_worship"
        },
        "japanese garden": {
            "closest_to": "",
            "address": "Hae Kum Gang (Korean/Japanese), 20, Castle Street, Shantala Nagar, Ashok Nagar, Bengaluru, Bangalore Urban, Karnataka, 560001, India",
            "longitude": "77.6055915",
            "latitude": "12.9655328",
            "blogLinks": [
                "https://www.tripoto.com/weekend-getaways/from-dandeli"
            ],
            "locType": "restaurant"
        },
        "belavadi": {
            "closest_to": "",
            "address": "Belavadi, Koppa taluk, Chikkamagaluru district, Karnataka, India",
            "longitude": "75.3760773",
            "latitude": "13.5284899",
            "blogLinks": [
                "https://en.wikipedia.org/wiki/Tourism_in_Karnataka"
            ],
            "locType": "village"
        },
        "goa": {
            "closest_to": "",
            "address": "Carnival De Goa, Bhaskaran Road, Gupta Layout, Halasuru, Bengaluru, Bangalore Urban, Karnataka, 560001, India",
            "longitude": "77.6200027",
            "latitude": "12.9750047",
            "blogLinks": [
                "https://en.wikipedia.org/wiki/Tourism_in_Karnataka",
                "http://www.holidayiq.com/Dandeli-Sightseeing-345.html",
                "https://www.quora.com/What-are-the-places-to-visit-near-Karwar-in-Monsoon-time",
                "https://www.tripoto.com/weekend-getaways/from-dandeli"
            ],
            "locType": "restaurant"
        },
        "karkala": {
            "closest_to": "",
            "address": "Karkala, Karkala taluk, Udupi district, Karnataka, 574104, India",
            "longitude": "74.9959586",
            "latitude": "13.2112826",
            "blogLinks": [
                "https://en.wikipedia.org/wiki/Tourism_in_Karnataka",
                "https://www.quora.com/What-are-the-best-places-to-visit-on-a-3-day-trip-in-and-around-Karnataka"
            ],
            "locType": "town"
        },
        "kalasa": {
            "closest_to": "",
            "address": "Kalasa, Mudigere taluk, Chikkamagaluru district, Karnataka, 577124, India",
            "longitude": "75.3582366",
            "latitude": "13.2322235",
            "blogLinks": [
                "https://en.wikipedia.org/wiki/Tourism_in_Karnataka"
            ],
            "locType": "town"
        },
        "mallikarjuna temple": {
            "closest_to": "",
            "address": "Mallikarjuna Temple, SH135, Nelavagi, Badami taluku, Bagalkote district, Karnataka, India",
            "longitude": "75.7213492",
            "latitude": "15.9321101",
            "blogLinks": [
                "http://www.holidayiq.com/Dandeli-Sightseeing-345.html"
            ],
            "locType": "place_of_worship"
        },
        "arasikere": {
            "closest_to": "",
            "address": "Arasikere, Arasikere taluku, Hassan district, Karnataka, 573103, India",
            "longitude": "76.2568436",
            "latitude": "13.3159809",
            "blogLinks": [
                "https://en.wikipedia.org/wiki/Tourism_in_Karnataka"
            ],
            "locType": "town"
        },
        "kuppali": {
            "closest_to": "",
            "address": "Kuppali Road, Kuppalli, Tirthahalli taluk, Shimoga district, Karnataka, India",
            "longitude": "75.3158067",
            "latitude": "13.5998255",
            "blogLinks": [
                "https://www.quora.com/What-are-the-best-places-to-visit-on-a-3-day-trip-in-and-around-Karnataka"
            ],
            "locType": "tertiary"
        },
        "srirangapatna": {
            "closest_to": "",
            "address": "Srirangapatna, Srirangapattana taluk, Mandya district, Karnataka, 571438, India",
            "longitude": "76.6850743",
            "latitude": "12.4225604",
            "blogLinks": [
                "https://en.wikipedia.org/wiki/Tourism_in_Karnataka"
            ],
            "locType": "town"
        },
        "grs fantasy park": {
            "closest_to": "",
            "address": "GRS Fantasy Park, Ring Road, Kumbara Koppalu, Metagalli Industrial Area, Mysuru, Mysuru taluk, Mysuru district, Karnataka, 570001, India",
            "longitude": "76.6338102194966",
            "latitude": "12.3540981",
            "blogLinks": [
                "https://www.quora.com/What-are-the-best-places-to-visit-on-a-3-day-trip-in-and-around-Karnataka"
            ],
            "locType": "theme_park"
        },
        "bankapura": {
            "closest_to": "",
            "address": "Bankapura, Shiggaon taluk, Haveri district, Karnataka, 581202, India",
            "longitude": "75.2639298",
            "latitude": "14.9217443",
            "blogLinks": [
                "https://en.wikipedia.org/wiki/Tourism_in_Karnataka"
            ],
            "locType": "town"
        },
        "india": {
            "closest_to": "",
            "address": "Karnataka, India",
            "longitude": "75.7223521",
            "latitude": "14.5203896",
            "blogLinks": [
                "http://www.indiamike.com/india/karnataka-f38/places-around-dandeli-t25558/",
                "http://www.nivalink.com/destination/dandeli",
                "https://www.quora.com/What-are-the-places-to-visit-near-Karwar-in-Monsoon-time",
                "http://giriprasadm.blogspot.com/",
                "https://www.onefivenine.com/india/Travel/Place/Dandeli",
                "https://www.quora.com/What-are-the-best-places-to-visit-on-a-3-day-trip-in-and-around-Karnataka",
                "https://www.tripoto.com/weekend-getaways/from-dandeli",
                "https://www.triphobo.com/blog/offbeat-destinations-in-karnataka",
                "https://en.wikipedia.org/wiki/Tourism_in_Karnataka",
                "http://www.distancesfrom.com/in/travel-time-from-Bengaluru-to-Dandeli-via-Jog-Falls-Yana-Gokarna-Karwar/TravelTimeHistory/32555894.aspx",
                "http://www.distancesfrom.com/in/travel-from-Bengaluru-to-Dandeli-via-Jog-Falls-Yana-Gokarna-Karwar/TravelFromHistory/32555898.aspx"
            ],
            "locType": "administrative"
        },
        "subramanya": {
            "closest_to": "",
            "address": "Subramanya Arcade, Marenahalli, Bengaluru, Bangalore Urban, Karnataka, 560001, India",
            "longitude": "77.6015800913134",
            "latitude": "12.9251206",
            "blogLinks": [
                "https://en.wikipedia.org/wiki/Tourism_in_Karnataka"
            ],
            "locType": "commercial"
        },
        "manipal": {
            "closest_to": "",
            "address": "Manipal, Udupi taluku, Udupi district, Karnataka, India",
            "longitude": "74.7870308",
            "latitude": "13.3519723",
            "blogLinks": [
                "https://en.wikipedia.org/wiki/Tourism_in_Karnataka"
            ],
            "locType": "town"
        },
        "veera narayana temple": {
            "closest_to": "",
            "address": "Veera Narayana Temple, Chikmagalur Javagal Road, Narasipura, Chikkamagaluru taluku, Chikkamagaluru district, Karnataka, India",
            "longitude": "75.9953525",
            "latitude": "13.2821212",
            "blogLinks": [
                "https://www.quora.com/What-are-the-best-places-to-visit-on-a-3-day-trip-in-and-around-Karnataka"
            ],
            "locType": "place_of_worship"
        },
        "maddur": {
            "closest_to": "",
            "address": "Maddur, Madduru taluk, Mandya district, Karnataka, 571428, India",
            "longitude": "77.0456404",
            "latitude": "12.5851916",
            "blogLinks": [
                "https://www.quora.com/What-are-the-best-places-to-visit-on-a-3-day-trip-in-and-around-Karnataka"
            ],
            "locType": "town"
        },
        "silent valley": {
            "closest_to": "",
            "address": "Silent Shores Resort, Krishnaraja Sagara Road, Kurgalli, Bastipura, Srirangapattana taluk, Mandya district, Karnataka, 570027, India",
            "longitude": "76.5819054",
            "latitude": "12.3459371",
            "blogLinks": [
                "https://www.quora.com/What-are-the-best-places-to-visit-on-a-3-day-trip-in-and-around-Karnataka"
            ],
            "locType": "hotel"
        },
        "bannerghatta": {
            "closest_to": "",
            "address": "Bannerghatta, Bangalore Urban, Karnataka, India",
            "longitude": "77.5789509",
            "latitude": "12.813337",
            "blogLinks": [
                "https://en.wikipedia.org/wiki/Tourism_in_Karnataka"
            ],
            "locType": "village"
        },
        "dharma river": {
            "closest_to": "",
            "address": "Dharma Naidu Udhyanavana, 44th cross, Rajajinagar 4th Block, Rajaji Nagar, Bengaluru, Bangalore Urban, Karnataka, 560001, India",
            "longitude": "77.5575864485219",
            "latitude": "12.98914885",
            "blogLinks": [
                "https://en.wikipedia.org/wiki/Tourism_in_Karnataka"
            ],
            "locType": "park"
        },
        "dattatreya": {
            "closest_to": "",
            "address": "Inam Dattatreya Pitha, Chikkamagaluru taluku, Chikkamagaluru district, Karnataka, India",
            "longitude": "75.7539724",
            "latitude": "13.4315216",
            "blogLinks": [
                "https://en.wikipedia.org/wiki/Tourism_in_Karnataka"
            ],
            "locType": "hamlet"
        },
        "chandramoulishwara": {
            "closest_to": "",
            "address": "Chandramoulishwara Temple, Adipampa Road, Gokulam, Mysuru, Mysuru taluk, Mysuru district, Karnataka, 570001, India",
            "longitude": "76.6290267",
            "latitude": "12.3225663",
            "blogLinks": [
                "https://en.wikipedia.org/wiki/Tourism_in_Karnataka"
            ],
            "locType": "place_of_worship"
        },
        "itagi": {
            "closest_to": "",
            "address": "Itagi, Ranebennuru taluk, Haveri district, Karnataka, India",
            "longitude": "75.6701043",
            "latitude": "14.550374",
            "blogLinks": [
                "https://en.wikipedia.org/wiki/Tourism_in_Karnataka"
            ],
            "locType": "village"
        },
        "durga temple": {
            "closest_to": "",
            "address": "Durga Temple, 29th Main, Mahadeshwara Nagara, BTM Layout, Bengaluru, Bangalore Urban, Karnataka, 560001, India",
            "longitude": "77.6125928",
            "latitude": "12.9057731",
            "blogLinks": [
                "https://www.quora.com/What-are-the-best-places-to-visit-on-a-3-day-trip-in-and-around-Karnataka"
            ],
            "locType": "place_of_worship"
        },
        "markandeya river": {
            "closest_to": "",
            "address": "Markandeya, Belagavi taluku, Belgaum district, Karnataka, India",
            "longitude": "74.5774895",
            "latitude": "15.9707453",
            "blogLinks": [
                "https://www.quora.com/What-are-the-best-places-to-visit-on-a-3-day-trip-in-and-around-Karnataka"
            ],
            "locType": "river"
        },
        "hoysala": {
            "closest_to": "",
            "address": "Hoysala Nagar, Bengaluru, Bangalore Urban, Karnataka, 560001, India",
            "longitude": "77.6375990817051",
            "latitude": "12.97813815",
            "blogLinks": [
                "https://en.wikipedia.org/wiki/Tourism_in_Karnataka",
                "https://www.quora.com/What-are-the-best-places-to-visit-on-a-3-day-trip-in-and-around-Karnataka"
            ],
            "locType": "administrative"
        },
        "karnataka state": {
            "closest_to": "",
            "address": "Karnataka State Open University, \u0cb9\u0cc1\u0ca3\u0cb8\u0cc2\u0cb0\u0cc1 \u0cb0\u0cb8\u0ccd\u0ca4\u0cc6, Gokulam, Mysuru, Mysuru taluk, Mysuru district, Karnataka, 570001, India",
            "longitude": "76.6236231",
            "latitude": "12.315382",
            "blogLinks": [
                "http://www.holidayiq.com/Dandeli-Sightseeing-345.html"
            ],
            "locType": "university"
        },
        "lord shiva": {
            "closest_to": "",
            "address": "Lord Shiva Temple, Marenahalli Road (South End), MICO Layout, BTM Layout, Bengaluru, Bangalore Urban, Karnataka, 560001, India",
            "longitude": "77.6024995",
            "latitude": "12.916875",
            "blogLinks": [
                "https://www.quora.com/What-are-the-best-places-to-visit-on-a-3-day-trip-in-and-around-Karnataka"
            ],
            "locType": "place_of_worship"
        },
        "kabini": {
            "closest_to": "",
            "address": "Kabini, Heggadadevanakote taluk, Mysuru district, Karnataka, India",
            "longitude": "76.4152088",
            "latitude": "12.0140065",
            "blogLinks": [
                "https://en.wikipedia.org/wiki/Tourism_in_Karnataka"
            ],
            "locType": "river"
        },
        "brindavan gardens": {
            "closest_to": "",
            "address": "Brindavan Gardens, Krishnaraja Sagara Road, Krushnarajasagara, Srirangapattana taluk, Mandya district, Karnataka, India",
            "longitude": "76.5741029405883",
            "latitude": "12.4208084",
            "blogLinks": [
                "https://www.quora.com/What-are-the-best-places-to-visit-on-a-3-day-trip-in-and-around-Karnataka"
            ],
            "locType": "garden"
        },
        "north goa": {
            "closest_to": "",
            "address": "Carnival De Goa, Bhaskaran Road, Gupta Layout, Halasuru, Bengaluru, Bangalore Urban, Karnataka, 560001, India",
            "longitude": "77.6200027",
            "latitude": "12.9750047",
            "blogLinks": [
                "https://www.tripoto.com/weekend-getaways/from-dandeli"
            ],
            "locType": "restaurant"
        },
        "nagareshwara": {
            "closest_to": "",
            "address": "Nagareshwara Temple, SH126, Dantapur, Yadagiri taluku, Yadagiri district, Karnataka, India",
            "longitude": "77.3934679",
            "latitude": "16.8662525",
            "blogLinks": [
                "https://en.wikipedia.org/wiki/Tourism_in_Karnataka"
            ],
            "locType": "place_of_worship"
        },
        "tunga": {
            "closest_to": "",
            "address": "Tunga, Tirthahalli taluk, Shimoga district, Karnataka, India",
            "longitude": "75.3221835",
            "latitude": "13.6632221",
            "blogLinks": [
                "https://www.quora.com/What-are-the-best-places-to-visit-on-a-3-day-trip-in-and-around-Karnataka"
            ],
            "locType": "river"
        },
        "tumkur": {
            "closest_to": "",
            "address": "Tumakuru, Tumkur district, Karnataka, India",
            "longitude": "77.0002445",
            "latitude": "13.4999406",
            "blogLinks": [
                "https://en.wikipedia.org/wiki/Tourism_in_Karnataka"
            ],
            "locType": "county"
        },
        "' river varahi": {
            "closest_to": "",
            "address": "Varahi, \u0c95\u0cc1\u0c82\u0ca6\u0cbe\u0caa\u0cc1\u0cb0 \u0ca4\u0cbe\u0cb2\u0cc2\u0c95\u0cc1, Udupi district, Karnataka, India",
            "longitude": "74.9489117",
            "latitude": "13.6582668",
            "blogLinks": [
                "https://en.wikipedia.org/wiki/Tourism_in_Karnataka"
            ],
            "locType": "river"
        },
        "kudremukh national park": {
            "closest_to": "",
            "address": "Kudremukh National Park, SH66, Sringeri taluku, Chikkamagaluru district, Karnataka, India",
            "longitude": "75.1828713712862",
            "latitude": "13.25397485",
            "blogLinks": [
                "https://en.wikipedia.org/wiki/Tourism_in_Karnataka",
                "https://www.quora.com/What-are-the-best-places-to-visit-on-a-3-day-trip-in-and-around-Karnataka"
            ],
            "locType": "national_park"
        },
        "bagalkote": {
            "closest_to": "",
            "address": "Bagalkote district, Karnataka, India",
            "longitude": "75.5825586777167",
            "latitude": "16.28998085",
            "blogLinks": [
                "https://en.wikipedia.org/wiki/Tourism_in_Karnataka"
            ],
            "locType": "administrative"
        },
        "nagarhole national park": {
            "closest_to": "",
            "address": "Nagarahole National Park, Virajpet taluk, Kodagu, Karnataka, India",
            "longitude": "76.1537073415874",
            "latitude": "12.0600362",
            "blogLinks": [
                "https://en.wikipedia.org/wiki/Tourism_in_Karnataka",
                "https://www.quora.com/What-are-the-best-places-to-visit-on-a-3-day-trip-in-and-around-Karnataka"
            ],
            "locType": "national_park"
        },
        "gulbarga district": {
            "closest_to": "",
            "address": "Kalaburgi, Kalaburagi district, Karnataka, India",
            "longitude": "77.083333",
            "latitude": "17.166667",
            "blogLinks": [
                "https://en.wikipedia.org/wiki/Tourism_in_Karnataka"
            ],
            "locType": "county"
        },
        "shravanabelagola": {
            "closest_to": "",
            "address": "Shravanabelagola, Channarayapattana taluk, Hassan district, Karnataka, 573135, India",
            "longitude": "76.4869997",
            "latitude": "12.8581305",
            "blogLinks": [
                "https://en.wikipedia.org/wiki/Tourism_in_Karnataka"
            ],
            "locType": "town"
        },
        "pattadakal": {
            "closest_to": "",
            "address": "Pattadakal Temples, SH14, \u0cac\u0cbe\u0c9a\u0cbf\u0ca8\u0c97\u0cc1\u0ca1\u0ccd\u0ca1, Badami taluku, Bagalkote district, Karnataka, 587211, India",
            "longitude": "75.815884048161",
            "latitude": "15.9506349",
            "blogLinks": [
                "https://en.wikipedia.org/wiki/Tourism_in_Karnataka"
            ],
            "locType": "attraction"
        },
        "kerala": {
            "closest_to": "",
            "address": "New Life Kerala Mess, Sai Baba Mandira Road, Mottappanapalaya, Indiranagar, Bengaluru, Bangalore Urban, Karnataka, 560001, India",
            "longitude": "77.6382683",
            "latitude": "12.9726449",
            "blogLinks": [
                "https://www.quora.com/What-are-the-best-places-to-visit-on-a-3-day-trip-in-and-around-Karnataka"
            ],
            "locType": "restaurant"
        },
        "mandya": {
            "closest_to": "",
            "address": "Mandya, Mandya taluk, Mandya district, Karnataka, 571401, India",
            "longitude": "76.8937392",
            "latitude": "12.5217836",
            "blogLinks": [
                "https://en.wikipedia.org/wiki/Tourism_in_Karnataka"
            ],
            "locType": "town"
        },
        "ranganathittu bird sanctuary": {
            "closest_to": "",
            "address": "Ranganathittu Bird Sanctuary, SH154, Palahalli, Srirangapattana taluk, Mandya district, Karnataka, 571438, India",
            "longitude": "76.6553081",
            "latitude": "12.4238524",
            "blogLinks": [
                "https://en.wikipedia.org/wiki/Tourism_in_Karnataka"
            ],
            "locType": "attraction"
        },
        "shimoga district": {
            "closest_to": "",
            "address": "Shimoga district, Karnataka, India",
            "longitude": "75.1312533993886",
            "latitude": "14.0558284",
            "blogLinks": [
                "https://en.wikipedia.org/wiki/Tourism_in_Karnataka"
            ],
            "locType": "administrative"
        },
        "mysore district": {
            "closest_to": "",
            "address": "Mysuru, Mysuru taluk, Mysuru district, Karnataka, 570001, India",
            "longitude": "76.6553609",
            "latitude": "12.3051828",
            "blogLinks": [
                "https://en.wikipedia.org/wiki/Tourism_in_Karnataka"
            ],
            "locType": "city"
        },
        "ramadevara betta": {
            "closest_to": "",
            "address": "Ramadevara Betta, Tumakuru, Tumkur taluk, Tumkur district, Karnataka, 572101, India",
            "longitude": "77.1655609",
            "latitude": "13.3236493",
            "blogLinks": [
                "https://www.triphobo.com/blog/offbeat-destinations-in-karnataka"
            ],
            "locType": "peak"
        },
        "afzalpur": {
            "closest_to": "",
            "address": "Afzalpur, Afzalpura taluku, Kalaburagi district, Karnataka, 585301, India",
            "longitude": "76.3605783",
            "latitude": "17.2005764",
            "blogLinks": [
                "https://en.wikipedia.org/wiki/Tourism_in_Karnataka"
            ],
            "locType": "town"
        },
        "mangalore": {
            "closest_to": "",
            "address": "Mangaluru, Mangaluru taluk, Dakshina Kannada, Karnataka, 575001, India",
            "longitude": "74.8430082",
            "latitude": "12.8698101",
            "blogLinks": [
                "https://en.wikipedia.org/wiki/Tourism_in_Karnataka",
                "https://www.quora.com/What-are-the-best-places-to-visit-on-a-3-day-trip-in-and-around-Karnataka"
            ],
            "locType": "city"
        },
        "vijayanagara": {
            "closest_to": "",
            "address": "Vijayanagara, Chikodi taluk, Belgaum district, Karnataka, India",
            "longitude": "74.7380455",
            "latitude": "16.3270486",
            "blogLinks": [
                "https://en.wikipedia.org/wiki/Tourism_in_Karnataka"
            ],
            "locType": "village"
        },
        "daria daulat gardens": {
            "closest_to": "",
            "address": "Daria Daulat Bagh Museum, Bangalore-Mysore Road, Srirangapatna, Srirangapattana taluk, Mandya district, Karnataka, 571438, India",
            "longitude": "76.6969039957315",
            "latitude": "12.4200182",
            "blogLinks": [
                "https://www.quora.com/What-are-the-best-places-to-visit-on-a-3-day-trip-in-and-around-Karnataka"
            ],
            "locType": "museum"
        },
        "irupu falls": {
            "closest_to": "",
            "address": "Iruppu Falls, SH89, Taila, Virajpet taluk, Kodagu, Karnataka, 571217, India",
            "longitude": "75.9839484",
            "latitude": "11.9667954",
            "blogLinks": [
                "https://en.wikipedia.org/wiki/Tourism_in_Karnataka"
            ],
            "locType": "attraction"
        },
        "sharadamba": {
            "closest_to": "",
            "address": "Sharadamba Temple, 7th Main Road, Yediyur, Thyagaraja Nagar, Bengaluru, Bangalore Urban, Karnataka, 560001, India",
            "longitude": "77.5656194",
            "latitude": "12.9321898",
            "blogLinks": [
                "https://www.quora.com/What-are-the-best-places-to-visit-on-a-3-day-trip-in-and-around-Karnataka"
            ],
            "locType": "place_of_worship"
        },
        "rock garden": {
            "closest_to": "",
            "address": "Waterfalls by the Rock site, Madikeri taluku, Kodagu, Karnataka, India",
            "longitude": "75.6142269",
            "latitude": "12.2248591",
            "blogLinks": [
                "https://en.wikipedia.org/wiki/Tourism_in_Karnataka"
            ],
            "locType": "waterfall"
        },
        "nataraja": {
            "closest_to": "",
            "address": "Nataraja, Sirur Park Road, Vyalikaval, Seshadripuram, Bengaluru, Bangalore Urban, Karnataka, 560001, India",
            "longitude": "77.5730381173154",
            "latitude": "12.9900332",
            "blogLinks": [
                "https://www.quora.com/What-are-the-best-places-to-visit-on-a-3-day-trip-in-and-around-Karnataka"
            ],
            "locType": "cinema"
        },
        "varaha": {
            "closest_to": "",
            "address": "Varaha, Hirekeruru taluk, Haveri district, Karnataka, India",
            "longitude": "75.3718812",
            "latitude": "14.390777",
            "blogLinks": [
                "https://en.wikipedia.org/wiki/Tourism_in_Karnataka"
            ],
            "locType": "village"
        },
        "mahadeshwara hills": {
            "closest_to": "",
            "address": "Sri Mahadeshwara Filling Station, Outer Ring Road, Seven Hills Layout, Kathriguppe, Bengaluru, Bangalore Urban, Karnataka, 560001, India",
            "longitude": "77.5414216",
            "latitude": "12.932367",
            "blogLinks": [
                "https://www.quora.com/What-are-the-best-places-to-visit-on-a-3-day-trip-in-and-around-Karnataka"
            ],
            "locType": "fuel"
        },
        "bangalore karnataka": {
            "closest_to": "",
            "address": "Bengaluru, Bangalore Urban, Karnataka, 560001, India",
            "longitude": "77.5912997",
            "latitude": "12.9791198",
            "blogLinks": [
                "https://www.quora.com/What-are-the-best-places-to-visit-on-a-3-day-trip-in-and-around-Karnataka"
            ],
            "locType": "city"
        },
        "kambadahalli": {
            "closest_to": "",
            "address": "Kambadahalli, Madhugiri taluk, Tumkur district, Karnataka, India",
            "longitude": "77.1671918",
            "latitude": "13.6843692",
            "blogLinks": [
                "https://en.wikipedia.org/wiki/Tourism_in_Karnataka"
            ],
            "locType": "village"
        },
        "tamil nadu": {
            "closest_to": "",
            "address": "KARNATAKA BANK, Diwan Bhadur Road, Five Corner, RS Puram, Coimbatore, Coimbatore district, Tamil Nadu, 641001, India",
            "longitude": "76.9514152",
            "latitude": "11.0025894",
            "blogLinks": [
                "https://en.wikipedia.org/wiki/Tourism_in_Karnataka",
                "https://www.quora.com/What-are-the-best-places-to-visit-on-a-3-day-trip-in-and-around-Karnataka"
            ],
            "locType": "bank"
        },
        "kalyan": {
            "closest_to": "",
            "address": "Kalyan Nagar, Chelekere, Bangalore Urban, Karnataka, India",
            "longitude": "77.6403368",
            "latitude": "13.0221416",
            "blogLinks": [
                "https://www.quora.com/What-are-the-best-places-to-visit-on-a-3-day-trip-in-and-around-Karnataka"
            ],
            "locType": "suburb"
        },
        "chitradurga": {
            "closest_to": "",
            "address": "Chitradurga, Chitradurga taluku, Chitradurga district, Karnataka, 577500, India",
            "longitude": "76.4005122",
            "latitude": "14.2266443",
            "blogLinks": [
                "https://en.wikipedia.org/wiki/Tourism_in_Karnataka"
            ],
            "locType": "town"
        },
        "bahubali": {
            "closest_to": "",
            "address": "Bahubali Statue, SH8, Shravanabelagola, Channarayapattana taluk, Hassan district, Karnataka, 573135, India",
            "longitude": "76.4846128",
            "latitude": "12.8540505",
            "blogLinks": [
                "https://en.wikipedia.org/wiki/Tourism_in_Karnataka",
                "https://www.quora.com/What-are-the-best-places-to-visit-on-a-3-day-trip-in-and-around-Karnataka"
            ],
            "locType": "place_of_worship"
        },
        "nippani": {
            "closest_to": "",
            "address": "Nippani, Chikodi taluk, Belgaum district, Karnataka, 591237, India",
            "longitude": "74.3842372",
            "latitude": "16.4020402",
            "blogLinks": [
                "https://en.wikipedia.org/wiki/Tourism_in_Karnataka"
            ],
            "locType": "town"
        },
        "earth": {
            "closest_to": "",
            "address": "Bharat Earth Movers Limited - BEML, GM Palya, Bengaluru, Bangalore Urban, Karnataka, 560001, India",
            "longitude": "77.659986649248",
            "latitude": "12.9740596",
            "blogLinks": [
                "https://www.tripoto.com/weekend-getaways/from-dandeli"
            ],
            "locType": "industrial"
        },
        "nagarahole national park": {
            "closest_to": "",
            "address": "Nagarahole National Park, Virajpet taluk, Kodagu, Karnataka, India",
            "longitude": "76.1537073415874",
            "latitude": "12.0600362",
            "blogLinks": [
                "https://en.wikipedia.org/wiki/Tourism_in_Karnataka"
            ],
            "locType": "national_park"
        },
        "bankpur fort": {
            "closest_to": "",
            "address": "Bankapura Fort, SH137, Guddada Channapura, Shiggaon taluk, Haveri district, Karnataka, 581202, India",
            "longitude": "75.2512090188504",
            "latitude": "14.9231815",
            "blogLinks": [
                "https://en.wikipedia.org/wiki/Tourism_in_Karnataka"
            ],
            "locType": "archaeological_site"
        },
        "narayana": {
            "closest_to": "",
            "address": "Narayana Gondanahalli, Holalkere taluk, Chitradurga district, Karnataka, India",
            "longitude": "76.201037",
            "latitude": "13.9181889",
            "blogLinks": [
                "https://en.wikipedia.org/wiki/Tourism_in_Karnataka"
            ],
            "locType": "village"
        },
        "coorg": {
            "closest_to": "",
            "address": "Madikeri, Madikeri taluku, Kodagu, Karnataka, India",
            "longitude": "75.740031",
            "latitude": "12.4204003",
            "blogLinks": [
                "https://www.quora.com/What-are-the-best-places-to-visit-on-a-3-day-trip-in-and-around-Karnataka"
            ],
            "locType": "town"
        },
        "mahadeshwara": {
            "closest_to": "",
            "address": "Mahadeshwara Nagara, BTM Layout, Bengaluru, Bangalore Urban, Karnataka, 560001, India",
            "longitude": "77.6123722",
            "latitude": "12.9076689",
            "blogLinks": [
                "https://www.quora.com/What-are-the-best-places-to-visit-on-a-3-day-trip-in-and-around-Karnataka"
            ],
            "locType": "neighbourhood"
        },
        "kodachadri": {
            "closest_to": "",
            "address": "Kodachadri, \u0c95\u0cc1\u0c82\u0ca6\u0cbe\u0caa\u0cc1\u0cb0 \u0ca4\u0cbe\u0cb2\u0cc2\u0c95\u0cc1, Udupi district, Karnataka, India",
            "longitude": "74.8705395",
            "latitude": "13.8565758",
            "blogLinks": [
                "https://en.wikipedia.org/wiki/Tourism_in_Karnataka",
                "https://www.quora.com/What-are-the-best-places-to-visit-on-a-3-day-trip-in-and-around-Karnataka"
            ],
            "locType": "peak"
        },
        "bengaluru": {
            "closest_to": "",
            "address": "Bengaluru, Bangalore Urban, Karnataka, 560001, India",
            "longitude": "77.5912997",
            "latitude": "12.9791198",
            "blogLinks": [
                "https://www.quora.com/What-are-the-places-to-visit-near-Karwar-in-Monsoon-time"
            ],
            "locType": "city"
        },
        "bijapur district": {
            "closest_to": "",
            "address": "Bijapur district, Karnataka, India",
            "longitude": "75.897147327785",
            "latitude": "16.81105965",
            "blogLinks": [
                "https://www.quora.com/What-are-the-best-places-to-visit-on-a-3-day-trip-in-and-around-Karnataka"
            ],
            "locType": "administrative"
        },
        "swathi hotel": {
            "closest_to": "",
            "address": "Swathi hotel, Bannerghatta Road, NAL Layout, Marenahalli, Bengaluru, Bangalore Urban, Karnataka, 560001, India",
            "longitude": "77.6006309",
            "latitude": "12.9256581",
            "blogLinks": [
                "http://giriprasadm.blogspot.com/"
            ],
            "locType": "hotel"
        },
        "bheemeshwari": {
            "closest_to": "",
            "address": "Bheemeshwari, Muttatti, Malavalli taluk, Mandya district, Karnataka, India",
            "longitude": "77.2778171",
            "latitude": "12.3124122",
            "blogLinks": [
                "https://en.wikipedia.org/wiki/Tourism_in_Karnataka"
            ],
            "locType": "locality"
        },
        "kadamba": {
            "closest_to": "",
            "address": "Kadamba Avenue, R. Narayanapura, Brookefields, Dodsworth Enclave, Bangalore Urban, Karnataka, 560066, India",
            "longitude": "77.7436954",
            "latitude": "12.9703178",
            "blogLinks": [
                "http://www.holidayiq.com/Dandeli-Sightseeing-345.html",
                "https://www.quora.com/What-are-the-best-places-to-visit-on-a-3-day-trip-in-and-around-Karnataka"
            ],
            "locType": "residential"
        },
        "virupaksha temple": {
            "closest_to": "",
            "address": "Virupaksha Temple, Hampi Bazaar, Hampe, Hosapete taluk, Bellary district, Karnataka, 583239, India",
            "longitude": "76.4587777156223",
            "latitude": "15.3351754",
            "blogLinks": [
                "https://en.wikipedia.org/wiki/Tourism_in_Karnataka"
            ],
            "locType": "place_of_worship"
        },
        "mallikarjuna": {
            "closest_to": "",
            "address": "Mallikarjuna Vadi, Basavakalyana taluku, Bidar district, Karnataka, India",
            "longitude": "77.0590502",
            "latitude": "17.8106693",
            "blogLinks": [
                "https://en.wikipedia.org/wiki/Tourism_in_Karnataka"
            ],
            "locType": "village"
        },
        "bannerghatta national park": {
            "closest_to": "",
            "address": "Bannerghatta National Park, Anekal Road, Begihalli, Bangalore Urban, Karnataka, 560076, India",
            "longitude": "77.5722783830694",
            "latitude": "12.77900335",
            "blogLinks": [
                "https://en.wikipedia.org/wiki/Tourism_in_Karnataka"
            ],
            "locType": "national_park"
        },
        "u.s": {
            "closest_to": "",
            "address": "Karnataka, India",
            "longitude": "75.7223521",
            "latitude": "14.5203896",
            "blogLinks": [
                "https://www.quora.com/What-are-the-best-places-to-visit-on-a-3-day-trip-in-and-around-Karnataka"
            ],
            "locType": "administrative"
        },
        "udupi": {
            "closest_to": "",
            "address": "Udupi, Udupi taluku, Udupi district, Karnataka, 576101, India",
            "longitude": "74.7473232",
            "latitude": "13.3419169",
            "blogLinks": [
                "https://en.wikipedia.org/wiki/Tourism_in_Karnataka"
            ],
            "locType": "city"
        },
        "kodava": {
            "closest_to": "",
            "address": "Kodava Samaja, M V Jayaram Road, Jayamahal Extension, Vasantnagar, Bengaluru, Bangalore Urban, Karnataka, 560001, India",
            "longitude": "77.5947466457941",
            "latitude": "12.9946227",
            "blogLinks": [
                "https://www.quora.com/What-are-the-best-places-to-visit-on-a-3-day-trip-in-and-around-Karnataka"
            ],
            "locType": "community_centre"
        },
        "kanaganahalli": {
            "closest_to": "",
            "address": "Kanaganahalli, Pandavapura taluk, Mandya district, Karnataka, India",
            "longitude": "76.5876958",
            "latitude": "12.5588444",
            "blogLinks": [
                "https://en.wikipedia.org/wiki/Tourism_in_Karnataka"
            ],
            "locType": "village"
        },
        "lokapura": {
            "closest_to": "",
            "address": "Lokapura, Mudhola taluku, Bagalkote district, Karnataka, 587122, India",
            "longitude": "75.3685939",
            "latitude": "16.1627427",
            "blogLinks": [
                "https://en.wikipedia.org/wiki/Tourism_in_Karnataka"
            ],
            "locType": "town"
        },
        "kusha garden": {
            "closest_to": "",
            "address": "Lava Kusha Park, Lalitadri Road, Kuvempunagara, Mysuru, Mysuru taluk, Mysuru district, Karnataka, 570001, India",
            "longitude": "76.6283545564802",
            "latitude": "12.2905505",
            "blogLinks": [
                "https://www.quora.com/What-are-the-best-places-to-visit-on-a-3-day-trip-in-and-around-Karnataka"
            ],
            "locType": "park"
        },
        "bhadra river": {
            "closest_to": "",
            "address": "Bhadra, Chikkamagaluru taluku, Chikkamagaluru district, Karnataka, India",
            "longitude": "75.527118",
            "latitude": "13.4888356",
            "blogLinks": [
                "https://en.wikipedia.org/wiki/Tourism_in_Karnataka"
            ],
            "locType": "river"
        },
        "india karnataka": {
            "closest_to": "",
            "address": "Karnataka, Shalivahana Road, Nazarbad, Mysuru, Mysuru taluk, Mysuru district, Karnataka, 570001, India",
            "longitude": "76.6639936",
            "latitude": "12.3084901",
            "blogLinks": [
                "https://www.quora.com/What-are-the-best-places-to-visit-on-a-3-day-trip-in-and-around-Karnataka"
            ],
            "locType": "atm"
        },
        "chamundi hill": {
            "closest_to": "",
            "address": "Chamundi Hill, Mysuru, Mysuru taluk, Mysuru district, Karnataka, 570001, India",
            "longitude": "76.6703937",
            "latitude": "12.2724017",
            "blogLinks": [
                "https://www.quora.com/What-are-the-best-places-to-visit-on-a-3-day-trip-in-and-around-Karnataka"
            ],
            "locType": "peak"
        },
        "baga": {
            "closest_to": "",
            "address": "Baga Hipparaga, Basavakalyana taluku, Bidar district, Karnataka, India",
            "longitude": "76.9300452",
            "latitude": "17.6148763",
            "blogLinks": [
                "https://www.tripoto.com/weekend-getaways/from-dandeli"
            ],
            "locType": "village"
        },
        "hampi": {
            "closest_to": "",
            "address": "Hampe, Hosapete taluk, Bellary district, Karnataka, 583239, India",
            "longitude": "76.4606199",
            "latitude": "15.3359769",
            "blogLinks": [
                "https://en.wikipedia.org/wiki/Tourism_in_Karnataka",
                "https://www.quora.com/What-are-the-best-places-to-visit-on-a-3-day-trip-in-and-around-Karnataka",
                "http://www.nivalink.com/destination/dandeli"
            ],
            "locType": "village"
        },
        "manjusha museum": {
            "closest_to": "",
            "address": "Manjusha Museum, SH37, Dharmasthala, Beltangadi taluk, Dakshina Kannada, Karnataka, 574216, India",
            "longitude": "75.3821342838196",
            "latitude": "12.95116975",
            "blogLinks": [
                "https://en.wikipedia.org/wiki/Tourism_in_Karnataka"
            ],
            "locType": "museum"
        },
        "east": {
            "closest_to": "",
            "address": "East, 43, Velankani Drive, Electronics City Phase 1, Doddathoguru, Bangalore Urban, Karnataka, 560100, India",
            "longitude": "77.6601401",
            "latitude": "12.8504319",
            "blogLinks": [
                "https://en.wikipedia.org/wiki/Tourism_in_Karnataka"
            ],
            "locType": "restaurant"
        },
        "diggi": {
            "closest_to": "",
            "address": "Diggi, Shahapura taluku, Yadagiri district, Karnataka, India",
            "longitude": "76.8025595",
            "latitude": "16.7083137",
            "blogLinks": [
                "http://www.holidayiq.com/Dandeli-Sightseeing-345.html"
            ],
            "locType": "village"
        },
        "kanakapura road": {
            "closest_to": "",
            "address": "Kanakapura Road, Rajotsava Nagar, Kaderenahalli, Bengaluru, Bangalore Urban, Karnataka, 560001, India",
            "longitude": "77.5733483",
            "latitude": "12.9064528",
            "blogLinks": [
                "https://en.wikipedia.org/wiki/Tourism_in_Karnataka"
            ],
            "locType": "trunk"
        },
        "tungabhadra": {
            "closest_to": "",
            "address": "Tungabhadra, Gangavati taluku, Koppal district, Karnataka, India",
            "longitude": "76.4931607",
            "latitude": "15.3446123",
            "blogLinks": [
                "https://en.wikipedia.org/wiki/Tourism_in_Karnataka"
            ],
            "locType": "river"
        },
        "naganur": {
            "closest_to": "",
            "address": "Naganur, Hukkeri taluku, Belgaum district, Karnataka, India",
            "longitude": "74.4824431",
            "latitude": "16.073351",
            "blogLinks": [
                "https://en.wikipedia.org/wiki/Tourism_in_Karnataka"
            ],
            "locType": "village"
        },
        "kabini river": {
            "closest_to": "",
            "address": "Kabini right bank canal, Nanjanagudu taluk, Mysuru district, Karnataka, India",
            "longitude": "76.6477184",
            "latitude": "12.0780998",
            "blogLinks": [
                "https://en.wikipedia.org/wiki/Tourism_in_Karnataka"
            ],
            "locType": "canal"
        },
        "varada": {
            "closest_to": "",
            "address": "Varada, Savanura taluk, Haveri district, Karnataka, India",
            "longitude": "75.47206",
            "latitude": "14.8717792",
            "blogLinks": [
                "https://en.wikipedia.org/wiki/Tourism_in_Karnataka"
            ],
            "locType": "river"
        },
        "sri krishna temple": {
            "closest_to": "",
            "address": "Sri Krishna Temple Road, Old Binnamangala, Hoysala Nagar, Bengaluru, Bangalore Urban, Karnataka, 560001, India",
            "longitude": "77.6437236",
            "latitude": "12.9791699",
            "blogLinks": [
                "https://www.quora.com/What-are-the-best-places-to-visit-on-a-3-day-trip-in-and-around-Karnataka"
            ],
            "locType": "unclassified"
        },
        "chennai": {
            "closest_to": "",
            "address": "Karnataka Bank, Postal Colony 2nd Street, Postal Colony, Ashok Nagar, Chennai City Corporation Limits, Chennai district, Tamil Nadu, 600033, India",
            "longitude": "80.2197941",
            "latitude": "13.0365141",
            "blogLinks": [
                "https://en.wikipedia.org/wiki/Tourism_in_Karnataka"
            ],
            "locType": "bank"
        },
        "halebidu": {
            "closest_to": "",
            "address": "Halebidu, Hunasuru taluk, Mysuru district, Karnataka, India",
            "longitude": "76.4607075",
            "latitude": "12.359893",
            "blogLinks": [
                "https://en.wikipedia.org/wiki/Tourism_in_Karnataka"
            ],
            "locType": "village"
        },
        "manjunatha temple": {
            "closest_to": "",
            "address": "Devagiri Manjunatha Swamy Temple, 30th Cross, Jayanagar 8th Block, Banashankari 2nd Stage, Bengaluru, Bangalore Urban, Karnataka, 560001, India",
            "longitude": "77.5640116772773",
            "latitude": "12.9211928",
            "blogLinks": [
                "https://www.quora.com/What-are-the-best-places-to-visit-on-a-3-day-trip-in-and-around-Karnataka"
            ],
            "locType": "place_of_worship"
        },
        "marikamba temple": {
            "closest_to": "",
            "address": "Marikamba Temple, NH766C;SH26, Halkal, \u0c95\u0cc1\u0c82\u0ca6\u0cbe\u0caa\u0cc1\u0cb0 \u0ca4\u0cbe\u0cb2\u0cc2\u0c95\u0cc1, Udupi district, Karnataka, 576220, India",
            "longitude": "74.8103631279317",
            "latitude": "13.8626958",
            "blogLinks": [
                "https://www.quora.com/What-are-the-best-places-to-visit-on-a-3-day-trip-in-and-around-Karnataka"
            ],
            "locType": "place_of_worship"
        },
        "sahyadri range": {
            "closest_to": "",
            "address": "Sahyadri Polytechnic, SH1, Seebinakere, Sankadahole, Tirthahalli taluk, Shimoga district, Karnataka, 577432, India",
            "longitude": "75.2317987800043",
            "latitude": "13.6983273",
            "blogLinks": [
                "http://www.holidayiq.com/Dandeli-Sightseeing-345.html"
            ],
            "locType": "school"
        },
        "mandovi river": {
            "closest_to": "",
            "address": "Mandovi Motors, Wheeler Road Flyover, MSO Colony, Cox Town, Bengaluru, Bangalore Urban, Karnataka, 560001, India",
            "longitude": "77.6190505",
            "latitude": "12.9965335",
            "blogLinks": [
                "https://www.tripoto.com/weekend-getaways/from-dandeli"
            ],
            "locType": "car"
        },
        "bidar district": {
            "closest_to": "",
            "address": "Bidar district, Karnataka, India",
            "longitude": "77.2496344350342",
            "latitude": "18.0158574",
            "blogLinks": [
                "https://en.wikipedia.org/wiki/Tourism_in_Karnataka"
            ],
            "locType": "administrative"
        },
        "bangkok": {
            "closest_to": "",
            "address": "One night in Bangkok, 12th Main Road, HAL 2nd Stage, Indiranagar, Bengaluru, Bangalore Urban, Karnataka, 560001, India",
            "longitude": "77.6382633",
            "latitude": "12.9701967",
            "blogLinks": [
                "https://www.quora.com/What-are-the-best-places-to-visit-on-a-3-day-trip-in-and-around-Karnataka"
            ],
            "locType": "bar"
        },
        "karnataka": {
            "closest_to": "",
            "address": "Karnataka, Shalivahana Road, Nazarbad, Mysuru, Mysuru taluk, Mysuru district, Karnataka, 570001, India",
            "longitude": "76.6639936",
            "latitude": "12.3084901",
            "blogLinks": [
                "http://www.karnatakatourism.org/",
                "http://www.nivalink.com/destination/dandeli",
                "https://www.quora.com/What-are-the-places-to-visit-near-Karwar-in-Monsoon-time",
                "http://giriprasadm.blogspot.com/",
                "http://www.holidayiq.com/Dandeli-Sightseeing-345.html",
                "https://www.quora.com/What-are-the-best-places-to-visit-on-a-3-day-trip-in-and-around-Karnataka",
                "https://www.triphobo.com/blog/offbeat-destinations-in-karnataka",
                "https://en.wikipedia.org/wiki/Tourism_in_Karnataka",
                "http://www.distancesfrom.com/in/travel-time-from-Bengaluru-to-Dandeli-via-Jog-Falls-Yana-Gokarna-Karwar/TravelTimeHistory/32555894.aspx",
                "http://www.distancesfrom.com/in/travel-from-Bengaluru-to-Dandeli-via-Jog-Falls-Yana-Gokarna-Karwar/TravelFromHistory/32555898.aspx"
            ],
            "locType": "atm"
        },
        "hebbe falls": {
            "closest_to": "",
            "address": "Hebbe falls, Kemmannagundi Road, Attigundi, Chikkamagaluru taluku, Chikkamagaluru district, Karnataka, India",
            "longitude": "75.7253701",
            "latitude": "13.5414025",
            "blogLinks": [
                "https://en.wikipedia.org/wiki/Tourism_in_Karnataka"
            ],
            "locType": "attraction"
        },
        "kodagu": {
            "closest_to": "",
            "address": "Kodagu, Karnataka, India",
            "longitude": "75.6677235950852",
            "latitude": "12.38117345",
            "blogLinks": [
                "https://en.wikipedia.org/wiki/Tourism_in_Karnataka",
                "https://www.quora.com/What-are-the-best-places-to-visit-on-a-3-day-trip-in-and-around-Karnataka"
            ],
            "locType": "administrative"
        },
        "gurupura": {
            "closest_to": "",
            "address": "Gurupura, Tarikere taluku, Chikkamagaluru district, Karnataka, India",
            "longitude": "75.7161587",
            "latitude": "13.6686411",
            "blogLinks": [
                "https://www.quora.com/What-are-the-best-places-to-visit-on-a-3-day-trip-in-and-around-Karnataka"
            ],
            "locType": "village"
        },
        "kamat": {
            "closest_to": "",
            "address": "Kamat, National High School Road, Mavalli, VV Puram, Bengaluru, Bangalore Urban, Karnataka, 560001, India",
            "longitude": "77.5798273",
            "latitude": "12.9491655",
            "blogLinks": [
                "http://giriprasadm.blogspot.com/"
            ],
            "locType": "restaurant"
        },
        "mandalpatti": {
            "closest_to": "",
            "address": "Mandalpatti road junction, Galibidu Road, Kalakeri Nidugane, Madikeri taluku, Kodagu, Karnataka, India",
            "longitude": "75.7307012",
            "latitude": "12.4486242",
            "blogLinks": [
                "https://www.quora.com/What-are-the-best-places-to-visit-on-a-3-day-trip-in-and-around-Karnataka"
            ],
            "locType": "attraction"
        },
        "dakshina kannada": {
            "closest_to": "",
            "address": "Dakshina Kannada, Karnataka, India",
            "longitude": "75.1008028650794",
            "latitude": "12.8114089",
            "blogLinks": [
                "https://en.wikipedia.org/wiki/Tourism_in_Karnataka",
                "https://www.quora.com/What-are-the-best-places-to-visit-on-a-3-day-trip-in-and-around-Karnataka"
            ],
            "locType": "administrative"
        },
        "kundapura": {
            "closest_to": "",
            "address": "Kundapura, \u0c95\u0cc1\u0c82\u0ca6\u0cbe\u0caa\u0cc1\u0cb0 \u0ca4\u0cbe\u0cb2\u0cc2\u0c95\u0cc1, Udupi district, Karnataka, 576200, India",
            "longitude": "74.6915722",
            "latitude": "13.6250993",
            "blogLinks": [
                "http://www.nivalink.com/destination/dandeli"
            ],
            "locType": "town"
        },
        "shimoga": {
            "closest_to": "",
            "address": "Shivamogga, Shivamogga taluku, Shimoga district, Karnataka, 577200, India",
            "longitude": "75.569737",
            "latitude": "13.9311723",
            "blogLinks": [
                "https://en.wikipedia.org/wiki/Tourism_in_Karnataka"
            ],
            "locType": "city"
        }
    }
}