{
    "dandeli": {
        "place_id": "5820025",
        "osm_id": "612546262",
        "icon": "https://nominatim.openstreetmap.org/images/mapicons/poi_place_town.p.20.png",
        "osm_type": "node",
        "licence": "Data \u00a9 OpenStreetMap contributors, ODbL 1.0. http://www.openstreetmap.org/copyright",
        "display_name": "Dandeli, Haliyala taluku, Uttara Kannada, Karnataka, 581325, India",
        "type": "town",
        "lon": "74.6236037",
        "boundingbox": [
            "15.2090284",
            "15.2890284",
            "74.5836037",
            "74.6636037"
        ],
        "importance": 0.5,
        "lat": "15.2490284",
        "class": "place"
    },
    "hampi": {
        "place_id": "2384737",
        "osm_id": "345110048",
        "icon": "https://nominatim.openstreetmap.org/images/mapicons/poi_place_village.p.20.png",
        "osm_type": "node",
        "licence": "Data \u00a9 OpenStreetMap contributors, ODbL 1.0. http://www.openstreetmap.org/copyright",
        "display_name": "Hampe, Hosapete taluk, Bellary district, Karnataka, 583239, India",
        "type": "village",
        "lon": "76.4606199",
        "boundingbox": [
            "15.3159769",
            "15.3559769",
            "76.4406199",
            "76.4806199"
        ],
        "importance": 0.375,
        "lat": "15.3359769",
        "class": "place"
    },
    "mentions": {
        "earth": {
            "closest_to": "",
            "address": "Bharat Earth Movers Limited - BEML, GM Palya, Bengaluru, Bangalore Urban, Karnataka, 560001, India",
            "longitude": "77.659986649248",
            "latitude": "12.9740596",
            "blogLinks": [
                "https://www.tripoto.com/places-to-visit/india/dandeli",
                "https://www.tripoto.com/weekend-getaways/from-dandeli"
            ],
            "locType": "industrial"
        },
        "manjarabad fort": {
            "closest_to": "",
            "address": "Manjarabad Fort, SH27, Hullahalli, Sakaleshapura taluk, Hassan district, Karnataka, 573134, India",
            "longitude": "75.7580572896098",
            "latitude": "12.9173302",
            "blogLinks": [
                "https://www.quora.com/What-are-the-best-places-to-visit-for-a-2-day-trip-from-Bangalore-by-car"
            ],
            "locType": "attraction"
        },
        "udipi": {
            "closest_to": "",
            "address": "Udipi Park, 2nd Cross Road, Muniyappa Layout, Murugeshpalaya, Belure Ambedkar Nagar, Bangalore Urban, Karnataka, 560067, India",
            "longitude": "77.652888",
            "latitude": "12.9530588",
            "blogLinks": [
                "http://www.nivalink.com/destination/dandeli"
            ],
            "locType": "restaurant"
        },
        "harangi dam": {
            "closest_to": "",
            "address": "Harangi dam, Somawarpet taluk, Kodagu, Karnataka, India",
            "longitude": "75.9056999171375",
            "latitude": "12.4928663",
            "blogLinks": [
                "http://blog.indianluxurytrains.com/2014/09/best-places-to-visit-in-karnataka.html"
            ],
            "locType": "dam"
        },
        "hoysaleswara": {
            "closest_to": "",
            "address": "Hoysaleswara Temple, SH21, Halebidu, Beluru taluk, Hassan district, Karnataka, 573121, India",
            "longitude": "75.9941649",
            "latitude": "13.2127193",
            "blogLinks": [
                "http://blog.indianluxurytrains.com/2014/09/best-places-to-visit-in-karnataka.html"
            ],
            "locType": "place_of_worship"
        },
        "new zealand": {
            "closest_to": "",
            "address": "Subway And New Zealand Naturals Icecream, I T P L Main Road, AECS Layout C Block, Brookefields, Siddapura, Bangalore Urban, Karnataka, 560 037, India",
            "longitude": "77.714966",
            "latitude": "12.956785",
            "blogLinks": [
                "https://www.travelblog.org/Asia/India/Karnataka/Hampi/blog-913894.html"
            ],
            "locType": "fast_food"
        },
        "maharashtra": {
            "closest_to": "",
            "address": "Bank of Maharashtra, 24th Main, K R Layout, Puttenahalli, Bengaluru, Bangalore Urban, Karnataka, 560001, India",
            "longitude": "77.5856013",
            "latitude": "12.9049455",
            "blogLinks": [
                "http://www.holidayiq.com/Dandeli-Sightseeing-345.html",
                "http://www.nivalink.com/destination/dandeli",
                "https://www.quora.com/Is-it-recommended-to-travel-distance-from-Pune-to-Dandeli-approx-450-km-on-bike-I-am-planning-to-do-it-in-one-day"
            ],
            "locType": "bank"
        },
        "channarayapatna of hassan": {
            "closest_to": "",
            "address": "Tiptur - Channarayapatna Road, Rampura, Channarayapattana taluk, Hassan district, Karnataka, India",
            "longitude": "76.4628912",
            "latitude": "13.0775815",
            "blogLinks": [
                "http://blog.indianluxurytrains.com/2014/09/best-places-to-visit-in-karnataka.html"
            ],
            "locType": "primary"
        },
        "singapore": {
            "closest_to": "",
            "address": "Singapore Gardens, Vajrahalli, Bengaluru, Bangalore Urban, Karnataka, 560001, India",
            "longitude": "77.5483703",
            "latitude": "12.8861812",
            "blogLinks": [
                "https://www.travelblog.org/Asia/India/Karnataka/Hampi/blog-913894.html"
            ],
            "locType": "neighbourhood"
        },
        "chennakesava": {
            "closest_to": "",
            "address": "Chennakesava Temple, NH73, Navilahalli, Beluru taluk, Hassan district, Karnataka, India",
            "longitude": "75.8603311",
            "latitude": "13.1629239",
            "blogLinks": [
                "http://blog.indianluxurytrains.com/2014/09/best-places-to-visit-in-karnataka.html"
            ],
            "locType": "place_of_worship"
        },
        "bangalore": {
            "closest_to": "",
            "address": "Bengaluru, Bangalore Urban, Karnataka, 560001, India",
            "longitude": "77.5912997",
            "latitude": "12.9791198",
            "blogLinks": [
                "http://travel.india.com/hampi/",
                "https://www.quora.com/What-are-the-best-places-to-visit-for-a-2-day-trip-from-Bangalore-by-car",
                "http://www.nivalink.com/destination/hampi",
                "http://wikitravel.org/en/Hampi",
                "http://www.nivalink.com/destination/dandeli",
                "https://www.quora.com/Is-it-recommended-to-travel-distance-from-Pune-to-Dandeli-approx-450-km-on-bike-I-am-planning-to-do-it-in-one-day"
            ],
            "locType": "city"
        },
        "mahatma gandhi park": {
            "closest_to": "",
            "address": "Mahatma Gandhi Park, Mahatma Gandhi Road, Shantala Nagar, MacIvor Town, Bengaluru, Bangalore Urban, Karnataka, 560001, India",
            "longitude": "77.5997033330292",
            "latitude": "12.9772144",
            "blogLinks": [
                "http://blog.indianluxurytrains.com/2014/09/best-places-to-visit-in-karnataka.html"
            ],
            "locType": "park"
        },
        "halebid": {
            "closest_to": "",
            "address": "Halebidu, Beluru taluk, Hassan district, Karnataka, 573121, India",
            "longitude": "75.9918793",
            "latitude": "13.2167959",
            "blogLinks": [
                "http://blog.indianluxurytrains.com/2014/09/best-places-to-visit-in-karnataka.html"
            ],
            "locType": "village"
        },
        "hyderabad": {
            "closest_to": "",
            "address": "Hyderabad Road, Old City, Bidar, Bidar taluku, Bidar district, Karnataka, 585400, India",
            "longitude": "77.5344002",
            "latitude": "17.9003114",
            "blogLinks": [
                "http://www.nivalink.com/destination/hampi",
                "http://wikitravel.org/en/Hampi"
            ],
            "locType": "primary"
        },
        "vijayanagar": {
            "closest_to": "",
            "address": "Vijayanagar, Chord Road, Marenahalli, Vijaya Nagar, Binny Layout, Bangalore Urban, Karnataka, 560040, India",
            "longitude": "77.5375757",
            "latitude": "12.9713392",
            "blogLinks": [
                "http://wikitravel.org/en/Hampi"
            ],
            "locType": "station"
        },
        "veerabhadra temple": {
            "closest_to": "",
            "address": "Veerabhadra Temple, SH149, Taranalli, Chitapura taluku, Kalaburagi district, Karnataka, India",
            "longitude": "76.9293272",
            "latitude": "17.1417262",
            "blogLinks": [
                "http://www.holidayiq.com/Hampi-Sightseeing-370.html"
            ],
            "locType": "place_of_worship"
        },
        "switzerland": {
            "closest_to": "",
            "address": "Consulate General of Switzerland, 26, Rest House Crescent Road, Shantala Nagar, Ashok Nagar, Bengaluru, Bangalore Urban, Karnataka, 560001, India",
            "longitude": "77.6055981047125",
            "latitude": "12.9733671",
            "blogLinks": [
                "https://www.travelblog.org/Asia/India/Karnataka/Hampi/blog-913894.html"
            ],
            "locType": "embassy"
        },
        "vijaynagara": {
            "closest_to": "",
            "address": "Vijaynagara, Chord Road, Marenahalli, Vijaya Nagar, Binny Layout, Bangalore Urban, Karnataka, 560040, India",
            "longitude": "77.5383681",
            "latitude": "12.9726377",
            "blogLinks": [
                "http://blog.indianluxurytrains.com/2014/09/best-places-to-visit-in-karnataka.html",
                "http://travel.india.com/hampi/"
            ],
            "locType": "bus_stop"
        },
        "karnataka state": {
            "closest_to": "",
            "address": "Karnataka State Open University, \u0cb9\u0cc1\u0ca3\u0cb8\u0cc2\u0cb0\u0cc1 \u0cb0\u0cb8\u0ccd\u0ca4\u0cc6, Gokulam, Mysuru, Mysuru taluk, Mysuru district, Karnataka, 570001, India",
            "longitude": "76.6236231",
            "latitude": "12.315382",
            "blogLinks": [
                "http://www.holidayiq.com/Dandeli-Sightseeing-345.html"
            ],
            "locType": "university"
        },
        "north karnataka": {
            "closest_to": "",
            "address": "N, Chaithanya Samarpan, Kadugodi, Kannamangala, Bangalore Urban, Karnataka, 560066, India",
            "longitude": "77.7660547",
            "latitude": "13.0217151",
            "blogLinks": [
                "https://www.quora.com/What-are-the-best-places-to-visit-for-a-2-day-trip-from-Bangalore-by-car",
                "http://www.nivalink.com/destination/dandeli"
            ],
            "locType": "service"
        },
        "karanji lake": {
            "closest_to": "",
            "address": "Karanji, Aurad taluku, Bidar district, Karnataka, India",
            "longitude": "77.5474867",
            "latitude": "18.2681849",
            "blogLinks": [
                "http://blog.indianluxurytrains.com/2014/09/best-places-to-visit-in-karnataka.html"
            ],
            "locType": "village"
        },
        "goa": {
            "closest_to": "",
            "address": "Carnival De Goa, Bhaskaran Road, Gupta Layout, Halasuru, Bengaluru, Bangalore Urban, Karnataka, 560001, India",
            "longitude": "77.6200027",
            "latitude": "12.9750047",
            "blogLinks": [
                "http://www.holidayiq.com/Dandeli-Sightseeing-345.html",
                "https://www.tripoto.com/weekend-getaways/from-dandeli",
                "http://www.nivalink.com/destination/hampi",
                "http://wikitravel.org/en/Hampi"
            ],
            "locType": "restaurant"
        },
        "bahmani": {
            "closest_to": "",
            "address": "Bahmani Fort, Alanda Road, Fort, Rauza, Kalaburagi, Gulbarga taluku, Kalaburagi district, Karnataka, 585101, India",
            "longitude": "76.8315008",
            "latitude": "17.3415485",
            "blogLinks": [
                "http://blog.indianluxurytrains.com/2014/09/best-places-to-visit-in-karnataka.html"
            ],
            "locType": "castle"
        },
        "railway museum": {
            "closest_to": "",
            "address": "Bangalore East Railway Station, Cox Town, Bengaluru, Bangalore Urban, Karnataka, 560001, India",
            "longitude": "77.6182271274845",
            "latitude": "13.001147",
            "blogLinks": [
                "http://blog.indianluxurytrains.com/2014/09/best-places-to-visit-in-karnataka.html"
            ],
            "locType": "railway"
        },
        "north goa": {
            "closest_to": "",
            "address": "Carnival De Goa, Bhaskaran Road, Gupta Layout, Halasuru, Bengaluru, Bangalore Urban, Karnataka, 560001, India",
            "longitude": "77.6200027",
            "latitude": "12.9750047",
            "blogLinks": [
                "https://www.tripoto.com/weekend-getaways/from-dandeli"
            ],
            "locType": "restaurant"
        },
        "venkateshwara": {
            "closest_to": "",
            "address": "Sri Venkateshwara Temple, 12th Cross Road, Rajajinagar 1st Block, Nandini Layout, Bengaluru, Bangalore Urban, Karnataka, 560001, India",
            "longitude": "77.5452768748626",
            "latitude": "13.00856755",
            "blogLinks": [
                "http://wikitravel.org/en/Hampi"
            ],
            "locType": "place_of_worship"
        },
        "venkatappa art gallery": {
            "closest_to": "",
            "address": "Venkatappa Art Gallery, Kasturba Road, Shantala Nagar, MacIvor Town, Bengaluru, Bangalore Urban, Karnataka, 560001, India",
            "longitude": "77.5952077",
            "latitude": "12.9742592",
            "blogLinks": [
                "http://blog.indianluxurytrains.com/2014/09/best-places-to-visit-in-karnataka.html"
            ],
            "locType": "museum"
        },
        "chelavara falls": {
            "closest_to": "",
            "address": "Chelavara Falls, Madikeri taluku, Kodagu, Karnataka, India",
            "longitude": "75.6734811730693",
            "latitude": "12.20601005",
            "blogLinks": [
                "http://blog.indianluxurytrains.com/2014/09/best-places-to-visit-in-karnataka.html"
            ],
            "locType": "waterfall"
        },
        "tamil nadu": {
            "closest_to": "",
            "address": "KARNATAKA BANK, Diwan Bhadur Road, Five Corner, RS Puram, Coimbatore, Coimbatore district, Tamil Nadu, 641001, India",
            "longitude": "76.9514152",
            "latitude": "11.0025894",
            "blogLinks": [
                "https://www.quora.com/What-are-the-best-places-to-visit-for-a-2-day-trip-from-Bangalore-by-car"
            ],
            "locType": "bank"
        },
        "nagarhole national park": {
            "closest_to": "",
            "address": "Nagarahole National Park, Virajpet taluk, Kodagu, Karnataka, India",
            "longitude": "76.1537073415874",
            "latitude": "12.0600362",
            "blogLinks": [
                "http://blog.indianluxurytrains.com/2014/09/best-places-to-visit-in-karnataka.html"
            ],
            "locType": "national_park"
        },
        "pampa": {
            "closest_to": "",
            "address": "Pampa Mahakavi Road, Ranasingpet, Kalasipalya, Bengaluru, Bangalore Urban, Karnataka, 560001, India",
            "longitude": "77.5719518",
            "latitude": "12.9581179",
            "blogLinks": [
                "http://travel.india.com/hampi/"
            ],
            "locType": "secondary"
        },
        "mangalore": {
            "closest_to": "",
            "address": "Mangaluru, Mangaluru taluk, Dakshina Kannada, Karnataka, 575001, India",
            "longitude": "74.8430082",
            "latitude": "12.8698101",
            "blogLinks": [
                "https://www.quora.com/What-are-the-best-places-to-visit-for-a-2-day-trip-from-Bangalore-by-car"
            ],
            "locType": "city"
        },
        "kudremukh national park": {
            "closest_to": "",
            "address": "Kudremukh National Park, SH66, Sringeri taluku, Chikkamagaluru district, Karnataka, India",
            "longitude": "75.1828713712862",
            "latitude": "13.25397485",
            "blogLinks": [
                "https://www.quora.com/What-are-the-best-places-to-visit-for-a-2-day-trip-from-Bangalore-by-car"
            ],
            "locType": "national_park"
        },
        "sri mallikarjuna temple": {
            "closest_to": "",
            "address": "Sri Mallikarjuna Temple, Parking, Sringeri, Sringeri taluku, Chikkamagaluru district, Karnataka, 577592, India",
            "longitude": "75.2508225556439",
            "latitude": "13.4188371",
            "blogLinks": [
                "http://www.holidayiq.com/Dandeli-Sightseeing-345.html"
            ],
            "locType": "place_of_worship"
        },
        "mumbai": {
            "closest_to": "",
            "address": "Mumbai Spice, 18/2, 10th Cross, Malleswaram, Vyalikaval, Malleswaram, Bengaluru, Bangalore Urban, Karnataka, 560003, India",
            "longitude": "77.5718472",
            "latitude": "13.0002869",
            "blogLinks": [
                "https://www.quora.com/Is-it-recommended-to-travel-distance-from-Pune-to-Dandeli-approx-450-km-on-bike-I-am-planning-to-do-it-in-one-day"
            ],
            "locType": "restaurant"
        },
        "mysore": {
            "closest_to": "",
            "address": "Mysuru, Mysuru taluk, Mysuru district, Karnataka, 570001, India",
            "longitude": "76.6553609",
            "latitude": "12.3051828",
            "blogLinks": [
                "http://blog.indianluxurytrains.com/2014/09/best-places-to-visit-in-karnataka.html"
            ],
            "locType": "city"
        },
        "baga": {
            "closest_to": "",
            "address": "Baga Hipparaga, Basavakalyana taluku, Bidar district, Karnataka, India",
            "longitude": "76.9300452",
            "latitude": "17.6148763",
            "blogLinks": [
                "https://www.tripoto.com/weekend-getaways/from-dandeli"
            ],
            "locType": "village"
        },
        "balakrishna": {
            "closest_to": "",
            "address": "Balakrishna Rangamandira, Gokhale Road, Rajarajeshwari Nagar, Patanagere, Bangalore Urban, Karnataka, 560098, India",
            "longitude": "77.5200084",
            "latitude": "12.9176066",
            "blogLinks": [
                "http://www.holidayiq.com/Hampi-Sightseeing-370.html"
            ],
            "locType": "playground"
        },
        "kadamba": {
            "closest_to": "",
            "address": "Kadamba Avenue, R. Narayanapura, Brookefields, Dodsworth Enclave, Bangalore Urban, Karnataka, 560066, India",
            "longitude": "77.7436954",
            "latitude": "12.9703178",
            "blogLinks": [
                "http://www.holidayiq.com/Dandeli-Sightseeing-345.html"
            ],
            "locType": "residential"
        },
        "hassan": {
            "closest_to": "",
            "address": "Hassan, Hasana taluk, Hassan district, Karnataka, 573201, India",
            "longitude": "76.0992703",
            "latitude": "13.0070817",
            "blogLinks": [
                "http://blog.indianluxurytrains.com/2014/09/best-places-to-visit-in-karnataka.html"
            ],
            "locType": "town"
        },
        "ratnagiri highway": {
            "closest_to": "",
            "address": "Ratnagiri Road, Basavannahalli, Chikkamagaluru, Chikkamagaluru taluku, Chikkamagaluru district, Karnataka, 577101, India",
            "longitude": "75.7727724",
            "latitude": "13.3292344",
            "blogLinks": [
                "http://www.nivalink.com/destination/dandeli"
            ],
            "locType": "secondary"
        },
        "river cauvery": {
            "closest_to": "",
            "address": "Cauvery, 1st Main Road, Lower Palace Orchard, Guttahalli, Bengaluru, Bangalore Urban, Karnataka, 560001, India",
            "longitude": "77.5832796015599",
            "latitude": "13.00262215",
            "blogLinks": [
                "https://www.quora.com/What-are-the-best-places-to-visit-for-a-2-day-trip-from-Bangalore-by-car"
            ],
            "locType": "cinema"
        },
        "cubbon park": {
            "closest_to": "",
            "address": "Cubbon Park, Cubbon Road, Tasker Town, Shivajinagar, Bengaluru, Bangalore Urban, Karnataka, 560001, India",
            "longitude": "77.5977565",
            "latitude": "12.9808487",
            "blogLinks": [
                "http://blog.indianluxurytrains.com/2014/09/best-places-to-visit-in-karnataka.html"
            ],
            "locType": "station"
        },
        "pune": {
            "closest_to": "",
            "address": "Pune - Machilipatnam Highway, Kaudiyala, Basavakalyana taluku, Bidar district, Karnataka, India",
            "longitude": "76.9479122",
            "latitude": "17.8199745",
            "blogLinks": [
                "https://www.quora.com/Is-it-recommended-to-travel-distance-from-Pune-to-Dandeli-approx-450-km-on-bike-I-am-planning-to-do-it-in-one-day"
            ],
            "locType": "trunk"
        },
        "bandipur": {
            "closest_to": "",
            "address": "Bandipur, Gundlupet taluk, Chamarajanagar district, Karnataka, India",
            "longitude": "76.6285739",
            "latitude": "11.6662708",
            "blogLinks": [
                "https://www.quora.com/What-are-the-best-places-to-visit-for-a-2-day-trip-from-Bangalore-by-car"
            ],
            "locType": "village"
        },
        "mandovi river": {
            "closest_to": "",
            "address": "Mandovi Motors, Wheeler Road Flyover, MSO Colony, Cox Town, Bengaluru, Bangalore Urban, Karnataka, 560001, India",
            "longitude": "77.6190505",
            "latitude": "12.9965335",
            "blogLinks": [
                "https://www.tripoto.com/weekend-getaways/from-dandeli"
            ],
            "locType": "car"
        },
        "bandipur national park": {
            "closest_to": "",
            "address": "Bandipur National Park, Kozhikode - Kollegal Highway, Gundlupet taluk, Chamarajanagar district, Karnataka, India",
            "longitude": "76.4314968740264",
            "latitude": "11.76682425",
            "blogLinks": [
                "http://blog.indianluxurytrains.com/2014/09/best-places-to-visit-in-karnataka.html"
            ],
            "locType": "national_park"
        },
        "karnataka": {
            "closest_to": "",
            "address": "Karnataka, Shalivahana Road, Nazarbad, Mysuru, Mysuru taluk, Mysuru district, Karnataka, 570001, India",
            "longitude": "76.6639936",
            "latitude": "12.3084901",
            "blogLinks": [
                "http://blog.indianluxurytrains.com/2014/09/best-places-to-visit-in-karnataka.html",
                "http://travel.india.com/hampi/",
                "http://www.holidayiq.com/Dandeli-Sightseeing-345.html",
                "https://www.quora.com/What-are-the-best-places-to-visit-for-a-2-day-trip-from-Bangalore-by-car",
                "https://www.tripoto.com/places-to-visit/india/dandeli",
                "http://www.nivalink.com/destination/dandeli",
                "http://www.nivalink.com/destination/hampi",
                "http://wikitravel.org/en/Hampi",
                "http://www.mapsofindia.com/karnataka/places-to-visit-in-hampi.html",
                "http://www.karnatakatourism.org/"
            ],
            "locType": "atm"
        },
        "kodagu": {
            "closest_to": "",
            "address": "Kodagu, Karnataka, India",
            "longitude": "75.6677235950852",
            "latitude": "12.38117345",
            "blogLinks": [
                "http://blog.indianluxurytrains.com/2014/09/best-places-to-visit-in-karnataka.html"
            ],
            "locType": "administrative"
        },
        "japanese garden": {
            "closest_to": "",
            "address": "Hae Kum Gang (Korean/Japanese), 20, Castle Street, Shantala Nagar, Ashok Nagar, Bengaluru, Bangalore Urban, Karnataka, 560001, India",
            "longitude": "77.6055915",
            "latitude": "12.9655328",
            "blogLinks": [
                "https://www.tripoto.com/weekend-getaways/from-dandeli"
            ],
            "locType": "restaurant"
        },
        "madikeri": {
            "closest_to": "",
            "address": "Madikeri, Madikeri taluku, Kodagu, Karnataka, India",
            "longitude": "75.740031",
            "latitude": "12.4204003",
            "blogLinks": [
                "http://www.karnatakatourism.org/"
            ],
            "locType": "town"
        },
        "royal centre": {
            "closest_to": "",
            "address": "Royal Legend Apartments, Bommanahalli, Bengaluru, Bangalore Urban, Karnataka, 560001, India",
            "longitude": "77.62083471365",
            "latitude": "12.8992404",
            "blogLinks": [
                "http://wikitravel.org/en/Hampi"
            ],
            "locType": "residential"
        },
        "lal bagh": {
            "closest_to": "",
            "address": "Lal Bagh Bus Stop, Mahatma Gandhi Road, Lalbagh, Ladyhill, Mangaluru, Mangaluru taluk, Dakshina Kannada, Karnataka, 575001, India",
            "longitude": "74.8386152",
            "latitude": "12.8859223",
            "blogLinks": [
                "http://blog.indianluxurytrains.com/2014/09/best-places-to-visit-in-karnataka.html"
            ],
            "locType": "bus_stop"
        },
        "venkataramana temple": {
            "closest_to": "",
            "address": "Venkataramana Temple, 20th Cross Road, Anantnagar, Sampige Nagara, Bangalore Urban, Karnataka, 560099, India",
            "longitude": "77.6895365754579",
            "latitude": "12.8380349",
            "blogLinks": [
                "http://blog.indianluxurytrains.com/2014/09/best-places-to-visit-in-karnataka.html"
            ],
            "locType": "place_of_worship"
        },
        "andhra pradesh": {
            "closest_to": "",
            "address": "Karnataka, West Mada Street, Srivari Temple, Tirumala, Chittoor, Andhra Pradesh, 517504, India",
            "longitude": "79.3452447",
            "latitude": "13.6841958",
            "blogLinks": [
                "http://wikitravel.org/en/Hampi"
            ],
            "locType": "hotel"
        },
        "vittala": {
            "closest_to": "",
            "address": "Vijaya Vittala PU College, Sahukar Chennaiah Road, Sarasvatipuram, Mysuru, Mysuru taluk, Mysuru district, Karnataka, 570001, India",
            "longitude": "76.6237847175927",
            "latitude": "12.30129655",
            "blogLinks": [
                "https://www.quora.com/What-are-the-best-places-to-visit-for-a-2-day-trip-from-Bangalore-by-car",
                "http://travel.india.com/hampi/places-to-visit/",
                "http://blog.indianluxurytrains.com/2014/09/best-places-to-visit-in-karnataka.html"
            ],
            "locType": "yes"
        },
        "nandi": {
            "closest_to": "",
            "address": "Nandi, Tarikere taluku, Chikkamagaluru district, Karnataka, India",
            "longitude": "75.8556266",
            "latitude": "13.6434094",
            "blogLinks": [
                "https://www.quora.com/What-are-the-best-places-to-visit-for-a-2-day-trip-from-Bangalore-by-car"
            ],
            "locType": "village"
        },
        "india bengaluru": {
            "closest_to": "",
            "address": "Karnataka High Court, Dr B R Ambedkar Veedhi, Shantala Nagar, Gandhinagar, Bengaluru, Bangalore Urban, Karnataka, 560001, India",
            "longitude": "77.5925914",
            "latitude": "12.977944",
            "blogLinks": [
                "https://www.quora.com/What-are-the-best-places-to-visit-for-a-2-day-trip-from-Bangalore-by-car"
            ],
            "locType": "courthouse"
        },
        "delhi": {
            "closest_to": "",
            "address": "Outer Ring Road, Green Glen Layout, Iblur, Bengaluru, Bangalore Urban, Karnataka, 560001, India",
            "longitude": "77.6666062",
            "latitude": "12.9212473",
            "blogLinks": [
                "http://blog.indianluxurytrains.com/2014/09/best-places-to-visit-in-karnataka.html"
            ],
            "locType": "trunk"
        }
    }
}