{
    "raichur": {
        "lat": "16.083333",
        "class": "place",
        "importance": 0.65,
        "osm_type": "node",
        "lon": "77.166667",
        "place_id": "1415432",
        "display_name": "Raichur, Raichur district, Karnataka, India",
        "osm_id": "316417380",
        "boundingbox": [
            "15.443333",
            "16.723333",
            "76.526667",
            "77.806667"
        ],
        "type": "county",
        "licence": "Data \u00a9 OpenStreetMap contributors, ODbL 1.0. http://www.openstreetmap.org/copyright",
        "icon": "https://nominatim.openstreetmap.org/images/mapicons/poi_boundary_administrative.p.20.png"
    },
    "dandeli": {
        "lat": "15.2490284",
        "class": "place",
        "importance": 0.5,
        "osm_type": "node",
        "lon": "74.6236037",
        "place_id": "5820025",
        "display_name": "Dandeli, Haliyala taluku, Uttara Kannada, Karnataka, 581325, India",
        "osm_id": "612546262",
        "boundingbox": [
            "15.2090284",
            "15.2890284",
            "74.5836037",
            "74.6636037"
        ],
        "type": "town",
        "licence": "Data \u00a9 OpenStreetMap contributors, ODbL 1.0. http://www.openstreetmap.org/copyright",
        "icon": "https://nominatim.openstreetmap.org/images/mapicons/poi_place_town.p.20.png"
    },
    "mentions": {
        "bombay": {
            "blogLinks": [
                "http://travel.paintedstork.com/blog/2005/12/amazing-dandeli-world-of-wilderness.html"
            ],
            "longitude": "77.5500256",
            "address": "Bombay tea hotel, Hosahalli Main Road, Rajajinagar 6th Block, Goripalya, Bengaluru, Bangalore Urban, Karnataka, 560001, India",
            "latitude": "12.9632318",
            "locType": "cafe",
            "closest_to": ""
        },
        "north karnataka": {
            "blogLinks": [
                "https://www.quora.com/What-are-the-best-places-to-visit-for-a-2-day-trip-from-Bangalore-by-car"
            ],
            "longitude": "77.7660547",
            "address": "N, Chaithanya Samarpan, Kadugodi, Kannamangala, Bangalore Urban, Karnataka, 560066, India",
            "latitude": "13.0217151",
            "locType": "service",
            "closest_to": ""
        },
        "mahabaleshwar": {
            "blogLinks": [
                "https://www.tripoto.com/weekend-getaways/from-raichur"
            ],
            "longitude": "77.5899443",
            "address": "Mahabaleshwar Temple, Mission Road (Kalinga Rao Road), Sampangirama Nagar, Shanti Nagar, Bengaluru, Bangalore Urban, Karnataka, 560001, India",
            "latitude": "12.962625",
            "locType": "place_of_worship",
            "closest_to": ""
        },
        "ambika nagar": {
            "blogLinks": [
                "https://www.tripoto.com/weekend-getaways/from-raichur"
            ],
            "longitude": "77.5557527",
            "address": "ambika hotel and bar, 638, 46th A cross, Rajajinagar 4th Block, Rajaji Nagar, Bengaluru, Bangalore Urban, Karnataka, 560010, India",
            "latitude": "12.9878802",
            "locType": "restaurant",
            "closest_to": ""
        },
        "karnataka state": {
            "blogLinks": [
                "http://www.holidayiq.com/Dandeli-Sightseeing-345.html"
            ],
            "longitude": "76.6236231",
            "address": "Karnataka State Open University, \u0cb9\u0cc1\u0ca3\u0cb8\u0cc2\u0cb0\u0cc1 \u0cb0\u0cb8\u0ccd\u0ca4\u0cc6, Gokulam, Mysuru, Mysuru taluk, Mysuru district, Karnataka, 570001, India",
            "latitude": "12.315382",
            "locType": "university",
            "closest_to": ""
        },
        "mandovi river": {
            "blogLinks": [
                "https://www.tripoto.com/weekend-getaways/from-dandeli"
            ],
            "longitude": "77.6190505",
            "address": "Mandovi Motors, Wheeler Road Flyover, MSO Colony, Cox Town, Bengaluru, Bangalore Urban, Karnataka, 560001, India",
            "latitude": "12.9965335",
            "locType": "car",
            "closest_to": ""
        },
        "chalukya": {
            "blogLinks": [
                "https://www.tripoto.com/weekend-getaways/from-raichur"
            ],
            "longitude": "77.5192989605445",
            "address": "Chalukya Nagar, Chandra Layout, GKW Layout, Bangalore Urban, Karnataka, 560072, India",
            "latitude": "12.9617207",
            "locType": "residential",
            "closest_to": ""
        },
        "bandipur": {
            "blogLinks": [
                "https://www.quora.com/What-are-the-best-places-to-visit-for-a-2-day-trip-from-Bangalore-by-car"
            ],
            "longitude": "76.6285739",
            "address": "Bandipur, Gundlupet taluk, Chamarajanagar district, Karnataka, India",
            "latitude": "11.6662708",
            "locType": "village",
            "closest_to": ""
        },
        "earth": {
            "blogLinks": [
                "https://www.tripoto.com/weekend-getaways/from-dandeli"
            ],
            "longitude": "77.659986649248",
            "address": "Bharat Earth Movers Limited - BEML, GM Palya, Bengaluru, Bangalore Urban, Karnataka, 560001, India",
            "latitude": "12.9740596",
            "locType": "industrial",
            "closest_to": ""
        },
        "amazon": {
            "blogLinks": [
                "https://www.tripoto.com/weekend-getaways/from-raichur"
            ],
            "longitude": "77.6954191",
            "address": "Amazon, Goshala Road, Devasandra, Mahadevapura, Garudacharpalya, Bangalore Urban, Karnataka, 560048, India",
            "latitude": "12.9798967",
            "locType": "government",
            "closest_to": ""
        },
        "chennai": {
            "blogLinks": [
                "http://wikitravel.org/en/Mantralayam"
            ],
            "longitude": "80.2197941",
            "address": "Karnataka Bank, Postal Colony 2nd Street, Postal Colony, Ashok Nagar, Chennai City Corporation Limits, Chennai district, Tamil Nadu, 600033, India",
            "latitude": "13.0365141",
            "locType": "bank",
            "closest_to": ""
        },
        "north goa": {
            "blogLinks": [
                "https://www.tripoto.com/weekend-getaways/from-dandeli"
            ],
            "longitude": "77.6200027",
            "address": "Carnival De Goa, Bhaskaran Road, Gupta Layout, Halasuru, Bengaluru, Bangalore Urban, Karnataka, 560001, India",
            "latitude": "12.9750047",
            "locType": "restaurant",
            "closest_to": ""
        },
        "pampa": {
            "blogLinks": [
                "https://www.tripoto.com/weekend-getaways/from-raichur"
            ],
            "longitude": "77.5719518",
            "address": "Pampa Mahakavi Road, Ranasingpet, Kalasipalya, Bengaluru, Bangalore Urban, Karnataka, 560001, India",
            "latitude": "12.9581179",
            "locType": "secondary",
            "closest_to": ""
        },
        "maharashtra": {
            "blogLinks": [
                "http://www.holidayiq.com/Dandeli-Sightseeing-345.html",
                "http://travel.paintedstork.com/blog/2005/12/amazing-dandeli-world-of-wilderness.html"
            ],
            "longitude": "77.5856013",
            "address": "Bank of Maharashtra, 24th Main, K R Layout, Puttenahalli, Bengaluru, Bangalore Urban, Karnataka, 560001, India",
            "latitude": "12.9049455",
            "locType": "bank",
            "closest_to": ""
        },
        "agastya": {
            "blogLinks": [
                "https://www.tripoto.com/weekend-getaways/from-raichur"
            ],
            "longitude": "77.7512485332492",
            "address": "Agastya Guru Palatia Apartments, Kadugodi, Prashanth Extension, Bangalore Urban, Karnataka, 56066, India",
            "latitude": "12.9796965",
            "locType": "residential",
            "closest_to": ""
        },
        "emirates": {
            "blogLinks": [
                "https://www.yatra.com/india-tourism/raichur-travel-guide"
            ],
            "longitude": "77.5572955",
            "address": "Emirates, Rahman Khan Road, Rajajinagar 1st Block, Yeshwantpur, Deewanarapalya, Bangalore Urban, Karnataka, 560022, India",
            "latitude": "13.0192135",
            "locType": "restaurant",
            "closest_to": ""
        },
        "north-west karnataka": {
            "blogLinks": [
                "https://en.wikivoyage.org/wiki/Dandeli",
                "http://wikitravel.org/en/Dandeli"
            ],
            "longitude": "77.7660547",
            "address": "N, Chaithanya Samarpan, Kadugodi, Kannamangala, Bangalore Urban, Karnataka, 560066, India",
            "latitude": "13.0217151",
            "locType": "service",
            "closest_to": ""
        },
        "tamil nadu": {
            "blogLinks": [
                "https://www.quora.com/What-are-the-best-places-to-visit-for-a-2-day-trip-from-Bangalore-by-car"
            ],
            "longitude": "76.9514152",
            "address": "KARNATAKA BANK, Diwan Bhadur Road, Five Corner, RS Puram, Coimbatore, Coimbatore district, Tamil Nadu, 641001, India",
            "latitude": "11.0025894",
            "locType": "bank",
            "closest_to": ""
        },
        "andhra pradesh": {
            "blogLinks": [
                "https://www.tripoto.com/weekend-getaways/from-raichur",
                "http://wikitravel.org/en/Mantralayam"
            ],
            "longitude": "79.3452447",
            "address": "Karnataka, West Mada Street, Srivari Temple, Tirumala, Chittoor, Andhra Pradesh, 517504, India",
            "latitude": "13.6841958",
            "locType": "hotel",
            "closest_to": ""
        },
        "bangalore": {
            "blogLinks": [
                "https://en.wikivoyage.org/wiki/Dandeli",
                "http://wikitravel.org/en/Dandeli",
                "https://www.tripoto.com/weekend-getaways/from-raichur",
                "https://www.quora.com/What-are-the-best-places-to-visit-for-a-2-day-trip-from-Bangalore-by-car",
                "http://travel.paintedstork.com/blog/2005/12/amazing-dandeli-world-of-wilderness.html",
                "http://wikitravel.org/en/Mantralayam"
            ],
            "longitude": "77.5912997",
            "address": "Bengaluru, Bangalore Urban, Karnataka, 560001, India",
            "latitude": "12.9791198",
            "locType": "city",
            "closest_to": ""
        },
        "hong kong": {
            "blogLinks": [
                "https://www.yatra.com/india-tourism/raichur-travel-guide"
            ],
            "longitude": "77.6768991",
            "address": "Hong Kong Noodles, Kalkere Main road, Ramamurthy Nagar, Varanasi, Bangalore Urban, Karnataka, 600042, India",
            "latitude": "13.020749",
            "locType": "restaurant",
            "closest_to": ""
        },
        "vittala": {
            "blogLinks": [
                "https://www.tripoto.com/weekend-getaways/from-raichur",
                "https://www.quora.com/What-are-the-best-places-to-visit-for-a-2-day-trip-from-Bangalore-by-car"
            ],
            "longitude": "76.6237847175927",
            "address": "Vijaya Vittala PU College, Sahukar Chennaiah Road, Sarasvatipuram, Mysuru, Mysuru taluk, Mysuru district, Karnataka, 570001, India",
            "latitude": "12.30129655",
            "locType": "yes",
            "closest_to": ""
        },
        "japanese garden": {
            "blogLinks": [
                "https://www.tripoto.com/weekend-getaways/from-dandeli"
            ],
            "longitude": "77.6055915",
            "address": "Hae Kum Gang (Korean/Japanese), 20, Castle Street, Shantala Nagar, Ashok Nagar, Bengaluru, Bangalore Urban, Karnataka, 560001, India",
            "latitude": "12.9655328",
            "locType": "restaurant",
            "closest_to": ""
        },
        "dubai": {
            "blogLinks": [
                "https://www.yatra.com/india-tourism/raichur-travel-guide"
            ],
            "longitude": "77.6067717",
            "address": "Dubai Plaza, Rest House Road, Shantala Nagar, Ashok Nagar, Bengaluru, Bangalore Urban, Karnataka, 560001, India",
            "latitude": "12.9737065",
            "locType": "gift",
            "closest_to": ""
        },
        "singapore": {
            "blogLinks": [
                "https://www.yatra.com/india-tourism/raichur-travel-guide"
            ],
            "longitude": "77.5483703",
            "address": "Singapore Gardens, Vajrahalli, Bengaluru, Bangalore Urban, Karnataka, 560001, India",
            "latitude": "12.8861812",
            "locType": "neighbourhood",
            "closest_to": ""
        },
        "river cauvery": {
            "blogLinks": [
                "https://www.quora.com/What-are-the-best-places-to-visit-for-a-2-day-trip-from-Bangalore-by-car"
            ],
            "longitude": "77.5832796015599",
            "address": "Cauvery, 1st Main Road, Lower Palace Orchard, Guttahalli, Bengaluru, Bangalore Urban, Karnataka, 560001, India",
            "latitude": "13.00262215",
            "locType": "cinema",
            "closest_to": ""
        },
        "goa": {
            "blogLinks": [
                "https://www.tripoto.com/weekend-getaways/from-dandeli",
                "http://www.holidayiq.com/Dandeli-Sightseeing-345.html",
                "http://travel.paintedstork.com/blog/2005/12/amazing-dandeli-world-of-wilderness.html"
            ],
            "longitude": "77.6200027",
            "address": "Carnival De Goa, Bhaskaran Road, Gupta Layout, Halasuru, Bengaluru, Bangalore Urban, Karnataka, 560001, India",
            "latitude": "12.9750047",
            "locType": "restaurant",
            "closest_to": ""
        },
        "middle east": {
            "blogLinks": [
                "https://www.yatra.com/india-tourism/raichur-travel-guide"
            ],
            "longitude": "77.3394684",
            "address": "Government Middle And Primary School, NH48, Dodderi, Nelamangala taluk, Bangalore Rural, Karnataka, India",
            "latitude": "13.1487605",
            "locType": "school",
            "closest_to": ""
        },
        "kadamba": {
            "blogLinks": [
                "http://www.holidayiq.com/Dandeli-Sightseeing-345.html"
            ],
            "longitude": "77.7436954",
            "address": "Kadamba Avenue, R. Narayanapura, Brookefields, Dodsworth Enclave, Bangalore Urban, Karnataka, 560066, India",
            "latitude": "12.9703178",
            "locType": "residential",
            "closest_to": ""
        },
        "mecca masjid": {
            "blogLinks": [
                "https://www.tripoto.com/weekend-getaways/from-raichur"
            ],
            "longitude": "77.5509669",
            "address": "masjid e mecca, 7th cross padarayana pura, Hosahalli Main Road, Rajajinagar 6th Block, Goripalya, Bengaluru, Bangalore Urban, Karnataka, 560001, India",
            "latitude": "12.9618838",
            "locType": "place_of_worship",
            "closest_to": ""
        },
        "india bengaluru": {
            "blogLinks": [
                "https://www.quora.com/What-are-the-best-places-to-visit-for-a-2-day-trip-from-Bangalore-by-car"
            ],
            "longitude": "77.5925914",
            "address": "Karnataka High Court, Dr B R Ambedkar Veedhi, Shantala Nagar, Gandhinagar, Bengaluru, Bangalore Urban, Karnataka, 560001, India",
            "latitude": "12.977944",
            "locType": "courthouse",
            "closest_to": ""
        },
        "karnataka": {
            "blogLinks": [
                "https://en.wikivoyage.org/wiki/Dandeli",
                "http://wikitravel.org/en/Dandeli",
                "https://www.tripoto.com/weekend-getaways/from-raichur",
                "https://www.quora.com/What-are-the-best-places-to-visit-for-a-2-day-trip-from-Bangalore-by-car",
                "http://distancecalculator.globefeed.com/India_Distance_Calculator.asp?state=19",
                "http://www.holidayiq.com/Dandeli-Sightseeing-345.html",
                "https://www.yatra.com/india-tourism/raichur-travel-guide",
                "http://www.distancesfrom.com/in/travel-from-hyderabad-to-Dandeli-via-Mahabubnagar-Raichur/TravelFromHistory/31958705.aspx",
                "http://www.karnatakatourism.org/",
                "http://dandelitrip.com/dandeli-tourist-places/",
                "http://wikitravel.org/en/Mantralayam"
            ],
            "longitude": "76.6639936",
            "address": "Karnataka, Shalivahana Road, Nazarbad, Mysuru, Mysuru taluk, Mysuru district, Karnataka, 570001, India",
            "latitude": "12.3084901",
            "locType": "atm",
            "closest_to": ""
        }
    }
}