{
    "mentions": {
        "pune": {
            "closest_to": "",
            "address": "Pune - Machilipatnam Highway, Kaudiyala, Basavakalyana taluku, Bidar district, Karnataka, India",
            "longitude": "76.9479122",
            "latitude": "17.8199745",
            "blogLinks": [
                "http://pritskulkarni.blogspot.com/2016/09/beautiful-south-goa-and-gigantic-jog.html",
                "http://www.nivalink.com/destination/jog-falls"
            ],
            "locType": "trunk"
        },
        "sannati": {
            "closest_to": "",
            "address": "Sannati, Chitapura taluku, Kalaburagi district, Karnataka, India",
            "longitude": "76.9080631",
            "latitude": "16.8293201",
            "blogLinks": [
                "https://en.wikipedia.org/wiki/Tourism_in_Karnataka"
            ],
            "locType": "village"
        },
        "mallikarjuna": {
            "closest_to": "",
            "address": "Mallikarjuna Vadi, Basavakalyana taluku, Bidar district, Karnataka, India",
            "longitude": "77.0590502",
            "latitude": "17.8106693",
            "blogLinks": [
                "http://www.nivalink.com/destination/talakadu"
            ],
            "locType": "village"
        },
        "bidar district": {
            "closest_to": "",
            "address": "Bidar district, Karnataka, India",
            "longitude": "77.2496344350342",
            "latitude": "18.0158574",
            "blogLinks": [
                "https://en.wikipedia.org/wiki/Tourism_in_Karnataka"
            ],
            "locType": "administrative"
        },
        "manjira lake": {
            "closest_to": "",
            "address": "Manjira, Aurad taluku, Bidar district, Karnataka, India",
            "longitude": "77.1381138",
            "latitude": "18.2024164",
            "blogLinks": [
                "http://wikitravel.org/en/Shivanasamudram"
            ],
            "locType": "river"
        },
        "manjira": {
            "closest_to": "",
            "address": "Manjira, Aurad taluku, Bidar district, Karnataka, India",
            "longitude": "77.1381138",
            "latitude": "18.2024164",
            "blogLinks": [
                "http://www.indiatrekkingtrails.com/2009_12_01_archive.html"
            ],
            "locType": "river"
        },
        "mayura": {
            "closest_to": "",
            "address": "Mayura, Jevargi taluku, Kalaburagi district, Karnataka, India",
            "longitude": "76.4982569",
            "latitude": "17.0307108",
            "blogLinks": [
                "http://pritskulkarni.blogspot.com/2016/09/beautiful-south-goa-and-gigantic-jog.html"
            ],
            "locType": "village"
        },
        "medak": {
            "closest_to": "",
            "address": "Medaka, Sedam taluku, Kalaburagi district, Karnataka, India",
            "longitude": "77.4638843",
            "latitude": "16.9816377",
            "blogLinks": [
                "http://www.indiatrekkingtrails.com/2009_12_01_archive.html"
            ],
            "locType": "village"
        },
        "gulbarga": {
            "closest_to": "",
            "address": "Kalaburgi, Kalaburagi district, Karnataka, India",
            "longitude": "77.083333",
            "latitude": "17.166667",
            "blogLinks": [
                "https://en.wikipedia.org/wiki/Tourism_in_Karnataka"
            ],
            "locType": "county"
        },
        "nagareshwara": {
            "closest_to": "",
            "address": "Nagareshwara Temple, SH126, Dantapur, Yadagiri taluku, Yadagiri district, Karnataka, India",
            "longitude": "77.3934679",
            "latitude": "16.8662525",
            "blogLinks": [
                "https://en.wikipedia.org/wiki/Tourism_in_Karnataka"
            ],
            "locType": "place_of_worship"
        },
        "chennai": {
            "closest_to": "",
            "address": "Karnataka Bank, Postal Colony 2nd Street, Postal Colony, Ashok Nagar, Chennai City Corporation Limits, Chennai district, Tamil Nadu, 600033, India",
            "longitude": "80.2197941",
            "latitude": "13.0365141",
            "blogLinks": [
                "https://www.tripoto.com/weekend-getaways/from-talakadu",
                "https://en.wikipedia.org/wiki/Tourism_in_Karnataka",
                "http://www.mouthshut.com/review/Mysore-review-ptosqttlunm"
            ],
            "locType": "bank"
        },
        "devaragudda": {
            "closest_to": "",
            "address": "Devaragudda, Devadurga taluk, Raichur district, Karnataka, India",
            "longitude": "76.9742864",
            "latitude": "16.4226399",
            "blogLinks": [
                "http://travel.goudar.com/2011/04/ranebennur-karnataka-india-with-photos.html"
            ],
            "locType": "hamlet"
        },
        "afzalpur": {
            "closest_to": "",
            "address": "Afzalpur, Afzalpura taluku, Kalaburagi district, Karnataka, 585301, India",
            "longitude": "76.3605783",
            "latitude": "17.2005764",
            "blogLinks": [
                "https://en.wikipedia.org/wiki/Tourism_in_Karnataka"
            ],
            "locType": "town"
        },
        "hyderabad": {
            "closest_to": "",
            "address": "Hyderabad Road, Old City, Bidar, Bidar taluku, Bidar district, Karnataka, 585400, India",
            "longitude": "77.5344002",
            "latitude": "17.9003114",
            "blogLinks": [
                "http://pritskulkarni.blogspot.com/2016/09/beautiful-south-goa-and-gigantic-jog.html",
                "http://www.indiatrekkingtrails.com/2009_12_01_archive.html"
            ],
            "locType": "primary"
        },
        "jaipur": {
            "closest_to": "",
            "address": "Karnataka Bank, Mirza Ismail Road, Hasanpura, Bani Park, Jaipur, Rajasthan, 302006, India",
            "longitude": "75.7985653",
            "latitude": "26.91869",
            "blogLinks": [
                "http://travel.goudar.com/2011/04/ranebennur-karnataka-india-with-photos.html"
            ],
            "locType": "atm"
        },
        "garden city": {
            "closest_to": "",
            "address": "Karnataka Bank, Postal Colony 2nd Street, Postal Colony, Ashok Nagar, Chennai City Corporation Limits, Chennai district, Tamil Nadu, 600033, India",
            "longitude": "80.2197941",
            "latitude": "13.0365141",
            "blogLinks": [
                "https://www.tripoto.com/weekend-getaways/from-talakadu"
            ],
            "locType": "bank"
        },
        "gulbarga district": {
            "closest_to": "",
            "address": "Kalaburgi, Kalaburagi district, Karnataka, India",
            "longitude": "77.083333",
            "latitude": "17.166667",
            "blogLinks": [
                "https://en.wikipedia.org/wiki/Tourism_in_Karnataka"
            ],
            "locType": "county"
        }
    },
    "jog falls": {
        "place_id": "12596177",
        "osm_id": "1191427856",
        "icon": "https://nominatim.openstreetmap.org/images/mapicons/poi_place_village.p.20.png",
        "osm_type": "node",
        "licence": "Data \u00a9 OpenStreetMap contributors, ODbL 1.0. http://www.openstreetmap.org/copyright",
        "display_name": "Jog Falls, Joga - Kargal, Sagara taluk, Shimoga district, Karnataka, India",
        "type": "locality",
        "lon": "74.8128715",
        "boundingbox": [
            "14.2176106",
            "14.2376106",
            "74.8028715",
            "74.8228715"
        ],
        "importance": 0.66590216462374,
        "lat": "14.2276106",
        "class": "place"
    },
    "talakadu": {
        "place_id": "6535103",
        "osm_id": "674277626",
        "icon": "https://nominatim.openstreetmap.org/images/mapicons/poi_place_village.p.20.png",
        "osm_type": "node",
        "licence": "Data \u00a9 OpenStreetMap contributors, ODbL 1.0. http://www.openstreetmap.org/copyright",
        "display_name": "Talakadu, Tirumakudalu Narasipura taluk, Mysuru district, Karnataka, India",
        "type": "village",
        "lon": "77.0293979",
        "boundingbox": [
            "12.1719942",
            "12.2119942",
            "77.0093979",
            "77.0493979"
        ],
        "importance": 0.475,
        "lat": "12.1919942",
        "class": "place"
    }
}