{
    "raichur": {
        "place_id": "1415432",
        "osm_id": "316417380",
        "icon": "https://nominatim.openstreetmap.org/images/mapicons/poi_boundary_administrative.p.20.png",
        "osm_type": "node",
        "licence": "Data \u00a9 OpenStreetMap contributors, ODbL 1.0. http://www.openstreetmap.org/copyright",
        "display_name": "Raichur, Raichur district, Karnataka, India",
        "type": "county",
        "lon": "77.166667",
        "boundingbox": [
            "15.443333",
            "16.723333",
            "76.526667",
            "77.806667"
        ],
        "importance": 0.65,
        "lat": "16.083333",
        "class": "place"
    },
    "mentions": {
        "vidhana": {
            "closest_to": "",
            "address": "Vidhana Soudha, Dr B R Ambedkar Veedhi, Shantala Nagar, Gandhinagar, Bengaluru, Bangalore Urban, Karnataka, 560001, India",
            "longitude": "77.5906167279795",
            "latitude": "12.9797454",
            "blogLinks": [
                "https://ellakavi.wordpress.com/category/ekavi-usa/page/2/"
            ],
            "locType": "attraction"
        },
        "mecca masjid": {
            "closest_to": "",
            "address": "masjid e mecca, 7th cross padarayana pura, Hosahalli Main Road, Rajajinagar 6th Block, Goripalya, Bengaluru, Bangalore Urban, Karnataka, 560001, India",
            "longitude": "77.5509669",
            "latitude": "12.9618838",
            "blogLinks": [
                "https://www.tripoto.com/weekend-getaways/from-kurnool"
            ],
            "locType": "place_of_worship"
        },
        "mumbai": {
            "closest_to": "",
            "address": "Mumbai Spice, 18/2, 10th Cross, Malleswaram, Vyalikaval, Malleswaram, Bengaluru, Bangalore Urban, Karnataka, 560003, India",
            "longitude": "77.5718472",
            "latitude": "13.0002869",
            "blogLinks": [
                "http://pritskulkarni.blogspot.com/2016/09/beautiful-south-goa-and-gigantic-jog.html",
                "http://travel.goudar.com/2011/04/ranebennur-karnataka-india-with-photos.html"
            ],
            "locType": "restaurant"
        },
        "udipi": {
            "closest_to": "",
            "address": "Udipi Park, 2nd Cross Road, Muniyappa Layout, Murugeshpalaya, Belure Ambedkar Nagar, Bangalore Urban, Karnataka, 560067, India",
            "longitude": "77.652888",
            "latitude": "12.9530588",
            "blogLinks": [
                "http://www.nivalink.com/destination/jog-falls"
            ],
            "locType": "restaurant"
        },
        "varanasi": {
            "closest_to": "",
            "address": "Varanasi, Bangalore Urban, Karnataka, India",
            "longitude": "77.6860657",
            "latitude": "13.0304962",
            "blogLinks": [
                "https://ellakavi.wordpress.com/category/ekavi-usa/page/2/"
            ],
            "locType": "village"
        },
        "hoysala": {
            "closest_to": "",
            "address": "Hoysala Nagar, Bengaluru, Bangalore Urban, Karnataka, 560001, India",
            "longitude": "77.6375990817051",
            "latitude": "12.97813815",
            "blogLinks": [
                "https://ellakavi.wordpress.com/category/ekavi-usa/page/2/",
                "http://www.nivalink.com/destination/jog-falls"
            ],
            "locType": "administrative"
        },
        "swarnamukhi river": {
            "closest_to": "",
            "address": "Swarnamukhi Hospital, 66, Sarjapur Road, Devarabisanahalli, Bellandur, Doddakannelli, Bangalore Urban, Karnataka, 560034, India",
            "longitude": "77.6794522",
            "latitude": "12.9135477",
            "blogLinks": [
                "https://www.tripoto.com/weekend-getaways/from-kurnool"
            ],
            "locType": "hospital"
        },
        "chennai": {
            "closest_to": "",
            "address": "Karnataka Bank, Postal Colony 2nd Street, Postal Colony, Ashok Nagar, Chennai City Corporation Limits, Chennai district, Tamil Nadu, 600033, India",
            "longitude": "80.2197941",
            "latitude": "13.0365141",
            "blogLinks": [
                "https://www.tripoto.com/weekend-getaways/from-kurnool"
            ],
            "locType": "bank"
        },
        "bangalore": {
            "closest_to": "",
            "address": "Bengaluru, Bangalore Urban, Karnataka, 560001, India",
            "longitude": "77.5912997",
            "latitude": "12.9791198",
            "blogLinks": [
                "http://www.mouthshut.com/review/Hampi-review-lttpsptmmm",
                "https://ellakavi.wordpress.com/category/ekavi-usa/page/2/",
                "http://wikitravel.org/en/Shimoga",
                "http://www.nivalink.com/destination/jog-falls",
                "http://www.distancesfrom.com/in/travel-from-Bangalore-to-Jog-Falls-via-------/TravelFromHistory/33863925.aspx",
                "https://www.tripoto.com/weekend-getaways/from-kurnool",
                "http://www.distancesfrom.com/in/distance-from-Bangalore-to-Jog-Falls-via-------/DistanceHistory/33863845.aspx"
            ],
            "locType": "city"
        },
        "sharavathi": {
            "closest_to": "",
            "address": "Sharavathi Block, National Games Village Road, Ambedkar Nagar, Ejipura, Bengaluru, Bangalore Urban, Karnataka, 560001, India",
            "longitude": "77.6216184337102",
            "latitude": "12.9464709",
            "blogLinks": [
                "http://wikitravel.org/en/Shimoga"
            ],
            "locType": "yes"
        },
        "agastya": {
            "closest_to": "",
            "address": "Agastya Guru Palatia Apartments, Kadugodi, Prashanth Extension, Bangalore Urban, Karnataka, 56066, India",
            "longitude": "77.7512485332492",
            "latitude": "12.9796965",
            "blogLinks": [
                "https://www.tripoto.com/weekend-getaways/from-kurnool"
            ],
            "locType": "residential"
        },
        "delhi": {
            "closest_to": "",
            "address": "Outer Ring Road, Green Glen Layout, Iblur, Bengaluru, Bangalore Urban, Karnataka, 560001, India",
            "longitude": "77.6666062",
            "latitude": "12.9212473",
            "blogLinks": [
                "http://travel.goudar.com/2011/04/ranebennur-karnataka-india-with-photos.html"
            ],
            "locType": "trunk"
        },
        "panchalingeshwara temple": {
            "closest_to": "",
            "address": "Panchalingeshwara Temple, 7th Main Road, Sampangi Rama Nagara, MacIvor Town, Bengaluru, Bangalore Urban, Karnataka, 560001, India",
            "longitude": "77.5907158821348",
            "latitude": "12.96622045",
            "blogLinks": [
                "https://ellakavi.wordpress.com/category/ekavi-usa/page/2/"
            ],
            "locType": "place_of_worship"
        },
        "begur": {
            "closest_to": "",
            "address": "Begur, Begur-Koppa Road, Akshaynagar Layout, Hulimavu, Yelenahalli, Bangalore Urban, Karnataka, 560076, India",
            "longitude": "77.613011205039",
            "latitude": "12.8633887",
            "blogLinks": [
                "https://ellakavi.wordpress.com/category/ekavi-usa/page/2/"
            ],
            "locType": "political"
        },
        "tirumala": {
            "closest_to": "",
            "address": "Karnataka, West Mada Street, Srivari Temple, Tirumala, Chittoor, Andhra Pradesh, 517504, India",
            "longitude": "79.3452447",
            "latitude": "13.6841958",
            "blogLinks": [
                "https://www.tripoto.com/weekend-getaways/from-kurnool"
            ],
            "locType": "hotel"
        },
        "sharadamba": {
            "closest_to": "",
            "address": "Sharadamba Temple, 7th Main Road, Yediyur, Thyagaraja Nagar, Bengaluru, Bangalore Urban, Karnataka, 560001, India",
            "longitude": "77.5656194",
            "latitude": "12.9321898",
            "blogLinks": [
                "https://ellakavi.wordpress.com/category/ekavi-usa/page/2/"
            ],
            "locType": "place_of_worship"
        },
        "goa": {
            "closest_to": "",
            "address": "Carnival De Goa, Bhaskaran Road, Gupta Layout, Halasuru, Bengaluru, Bangalore Urban, Karnataka, 560001, India",
            "longitude": "77.6200027",
            "latitude": "12.9750047",
            "blogLinks": [
                "http://pritskulkarni.blogspot.com/2016/09/beautiful-south-goa-and-gigantic-jog.html"
            ],
            "locType": "restaurant"
        },
        "dhaba": {
            "closest_to": "",
            "address": "The Dhaba, Outer Ring Road, Ananda Nagara, Doddanekundi, Garudacharpalya, Bangalore Urban, Karnataka, 560001, India",
            "longitude": "77.7017287",
            "latitude": "12.965205",
            "blogLinks": [
                "http://pritskulkarni.blogspot.com/2016/09/beautiful-south-goa-and-gigantic-jog.html"
            ],
            "locType": "restaurant"
        },
        "mahabaleshwar": {
            "closest_to": "",
            "address": "Mahabaleshwar Temple, Mission Road (Kalinga Rao Road), Sampangirama Nagar, Shanti Nagar, Bengaluru, Bangalore Urban, Karnataka, 560001, India",
            "longitude": "77.5899443",
            "latitude": "12.962625",
            "blogLinks": [
                "https://www.tripoto.com/weekend-getaways/from-kurnool"
            ],
            "locType": "place_of_worship"
        },
        "maurya": {
            "closest_to": "",
            "address": "Hotel Maurya, 22/4, Devaraj Urs Road, Balepet, High Grounds, Bengaluru, Bangalore Urban, Karnataka, 560009, India",
            "longitude": "77.576491",
            "latitude": "12.980921",
            "blogLinks": [
                "http://www.holidayiq.com/Shimoga-Sightseeing-748.html"
            ],
            "locType": "hotel"
        },
        "andhra pradesh": {
            "closest_to": "",
            "address": "Karnataka, West Mada Street, Srivari Temple, Tirumala, Chittoor, Andhra Pradesh, 517504, India",
            "longitude": "79.3452447",
            "latitude": "13.6841958",
            "blogLinks": [
                "https://www.tripoto.com/weekend-getaways/from-kurnool"
            ],
            "locType": "hotel"
        },
        "kadamba": {
            "closest_to": "",
            "address": "Kadamba Avenue, R. Narayanapura, Brookefields, Dodsworth Enclave, Bangalore Urban, Karnataka, 560066, India",
            "longitude": "77.7436954",
            "latitude": "12.9703178",
            "blogLinks": [
                "https://ellakavi.wordpress.com/category/ekavi-usa/page/2/"
            ],
            "locType": "residential"
        },
        "sharavathi river": {
            "closest_to": "",
            "address": "Sharavathi Block, National Games Village Road, Ambedkar Nagar, Ejipura, Bengaluru, Bangalore Urban, Karnataka, 560001, India",
            "longitude": "77.6216184337102",
            "latitude": "12.9464709",
            "blogLinks": [
                "http://pritskulkarni.blogspot.com/2016/09/beautiful-south-goa-and-gigantic-jog.html",
                "http://www.nivalink.com/destination/jog-falls",
                "http://travel.india.com/jog-falls/"
            ],
            "locType": "yes"
        },
        "pampa": {
            "closest_to": "",
            "address": "Pampa Mahakavi Road, Ranasingpet, Kalasipalya, Bengaluru, Bangalore Urban, Karnataka, 560001, India",
            "longitude": "77.5719518",
            "latitude": "12.9581179",
            "blogLinks": [
                "https://www.tripoto.com/weekend-getaways/from-kurnool"
            ],
            "locType": "secondary"
        },
        "river sharavathi": {
            "closest_to": "",
            "address": "Vrishabavathi, Bengaluru, Bangalore Urban, Karnataka, 560001, India",
            "longitude": "77.5476521",
            "latitude": "12.967526",
            "blogLinks": [
                "http://www.distancesfrom.com/distance-from-Raichur-to-Jog-Falls/DistanceHistory/33170716.aspx"
            ],
            "locType": "river"
        },
        "jaipur": {
            "closest_to": "",
            "address": "Karnataka Bank, Mirza Ismail Road, Hasanpura, Bani Park, Jaipur, Rajasthan, 302006, India",
            "longitude": "75.7985653",
            "latitude": "26.91869",
            "blogLinks": [
                "http://travel.goudar.com/2011/04/ranebennur-karnataka-india-with-photos.html"
            ],
            "locType": "atm"
        },
        "brahmi": {
            "closest_to": "",
            "address": "MES Kishore Kendra, 10th Main Road, Vyalikaval, Gayatri Nagar, Bengaluru, Bangalore Urban, Karnataka, 560055, India",
            "longitude": "77.5641994467667",
            "latitude": "13.00475195",
            "blogLinks": [
                "https://ellakavi.wordpress.com/category/ekavi-usa/page/2/"
            ],
            "locType": "school"
        },
        "southern india": {
            "closest_to": "",
            "address": "Survey Of India - Southern Zone, Madivala, Bengaluru, Bangalore Urban, Karnataka, 560001, India",
            "longitude": "77.6227757667762",
            "latitude": "12.92588785",
            "blogLinks": [
                "https://ellakavi.wordpress.com/category/ekavi-usa/page/2/",
                "https://www.tripoto.com/weekend-getaways/from-kurnool"
            ],
            "locType": "commercial"
        }
    },
    "jog falls": {
        "place_id": "12596177",
        "osm_id": "1191427856",
        "icon": "https://nominatim.openstreetmap.org/images/mapicons/poi_place_village.p.20.png",
        "osm_type": "node",
        "licence": "Data \u00a9 OpenStreetMap contributors, ODbL 1.0. http://www.openstreetmap.org/copyright",
        "display_name": "Jog Falls, Joga - Kargal, Sagara taluk, Shimoga district, Karnataka, India",
        "type": "locality",
        "lon": "74.8128715",
        "boundingbox": [
            "14.2176106",
            "14.2376106",
            "74.8028715",
            "74.8228715"
        ],
        "importance": 0.66590216462374,
        "lat": "14.2276106",
        "class": "place"
    }
}