{
    "mentions": {
        "arlington theatre": {
            "blogLinks": [
                "https://www.gapyear.com/articles/216212/13-incredible-stops-on-the-pacific-coast-highway"
            ],
            "address": "Arlington Theatre, 1317, State Street, Santa Barbara, Santa Barbara County, California, 93101, United States of America",
            "longitude": -119.70696995537,
            "locType": "theatre",
            "latitude": 34.4242119,
            "closest_to": ""
        },
        "mediterranean": {
            "blogLinks": [
                "https://www.expedia.com/Catalina-Island-Hotels.d6192.Travel-Guide-Hotels"
            ],
            "address": "Mediterranean, Palm Desert, Riverside County, California, 92211, United States of America",
            "longitude": -116.3534838,
            "locType": "residential",
            "latitude": 33.7439509,
            "closest_to": ""
        },
        "pet park": {
            "blogLinks": [
                "http://www.avaloncommunities.com/california/anaheim-apartments/avalon-anaheim-stadium/pictures",
                "https://0.r.bat.bing.com/?ld=d33BJ8tC8WopaR3wDdJyQhuTVUCUw33-tiWJfPypw6i70NeKaIwik1c2aELAk_U-aV6-FO5o16Jz4GMHjCPKrI8ihKpF76NRX_JZxYdhS7aTZtB84Snwz7J2n-jRcO-UFoCPmbtKgtxVpISzki4CmFLVZuQjXHAmSARU6xWBKhbSmIC0H-&u=http%3a%2f%2fclickserve.dartsearch.net%2flink%2fclick%3flid%3d43700009597749410%26ds_s_kwgid%3d58700001037641696%26%26ds_e_adid%3d11603065445%26%26ds_url_v%3d2%26ds_dest_url%3dhttp%3a%2f%2fwww.avaloncommunities.com%2fcalifornia%2fhuntington-beach-apartments%2favalon-huntington-beach%3fmedium%3dtsa%26utm_source%3dbing%26utm_medium%3dcpc%26utm_campaign%3dBrand%2520Property%257CSearch%257CUS%26utm_term%3d%252Bavalon%2520%252Bhuntington%2520%252Bbeach%26utm_content%3dSouth%2520CA%253A%2520Avalon%2520Huntington%2520Beach"
            ],
            "address": "Presidio Pet Cemetery, SF, California, 94129, United States of America",
            "longitude": -122.467339787716,
            "locType": "cemetery",
            "latitude": 37.80252085,
            "closest_to": ""
        },
        "santa barbara": {
            "blogLinks": [
                "http://moon.com/2011/02/fun-road-trip-ideas-road-trip-the-california-coast/",
                "https://www.gapyear.com/articles/216212/13-incredible-stops-on-the-pacific-coast-highway"
            ],
            "address": "Santa Barbara, Santa Barbara County, California, United States of America",
            "longitude": -119.7026672,
            "locType": "city",
            "latitude": 34.4221319,
            "closest_to": ""
        },
        "ferndale": {
            "blogLinks": [
                "http://moon.com/2011/02/fun-road-trip-ideas-road-trip-the-california-coast/"
            ],
            "address": "Ferndale, Humboldt County, California, United States of America",
            "longitude": -124.2639441,
            "locType": "city",
            "latitude": 40.5762406,
            "closest_to": ""
        },
        "l.a.": {
            "blogLinks": [
                "http://moon.com/2011/02/fun-road-trip-ideas-road-trip-the-california-coast/"
            ],
            "address": "California, Provincia Abel Iturralde, LPZ, Bolivia",
            "longitude": -67.9369134,
            "locType": "hamlet",
            "latitude": -13.8305494,
            "closest_to": ""
        },
        "el encanto": {
            "blogLinks": [
                "http://www.visitcatalinaisland.com/blog"
            ],
            "address": "Encanto, San Diego, San Diego County, California, United States of America",
            "longitude": -117.0503062,
            "locType": "suburb",
            "latitude": 32.7119967,
            "closest_to": ""
        },
        "palm springs": {
            "blogLinks": [
                "http://www.visitnewportbeach.com/blog/day-trip-catalina-island/"
            ],
            "address": "Palm Springs, Riverside County, California, United States of America",
            "longitude": -116.5403029,
            "locType": "city",
            "latitude": 33.8246269,
            "closest_to": ""
        },
        "renton": {
            "blogLinks": [
                "http://www.visitcatalinaisland.com/blog"
            ],
            "address": "Renton Court, Almaden, San Jos\u00e9, Santa Clara County, California, 95123, United States of America",
            "longitude": -121.862853,
            "locType": "residential",
            "latitude": 37.2457114,
            "closest_to": ""
        },
        "carmel": {
            "blogLinks": [
                "http://moon.com/2011/02/fun-road-trip-ideas-road-trip-the-california-coast/"
            ],
            "address": "Carmel, Roseville, Placer County, California, 95747, United States of America",
            "longitude": -121.353308848273,
            "locType": "residential",
            "latitude": 38.75511285,
            "closest_to": ""
        },
        "cambria": {
            "blogLinks": [
                "http://moon.com/2011/02/fun-road-trip-ideas-road-trip-the-california-coast/"
            ],
            "address": "Cambria, San Luis Obispo County, California, United States of America",
            "longitude": -121.0807467,
            "locType": "administrative",
            "latitude": 35.5641381,
            "closest_to": ""
        },
        "humboldt redwoods state park": {
            "blogLinks": [
                "http://moon.com/2011/02/fun-road-trip-ideas-road-trip-the-california-coast/"
            ],
            "address": "Humboldt Redwoods State Park, Englewood, Humboldt County, California, 95569, United States of America",
            "longitude": -123.9263449,
            "locType": "residential",
            "latitude": 40.376048,
            "closest_to": ""
        },
        "pebble beach": {
            "blogLinks": [
                "http://moon.com/2011/02/fun-road-trip-ideas-road-trip-the-california-coast/"
            ],
            "address": "Pebble Beach, Monterey County, California, United States of America",
            "longitude": -121.9466112,
            "locType": "hamlet",
            "latitude": 36.5664874,
            "closest_to": ""
        },
        "pismo": {
            "blogLinks": [
                "http://moon.com/2011/02/fun-road-trip-ideas-road-trip-the-california-coast/"
            ],
            "address": "Pismo, La Paz, Baja California Sur, 23206, M\u00e9xico",
            "longitude": -110.3437034,
            "locType": "residential",
            "latitude": 24.1378257,
            "closest_to": ""
        },
        "la jolla cove": {
            "blogLinks": [
                "http://www.travelchannel.com/interests/beaches/articles/top-10-southern-california-beaches"
            ],
            "address": "La Jolla Cove, Coast Boulevard, La Jolla, San Diego, San Diego County, California, 92037, United States of America",
            "longitude": -117.273024234204,
            "locType": "beach",
            "latitude": 32.85051835,
            "closest_to": ""
        },
        "dallas": {
            "blogLinks": [
                "https://www.yelp.com.au/biz/avalon-huntington-beach-huntington-beach"
            ],
            "address": "Upper Dallas Lateral, Merced County, California, United States of America",
            "longitude": -120.6404967,
            "locType": "ditch",
            "latitude": 37.3099472,
            "closest_to": ""
        },
        "mendocino": {
            "blogLinks": [
                "http://moon.com/2011/02/fun-road-trip-ideas-road-trip-the-california-coast/"
            ],
            "address": "Mendocino County, California, United States of America",
            "longitude": -123.4126398,
            "locType": "administrative",
            "latitude": 39.3176491,
            "closest_to": ""
        },
        "monterey peninsula ca": {
            "blogLinks": [
                "http://www.california-blog.com/"
            ],
            "address": "Monterey Regional Airport, Airport Road, Seaside, Del Monte Heights, Monterey County, California, 93940, United States of America",
            "longitude": -121.843618374407,
            "locType": "aerodrome",
            "latitude": 36.5878734,
            "closest_to": ""
        },
        "west hollywood": {
            "blogLinks": [
                "https://www.audleytravel.com/usa/california/accommodation/hyatt-regency-huntington-beach-resort-and-spa"
            ],
            "address": "West Hollywood, Los Angeles County, California, United States of America",
            "longitude": -118.3617442,
            "locType": "city",
            "latitude": 34.0900091,
            "closest_to": ""
        },
        "surf city usa": {
            "blogLinks": [
                "https://www.yelp.com/biz/huntington-beach-huntington-beach"
            ],
            "address": "Surf City, Tuolumne County, California, United States of America",
            "longitude": -120.6349548,
            "locType": "rapids",
            "latitude": 37.8588436,
            "closest_to": ""
        },
        "bixby bridge": {
            "blogLinks": [
                "https://www.gapyear.com/articles/216212/13-incredible-stops-on-the-pacific-coast-highway"
            ],
            "address": "Bixby Creek Bridge, Notleys Landing, Monterey County, California, 93923, United States of America",
            "longitude": -121.9017572,
            "locType": "primary",
            "latitude": 36.3710197,
            "closest_to": ""
        },
        "downtown ventura": {
            "blogLinks": [
                "https://www.gapyear.com/articles/216212/13-incredible-stops-on-the-pacific-coast-highway"
            ],
            "address": "Downtown Johnny's, 14649, Ventura Boulevard, Sherman Oaks, LA, Los Angeles County, California, 91403, United States of America",
            "longitude": -118.452523182928,
            "locType": "restaurant",
            "latitude": 34.15184445,
            "closest_to": ""
        },
        "fort bragg": {
            "blogLinks": [
                "http://moon.com/2011/02/fun-road-trip-ideas-road-trip-the-california-coast/"
            ],
            "address": "Fort Bragg, Mendocino County, California, United States of America",
            "longitude": -123.802699105743,
            "locType": "city",
            "latitude": 39.4447345,
            "closest_to": ""
        },
        "lombard street": {
            "blogLinks": [
                "https://www.gapyear.com/articles/216212/13-incredible-stops-on-the-pacific-coast-highway"
            ],
            "address": "1079, Lombard Street, Russian Hill, SF, California, 94109, United States of America",
            "longitude": -122.418809,
            "locType": "residential",
            "latitude": 37.802076,
            "closest_to": ""
        },
        "santa monica pier": {
            "blogLinks": [
                "https://www.gapyear.com/articles/216212/13-incredible-stops-on-the-pacific-coast-highway",
                "http://www.travelchannel.com/interests/beaches/articles/top-10-southern-california-beaches"
            ],
            "address": "Santa Monica Pier, Santa Monica, Los Angeles County, California, CA 90401, United States of America",
            "longitude": -118.4960541,
            "locType": "service",
            "latitude": 34.0104809,
            "closest_to": ""
        },
        "malibu pier": {
            "blogLinks": [
                "http://moon.com/2011/02/fun-road-trip-ideas-road-trip-the-california-coast/"
            ],
            "address": "Malibu Pier, Pacific Coast Highway, Malibu, Los Angeles County, California, 90265, United States of America",
            "longitude": -118.676144945982,
            "locType": "pier",
            "latitude": 34.0364323,
            "closest_to": ""
        },
        "venice beach": {
            "blogLinks": [
                "https://www.yelp.com/biz/huntington-beach-huntington-beach",
                "http://www.travelchannel.com/interests/beaches/articles/top-10-southern-california-beaches"
            ],
            "address": "Venice Beach, Venice Beach Bike Path, Venice, LA, Los Angeles County, California, 90405, United States of America",
            "longitude": -118.4739815,
            "locType": "police",
            "latitude": 33.9862012,
            "closest_to": ""
        },
        "moreno valley ca": {
            "blogLinks": [
                "http://www.california-blog.com/"
            ],
            "address": "Moreno Valley, Riverside County, California, United States of America",
            "longitude": -117.2305943,
            "locType": "city",
            "latitude": 33.937517,
            "closest_to": ""
        },
        "california": {
            "blogLinks": [
                "http://moon.com/2011/02/fun-road-trip-ideas-road-trip-the-california-coast/",
                "https://www.yelp.com/biz/huntington-beach-huntington-beach",
                "https://www.gapyear.com/articles/216212/13-incredible-stops-on-the-pacific-coast-highway",
                "http://www.california-blog.com/",
                "http://www.beach.com/travel-guide-huntington-beach-california-usa-guide",
                "http://www.visitcatalinaisland.com/blog",
                "https://www.audleytravel.com/usa/california/accommodation/hyatt-regency-huntington-beach-resort-and-spa",
                "http://www.losangeles.com/places/catalina-express-round-trip-ferry-service-long-beach-or-san-pedro-to-avalon",
                "http://www.travelchannel.com/interests/beaches/articles/top-10-southern-california-beaches"
            ],
            "address": "California, Santander, Colombia",
            "longitude": -72.945787,
            "locType": "village",
            "latitude": 7.3480915,
            "closest_to": ""
        },
        "ventana": {
            "blogLinks": [
                "http://moon.com/2011/02/fun-road-trip-ideas-road-trip-the-california-coast/"
            ],
            "address": "Ventana, Morgan Hill, Riverside County, California, 92592, United States of America",
            "longitude": -117.0594043,
            "locType": "residential",
            "latitude": 33.4767484,
            "closest_to": ""
        },
        "ocean beach": {
            "blogLinks": [
                "http://moon.com/2011/02/fun-road-trip-ideas-road-trip-the-california-coast/"
            ],
            "address": "Ocean Beach, San Diego, San Diego County, California, United States of America",
            "longitude": -117.249321,
            "locType": "region",
            "latitude": 32.7477784,
            "closest_to": ""
        },
        "ventura": {
            "blogLinks": [
                "http://moon.com/2011/02/fun-road-trip-ideas-road-trip-the-california-coast/",
                "https://www.gapyear.com/articles/216212/13-incredible-stops-on-the-pacific-coast-highway"
            ],
            "address": "Ventura County, California, United States of America",
            "longitude": -119.0779358,
            "locType": "administrative",
            "latitude": 34.4458248,
            "closest_to": ""
        },
        "palomar": {
            "blogLinks": [
                "https://www.gapyear.com/articles/216212/13-incredible-stops-on-the-pacific-coast-highway"
            ],
            "address": "Palomar, Calzada Maestros Misioneros de 1930, Santiago, Los Cabos, Baja California Sur, M\u00e9xico",
            "longitude": -109.715262801301,
            "locType": "hotel",
            "latitude": 23.48019285,
            "closest_to": ""
        },
        "golden gate bridge": {
            "blogLinks": [
                "http://moon.com/2011/02/fun-road-trip-ideas-road-trip-the-california-coast/"
            ],
            "address": "Golden Gate Bridge, Waldo, Marin County, California, 94965, United States of America",
            "longitude": -122.4798473,
            "locType": "motorway",
            "latitude": 37.8302809,
            "closest_to": ""
        },
        "prairie creek redwoods state park": {
            "blogLinks": [
                "http://moon.com/2011/02/fun-road-trip-ideas-road-trip-the-california-coast/"
            ],
            "address": "Prairie Creek Redwoods State Park, West Ridge Trail, Humboldt County, California, United States of America",
            "longitude": -124.036052276854,
            "locType": "national_park",
            "latitude": 41.40951025,
            "closest_to": ""
        },
        "monterey bay": {
            "blogLinks": [
                "https://www.gapyear.com/articles/216212/13-incredible-stops-on-the-pacific-coast-highway"
            ],
            "address": "Monterey Bay, Monterey County, California, United States of America",
            "longitude": -121.9010667,
            "locType": "bay",
            "latitude": 36.7999557,
            "closest_to": ""
        },
        "islay hill": {
            "blogLinks": [
                "https://www.gapyear.com/articles/216212/13-incredible-stops-on-the-pacific-coast-highway"
            ],
            "address": "Islay Hill, San Luis Obispo, San Luis Obispo County, California, United States of America",
            "longitude": -120.622392,
            "locType": "peak",
            "latitude": 35.2455305,
            "closest_to": ""
        },
        "monterey bay aquarium ca": {
            "blogLinks": [
                "http://www.california-blog.com/"
            ],
            "address": "MBA, 886, Cannery Row, Monterey, Monterey County, California, 93940, United States of America",
            "longitude": -121.901680002002,
            "locType": "aquarium",
            "latitude": 36.61809095,
            "closest_to": ""
        },
        "kern river": {
            "blogLinks": [
                "http://www.california-blog.com/"
            ],
            "address": "Kern River, Tulare County, California, United States of America",
            "longitude": -118.4124188,
            "locType": "river",
            "latitude": 36.6816956,
            "closest_to": ""
        },
        "alcatraz island": {
            "blogLinks": [
                "https://www.gapyear.com/articles/216212/13-incredible-stops-on-the-pacific-coast-highway"
            ],
            "address": "Alcatraz Island, SF, California, United States of America",
            "longitude": -122.422746492409,
            "locType": "island",
            "latitude": 37.8267283,
            "closest_to": ""
        },
        "america": {
            "blogLinks": [
                "http://www.visitcatalinaisland.com/blog"
            ],
            "address": "America, Kings County, California, 93246, United States of America",
            "longitude": -119.8948706,
            "locType": "residential",
            "latitude": 36.2573198,
            "closest_to": ""
        },
        "mono lake ca": {
            "blogLinks": [
                "http://www.california-blog.com/"
            ],
            "address": "Mono Lake, Mono County, California, United States of America",
            "longitude": -118.967033937845,
            "locType": "water",
            "latitude": 38.0077189,
            "closest_to": ""
        },
        "pasadena": {
            "blogLinks": [
                "http://www.visitcatalinaisland.com/blog"
            ],
            "address": "Pasadena, Los Angeles County, California, United States of America",
            "longitude": -118.1444778,
            "locType": "city",
            "latitude": 34.1476452,
            "closest_to": ""
        },
        "santa cruz beach boardwalk": {
            "blogLinks": [
                "http://moon.com/2011/02/fun-road-trip-ideas-road-trip-the-california-coast/",
                "https://www.gapyear.com/articles/216212/13-incredible-stops-on-the-pacific-coast-highway"
            ],
            "address": "Santa Cruz Beach Boardwalk, Boardwalk, Beach & Boardwalk District (Commercial), Seabright, Santa Cruz, Santa Cruz County, California, 1982, United States of America",
            "longitude": -122.016027247326,
            "locType": "attraction",
            "latitude": 36.96446855,
            "closest_to": ""
        },
        "old town san diego": {
            "blogLinks": [
                "http://www.california-blog.com/"
            ],
            "address": "Old Town San Diego, San Diego County, California, United States of America",
            "longitude": -117.1969792,
            "locType": "hamlet",
            "latitude": 32.7542167,
            "closest_to": ""
        },
        "oxnard": {
            "blogLinks": [
                "http://moon.com/2011/02/fun-road-trip-ideas-road-trip-the-california-coast/",
                "https://www.gapyear.com/articles/216212/13-incredible-stops-on-the-pacific-coast-highway"
            ],
            "address": "Oxnard, Ventura County, California, United States of America",
            "longitude": -119.1803817,
            "locType": "city",
            "latitude": 34.1976308,
            "closest_to": ""
        },
        "las vegas": {
            "blogLinks": [
                "http://www.california-blog.com/",
                "http://www.visitnewportbeach.com/blog/day-trip-catalina-island/"
            ],
            "address": "California Hotel, Sky Walk(Connection from Main Street to California, Cultural Corridor, Vegas Heights, Las Vegas, Clark County, Nevada, 89101, United States of America",
            "longitude": -115.144667930325,
            "locType": "hotel",
            "latitude": 36.17310935,
            "closest_to": ""
        },
        "pierpont bay": {
            "blogLinks": [
                "http://moon.com/2011/02/fun-road-trip-ideas-road-trip-the-california-coast/"
            ],
            "address": "Pierpont Bay, Ventura County, California, United States of America",
            "longitude": -119.2692775,
            "locType": "hamlet",
            "latitude": 34.2597255,
            "closest_to": ""
        },
        "tomales bay": {
            "blogLinks": [
                "http://moon.com/2011/02/fun-road-trip-ideas-road-trip-the-california-coast/"
            ],
            "address": "Tomales Bay, Bivalve, Marin County, California, 94948, United States of America",
            "longitude": -122.8225806,
            "locType": "path",
            "latitude": 38.0812158,
            "closest_to": ""
        },
        "hollywood": {
            "blogLinks": [
                "https://www.gapyear.com/articles/216212/13-incredible-stops-on-the-pacific-coast-highway",
                "http://www.beach.com/travel-guide-huntington-beach-california-usa-guide"
            ],
            "address": "Hollywood, LA, Los Angeles County, California, United States of America",
            "longitude": -118.3299898,
            "locType": "suburb",
            "latitude": 34.1028268,
            "closest_to": ""
        },
        "bodega bay": {
            "blogLinks": [
                "http://moon.com/2011/02/fun-road-trip-ideas-road-trip-the-california-coast/"
            ],
            "address": "Bodega Bay, Estero Lane, Bodega Bay, Sonoma County, California, United States of America",
            "longitude": -123.0061117,
            "locType": "bay",
            "latitude": 38.273529,
            "closest_to": ""
        },
        "chicago": {
            "blogLinks": [
                "http://www.visitcatalinaisland.com/blog",
                "https://www.yelp.com/biz/huntington-beach-huntington-beach"
            ],
            "address": "Chicago, Woodstock, Alameda, Alameda County, California, 94501, United States of America",
            "longitude": -122.2872948,
            "locType": "residential",
            "latitude": 37.7850531,
            "closest_to": ""
        },
        "ojai valley": {
            "blogLinks": [
                "http://www.california-blog.com/"
            ],
            "address": "Ojai, Ventura County, California, United States of America",
            "longitude": -119.2428889,
            "locType": "city",
            "latitude": 34.4480495,
            "closest_to": ""
        },
        "half moon bay": {
            "blogLinks": [
                "http://moon.com/2011/02/fun-road-trip-ideas-road-trip-the-california-coast/",
                "https://www.gapyear.com/articles/216212/13-incredible-stops-on-the-pacific-coast-highway"
            ],
            "address": "Half Moon Bay, San Mateo County, California, United States of America",
            "longitude": -122.4285861,
            "locType": "city",
            "latitude": 37.4635519,
            "closest_to": ""
        },
        "north beach": {
            "blogLinks": [
                "http://www.travelchannel.com/interests/beaches/articles/top-10-southern-california-beaches"
            ],
            "address": "North Beach, SF, California, 94133, United States of America",
            "longitude": -122.409002,
            "locType": "neighbourhood",
            "latitude": 37.8011749,
            "closest_to": ""
        },
        "gaviota state park": {
            "blogLinks": [
                "http://moon.com/2011/02/fun-road-trip-ideas-road-trip-the-california-coast/"
            ],
            "address": "Gaviota State Park, San Julian Road, Las Cruces, Santa Barbara County, California, United States of America",
            "longitude": -120.23689175403,
            "locType": "park",
            "latitude": 34.51187925,
            "closest_to": ""
        },
        "monterey bay aquarium": {
            "blogLinks": [
                "http://moon.com/2011/02/fun-road-trip-ideas-road-trip-the-california-coast/",
                "https://www.gapyear.com/articles/216212/13-incredible-stops-on-the-pacific-coast-highway"
            ],
            "address": "MBA, 886, Cannery Row, Monterey, Monterey County, California, 93940, United States of America",
            "longitude": -121.901680002002,
            "locType": "aquarium",
            "latitude": 36.61809095,
            "closest_to": ""
        },
        "hog island oyster company": {
            "blogLinks": [
                "http://moon.com/2011/02/fun-road-trip-ideas-road-trip-the-california-coast/"
            ],
            "address": "Hog Island Oyster Company, Gate B, Financial District, SF, California, 94111, United States of America",
            "longitude": -122.3936028,
            "locType": "restaurant",
            "latitude": 37.7960191,
            "closest_to": ""
        },
        "mount san gorgonio ca": {
            "blogLinks": [
                "http://www.california-blog.com/"
            ],
            "address": "San Gorgonio Avenue, Banning, Riverside County, California, 92220, United States of America",
            "longitude": -116.8766731,
            "locType": "secondary",
            "latitude": 33.9121294,
            "closest_to": ""
        },
        "east beach": {
            "blogLinks": [
                "https://www.gapyear.com/articles/216212/13-incredible-stops-on-the-pacific-coast-highway"
            ],
            "address": "East Beach, Mason Street, Presidio Heights, SF, California, 94129, United States of America",
            "longitude": -122.452368017781,
            "locType": "beach",
            "latitude": 37.8061771,
            "closest_to": ""
        },
        "island plaza": {
            "blogLinks": [
                "http://www.visitcatalinaisland.com/blog"
            ],
            "address": "Island Place, Redwood City, San Mateo County, California, 94065, United States of America",
            "longitude": -122.2538252,
            "locType": "residential",
            "latitude": 37.5334362,
            "closest_to": ""
        },
        "carmel-by-the-sea": {
            "blogLinks": [
                "https://www.gapyear.com/articles/216212/13-incredible-stops-on-the-pacific-coast-highway"
            ],
            "address": "Carmel-by-the-Sea, Monterey County, California, United States of America",
            "longitude": -121.9232878,
            "locType": "city",
            "latitude": 36.5552387,
            "closest_to": ""
        },
        "bella terra": {
            "blogLinks": [
                "http://www.beach.com/travel-guide-huntington-beach-california-usa-guide",
                "http://www.visitcatalinaisland.com/blog",
                "https://0.r.bat.bing.com/?ld=d33BJ8tC8WopaR3wDdJyQhuTVUCUw33-tiWJfPypw6i70NeKaIwik1c2aELAk_U-aV6-FO5o16Jz4GMHjCPKrI8ihKpF76NRX_JZxYdhS7aTZtB84Snwz7J2n-jRcO-UFoCPmbtKgtxVpISzki4CmFLVZuQjXHAmSARU6xWBKhbSmIC0H-&u=http%3a%2f%2fclickserve.dartsearch.net%2flink%2fclick%3flid%3d43700009597749410%26ds_s_kwgid%3d58700001037641696%26%26ds_e_adid%3d11603065445%26%26ds_url_v%3d2%26ds_dest_url%3dhttp%3a%2f%2fwww.avaloncommunities.com%2fcalifornia%2fhuntington-beach-apartments%2favalon-huntington-beach%3fmedium%3dtsa%26utm_source%3dbing%26utm_medium%3dcpc%26utm_campaign%3dBrand%2520Property%257CSearch%257CUS%26utm_term%3d%252Bavalon%2520%252Bhuntington%2520%252Bbeach%26utm_content%3dSouth%2520CA%253A%2520Avalon%2520Huntington%2520Beach"
            ],
            "address": "Bella Terra, Roseville, Placer County, California, 95747, United States of America",
            "longitude": -121.372903428714,
            "locType": "residential",
            "latitude": 38.7823814,
            "closest_to": ""
        },
        "ano nuevo state park": {
            "blogLinks": [
                "https://www.gapyear.com/articles/216212/13-incredible-stops-on-the-pacific-coast-highway"
            ],
            "address": "A\u00f1o Nuevo State Park, White House Canyon Road, San Mateo County, California, United States of America",
            "longitude": -122.328030779329,
            "locType": "park",
            "latitude": 37.1642859,
            "closest_to": ""
        },
        "morongo valley": {
            "blogLinks": [
                "http://www.california-blog.com/"
            ],
            "address": "Morongo Valley, Vista Drive, Morongo Valley, San Bernardino County, California, 92256, United States of America",
            "longitude": -116.596723958419,
            "locType": "administrative",
            "latitude": 34.0537585,
            "closest_to": ""
        },
        "sea ranch": {
            "blogLinks": [
                "http://moon.com/2011/02/fun-road-trip-ideas-road-trip-the-california-coast/"
            ],
            "address": "Sea Ranch, Sonoma County, California, United States of America",
            "longitude": -123.4544531,
            "locType": "hamlet",
            "latitude": 38.7151899,
            "closest_to": ""
        },
        "yosemite national park": {
            "blogLinks": [
                "https://www.gapyear.com/articles/216212/13-incredible-stops-on-the-pacific-coast-highway"
            ],
            "address": "Yosemite National Park, Mt. Hoffmann Trail, Mariposa County, California, United States of America",
            "longitude": -119.516587698025,
            "locType": "national_park",
            "latitude": 37.84054795,
            "closest_to": ""
        },
        "napa valley ca": {
            "blogLinks": [
                "http://www.california-blog.com/"
            ],
            "address": "California Boulevard, Napa, Napa County, California, 94558, United States of America",
            "longitude": -122.3002947,
            "locType": "secondary",
            "latitude": 38.2972603,
            "closest_to": ""
        },
        "santa monica": {
            "blogLinks": [
                "http://moon.com/2011/02/fun-road-trip-ideas-road-trip-the-california-coast/",
                "https://www.gapyear.com/articles/216212/13-incredible-stops-on-the-pacific-coast-highway"
            ],
            "address": "Santa Monica, Los Angeles County, California, United States of America",
            "longitude": -118.4869738,
            "locType": "city",
            "latitude": 34.0195598,
            "closest_to": ""
        },
        "mattole road": {
            "blogLinks": [
                "http://moon.com/2011/02/fun-road-trip-ideas-road-trip-the-california-coast/"
            ],
            "address": "Mattole Road, Humboldt County, California, 95558, United States of America",
            "longitude": -124.3616759,
            "locType": "secondary",
            "latitude": 40.361367,
            "closest_to": ""
        },
        "dog beach": {
            "blogLinks": [
                "http://www.beach.com/travel-guide-huntington-beach-california-usa-guide",
                "http://www.travelchannel.com/interests/beaches/articles/top-10-southern-california-beaches"
            ],
            "address": "Dog Beach, Ocean Beach Bike Path, Pacific Beach, San Diego, San Diego County, California, 92109, United States of America",
            "longitude": -117.2529536,
            "locType": "beach",
            "latitude": 32.7552506,
            "closest_to": ""
        },
        "la": {
            "blogLinks": [
                "http://www.avaloncommunities.com/california/anaheim-apartments/avalon-anaheim-stadium/pictures",
                "https://www.yelp.com.au/biz/avalon-huntington-beach-huntington-beach"
            ],
            "address": "California, United States of America",
            "longitude": -118.7559973,
            "locType": "administrative",
            "latitude": 36.7014631,
            "closest_to": ""
        },
        "hamilton cove": {
            "blogLinks": [
                "http://www.visitcatalinaisland.com/blog"
            ],
            "address": "Adobe Systems, 601, Townsend Street, West SoMa, SF, California, 94103, United States of America",
            "longitude": -122.401661599629,
            "locType": "company",
            "latitude": 37.77113725,
            "closest_to": ""
        },
        "vancouver": {
            "blogLinks": [
                "http://moon.com/2011/02/fun-road-trip-ideas-road-trip-the-california-coast/"
            ],
            "address": "Vancouver, San Bernardino County, California, United States of America",
            "longitude": -117.4634669,
            "locType": "residential",
            "latitude": 34.824773,
            "closest_to": ""
        },
        "wilder ranch state park": {
            "blogLinks": [
                "https://www.gapyear.com/articles/216212/13-incredible-stops-on-the-pacific-coast-highway"
            ],
            "address": "Wilder Ranch State Park, Coast Road, Westside, Santa Cruz County, California, 95060, United States of America",
            "longitude": -122.079566815934,
            "locType": "park",
            "latitude": 36.96021805,
            "closest_to": ""
        },
        "san francisco": {
            "blogLinks": [
                "http://moon.com/2011/02/fun-road-trip-ideas-road-trip-the-california-coast/",
                "https://www.gapyear.com/articles/216212/13-incredible-stops-on-the-pacific-coast-highway"
            ],
            "address": "SF, California, United States of America",
            "longitude": -122.4192362,
            "locType": "city",
            "latitude": 37.7792808,
            "closest_to": ""
        },
        "big sur": {
            "blogLinks": [
                "http://moon.com/2011/02/fun-road-trip-ideas-road-trip-the-california-coast/"
            ],
            "address": "Big Sur, Monterey County, California, United States of America",
            "longitude": -121.8074544,
            "locType": "village",
            "latitude": 36.270241,
            "closest_to": ""
        },
        "laguna": {
            "blogLinks": [
                "http://www.travelchannel.com/interests/beaches/articles/top-10-southern-california-beaches"
            ],
            "address": "Laguna, Sacramento County, California, United States of America",
            "longitude": -121.4238413,
            "locType": "hamlet",
            "latitude": 38.4210209,
            "closest_to": ""
        },
        "santa monica beach": {
            "blogLinks": [
                "https://www.audleytravel.com/usa/california/accommodation/hyatt-regency-huntington-beach-resort-and-spa"
            ],
            "address": "Santa Monica Drive, Channel Islands Beach, Ventura County, California, 93035, United States of America",
            "longitude": -119.2203179,
            "locType": "residential",
            "latitude": 34.159111,
            "closest_to": ""
        },
        "us": {
            "blogLinks": [
                "https://www.expedia.com/Catalina-Island-Hotels.d6192.Travel-Guide-Hotels"
            ],
            "address": "California, United States of America",
            "longitude": -118.7559973,
            "locType": "administrative",
            "latitude": 36.7014631,
            "closest_to": ""
        },
        "lolo": {
            "blogLinks": [
                "http://www.visitcatalinaisland.com/blog"
            ],
            "address": "Lol\u00f3, 974, Valencia Street, Mission District, SF, California, 94110, United States of America",
            "longitude": -122.4212942,
            "locType": "restaurant",
            "latitude": 37.7570702,
            "closest_to": ""
        },
        "pacific ocean": {
            "blogLinks": [
                "http://moon.com/2011/02/fun-road-trip-ideas-road-trip-the-california-coast/",
                "http://www.visitcatalinaisland.com/blog",
                "https://www.audleytravel.com/usa/california/accommodation/hyatt-regency-huntington-beach-resort-and-spa",
                "http://www.losangeles.com/places/catalina-express-round-trip-ferry-service-long-beach-or-san-pedro-to-avalon"
            ],
            "address": "Pacific Ocean, Cabrillo Highway, Monterey County, California, 93920, United States of America",
            "longitude": -121.678715787326,
            "locType": "cliff",
            "latitude": 36.16305775,
            "closest_to": ""
        },
        "morro bay ca": {
            "blogLinks": [
                "http://www.california-blog.com/"
            ],
            "address": "Morro Bay, San Luis Obispo County, California, United States of America",
            "longitude": -120.8499012,
            "locType": "city",
            "latitude": 35.3658075,
            "closest_to": ""
        },
        "ventana inn": {
            "blogLinks": [
                "http://moon.com/2011/02/fun-road-trip-ideas-road-trip-the-california-coast/"
            ],
            "address": "The Restaurant at Ventana, Coast Ridge Road, Posts, Monterey County, California, United States of America",
            "longitude": -121.759462751273,
            "locType": "restaurant",
            "latitude": 36.2269124,
            "closest_to": ""
        },
        "buena vista park": {
            "blogLinks": [
                "http://www.visitcatalinaisland.com/blog"
            ],
            "address": "Buena Vista Park, Los Coche Adobe, Soledad, Monterey County, California, 93960, United States of America",
            "longitude": -121.3212231,
            "locType": "residential",
            "latitude": 36.4255022,
            "closest_to": ""
        },
        "lobero theatre": {
            "blogLinks": [
                "https://www.gapyear.com/articles/216212/13-incredible-stops-on-the-pacific-coast-highway"
            ],
            "address": "Lobero Theatre, Anacapa Street, Santa Barbara, Santa Barbara County, California, 93105, United States of America",
            "longitude": -119.700020768116,
            "locType": "theatre",
            "latitude": 34.4216681,
            "closest_to": ""
        },
        "venice": {
            "blogLinks": [
                "http://moon.com/2011/02/fun-road-trip-ideas-road-trip-the-california-coast/"
            ],
            "address": "Venice, LA, Los Angeles County, California, United States of America",
            "longitude": -118.4668874,
            "locType": "suburb",
            "latitude": 33.995044,
            "closest_to": ""
        },
        "morro rock ca": {
            "blogLinks": [
                "http://www.california-blog.com/"
            ],
            "address": "Morro Rock, Morro Bay, San Luis Obispo County, California, United States of America",
            "longitude": -120.8676993,
            "locType": "peak",
            "latitude": 35.369669,
            "closest_to": ""
        },
        "mount baldy ca": {
            "blogLinks": [
                "http://www.california-blog.com/"
            ],
            "address": "Mount Baldy, Los Angeles County, California, United States of America",
            "longitude": -117.6600552,
            "locType": "hamlet",
            "latitude": 34.2361168,
            "closest_to": ""
        },
        "hawaii": {
            "blogLinks": [
                "https://www.yelp.com/biz/huntington-beach-huntington-beach"
            ],
            "address": "Hawaii, Fresno County, California, 93650, United States of America",
            "longitude": -119.7966952,
            "locType": "service",
            "latitude": 36.8347819,
            "closest_to": ""
        },
        "san jose": {
            "blogLinks": [
                "http://moon.com/2011/02/fun-road-trip-ideas-road-trip-the-california-coast/",
                "https://www.gapyear.com/articles/216212/13-incredible-stops-on-the-pacific-coast-highway",
                "http://www.visitcatalinaisland.com/blog"
            ],
            "address": "San Jos\u00e9, Santa Clara County, California, United States of America",
            "longitude": -121.8905832,
            "locType": "city",
            "latitude": 37.3361905,
            "closest_to": ""
        },
        "san simeon": {
            "blogLinks": [
                "http://moon.com/2011/02/fun-road-trip-ideas-road-trip-the-california-coast/",
                "https://www.gapyear.com/articles/216212/13-incredible-stops-on-the-pacific-coast-highway"
            ],
            "address": "San Simeon, San Luis Obispo County, California, United States of America",
            "longitude": -121.1907532,
            "locType": "hamlet",
            "latitude": 35.6438587,
            "closest_to": ""
        },
        "bubblegum alley": {
            "blogLinks": [
                "https://www.gapyear.com/articles/216212/13-incredible-stops-on-the-pacific-coast-highway"
            ],
            "address": "Bubblegum Alley, San Luis Obispo, San Luis Obispo County, California, 93405, United States of America",
            "longitude": -120.6638629,
            "locType": "attraction",
            "latitude": 35.2791663,
            "closest_to": ""
        },
        "malibu lagoon state beach": {
            "blogLinks": [
                "http://moon.com/2011/02/fun-road-trip-ideas-road-trip-the-california-coast/"
            ],
            "address": "Malibu Lagoon State Beach, Pacific Coast Highway, Malibu, Los Angeles County, California, 90265, United States of America",
            "longitude": -118.679064060789,
            "locType": "beach",
            "latitude": 34.03385755,
            "closest_to": ""
        },
        "monterey": {
            "blogLinks": [
                "http://moon.com/2011/02/fun-road-trip-ideas-road-trip-the-california-coast/",
                "https://www.gapyear.com/articles/216212/13-incredible-stops-on-the-pacific-coast-highway"
            ],
            "address": "Monterey, Monterey County, California, United States of America",
            "longitude": -121.866792846206,
            "locType": "city",
            "latitude": 36.5844165,
            "closest_to": ""
        },
        "old town": {
            "blogLinks": [
                "https://www.gapyear.com/articles/216212/13-incredible-stops-on-the-pacific-coast-highway"
            ],
            "address": "Old Town, Golden Hills, Kern County, California, United States of America",
            "longitude": -118.4954422,
            "locType": "locality",
            "latitude": 35.142943,
            "closest_to": ""
        },
        "riverside national cemetery": {
            "blogLinks": [
                "http://www.california-blog.com/"
            ],
            "address": "Riverside National Cemetery, 22495, Alessandro, Riverside County, California, 92518, United States of America",
            "longitude": -117.270726607134,
            "locType": "cemetery",
            "latitude": 33.87692125,
            "closest_to": ""
        },
        "england": {
            "blogLinks": [
                "http://www.visitcatalinaisland.com/blog"
            ],
            "address": "California, Birmingham, West Midlands, England, UK",
            "longitude": -1.9796882,
            "locType": "village",
            "latitude": 52.4422729,
            "closest_to": ""
        },
        "stinson beach": {
            "blogLinks": [
                "http://moon.com/2011/02/fun-road-trip-ideas-road-trip-the-california-coast/"
            ],
            "address": "Stinson Beach, Marin County, California, United States of America",
            "longitude": -122.64508,
            "locType": "hamlet",
            "latitude": 37.9008084,
            "closest_to": ""
        },
        "sunset boulevard": {
            "blogLinks": [
                "https://www.gapyear.com/articles/216212/13-incredible-stops-on-the-pacific-coast-highway"
            ],
            "address": "Sunset Boulevard, Echo Park, Angelino Heights, LA, Los Angeles County, California, 90026, United States of America",
            "longitude": -118.2554183,
            "locType": "primary",
            "latitude": 34.0759222,
            "closest_to": ""
        },
        "davenport": {
            "blogLinks": [
                "http://moon.com/2011/02/fun-road-trip-ideas-road-trip-the-california-coast/"
            ],
            "address": "Davenport, Santa Cruz County, California, United States of America",
            "longitude": -122.1919133,
            "locType": "village",
            "latitude": 37.0116166,
            "closest_to": ""
        },
        "san diego bay": {
            "blogLinks": [
                "https://www.gapyear.com/articles/216212/13-incredible-stops-on-the-pacific-coast-highway"
            ],
            "address": "San Diego Bay, Leyte Road, Crown Island, Coronado, San Diego County, California, 92118, United States of America",
            "longitude": -117.1341977,
            "locType": "bay",
            "latitude": 32.6500534,
            "closest_to": ""
        },
        "washington": {
            "blogLinks": [
                "http://moon.com/2011/02/fun-road-trip-ideas-road-trip-the-california-coast/"
            ],
            "address": "California, Washington County, Pennsylvania, United States of America",
            "longitude": -79.8918435,
            "locType": "administrative",
            "latitude": 40.0657724,
            "closest_to": ""
        },
        "santa cruz": {
            "blogLinks": [
                "http://moon.com/2011/02/fun-road-trip-ideas-road-trip-the-california-coast/",
                "https://www.gapyear.com/articles/216212/13-incredible-stops-on-the-pacific-coast-highway"
            ],
            "address": "Santa Cruz, Santa Cruz County, California, United States of America",
            "longitude": -122.0260569,
            "locType": "city",
            "latitude": 36.9735903,
            "closest_to": ""
        },
        "rodeo drive": {
            "blogLinks": [
                "https://www.gapyear.com/articles/216212/13-incredible-stops-on-the-pacific-coast-highway"
            ],
            "address": "Rodeo Drive, La Jolla, San Diego, San Diego County, California, 92037, United States of America",
            "longitude": -117.2609329,
            "locType": "residential",
            "latitude": 32.824444,
            "closest_to": ""
        },
        "hermosa": {
            "blogLinks": [
                "http://moon.com/2011/02/fun-road-trip-ideas-road-trip-the-california-coast/"
            ],
            "address": "Hermosa, Pittsburg, Contra Costa County, California, 94565, United States of America",
            "longitude": -121.8724176,
            "locType": "residential",
            "latitude": 38.0172961,
            "closest_to": ""
        },
        "mission beach": {
            "blogLinks": [
                "https://www.gapyear.com/articles/216212/13-incredible-stops-on-the-pacific-coast-highway"
            ],
            "address": "Mission Beach, San Diego County, California, United States of America",
            "longitude": -117.2525056,
            "locType": "hamlet",
            "latitude": 32.7827144,
            "closest_to": ""
        },
        "palm springs air museum ca": {
            "blogLinks": [
                "http://www.california-blog.com/"
            ],
            "address": "Palm Springs Air Museum, 745, North Gene Autry Trail, Palm Springs, Riverside County, California, 92262, United States of America",
            "longitude": -116.504677958796,
            "locType": "museum",
            "latitude": 33.83250375,
            "closest_to": ""
        },
        "u.s.": {
            "blogLinks": [
                "http://moon.com/2011/02/fun-road-trip-ideas-road-trip-the-california-coast/"
            ],
            "address": "La California, Municipio de Las Rosas, Departamento Belgrano, Sta. Fe, Argentina",
            "longitude": -61.5489543,
            "locType": "hamlet",
            "latitude": -32.5446226,
            "closest_to": ""
        },
        "lompoc": {
            "blogLinks": [
                "http://moon.com/2011/02/fun-road-trip-ideas-road-trip-the-california-coast/"
            ],
            "address": "Lompoc, Santa Barbara County, California, United States of America",
            "longitude": -120.4579408,
            "locType": "city",
            "latitude": 34.6391501,
            "closest_to": ""
        },
        "point sur state historic park": {
            "blogLinks": [
                "https://www.gapyear.com/articles/216212/13-incredible-stops-on-the-pacific-coast-highway"
            ],
            "address": "Point Sur State Historic Park, Cabrillo Highway, Big Sur, Monterey County, California, 93923, United States of America",
            "longitude": -121.881955510784,
            "locType": "park",
            "latitude": 36.315378,
            "closest_to": ""
        },
        "mount san jacinto ca": {
            "blogLinks": [
                "http://www.california-blog.com/"
            ],
            "address": "San Jacinto, Riverside County, California, United States of America",
            "longitude": -116.9586349,
            "locType": "city",
            "latitude": 33.7839084,
            "closest_to": ""
        },
        "monrovia": {
            "blogLinks": [
                "http://www.california-blog.com/"
            ],
            "address": "Monrovia, Los Angeles County, California, United States of America",
            "longitude": -118.0014516,
            "locType": "city",
            "latitude": 34.1483499,
            "closest_to": ""
        },
        "west coast": {
            "blogLinks": [
                "https://www.gapyear.com/articles/216212/13-incredible-stops-on-the-pacific-coast-highway"
            ],
            "address": "West Coast, Motor Avenue, Palms, LA, Los Angeles County, California, 90034-5702, United States of America",
            "longitude": -118.4051087,
            "locType": "plumber",
            "latitude": 34.0222263,
            "closest_to": ""
        },
        "muir beach": {
            "blogLinks": [
                "http://moon.com/2011/02/fun-road-trip-ideas-road-trip-the-california-coast/"
            ],
            "address": "Muir Beach, Marin County, California, United States of America",
            "longitude": -122.5813666,
            "locType": "hamlet",
            "latitude": 37.8621493,
            "closest_to": ""
        },
        "huntington": {
            "blogLinks": [
                "https://www.yelp.com/biz/huntington-beach-huntington-beach"
            ],
            "address": "Huntington, Roseville, Placer County, California, 95678, United States of America",
            "longitude": -121.295904358288,
            "locType": "residential",
            "latitude": 38.77704615,
            "closest_to": ""
        },
        "mount palomar ca": {
            "blogLinks": [
                "http://www.california-blog.com/"
            ],
            "address": "California Bank & Trust, 2501, Palomar Airport Road, Carlsbad, San Diego County, California, 92011, United States of America",
            "longitude": -117.270809764613,
            "locType": "bank",
            "latitude": 33.1278146,
            "closest_to": ""
        },
        "santa barbara botanic garden": {
            "blogLinks": [
                "https://www.gapyear.com/articles/216212/13-incredible-stops-on-the-pacific-coast-highway"
            ],
            "address": "Santa Barbara Botanic Gardens, Mission Canyon Road, Mission Canyon, Santa Barbara County, California, 93105, United States of America",
            "longitude": -119.709585108231,
            "locType": "park",
            "latitude": 34.456953,
            "closest_to": ""
        },
        "san luis obispo": {
            "blogLinks": [
                "https://www.gapyear.com/articles/216212/13-incredible-stops-on-the-pacific-coast-highway"
            ],
            "address": "San Luis Obispo, San Luis Obispo County, California, United States of America",
            "longitude": -120.6596155,
            "locType": "city",
            "latitude": 35.2827525,
            "closest_to": ""
        },
        "los osos valley road": {
            "blogLinks": [
                "http://moon.com/2011/02/fun-road-trip-ideas-road-trip-the-california-coast/"
            ],
            "address": "Los Osos Valley Road, San Luis Obispo, San Luis Obispo County, California, 93402, United States of America",
            "longitude": -120.7033035,
            "locType": "secondary",
            "latitude": 35.2676425,
            "closest_to": ""
        },
        "ontario": {
            "blogLinks": [
                "http://www.california-blog.com/"
            ],
            "address": "Ontario, San Bernardino County, California, United States of America",
            "longitude": -117.6484303,
            "locType": "city",
            "latitude": 34.065846,
            "closest_to": ""
        },
        "ventura beach": {
            "blogLinks": [
                "https://www.gapyear.com/articles/216212/13-incredible-stops-on-the-pacific-coast-highway"
            ],
            "address": "Ventura Place, Pacific Beach, San Diego, San Diego County, California, 92109, United States of America",
            "longitude": -117.2514716,
            "locType": "unclassified",
            "latitude": 32.772073,
            "closest_to": ""
        },
        "moonstone beach": {
            "blogLinks": [
                "http://moon.com/2011/02/fun-road-trip-ideas-road-trip-the-california-coast/"
            ],
            "address": "Moonstone Beach, Cambria, San Luis Obispo County, California, CA 93428, United States of America",
            "longitude": -121.1128747,
            "locType": "path",
            "latitude": 35.573855,
            "closest_to": ""
        },
        "esalen": {
            "blogLinks": [
                "http://moon.com/2011/02/fun-road-trip-ideas-road-trip-the-california-coast/"
            ],
            "address": "Esalen Institute, Cabrillo Highway, Slates Hot Springs, Monterey County, California, 93920, United States of America",
            "longitude": -121.6377439,
            "locType": "school",
            "latitude": 36.1248106,
            "closest_to": ""
        },
        "san fernando valley": {
            "blogLinks": [
                "https://www.gapyear.com/articles/216212/13-incredible-stops-on-the-pacific-coast-highway"
            ],
            "address": "San Fernando, Los Angeles County, California, United States of America",
            "longitude": -118.4389718,
            "locType": "administrative",
            "latitude": 34.2819461,
            "closest_to": ""
        },
        "island": {
            "blogLinks": [
                "http://www.visitcatalinaisland.com/blog"
            ],
            "address": "The Island, San Bernardino County, California, United States of America",
            "longitude": -114.4046801,
            "locType": "island",
            "latitude": 34.5650104,
            "closest_to": ""
        },
        "pebble beach ca": {
            "blogLinks": [
                "http://www.california-blog.com/"
            ],
            "address": "Pebble Beach, Monterey County, California, United States of America",
            "longitude": -121.9466112,
            "locType": "hamlet",
            "latitude": 36.5664874,
            "closest_to": ""
        },
        "north lake ca": {
            "blogLinks": [
                "http://www.california-blog.com/"
            ],
            "address": "North Lake, Chain of Lakes Drive East, Sunset District, SF, California, 94122, United States of America",
            "longitude": -122.501983281136,
            "locType": "water",
            "latitude": 37.76958295,
            "closest_to": ""
        },
        "silicon valley": {
            "blogLinks": [
                "https://www.gapyear.com/articles/216212/13-incredible-stops-on-the-pacific-coast-highway"
            ],
            "address": "Carnegie Mellon Silicon Valley, South Akron Road, Santa Clara County, California, 94035-0016, United States of America",
            "longitude": -122.0597491,
            "locType": "school",
            "latitude": 37.4105333,
            "closest_to": ""
        },
        "arizona": {
            "blogLinks": [
                "http://moon.com/2011/02/fun-road-trip-ideas-road-trip-the-california-coast/"
            ],
            "address": "Arizona, San Bernardino County, California, 92371, United States of America",
            "longitude": -117.5060679,
            "locType": "track",
            "latitude": 34.4631398,
            "closest_to": ""
        },
        "main street": {
            "blogLinks": [
                "http://www.beach.com/travel-guide-huntington-beach-california-usa-guide",
                "https://www.yelp.com/biz/huntington-beach-huntington-beach"
            ],
            "address": "Main Street, Alta Loma, Rancho Cucamonga, San Bernardino County, California, 91730, United States of America",
            "longitude": -117.59857297034,
            "locType": "residential",
            "latitude": 34.10780565,
            "closest_to": ""
        },
        "pismo beach": {
            "blogLinks": [
                "http://moon.com/2011/02/fun-road-trip-ideas-road-trip-the-california-coast/",
                "https://www.gapyear.com/articles/216212/13-incredible-stops-on-the-pacific-coast-highway"
            ],
            "address": "Pismo Beach, San Luis Obispo County, California, United States of America",
            "longitude": -120.6412826,
            "locType": "city",
            "latitude": 35.1427533,
            "closest_to": ""
        },
        "pacific beach": {
            "blogLinks": [
                "https://www.gapyear.com/articles/216212/13-incredible-stops-on-the-pacific-coast-highway"
            ],
            "address": "Pacific Beach, San Diego, San Diego County, California, United States of America",
            "longitude": -117.2403182,
            "locType": "suburb",
            "latitude": 32.7978268,
            "closest_to": ""
        },
        "dog park": {
            "blogLinks": [
                "https://www.yelp.com.au/biz/avalon-huntington-beach-huntington-beach"
            ],
            "address": "Dog Park, Diamond Heights Boulevard, Noe Valley, SF, California, 94131, United States of America",
            "longitude": -122.435380730172,
            "locType": "dog_park",
            "latitude": 37.7404427,
            "closest_to": ""
        },
        "moon california": {
            "blogLinks": [
                "http://moon.com/2011/02/fun-road-trip-ideas-road-trip-the-california-coast/"
            ],
            "address": "Moon, Palm Springs, Riverside County, California, 92264, United States of America",
            "longitude": -116.5099829,
            "locType": "residential",
            "latitude": 33.7967376,
            "closest_to": ""
        },
        "pfeiffer beach": {
            "blogLinks": [
                "https://www.gapyear.com/articles/216212/13-incredible-stops-on-the-pacific-coast-highway"
            ],
            "address": "Pfeiffer Beach, Sycamore Canyon Road, Big Sur, Monterey County, California, 93920, United States of America",
            "longitude": -121.81778571416,
            "locType": "beach",
            "latitude": 36.23934855,
            "closest_to": ""
        },
        "golden gate park": {
            "blogLinks": [
                "https://www.gapyear.com/articles/216212/13-incredible-stops-on-the-pacific-coast-highway"
            ],
            "address": "Golden Gate Park, Overlook Drive, Richmond District, SF, California, 94122, United States of America",
            "longitude": -122.482183611177,
            "locType": "park",
            "latitude": 37.7693681,
            "closest_to": ""
        },
        "pacific avenue": {
            "blogLinks": [
                "https://www.gapyear.com/articles/216212/13-incredible-stops-on-the-pacific-coast-highway"
            ],
            "address": "Pacific Avenue, Glendale, Los Angeles County, California, 91203, United States of America",
            "longitude": -118.2641839,
            "locType": "secondary",
            "latitude": 34.1571445,
            "closest_to": ""
        },
        "point state park": {
            "blogLinks": [
                "http://moon.com/2011/02/fun-road-trip-ideas-road-trip-the-california-coast/"
            ],
            "address": "State Park, Cambria, San Luis Obispo County, California, 93428, United States of America",
            "longitude": -121.1198923,
            "locType": "service",
            "latitude": 35.5818461,
            "closest_to": ""
        },
        "calif.": {
            "blogLinks": [
                "https://www.yelp.com/biz/huntington-beach-huntington-beach"
            ],
            "address": "California, Woodstock, Alameda, Alameda County, California, 94501, United States of America",
            "longitude": -122.2902806,
            "locType": "residential",
            "latitude": 37.786376,
            "closest_to": ""
        },
        "mojave desert ca": {
            "blogLinks": [
                "http://www.california-blog.com/"
            ],
            "address": "Mojave Desert, Utility Road, San Bernardino County, California, United States of America",
            "longitude": -115.548963686646,
            "locType": "desert",
            "latitude": 35.1456319,
            "closest_to": ""
        },
        "coronado bridge": {
            "blogLinks": [
                "https://www.gapyear.com/articles/216212/13-incredible-stops-on-the-pacific-coast-highway"
            ],
            "address": "San Diego-Coronado Bridge, San Diego, San Diego County, California, 92118, United States of America",
            "longitude": -117.1524863,
            "locType": "motorway",
            "latitude": 32.6904606,
            "closest_to": ""
        },
        "rio theatre": {
            "blogLinks": [
                "https://www.gapyear.com/articles/216212/13-incredible-stops-on-the-pacific-coast-highway"
            ],
            "address": "Rio Theatre, Soquel Avenue, Soquel Avenue Commercial Corridor, Eastside, Santa Cruz, Santa Cruz County, California, 95062, United States of America",
            "longitude": -122.0104295,
            "locType": "theatre",
            "latitude": 36.9801486,
            "closest_to": ""
        },
        "marin": {
            "blogLinks": [
                "http://moon.com/2011/02/fun-road-trip-ideas-road-trip-the-california-coast/"
            ],
            "address": "Marin County, California, United States of America",
            "longitude": -122.6199637,
            "locType": "administrative",
            "latitude": 38.0409144,
            "closest_to": ""
        },
        "highway 101": {
            "blogLinks": [
                "http://moon.com/2011/02/fun-road-trip-ideas-road-trip-the-california-coast/"
            ],
            "address": "Highway 101, Solana Beach, San Diego County, California, 92075, United States of America",
            "longitude": -117.2731974,
            "locType": "primary",
            "latitude": 32.9967358,
            "closest_to": ""
        },
        "xa0huntington beach": {
            "blogLinks": [
                "http://www.beach.com/travel-guide-huntington-beach-california-usa-guide"
            ],
            "address": "Beach, Pismo Beach Senior Mobile Home Park, Pismo Beach, San Luis Obispo County, California, 93449, United States of America",
            "longitude": -120.6345489,
            "locType": "service",
            "latitude": 35.13738,
            "closest_to": ""
        },
        "pfeiffer big sur state park": {
            "blogLinks": [
                "http://moon.com/2011/02/fun-road-trip-ideas-road-trip-the-california-coast/"
            ],
            "address": "Pfeiffer Big Sur State Park, Valley View Trail, Big Sur, Monterey County, California, United States of America",
            "longitude": -121.783295208903,
            "locType": "park",
            "latitude": 36.25330545,
            "closest_to": ""
        },
        "union square": {
            "blogLinks": [
                "https://www.gapyear.com/articles/216212/13-incredible-stops-on-the-pacific-coast-highway"
            ],
            "address": "Union Square, Post Street, Chinatown, SF, California, 94115, United States of America",
            "longitude": -122.407502671706,
            "locType": "park",
            "latitude": 37.78794125,
            "closest_to": ""
        },
        "santa": {
            "blogLinks": [
                "http://www.visitcatalinaisland.com/blog"
            ],
            "address": "California, Santa Isabel de las Lajas, Cienfuegos, Cuba",
            "longitude": -80.3796642,
            "locType": "hamlet",
            "latitude": 22.4804035,
            "closest_to": ""
        },
        "malibu": {
            "blogLinks": [
                "http://moon.com/2011/02/fun-road-trip-ideas-road-trip-the-california-coast/",
                "https://www.gapyear.com/articles/216212/13-incredible-stops-on-the-pacific-coast-highway",
                "https://www.yelp.com/biz/huntington-beach-huntington-beach",
                "http://www.travelchannel.com/interests/beaches/articles/top-10-southern-california-beaches"
            ],
            "address": "Malibu, Palm Springs, Riverside County, California, 92264, United States of America",
            "longitude": -116.5023561,
            "locType": "residential",
            "latitude": 33.7932142,
            "closest_to": ""
        },
        "san diego county": {
            "blogLinks": [
                "https://www.gapyear.com/articles/216212/13-incredible-stops-on-the-pacific-coast-highway"
            ],
            "address": "San Diego County, California, United States of America",
            "longitude": -116.7706276,
            "locType": "administrative",
            "latitude": 32.9637838,
            "closest_to": ""
        },
        "el matador": {
            "blogLinks": [
                "http://www.travelchannel.com/interests/beaches/articles/top-10-southern-california-beaches"
            ],
            "address": "El Matador, Burl Avenue, Clovis, Fresno County, California, 93611, United States of America",
            "longitude": -119.6754762,
            "locType": "restaurant",
            "latitude": 36.8099274,
            "closest_to": ""
        },
        "black hill": {
            "blogLinks": [
                "https://www.gapyear.com/articles/216212/13-incredible-stops-on-the-pacific-coast-highway"
            ],
            "address": "Black Hill, San Bernardino County, California, United States of America",
            "longitude": -116.49196,
            "locType": "peak",
            "latitude": 34.1788953,
            "closest_to": ""
        },
        "carmel valley": {
            "blogLinks": [
                "http://moon.com/2011/02/fun-road-trip-ideas-road-trip-the-california-coast/"
            ],
            "address": "Carmel Valley, Monterey County, California, United States of America",
            "longitude": -121.7324475,
            "locType": "village",
            "latitude": 36.4796839,
            "closest_to": ""
        },
        "san diego": {
            "blogLinks": [
                "http://moon.com/2011/02/fun-road-trip-ideas-road-trip-the-california-coast/",
                "https://www.gapyear.com/articles/216212/13-incredible-stops-on-the-pacific-coast-highway"
            ],
            "address": "San Diego, San Diego County, California, United States of America",
            "longitude": -117.1627713,
            "locType": "city",
            "latitude": 32.7174209,
            "closest_to": ""
        },
        "redwood highway": {
            "blogLinks": [
                "http://moon.com/2011/02/fun-road-trip-ideas-road-trip-the-california-coast/"
            ],
            "address": "Redwood Highway, Waldo, Marin County, California, 94965, United States of America",
            "longitude": -122.4860838,
            "locType": "motorway",
            "latitude": 37.8379549,
            "closest_to": ""
        },
        "julia pfeiffer burns state park": {
            "blogLinks": [
                "http://moon.com/2011/02/fun-road-trip-ideas-road-trip-the-california-coast/"
            ],
            "address": "Julia Pfeiffer Burns State Park, Ewoldsen trail, Monterey County, California, United States of America",
            "longitude": -121.665388254615,
            "locType": "park",
            "latitude": 36.16998345,
            "closest_to": ""
        },
        "mcway falls": {
            "blogLinks": [
                "https://www.gapyear.com/articles/216212/13-incredible-stops-on-the-pacific-coast-highway"
            ],
            "address": "McWay Falls, Monterey County, California, United States of America",
            "longitude": -121.6723957,
            "locType": "waterfall",
            "latitude": 36.1578211,
            "closest_to": ""
        },
        "piedras blancas": {
            "blogLinks": [
                "http://moon.com/2011/02/fun-road-trip-ideas-road-trip-the-california-coast/"
            ],
            "address": "Piedras Blancas, San Luis Obispo County, California, United States of America",
            "longitude": -121.2889962,
            "locType": "peak",
            "latitude": 35.6647403,
            "closest_to": ""
        },
        "mission bay ca": {
            "blogLinks": [
                "http://www.california-blog.com/"
            ],
            "address": "Mission Bay, SF, California, 94158, United States of America",
            "longitude": -122.3911711,
            "locType": "neighbourhood",
            "latitude": 37.7707742,
            "closest_to": ""
        },
        "pacific": {
            "blogLinks": [
                "https://www.yelp.com/biz/huntington-beach-huntington-beach",
                "http://www.travelchannel.com/interests/beaches/articles/top-10-southern-california-beaches",
                "http://www.losangeles.com/places/catalina-express-round-trip-ferry-service-long-beach-or-san-pedro-to-avalon"
            ],
            "address": "Pacific, El Dorado County, California, United States of America",
            "longitude": -120.507146,
            "locType": "hamlet",
            "latitude": 38.7601815,
            "closest_to": ""
        },
        "balboa park": {
            "blogLinks": [
                "https://www.gapyear.com/articles/216212/13-incredible-stops-on-the-pacific-coast-highway"
            ],
            "address": "Balboa Park, Sergeant John V Young Lane, Ingleside, SF, California, 94112, United States of America",
            "longitude": -122.444804424152,
            "locType": "park",
            "latitude": 37.72494875,
            "closest_to": ""
        },
        "soda lake": {
            "blogLinks": [
                "https://www.gapyear.com/articles/216212/13-incredible-stops-on-the-pacific-coast-highway"
            ],
            "address": "Soda Lake, Soda Lake Road, San Luis Obispo County, California, United States of America",
            "longitude": -119.895515964214,
            "locType": "water",
            "latitude": 35.23913735,
            "closest_to": ""
        }
    },
    "avalon": {
        "osm_type": "relation",
        "lon": "-118.3272611",
        "type": "city",
        "boundingbox": [
            "33.317583",
            "33.356566",
            "-118.3466549",
            "-118.3073689"
        ],
        "class": "place",
        "place_id": "159849240",
        "osm_id": "6169443",
        "lat": "33.34221",
        "licence": "Data \u00a9 OpenStreetMap contributors, ODbL 1.0. http://www.openstreetmap.org/copyright",
        "icon": "https://nominatim.openstreetmap.org/images/mapicons/poi_place_city.p.20.png",
        "importance": 0.59676353508209,
        "display_name": "Avalon, Los Angeles County, California, United States of America"
    },
    "huntington beach": {
        "osm_type": "relation",
        "lon": "-118.0000165",
        "type": "city",
        "boundingbox": [
            "33.628892",
            "33.7561955",
            "-118.0824699",
            "-117.940379"
        ],
        "class": "place",
        "place_id": "159846085",
        "osm_id": "5986511",
        "lat": "33.6783336",
        "licence": "Data \u00a9 OpenStreetMap contributors, ODbL 1.0. http://www.openstreetmap.org/copyright",
        "icon": "https://nominatim.openstreetmap.org/images/mapicons/poi_place_city.p.20.png",
        "importance": 0.77972866689719,
        "display_name": "Huntington Beach, Orange County, California, United States of America"
    }
}