{
    "irvine": {
        "osm_type": "relation",
        "lon": "-117.8259818",
        "type": "city",
        "boundingbox": [
            "33.5993914",
            "33.7736521",
            "-117.8687518",
            "-117.6780258"
        ],
        "class": "place",
        "place_id": "159062335",
        "osm_id": "114485",
        "lat": "33.6856969",
        "licence": "Data \u00a9 OpenStreetMap contributors, ODbL 1.0. http://www.openstreetmap.org/copyright",
        "icon": "https://nominatim.openstreetmap.org/images/mapicons/poi_place_city.p.20.png",
        "importance": 0.55,
        "display_name": "Irvine, Orange County, California, United States of America"
    },
    "avalon": {
        "osm_type": "relation",
        "lon": "-118.3272611",
        "type": "city",
        "boundingbox": [
            "33.317583",
            "33.356566",
            "-118.3466549",
            "-118.3073689"
        ],
        "class": "place",
        "place_id": "159849240",
        "osm_id": "6169443",
        "lat": "33.34221",
        "licence": "Data \u00a9 OpenStreetMap contributors, ODbL 1.0. http://www.openstreetmap.org/copyright",
        "icon": "https://nominatim.openstreetmap.org/images/mapicons/poi_place_city.p.20.png",
        "importance": 0.59676353508209,
        "display_name": "Avalon, Los Angeles County, California, United States of America"
    },
    "mentions": {
        "hamilton cove": {
            "blogLinks": [
                "http://www.visitcatalinaisland.com/blog"
            ],
            "address": "Adobe Systems, 601, Townsend Street, West SoMa, SF, California, 94103, United States of America",
            "longitude": -122.401661599629,
            "locType": "company",
            "latitude": 37.77113725,
            "closest_to": ""
        },
        "vegas": {
            "blogLinks": [
                "http://vagabond3.com/dont-panic-driving-from-los-angeles-to-las-vegas/"
            ],
            "address": "California Hotel, Sky Walk(Connection from Main Street to California, Cultural Corridor, Vegas Heights, Las Vegas, Clark County, Nevada, 89101, United States of America",
            "longitude": -115.144667930325,
            "locType": "hotel",
            "latitude": 36.17310935,
            "closest_to": ""
        },
        "renton": {
            "blogLinks": [
                "http://www.visitcatalinaisland.com/blog"
            ],
            "address": "Renton Court, Almaden, San Jos\u00e9, Santa Clara County, California, 95123, United States of America",
            "longitude": -121.862853,
            "locType": "residential",
            "latitude": 37.2457114,
            "closest_to": ""
        },
        "san francisco": {
            "blogLinks": [
                "https://www.tripadvisor.com/Attractions-g32530-Activities-Irvine_California.html"
            ],
            "address": "SF, California, United States of America",
            "longitude": -122.4192362,
            "locType": "city",
            "latitude": 37.7792808,
            "closest_to": ""
        },
        "wisconsin": {
            "blogLinks": [
                "http://gochippewafalls.com/"
            ],
            "address": "Wisconsin, Fresno County, California, 93650, United States of America",
            "longitude": -119.7945237,
            "locType": "service",
            "latitude": 36.8358605,
            "closest_to": ""
        },
        "pacific ocean": {
            "blogLinks": [
                "http://www.visitcatalinaisland.com/blog"
            ],
            "address": "Pacific Ocean, Cabrillo Highway, Monterey County, California, 93920, United States of America",
            "longitude": -121.678715787326,
            "locType": "cliff",
            "latitude": 36.16305775,
            "closest_to": ""
        },
        "moreno valley ca": {
            "blogLinks": [
                "http://www.california-blog.com/"
            ],
            "address": "Moreno Valley, Riverside County, California, United States of America",
            "longitude": -117.2305943,
            "locType": "city",
            "latitude": 33.937517,
            "closest_to": ""
        },
        "north atlantic": {
            "blogLinks": [
                "http://www.newfoundlandlabrador.com/PlacesToGo/TopDestinations"
            ],
            "address": "Atlantic, Kern County, California, United States of America",
            "longitude": -119.5434914,
            "locType": "raceway",
            "latitude": 35.4884745,
            "closest_to": ""
        },
        "us": {
            "blogLinks": [
                "http://www.zillow.com/b/avalon-irvine-irvine-ca-5XjKWV/",
                "http://vagabond3.com/dont-panic-driving-from-los-angeles-to-las-vegas/",
                "https://www.expedia.com/Irving-Hotels.d8199.Travel-Guide-Hotels"
            ],
            "address": "California, United States of America",
            "longitude": -118.7559973,
            "locType": "administrative",
            "latitude": 36.7014631,
            "closest_to": ""
        },
        "america": {
            "blogLinks": [
                "http://www.visitcatalinaisland.com/blog"
            ],
            "address": "America, Kings County, California, 93246, United States of America",
            "longitude": -119.8948706,
            "locType": "residential",
            "latitude": 36.2573198,
            "closest_to": ""
        },
        "atlantic city": {
            "blogLinks": [
                "http://www.philly.com/philly/living/travel/shoreguide/20130517_Insider_s_Guide__Avalon_and_Stone_Harbor.html"
            ],
            "address": "North California Avenue, Atlantic City, Atlantic County, New Jersey, 08401, United States of America",
            "longitude": -74.4458281,
            "locType": "residential",
            "latitude": 39.3576151,
            "closest_to": ""
        },
        "california": {
            "blogLinks": [
                "https://www.quora.com/What-are-some-must-see-places-in-Irvine-CA",
                "http://www.yellowpages.com/irvine-ca/avalon-irvine",
                "http://www.california-blog.com/",
                "http://www.visitcatalinaisland.com/blog",
                "http://www.apartmentguide.com/apartments/California/Irvine/Avalon-Irvine/84942/?page=5",
                "https://www.tripadvisor.com/Tourism-g32588-Laguna_Beach_California-Vacations.html"
            ],
            "address": "California, Santander, Colombia",
            "longitude": -72.945787,
            "locType": "village",
            "latitude": 7.3480915,
            "closest_to": ""
        },
        "india": {
            "blogLinks": [
                "https://www.quora.com/What-are-some-must-see-places-in-Irvine-CA"
            ],
            "address": "Star of India, North Harbor Drive, Hillcrest, San Diego, San Diego County, California, 92106, United States of America",
            "longitude": -117.173543004762,
            "locType": "attraction",
            "latitude": 32.72025735,
            "closest_to": ""
        },
        "iceberg alley": {
            "blogLinks": [
                "https://www.expedia.com/Irving-Hotels.d8199.Travel-Guide-Hotels"
            ],
            "address": "The Iceberg, Alpine County, California, United States of America",
            "longitude": -119.7457321,
            "locType": "peak",
            "latitude": 38.4260212,
            "closest_to": ""
        },
        "buena vista park": {
            "blogLinks": [
                "http://www.visitcatalinaisland.com/blog"
            ],
            "address": "Buena Vista Park, Los Coche Adobe, Soledad, Monterey County, California, 93960, United States of America",
            "longitude": -121.3212231,
            "locType": "residential",
            "latitude": 36.4255022,
            "closest_to": ""
        },
        "monterey peninsula ca": {
            "blogLinks": [
                "http://www.california-blog.com/"
            ],
            "address": "Monterey Regional Airport, Airport Road, Seaside, Del Monte Heights, Monterey County, California, 93940, United States of America",
            "longitude": -121.843618374407,
            "locType": "aerodrome",
            "latitude": 36.5878734,
            "closest_to": ""
        },
        "morro bay ca": {
            "blogLinks": [
                "http://www.california-blog.com/"
            ],
            "address": "Morro Bay, San Luis Obispo County, California, United States of America",
            "longitude": -120.8499012,
            "locType": "city",
            "latitude": 35.3658075,
            "closest_to": ""
        },
        "morro rock ca": {
            "blogLinks": [
                "http://www.california-blog.com/"
            ],
            "address": "Morro Rock, Morro Bay, San Luis Obispo County, California, United States of America",
            "longitude": -120.8676993,
            "locType": "peak",
            "latitude": 35.369669,
            "closest_to": ""
        },
        "west hollywood": {
            "blogLinks": [
                "http://vagabond3.com/dont-panic-driving-from-los-angeles-to-las-vegas/"
            ],
            "address": "West Hollywood, Los Angeles County, California, United States of America",
            "longitude": -118.3617442,
            "locType": "city",
            "latitude": 34.0900091,
            "closest_to": ""
        },
        "mount baldy ca": {
            "blogLinks": [
                "http://www.california-blog.com/"
            ],
            "address": "Mount Baldy, Los Angeles County, California, United States of America",
            "longitude": -117.6600552,
            "locType": "hamlet",
            "latitude": 34.2361168,
            "closest_to": ""
        },
        "san jose": {
            "blogLinks": [
                "http://www.visitcatalinaisland.com/blog"
            ],
            "address": "San Jos\u00e9, Santa Clara County, California, United States of America",
            "longitude": -121.8905832,
            "locType": "city",
            "latitude": 37.3361905,
            "closest_to": ""
        },
        "chicago": {
            "blogLinks": [
                "http://www.visitcatalinaisland.com/blog"
            ],
            "address": "Chicago, Woodstock, Alameda, Alameda County, California, 94501, United States of America",
            "longitude": -122.2872948,
            "locType": "residential",
            "latitude": 37.7850531,
            "closest_to": ""
        },
        "australia": {
            "blogLinks": [
                "http://vagabond3.com/dont-panic-driving-from-los-angeles-to-las-vegas/"
            ],
            "address": "California, Singleton, NSW, Australia",
            "longitude": 150.9261111,
            "locType": "hamlet",
            "latitude": -32.6649999,
            "closest_to": ""
        },
        "bristol": {
            "blogLinks": [
                "http://www.yellowpages.com/irvine-ca/avalon-irvine"
            ],
            "address": "Bristol, Hercules, Contra Costa County, California, 94547, United States of America",
            "longitude": -122.2587078,
            "locType": "residential",
            "latitude": 38.0181316,
            "closest_to": ""
        },
        "england": {
            "blogLinks": [
                "http://www.visitcatalinaisland.com/blog"
            ],
            "address": "California, Birmingham, West Midlands, England, UK",
            "longitude": -1.9796882,
            "locType": "village",
            "latitude": 52.4422729,
            "closest_to": ""
        },
        "stone harbor": {
            "blogLinks": [
                "http://www.visitcatalinaisland.com/blog",
                "http://www.philly.com/philly/living/travel/shoreguide/20130517_Insider_s_Guide__Avalon_and_Stone_Harbor.html"
            ],
            "address": "Stone Harbor, Alameda, Alameda County, California, 94502, United States of America",
            "longitude": -122.239499,
            "locType": "residential",
            "latitude": 37.7404946,
            "closest_to": ""
        },
        "island": {
            "blogLinks": [
                "http://www.visitcatalinaisland.com/blog"
            ],
            "address": "The Island, San Bernardino County, California, United States of America",
            "longitude": -114.4046801,
            "locType": "island",
            "latitude": 34.5650104,
            "closest_to": ""
        },
        "burbank": {
            "blogLinks": [
                "http://www.apartmentguide.com/apartments/California/Irvine/Avalon-Irvine/84942/?page=5"
            ],
            "address": "Burbank, Los Angeles County, California, United States of America",
            "longitude": -118.3258553,
            "locType": "city",
            "latitude": 34.1816482,
            "closest_to": ""
        },
        "el encanto": {
            "blogLinks": [
                "http://www.visitcatalinaisland.com/blog"
            ],
            "address": "Encanto, San Diego, San Diego County, California, United States of America",
            "longitude": -117.0503062,
            "locType": "suburb",
            "latitude": 32.7119967,
            "closest_to": ""
        },
        "pebble beach ca": {
            "blogLinks": [
                "http://www.california-blog.com/"
            ],
            "address": "Pebble Beach, Monterey County, California, United States of America",
            "longitude": -121.9466112,
            "locType": "hamlet",
            "latitude": 36.5664874,
            "closest_to": ""
        },
        "northwood": {
            "blogLinks": [
                "http://www.homesnap.com/CA/Irvine/2-Avalon",
                "http://www.newfoundlandlabrador.com/PlacesToGo/TopDestinations"
            ],
            "address": "Northwood, Sonoma County, California, United States of America",
            "longitude": -123.001666,
            "locType": "hamlet",
            "latitude": 38.4754693,
            "closest_to": ""
        },
        "3rd avenue": {
            "blogLinks": [
                "http://www.philly.com/philly/living/travel/shoreguide/20130517_Insider_s_Guide__Avalon_and_Stone_Harbor.html"
            ],
            "address": "3rd Avenue, Hillcrest, San Diego, San Diego County, California, 92103, United States of America",
            "longitude": -117.1620703,
            "locType": "tertiary",
            "latitude": 32.723042,
            "closest_to": ""
        },
        "beverly": {
            "blogLinks": [
                "http://www.yellowpages.com/irvine-ca/avalon-irvine"
            ],
            "address": "Beverly, Ripon, San Joaquin County, California, 95366, United States of America",
            "longitude": -121.1200909,
            "locType": "residential",
            "latitude": 37.735364,
            "closest_to": ""
        },
        "u.s.": {
            "blogLinks": [
                "http://www.apartmentguide.com/apartments/California/Irvine/Avalon-Irvine/84942/?page=5"
            ],
            "address": "La California, Municipio de Las Rosas, Departamento Belgrano, Sta. Fe, Argentina",
            "longitude": -61.5489543,
            "locType": "hamlet",
            "latitude": -32.5446226,
            "closest_to": ""
        },
        "san diego freeway": {
            "blogLinks": [
                "http://www.apartmentguide.com/apartments/California/Irvine/Avalon-Irvine/84942/?page=5"
            ],
            "address": "San Diego Freeway, Hillcrest, San Diego, San Diego County, California, 92101, United States of America",
            "longitude": -117.1690377,
            "locType": "motorway",
            "latitude": 32.7285162,
            "closest_to": ""
        },
        "irving": {
            "blogLinks": [
                "https://www.expedia.com/Irving-Hotels.d8199.Travel-Guide-Hotels"
            ],
            "address": "Irving Creek, Siskiyou County, California, United States of America",
            "longitude": -123.4170516,
            "locType": "stream",
            "latitude": 41.4728313,
            "closest_to": ""
        },
        "mount san jacinto ca": {
            "blogLinks": [
                "http://www.california-blog.com/"
            ],
            "address": "San Jacinto, Riverside County, California, United States of America",
            "longitude": -116.9586349,
            "locType": "city",
            "latitude": 33.7839084,
            "closest_to": ""
        },
        "monterey bay aquarium ca": {
            "blogLinks": [
                "http://www.california-blog.com/"
            ],
            "address": "MBA, 886, Cannery Row, Monterey, Monterey County, California, 93940, United States of America",
            "longitude": -121.901680002002,
            "locType": "aquarium",
            "latitude": 36.61809095,
            "closest_to": ""
        },
        "mojave desert ca": {
            "blogLinks": [
                "http://www.california-blog.com/"
            ],
            "address": "Mojave Desert, Utility Road, San Bernardino County, California, United States of America",
            "longitude": -115.548963686646,
            "locType": "desert",
            "latitude": 35.1456319,
            "closest_to": ""
        },
        "barstow": {
            "blogLinks": [
                "http://vagabond3.com/dont-panic-driving-from-los-angeles-to-las-vegas/"
            ],
            "address": "Barstow, San Bernardino County, California, United States of America",
            "longitude": -117.0172076,
            "locType": "administrative",
            "latitude": 34.8957684,
            "closest_to": ""
        },
        "mount palomar ca": {
            "blogLinks": [
                "http://www.california-blog.com/"
            ],
            "address": "California Bank & Trust, 2501, Palomar Airport Road, Carlsbad, San Diego County, California, 92011, United States of America",
            "longitude": -117.270809764613,
            "locType": "bank",
            "latitude": 33.1278146,
            "closest_to": ""
        },
        "primm": {
            "blogLinks": [
                "http://vagabond3.com/dont-panic-driving-from-los-angeles-to-las-vegas/",
                "http://www.homesnap.com/CA/Irvine/2-Avalon"
            ],
            "address": "Primm Avenue, Little Saigon, San Jos\u00e9, Santa Clara County, California, 95122, United States of America",
            "longitude": -121.8420481,
            "locType": "residential",
            "latitude": 37.333961,
            "closest_to": ""
        },
        "united kingdom": {
            "blogLinks": [
                "http://www.california-blog.com/",
                "https://www.pinterest.com/catalinaexpress/foodie-places-of-catalina-island/"
            ],
            "address": "California, Birmingham, West Midlands, England, UK",
            "longitude": -1.9796882,
            "locType": "village",
            "latitude": 52.4422729,
            "closest_to": ""
        },
        "mono lake ca": {
            "blogLinks": [
                "http://www.california-blog.com/"
            ],
            "address": "Mono Lake, Mono County, California, United States of America",
            "longitude": -118.967033937845,
            "locType": "water",
            "latitude": 38.0077189,
            "closest_to": ""
        },
        "wildwood": {
            "blogLinks": [
                "http://www.philly.com/philly/living/travel/shoreguide/20130517_Insider_s_Guide__Avalon_and_Stone_Harbor.html"
            ],
            "address": "Wildwood, Los Angeles County, California, United States of America",
            "longitude": -118.6000884,
            "locType": "village",
            "latitude": 34.082933,
            "closest_to": ""
        },
        "amsterdam": {
            "blogLinks": [
                "http://vagabond3.com/dont-panic-driving-from-los-angeles-to-las-vegas/"
            ],
            "address": "Amsterdam, Merced County, California, United States of America",
            "longitude": -120.5421391,
            "locType": "hamlet",
            "latitude": 37.4302157,
            "closest_to": ""
        },
        "old town san diego": {
            "blogLinks": [
                "http://www.california-blog.com/"
            ],
            "address": "Old Town San Diego, San Diego County, California, United States of America",
            "longitude": -117.1969792,
            "locType": "hamlet",
            "latitude": 32.7542167,
            "closest_to": ""
        },
        "las vegas": {
            "blogLinks": [
                "http://vagabond3.com/dont-panic-driving-from-los-angeles-to-las-vegas/",
                "http://gochippewafalls.com/"
            ],
            "address": "California Hotel, Sky Walk(Connection from Main Street to California, Cultural Corridor, Vegas Heights, Las Vegas, Clark County, Nevada, 89101, United States of America",
            "longitude": -115.144667930325,
            "locType": "hotel",
            "latitude": 36.17310935,
            "closest_to": ""
        },
        "north lake ca": {
            "blogLinks": [
                "http://www.california-blog.com/"
            ],
            "address": "North Lake, Chain of Lakes Drive East, Sunset District, SF, California, 94122, United States of America",
            "longitude": -122.501983281136,
            "locType": "water",
            "latitude": 37.76958295,
            "closest_to": ""
        },
        "mesa": {
            "blogLinks": [
                "http://www.yellowpages.com/irvine-ca/avalon-irvine"
            ],
            "address": "La Mesa, San Diego County, California, United States of America",
            "longitude": -117.0230838,
            "locType": "city",
            "latitude": 32.7678288,
            "closest_to": ""
        },
        "2nd avenue": {
            "blogLinks": [
                "http://www.philly.com/philly/living/travel/shoreguide/20130517_Insider_s_Guide__Avalon_and_Stone_Harbor.html"
            ],
            "address": "2nd Avenue, Lower Seabright, Seabright, Santa Cruz, Santa Cruz County, California, 95062, United States of America",
            "longitude": -122.0063271,
            "locType": "residential",
            "latitude": 36.9648576,
            "closest_to": ""
        },
        "middlesex county": {
            "blogLinks": [
                "https://www.avaloncommunities.com/massachusetts/lexington-apartments"
            ],
            "address": "California Street, Nonantum, Newton, Middlesex County, Massachusetts, 02458, United States of America",
            "longitude": -71.1987678,
            "locType": "tertiary",
            "latitude": 42.364868,
            "closest_to": ""
        },
        "penn": {
            "blogLinks": [
                "http://gochippewafalls.com/"
            ],
            "address": "Penn Valley, Horton Street, Penn Valley, Nevada County, California, 95946, United States of America",
            "longitude": -121.192636653122,
            "locType": "administrative",
            "latitude": 39.1948165,
            "closest_to": ""
        },
        "dallas": {
            "blogLinks": [
                "https://www.expedia.com/Irving-Hotels.d8199.Travel-Guide-Hotels"
            ],
            "address": "Upper Dallas Lateral, Merced County, California, United States of America",
            "longitude": -120.6404967,
            "locType": "ditch",
            "latitude": 37.3099472,
            "closest_to": ""
        },
        "ojai valley": {
            "blogLinks": [
                "http://www.california-blog.com/"
            ],
            "address": "Ojai, Ventura County, California, United States of America",
            "longitude": -119.2428889,
            "locType": "city",
            "latitude": 34.4480495,
            "closest_to": ""
        },
        "ca": {
            "blogLinks": [
                "https://www.quora.com/What-are-some-must-see-places-in-Irvine-CA",
                "http://www.apartmentguide.com/apartments/California/Irvine/Avalon-Irvine/84942/?page=5"
            ],
            "address": "Piedmont, Alameda County, California, ca, United States of America",
            "longitude": -122.232613735941,
            "locType": "postcode",
            "latitude": 37.8242285466918,
            "closest_to": ""
        },
        "las colinas": {
            "blogLinks": [
                "https://www.expedia.com/Irving-Hotels.d8199.Travel-Guide-Hotels"
            ],
            "address": "Las Colinas, Rancho Santa Fe, San Diego County, California, 92067, United States of America",
            "longitude": -117.1902343,
            "locType": "residential",
            "latitude": 33.0194833,
            "closest_to": ""
        },
        "kern river": {
            "blogLinks": [
                "http://www.california-blog.com/"
            ],
            "address": "Kern River, Tulare County, California, United States of America",
            "longitude": -118.4124188,
            "locType": "river",
            "latitude": 36.6816956,
            "closest_to": ""
        },
        "woodward avenue": {
            "blogLinks": [
                "http://gochippewafalls.com/"
            ],
            "address": "Woodward Avenue, Sunland, LA, Los Angeles County, California, 91040, United States of America",
            "longitude": -118.3070256,
            "locType": "tertiary",
            "latitude": 34.2596522,
            "closest_to": ""
        },
        "germany": {
            "blogLinks": [
                "https://www.quora.com/What-are-some-must-see-places-in-Irvine-CA"
            ],
            "address": "California, Lassallestra\u00dfe, M\u00fclheim, K\u00f6ln, Regierungsbezirk K\u00f6ln, Nordrhein-Westfalen, 50667-51149, Deutschland",
            "longitude": 7.009217,
            "locType": "beauty",
            "latitude": 50.9590814,
            "closest_to": ""
        },
        "napa valley ca": {
            "blogLinks": [
                "http://www.california-blog.com/"
            ],
            "address": "California Boulevard, Napa, Napa County, California, 94558, United States of America",
            "longitude": -122.3002947,
            "locType": "secondary",
            "latitude": 38.2972603,
            "closest_to": ""
        },
        "mount san gorgonio ca": {
            "blogLinks": [
                "http://www.california-blog.com/"
            ],
            "address": "San Gorgonio Avenue, Banning, Riverside County, California, 92220, United States of America",
            "longitude": -116.8766731,
            "locType": "secondary",
            "latitude": 33.9121294,
            "closest_to": ""
        },
        "morongo valley": {
            "blogLinks": [
                "http://www.california-blog.com/"
            ],
            "address": "Morongo Valley, Vista Drive, Morongo Valley, San Bernardino County, California, 92256, United States of America",
            "longitude": -116.596723958419,
            "locType": "administrative",
            "latitude": 34.0537585,
            "closest_to": ""
        },
        "island plaza": {
            "blogLinks": [
                "http://www.visitcatalinaisland.com/blog"
            ],
            "address": "Island Place, Redwood City, San Mateo County, California, 94065, United States of America",
            "longitude": -122.2538252,
            "locType": "residential",
            "latitude": 37.5334362,
            "closest_to": ""
        },
        "new york city": {
            "blogLinks": [
                "http://blog.avalonwaterways.com/2013/12/10/148/"
            ],
            "address": "California Sea Lion, 830, 5th Avenue, Upper East Side, Manhattan, New York County, NYC, New York, 10035, United States of America",
            "longitude": -73.9717587,
            "locType": "attraction",
            "latitude": 40.767819,
            "closest_to": ""
        },
        "italy": {
            "blogLinks": [
                "https://www.tripadvisor.com/Tourism-g32588-Laguna_Beach_California-Vacations.html"
            ],
            "address": "California, MB, LOM, Italia",
            "longitude": 9.3130453,
            "locType": "village",
            "latitude": 45.659844,
            "closest_to": ""
        },
        "uhaul": {
            "blogLinks": [
                "https://en.yelp.com.hk/biz/avalon-irvine-irvine"
            ],
            "address": "Uhaul, Van Nuys Boulevard, North Sherman Way, Van Nuys, LA, Los Angeles County, California, 91405, United States of America",
            "longitude": -118.4484151,
            "locType": "car_rental",
            "latitude": 34.2089287,
            "closest_to": ""
        },
        "san diego": {
            "blogLinks": [
                "http://www.avaloncommunities.com/southern-california/irvine-apartments/?medium=tsa&tsacr=GO18730314021"
            ],
            "address": "San Diego, San Diego County, California, United States of America",
            "longitude": -117.1627713,
            "locType": "city",
            "latitude": 32.7174209,
            "closest_to": ""
        },
        "palm springs air museum ca": {
            "blogLinks": [
                "http://www.california-blog.com/"
            ],
            "address": "Palm Springs Air Museum, 745, North Gene Autry Trail, Palm Springs, Riverside County, California, 92262, United States of America",
            "longitude": -116.504677958796,
            "locType": "museum",
            "latitude": 33.83250375,
            "closest_to": ""
        },
        "lexington": {
            "blogLinks": [
                "https://www.avaloncommunities.com/massachusetts/lexington-apartments",
                "http://www.philly.com/philly/living/travel/shoreguide/20130517_Insider_s_Guide__Avalon_and_Stone_Harbor.html"
            ],
            "address": "California, Saint Mary's County, Maryland, United States of America",
            "longitude": -76.5074541,
            "locType": "hamlet",
            "latitude": 38.3004029,
            "closest_to": ""
        },
        "united states": {
            "blogLinks": [
                "https://www.tripadvisor.com/Tourism-g32588-Laguna_Beach_California-Vacations.html",
                "https://www.tripadvisor.com/Attractions-g32530-Activities-Irvine_California.html"
            ],
            "address": "California, United States of America",
            "longitude": -118.7559973,
            "locType": "administrative",
            "latitude": 36.7014631,
            "closest_to": ""
        },
        "lolo": {
            "blogLinks": [
                "http://www.visitcatalinaisland.com/blog"
            ],
            "address": "Lol\u00f3, 974, Valencia Street, Mission District, SF, California, 94110, United States of America",
            "longitude": -122.4212942,
            "locType": "restaurant",
            "latitude": 37.7570702,
            "closest_to": ""
        },
        "mission bay ca": {
            "blogLinks": [
                "http://www.california-blog.com/"
            ],
            "address": "Mission Bay, SF, California, 94158, United States of America",
            "longitude": -122.3911711,
            "locType": "neighbourhood",
            "latitude": 37.7707742,
            "closest_to": ""
        },
        "santa": {
            "blogLinks": [
                "http://www.visitcatalinaisland.com/blog"
            ],
            "address": "California, Santa Isabel de las Lajas, Cienfuegos, Cuba",
            "longitude": -80.3796642,
            "locType": "hamlet",
            "latitude": 22.4804035,
            "closest_to": ""
        },
        "la": {
            "blogLinks": [
                "http://vagabond3.com/dont-panic-driving-from-los-angeles-to-las-vegas/",
                "http://www.avaloncommunities.com/southern-california/irvine-apartments/?medium=tsa&tsacr=GO18730314021"
            ],
            "address": "California, United States of America",
            "longitude": -118.7559973,
            "locType": "administrative",
            "latitude": 36.7014631,
            "closest_to": ""
        },
        "trier": {
            "blogLinks": [
                "https://www.quora.com/What-are-some-must-see-places-in-Irvine-CA"
            ],
            "address": "New Trier Avenue, Almaden, San Jos\u00e9, Santa Clara County, California, 95136, United States of America",
            "longitude": -121.8628248,
            "locType": "residential",
            "latitude": 37.2609948,
            "closest_to": ""
        }
    }
}