{
    "mentions": {
        "grand canyon": {
            "longitude": "-117.8915409",
            "blogLinks": [
                "http://www.usatourist.com/english/destinations/california/california-driving-tour.html"
            ],
            "closest_to": "",
            "latitude": "33.9332326",
            "address": "Grand Canyon, Downtown Brea, Brea, Orange County, California, 92821, United States of America",
            "locType": "residential"
        },
        "long beach": {
            "longitude": "-118.158049215311",
            "blogLinks": [
                "http://www.travbuddy.com/California-travel-guide-p85"
            ],
            "closest_to": "",
            "latitude": "33.78538945",
            "address": "Long Beach, Los Angeles County, California, United States of America",
            "locType": "city"
        },
        "los angeles": {
            "longitude": "-118.2439408",
            "blogLinks": [
                "http://www.usatourist.com/english/destinations/california/california-driving-tour.html",
                "https://uk.answers.yahoo.com/question/index?qid=20100127020428AApYBwZ",
                "http://www.distancesfrom.com/us/distance-from-Los-Angeles-to-Berkeley-via-Santa-Cruz/DistanceHistory/19318096.aspx",
                "http://www.travbuddy.com/California-travel-guide-p85"
            ],
            "closest_to": "",
            "latitude": "34.0543942",
            "address": "LA, Los Angeles County, California, United States of America",
            "locType": "city"
        },
        "s.f.": {
            "longitude": "-99.6183945",
            "blogLinks": [
                "https://uk.answers.yahoo.com/question/index?qid=20100127020428AApYBwZ"
            ],
            "closest_to": "",
            "latitude": "19.9908291",
            "address": "California, Bosque de Canalejas, Jilotepec, M\u00e9xico, 54270, M\u00e9xico",
            "locType": "residential"
        },
        "brussels": {
            "longitude": "-118.4269567",
            "blogLinks": [
                "http://www.sfgate.com/restaurants/diningout/article/Superb-restaurants-for-visitors-to-Santa-Cruz-4986382.php"
            ],
            "closest_to": "",
            "latitude": "34.3209021",
            "address": "Brussels Avenue, Sylmar, LA, Los Angeles County, California, 91342, United States of America",
            "locType": "residential"
        },
        "california": {
            "longitude": "-72.945787",
            "blogLinks": [
                "https://www.berkeleyparentsnetwork.org/recommend/housing/santacruz",
                "https://glampinghub.com/unitedstatesofamerica/pacificwest/california/",
                "http://www.usatourist.com/english/destinations/california/california-driving-tour.html",
                "http://www.distancesfrom.com/us/distance-from-Los-Angeles-to-Berkeley-via-Santa-Cruz/DistanceHistory/19318096.aspx",
                "http://www.goldengatetours.net/places",
                "http://www.travbuddy.com/California-travel-guide-p85",
                "https://www.tripadvisor.com/Tourism-g33048-Santa_Cruz_California-Vacations.html",
                "http://www.distancesfrom.com/us/Trip-Cost-from-Berkeley-to-Santa-Cruz-via-CA-1/TripCostHistory/33614213.aspx",
                "https://uk.answers.yahoo.com/question/index?qid=20100127020428AApYBwZ"
            ],
            "closest_to": "",
            "latitude": "7.3480915",
            "address": "California, Santander, Colombia",
            "locType": "village"
        },
        "nevada": {
            "longitude": "-120.8089842",
            "blogLinks": [
                "http://www.usatourist.com/english/destinations/california/california-driving-tour.html"
            ],
            "closest_to": "",
            "latitude": "39.3540335",
            "address": "Nevada County, California, United States of America",
            "locType": "administrative"
        },
        "las vegas": {
            "longitude": "-115.144667930325",
            "blogLinks": [
                "http://www.usatourist.com/english/destinations/california/california-driving-tour.html"
            ],
            "closest_to": "",
            "latitude": "36.17310935",
            "address": "California Hotel, Sky Walk(Connection from Main Street to California, Cultural Corridor, Vegas Heights, Las Vegas, Clark County, Nevada, 89101, United States of America",
            "locType": "hotel"
        },
        "malibu": {
            "longitude": "-116.5023561",
            "blogLinks": [
                "http://www.travbuddy.com/California-travel-guide-p85"
            ],
            "closest_to": "",
            "latitude": "33.7932142",
            "address": "Malibu, Palm Springs, Riverside County, California, 92264, United States of America",
            "locType": "residential"
        },
        "irvine": {
            "longitude": "-117.8259818",
            "blogLinks": [
                "http://www.bestplaces.net/compare-cities/santa_cruz_ca/berkeley_ca/housing"
            ],
            "closest_to": "",
            "latitude": "33.6856969",
            "address": "Irvine, Orange County, California, United States of America",
            "locType": "city"
        },
        "second street": {
            "longitude": "-117.8182676",
            "blogLinks": [
                "http://www.sfgate.com/restaurants/diningout/article/Superb-restaurants-for-visitors-to-Santa-Cruz-4986382.php"
            ],
            "closest_to": "",
            "latitude": "34.0440456",
            "address": "Second Street, Walnut Hills Mobile Home Park, Pomona, Los Angeles County, California, 91765, United States of America",
            "locType": "residential"
        },
        "alaska": {
            "longitude": "-117.7917164",
            "blogLinks": [
                "https://glampinghub.com/unitedstatesofamerica/pacificwest/california/"
            ],
            "closest_to": "",
            "latitude": "33.7147833",
            "address": "Alaska, Walnut, Irvine, Orange County, California, 92606, United States of America",
            "locType": "residential"
        },
        "ocean beach": {
            "longitude": "-117.249321",
            "blogLinks": [
                "http://www.mercurynews.com/2015/06/02/18-quirky-bay-area-adventures-and-destinations/",
                "http://www.goldengatetours.net/places"
            ],
            "closest_to": "",
            "latitude": "32.7477784",
            "address": "Ocean Beach, San Diego, San Diego County, California, United States of America",
            "locType": "region"
        },
        "united kingdom": {
            "longitude": "-1.9796882",
            "blogLinks": [
                "https://www.berkeleyparentsnetwork.org/recommend/housing/santacruz"
            ],
            "closest_to": "",
            "latitude": "52.4422729",
            "address": "California, Birmingham, West Midlands, England, UK",
            "locType": "village"
        },
        "australia": {
            "longitude": "150.9261111",
            "blogLinks": [
                "http://www.mercurynews.com/2015/06/02/18-quirky-bay-area-adventures-and-destinations/"
            ],
            "closest_to": "",
            "latitude": "-32.6649999",
            "address": "California, Singleton, NSW, Australia",
            "locType": "hamlet"
        },
        "napa valley": {
            "longitude": "-84.4504647",
            "blogLinks": [
                "http://www.travbuddy.com/California-travel-guide-p85"
            ],
            "closest_to": "",
            "latitude": "39.0234679",
            "address": "Napa Valley, Cold Spring, Campbell County, Kentucky, 41076, United States of America",
            "locType": "residential"
        },
        "south lake tahoe": {
            "longitude": "-119.987846390157",
            "blogLinks": [
                "http://www.travbuddy.com/California-travel-guide-p85"
            ],
            "closest_to": "",
            "latitude": "38.929125",
            "address": "South Lake Tahoe, El Dorado County, California, United States of America",
            "locType": "city"
        },
        "east bay": {
            "longitude": "-121.0270079",
            "blogLinks": [
                "https://www.berkeleyparentsnetwork.org/recommend/housing/santacruz"
            ],
            "closest_to": "",
            "latitude": "38.156964",
            "address": "East Bay, San Joaquin County, California, United States of America",
            "locType": "track"
        },
        "south rim": {
            "longitude": "-121.5548741",
            "blogLinks": [
                "http://www.usatourist.com/english/destinations/california/california-driving-tour.html"
            ],
            "closest_to": "",
            "latitude": "39.0214541",
            "address": "Rim, Plumas Lake, Yuba County, California, United States of America",
            "locType": "residential"
        },
        "cal poly": {
            "longitude": "-120.670126285884",
            "blogLinks": [
                "https://uk.answers.yahoo.com/question/index?qid=20100127020428AApYBwZ"
            ],
            "closest_to": "",
            "latitude": "35.30440705",
            "address": "Cal Poly, Mount Bishop Road, Paso Robles, San Luis Obispo County, California, 93407, United States of America",
            "locType": "parking"
        },
        "usa": {
            "longitude": "-118.7559973",
            "blogLinks": [
                "http://www.distancesfrom.com/us/Trip-Cost-from-Berkeley-to-Santa-Cruz-via-CA-1/TripCostHistory/33614213.aspx",
                "http://www.usatourist.com/english/destinations/california/california-driving-tour.html",
                "http://www.distancesfrom.com/us/distance-from-Los-Angeles-to-Berkeley-via-Santa-Cruz/DistanceHistory/19318096.aspx"
            ],
            "closest_to": "",
            "latitude": "36.7014631",
            "address": "California, United States of America",
            "locType": "administrative"
        },
        "golden state": {
            "longitude": "-121.9619226",
            "blogLinks": [
                "https://glampinghub.com/unitedstatesofamerica/pacificwest/california/"
            ],
            "closest_to": "",
            "latitude": "39.6712719",
            "address": "Golden State Island, Butte County, California, United States of America",
            "locType": "island"
        },
        "boulder creek": {
            "longitude": "-116.6881243",
            "blogLinks": [
                "https://www.berkeleyparentsnetwork.org/recommend/housing/santacruz"
            ],
            "closest_to": "",
            "latitude": "32.9726949",
            "address": "Boulder Creek, San Diego County, California, United States of America",
            "locType": "river"
        },
        "pacific ave.": {
            "longitude": "-118.2641839",
            "blogLinks": [
                "http://www.sfgate.com/restaurants/diningout/article/Superb-restaurants-for-visitors-to-Santa-Cruz-4986382.php"
            ],
            "closest_to": "",
            "latitude": "34.1571445",
            "address": "Pacific Avenue, Glendale, Los Angeles County, California, 91203, United States of America",
            "locType": "secondary"
        },
        "san simeon": {
            "longitude": "-121.1907532",
            "blogLinks": [
                "https://uk.answers.yahoo.com/question/index?qid=20100127020428AApYBwZ",
                "http://www.goldengatetours.net/places",
                "http://www.travbuddy.com/California-travel-guide-p85"
            ],
            "closest_to": "",
            "latitude": "35.6438587",
            "address": "San Simeon, San Luis Obispo County, California, United States of America",
            "locType": "hamlet"
        },
        "lake tahoe": {
            "longitude": "-120.050511752934",
            "blogLinks": [
                "http://www.travbuddy.com/California-travel-guide-p85"
            ],
            "closest_to": "",
            "latitude": "39.0888982",
            "address": "Lake Tahoe, Placer County, California, United States of America",
            "locType": "water"
        },
        "death valley": {
            "longitude": "-116.914043572057",
            "blogLinks": [
                "https://glampinghub.com/unitedstatesofamerica/pacificwest/california/"
            ],
            "closest_to": "",
            "latitude": "36.42404725",
            "address": "Death Valley, Timbisha, Inyo County, California, 92328, United States of America",
            "locType": "desert"
        },
        "garden": {
            "longitude": "-117.293612",
            "blogLinks": [
                "http://www.ucsc.edu/visit/"
            ],
            "closest_to": "",
            "latitude": "33.6280068",
            "address": "Garden, Menifee, Riverside County, California, 92530, United States of America",
            "locType": "track"
        },
        "la": {
            "longitude": "-118.7559973",
            "blogLinks": [
                "https://uk.answers.yahoo.com/question/index?qid=20100127020428AApYBwZ",
                "http://www.travbuddy.com/California-travel-guide-p85"
            ],
            "closest_to": "",
            "latitude": "36.7014631",
            "address": "California, United States of America",
            "locType": "administrative"
        },
        "santa barbara": {
            "longitude": "-119.7026672",
            "blogLinks": [
                "http://www.usatourist.com/english/destinations/california/california-driving-tour.html",
                "https://uk.answers.yahoo.com/question/index?qid=20100127020428AApYBwZ"
            ],
            "closest_to": "",
            "latitude": "34.4221319",
            "address": "Santa Barbara, Santa Barbara County, California, United States of America",
            "locType": "city"
        },
        "southern california": {
            "longitude": "-118.286343973446",
            "blogLinks": [
                "http://www.usatourist.com/english/destinations/california/california-driving-tour.html"
            ],
            "closest_to": "",
            "latitude": "34.0224149",
            "address": "University of Southern California, Watt Way, Saint James Park, LA, Los Angeles County, California, 90089, United States of America",
            "locType": "university"
        },
        "las vegas nevada": {
            "longitude": "-115.144667930325",
            "blogLinks": [
                "http://www.usatourist.com/english/destinations/california/california-driving-tour.html"
            ],
            "closest_to": "",
            "latitude": "36.17310935",
            "address": "California Hotel, Sky Walk(Connection from Main Street to California, Cultural Corridor, Vegas Heights, Las Vegas, Clark County, Nevada, 89101, United States of America",
            "locType": "hotel"
        },
        "northern california": {
            "longitude": "-117.1545973",
            "blogLinks": [
                "http://www.mercurynews.com/2015/06/02/18-quirky-bay-area-adventures-and-destinations/",
                "http://www.goldengatetours.net/places"
            ],
            "closest_to": "",
            "latitude": "32.7349196",
            "address": "Northern Frontier, San Diego, San Diego County, California, United States of America",
            "locType": "locality"
        },
        "disneyland": {
            "longitude": "-117.91971186569",
            "blogLinks": [
                "http://www.goldengatetours.net/places",
                "http://www.travbuddy.com/California-travel-guide-p85"
            ],
            "closest_to": "",
            "latitude": "33.8136367",
            "address": "DL, 1313, South Harbor Boulevard, Anaheim Resort District, Anaheim, Orange County, California, 92805, United States of America",
            "locType": "theme_park"
        },
        "san diego": {
            "longitude": "-117.1627713",
            "blogLinks": [
                "http://www.usatourist.com/english/destinations/california/california-driving-tour.html",
                "http://www.travbuddy.com/California-travel-guide-p85"
            ],
            "closest_to": "",
            "latitude": "32.7174209",
            "address": "San Diego, San Diego County, California, United States of America",
            "locType": "city"
        },
        "los angeles county": {
            "longitude": "-118.2096813",
            "blogLinks": [
                "http://www.travbuddy.com/California-travel-guide-p85"
            ],
            "closest_to": "",
            "latitude": "34.3155072",
            "address": "Los Angeles County, California, United States of America",
            "locType": "administrative"
        },
        "london": {
            "longitude": "-119.4431784",
            "blogLinks": [
                "http://www.goldengatetours.net/places"
            ],
            "closest_to": "",
            "latitude": "36.4760619",
            "address": "London, Tulare County, California, United States of America",
            "locType": "village"
        },
        "las angeles": {
            "longitude": "-118.0668337",
            "blogLinks": [
                "http://www.travbuddy.com/California-travel-guide-p85"
            ],
            "closest_to": "",
            "latitude": "33.9995929",
            "address": "California, Obregon Street, West Whittier, Rosemead, Los Angeles County, California, 90606, United States of America",
            "locType": "abandoned"
        },
        "mammoth cave": {
            "longitude": "-121.3349028",
            "blogLinks": [
                "http://www.goldengatetours.net/places"
            ],
            "closest_to": "",
            "latitude": "41.6722473",
            "address": "Mammoth Cave, 45N11, Mammoth, Modoc County, California, United States of America",
            "locType": "cave_entrance"
        },
        "pacific": {
            "longitude": "-120.507146",
            "blogLinks": [
                "http://www.usatourist.com/english/destinations/california/california-driving-tour.html",
                "https://glampinghub.com/unitedstatesofamerica/pacificwest/california/",
                "http://www.goldengatetours.net/places",
                "http://www.travbuddy.com/California-travel-guide-p85"
            ],
            "closest_to": "",
            "latitude": "38.7601815",
            "address": "Pacific, El Dorado County, California, United States of America",
            "locType": "hamlet"
        },
        "l.a": {
            "longitude": "-67.9369134",
            "blogLinks": [
                "https://uk.answers.yahoo.com/question/index?qid=20100127020428AApYBwZ"
            ],
            "closest_to": "",
            "latitude": "-13.8305494",
            "address": "California, Provincia Abel Iturralde, LPZ, Bolivia",
            "locType": "hamlet"
        },
        "united states": {
            "longitude": "-118.7559973",
            "blogLinks": [
                "https://www.tripadvisor.com/Tourism-g33048-Santa_Cruz_California-Vacations.html",
                "https://glampinghub.com/unitedstatesofamerica/pacificwest/california/",
                "http://www.santacruz.org/blog/p/3671"
            ],
            "closest_to": "",
            "latitude": "36.7014631",
            "address": "California, United States of America",
            "locType": "administrative"
        },
        "watson street": {
            "longitude": "-121.3657959",
            "blogLinks": [
                "http://www.sfgate.com/restaurants/diningout/article/Superb-restaurants-for-visitors-to-Santa-Cruz-4986382.php"
            ],
            "closest_to": "",
            "latitude": "38.611491",
            "address": "Watson Street, Sacramento County, California, 95864, United States of America",
            "locType": "residential"
        },
        "big bear lake": {
            "longitude": "-116.932209587315",
            "blogLinks": [
                "http://www.travbuddy.com/California-travel-guide-p85"
            ],
            "closest_to": "",
            "latitude": "34.253293",
            "address": "Big Bear Lake, Lagunita Lane, Big Bear Lake, San Bernardino County, California, 92315, United States of America",
            "locType": "water"
        },
        "carlsbad": {
            "longitude": "-117.3505938",
            "blogLinks": [
                "http://www.travbuddy.com/California-travel-guide-p85"
            ],
            "closest_to": "",
            "latitude": "33.1580933",
            "address": "Carlsbad, San Diego County, California, United States of America",
            "locType": "city"
        },
        "eureka": {
            "longitude": "-124.1636728",
            "blogLinks": [
                "http://www.travbuddy.com/California-travel-guide-p85"
            ],
            "closest_to": "",
            "latitude": "40.8020712",
            "address": "Eureka, Humboldt County, California, United States of America",
            "locType": "city"
        },
        "gold country": {
            "longitude": "-119.0856049",
            "blogLinks": [
                "http://www.goldengatetours.net/places"
            ],
            "closest_to": "",
            "latitude": "35.300501",
            "address": "Gold Country Way, Bakersfield, Kern County, California, 93311, United States of America",
            "locType": "residential"
        },
        "beverly hills": {
            "longitude": "-118.4003562",
            "blogLinks": [
                "http://www.usatourist.com/english/destinations/california/california-driving-tour.html",
                "http://www.travbuddy.com/California-travel-guide-p85"
            ],
            "closest_to": "",
            "latitude": "34.0736204",
            "address": "Beverly Hills, Los Angeles County, California, United States of America",
            "locType": "city"
        },
        "tea garden": {
            "longitude": "-117.7616589",
            "blogLinks": [
                "http://www.mercurynews.com/2015/06/02/18-quirky-bay-area-adventures-and-destinations/"
            ],
            "closest_to": "",
            "latitude": "33.7006659",
            "address": "Tea Garden, Northwood, Irvine, Orange County, California, 92620, United States of America",
            "locType": "residential"
        },
        "san luis obispo county": {
            "longitude": "-120.3757162",
            "blogLinks": [
                "http://www.travbuddy.com/California-travel-guide-p85"
            ],
            "closest_to": "",
            "latitude": "35.3540209",
            "address": "San Luis Obispo County, California, United States of America",
            "locType": "administrative"
        },
        "pacific coast highway": {
            "longitude": "-118.0051687",
            "blogLinks": [
                "http://www.travbuddy.com/California-travel-guide-p85"
            ],
            "closest_to": "",
            "latitude": "33.6595127",
            "address": "Pacific Coast Highway, Huntington Beach, Orange County, California, 92648, United States of America",
            "locType": "primary"
        },
        "walnut avenue": {
            "longitude": "-117.1956135",
            "blogLinks": [
                "http://www.sfgate.com/restaurants/diningout/article/Superb-restaurants-for-visitors-to-Santa-Cruz-4986382.php"
            ],
            "closest_to": "",
            "latitude": "33.8266108",
            "address": "Walnut Avenue, Rancho las Perris, Riverside County, California, 92571, United States of America",
            "locType": "tertiary"
        },
        "kingman": {
            "longitude": "-116.5745266",
            "blogLinks": [
                "http://www.usatourist.com/english/destinations/california/california-driving-tour.html"
            ],
            "closest_to": "",
            "latitude": "33.3508348",
            "address": "Kingman, 31422, Borrego Palm Canyon Road, San Diego County, California, United States of America",
            "locType": "camp_site"
        },
        "barstow": {
            "longitude": "-117.0172076",
            "blogLinks": [
                "http://www.usatourist.com/english/destinations/california/california-driving-tour.html",
                "http://www.travbuddy.com/California-travel-guide-p85"
            ],
            "closest_to": "",
            "latitude": "34.8957684",
            "address": "Barstow, San Bernardino County, California, United States of America",
            "locType": "administrative"
        },
        "arizona": {
            "longitude": "-117.5060679",
            "blogLinks": [
                "http://www.usatourist.com/english/destinations/california/california-driving-tour.html"
            ],
            "closest_to": "",
            "latitude": "34.4631398",
            "address": "Arizona, San Bernardino County, California, 92371, United States of America",
            "locType": "track"
        },
        "newport beach": {
            "longitude": "-117.92944",
            "blogLinks": [
                "http://www.travbuddy.com/California-travel-guide-p85"
            ],
            "closest_to": "",
            "latitude": "33.6170092",
            "address": "Newport Beach, Orange County, California, United States of America",
            "locType": "city"
        },
        "california state railroad museum": {
            "longitude": "-121.5038909",
            "blogLinks": [
                "http://www.goldengatetours.net/places"
            ],
            "closest_to": "",
            "latitude": "38.5846424",
            "address": "California State Railroad Museum, 125, I Street, Sacramento, Sacramento County, California, 95814, United States of America",
            "locType": "museum"
        },
        "needles": {
            "longitude": "-114.6141315",
            "blogLinks": [
                "http://www.usatourist.com/english/destinations/california/california-driving-tour.html"
            ],
            "closest_to": "",
            "latitude": "34.8480597",
            "address": "Needles, San Bernardino County, California, United States of America",
            "locType": "city"
        },
        "mojave desert": {
            "longitude": "-115.548963686646",
            "blogLinks": [
                "http://www.usatourist.com/english/destinations/california/california-driving-tour.html"
            ],
            "closest_to": "",
            "latitude": "35.1456319",
            "address": "Mojave Desert, Utility Road, San Bernardino County, California, United States of America",
            "locType": "desert"
        },
        "milford township": {
            "longitude": "-120.3724375",
            "blogLinks": [
                "http://www.bestplaces.net/compare-cities/santa_cruz_ca/berkeley_ca/housing"
            ],
            "closest_to": "",
            "latitude": "40.1712892",
            "address": "Milford, Lassen County, California, United States of America",
            "locType": "hamlet"
        },
        "middle earth": {
            "longitude": "-117.837186650942",
            "blogLinks": [
                "https://www.viamagazine.com/places-to-visit-in-california"
            ],
            "closest_to": "",
            "latitude": "33.64434515",
            "address": "Middle Earth, Turtle Rock, Irvine, Orange County, California, 92617, United States of America",
            "locType": "residential"
        },
        "sedona": {
            "longitude": "-117.6689202",
            "blogLinks": [
                "http://www.usatourist.com/english/destinations/california/california-driving-tour.html"
            ],
            "closest_to": "",
            "latitude": "33.6916439",
            "address": "Sedona, Foothill Ranch, Lake Forest, Orange County, California, 92610, United States of America",
            "locType": "residential"
        },
        "wilmington": {
            "longitude": "-118.262571",
            "blogLinks": [
                "http://www.bestplaces.net/compare-cities/santa_cruz_ca/berkeley_ca/people",
                "http://www.bestplaces.net/compare-cities/santa_cruz_ca/berkeley_ca/housing"
            ],
            "closest_to": "",
            "latitude": "33.780018",
            "address": "Wilmington, LA, Los Angeles County, California, United States of America",
            "locType": "suburb"
        },
        "hollywood": {
            "longitude": "-118.3299898",
            "blogLinks": [
                "http://www.usatourist.com/english/destinations/california/california-driving-tour.html",
                "http://www.travbuddy.com/California-travel-guide-p85"
            ],
            "closest_to": "",
            "latitude": "34.1028268",
            "address": "Hollywood, LA, Los Angeles County, California, United States of America",
            "locType": "suburb"
        },
        "burbank": {
            "longitude": "-118.3258553",
            "blogLinks": [
                "http://www.travbuddy.com/California-travel-guide-p85"
            ],
            "closest_to": "",
            "latitude": "34.1816482",
            "address": "Burbank, Los Angeles County, California, United States of America",
            "locType": "city"
        },
        "sydney": {
            "longitude": "-117.1532177",
            "blogLinks": [
                "http://www.mercurynews.com/2015/06/02/18-quirky-bay-area-adventures-and-destinations/"
            ],
            "closest_to": "",
            "latitude": "32.9663437",
            "address": "Sydney Rae Place, San Diego, San Diego County, California, 92129, United States of America",
            "locType": "residential"
        },
        "taylor street": {
            "longitude": "-118.2071834",
            "blogLinks": [
                "http://www.mercurynews.com/2015/06/02/18-quirky-bay-area-adventures-and-destinations/"
            ],
            "closest_to": "",
            "latitude": "33.8797864",
            "address": "Taylor Street, North Long Beach, Long Beach, Los Angeles County, California, 90805, United States of America",
            "locType": "residential"
        },
        "san luis obispo": {
            "longitude": "-120.6596155",
            "blogLinks": [
                "http://www.usatourist.com/english/destinations/california/california-driving-tour.html"
            ],
            "closest_to": "",
            "latitude": "35.2827525",
            "address": "San Luis Obispo, San Luis Obispo County, California, United States of America",
            "locType": "city"
        },
        "california-nevada": {
            "longitude": "-115.144667930325",
            "blogLinks": [
                "http://www.travbuddy.com/California-travel-guide-p85"
            ],
            "closest_to": "",
            "latitude": "36.17310935",
            "address": "California Hotel, Sky Walk(Connection from Main Street to California, Cultural Corridor, Vegas Heights, Las Vegas, Clark County, Nevada, 89101, United States of America",
            "locType": "hotel"
        },
        "pacific avenue": {
            "longitude": "-118.2641839",
            "blogLinks": [
                "http://www.sfgate.com/restaurants/diningout/article/Superb-restaurants-for-visitors-to-Santa-Cruz-4986382.php"
            ],
            "closest_to": "",
            "latitude": "34.1571445",
            "address": "Pacific Avenue, Glendale, Los Angeles County, California, 91203, United States of America",
            "locType": "secondary"
        },
        "san fran": {
            "longitude": "-118.4903642",
            "blogLinks": [
                "https://uk.answers.yahoo.com/question/index?qid=20100127020428AApYBwZ"
            ],
            "closest_to": "",
            "latitude": "35.142465",
            "address": "Golden Hills, Kern County, California, United States of America",
            "locType": "village"
        },
        "morro bay": {
            "longitude": "-120.8499012",
            "blogLinks": [
                "https://uk.answers.yahoo.com/question/index?qid=20100127020428AApYBwZ"
            ],
            "closest_to": "",
            "latitude": "35.3658075",
            "address": "Morro Bay, San Luis Obispo County, California, United States of America",
            "locType": "city"
        },
        "el dorado county": {
            "longitude": "-120.5276128",
            "blogLinks": [
                "http://www.travbuddy.com/California-travel-guide-p85"
            ],
            "closest_to": "",
            "latitude": "38.7574137",
            "address": "El Dorado County, California, United States of America",
            "locType": "administrative"
        },
        "montclair": {
            "longitude": "-117.6897775",
            "blogLinks": [
                "https://www.berkeleyparentsnetwork.org/recommend/housing/santacruz"
            ],
            "closest_to": "",
            "latitude": "34.0775104",
            "address": "Montclair, San Bernardino County, California, United States of America",
            "locType": "city"
        },
        "valencia street": {
            "longitude": "-118.2704009",
            "blogLinks": [
                "http://www.mercurynews.com/2015/06/02/18-quirky-bay-area-adventures-and-destinations/"
            ],
            "closest_to": "",
            "latitude": "34.0514903",
            "address": "Valencia Street, Financial District, Bunker Hill, LA, Los Angeles County, California, 90017, United States of America",
            "locType": "residential"
        },
        "webster street": {
            "longitude": "-118.9630699",
            "blogLinks": [
                "http://www.mercurynews.com/2015/06/02/18-quirky-bay-area-adventures-and-destinations/"
            ],
            "closest_to": "",
            "latitude": "35.369519",
            "address": "Webster Street, Kern County, California, 93307, United States of America",
            "locType": "residential"
        },
        "2016capitola beach": {
            "longitude": "-120.6345489",
            "blogLinks": [
                "https://www.tripadvisor.com/Tourism-g33048-Santa_Cruz_California-Vacations.html"
            ],
            "closest_to": "",
            "latitude": "35.13738",
            "address": "Beach, Pismo Beach Senior Mobile Home Park, Pismo Beach, San Luis Obispo County, California, 93449, United States of America",
            "locType": "service"
        },
        "pacific coast": {
            "longitude": "-118.063517668143",
            "blogLinks": [
                "http://www.usatourist.com/english/destinations/california/california-driving-tour.html"
            ],
            "closest_to": "",
            "latitude": "33.8047323",
            "address": "Pacific Coast, Florista Street, Los Alamitos, Orange County, California, 90720, United States of America",
            "locType": "yes"
        },
        "humboldt county": {
            "longitude": "-123.8997733",
            "blogLinks": [
                "http://www.travbuddy.com/California-travel-guide-p85"
            ],
            "closest_to": "",
            "latitude": "40.5997415",
            "address": "Humboldt County, California, United States of America",
            "locType": "administrative"
        },
        "yosemite": {
            "longitude": "-119.5893389",
            "blogLinks": [
                "http://www.usatourist.com/english/destinations/california/california-driving-tour.html"
            ],
            "closest_to": "",
            "latitude": "37.7488554",
            "address": "Yosemite, Village Drive, Yosemite Village, Yosemite Valley, Mariposa County, California, United States of America",
            "locType": "attraction"
        },
        "colorado river": {
            "longitude": "-114.542164096234",
            "blogLinks": [
                "http://www.usatourist.com/english/destinations/california/california-driving-tour.html"
            ],
            "closest_to": "",
            "latitude": "33.58648635",
            "address": "Colorado River, Riviera Drive, East Blythe, Riverside County, California, 92225, United States of America",
            "locType": "water"
        },
        "us": {
            "longitude": "-118.7559973",
            "blogLinks": [
                "http://www.usatourist.com/english/destinations/california/california-driving-tour.html",
                "http://www.travbuddy.com/California-travel-guide-p85"
            ],
            "closest_to": "",
            "latitude": "36.7014631",
            "address": "California, United States of America",
            "locType": "administrative"
        },
        "sacramento": {
            "longitude": "-121.4943995",
            "blogLinks": [
                "http://www.travbuddy.com/California-travel-guide-p85"
            ],
            "closest_to": "",
            "latitude": "38.5815719",
            "address": "Sacramento, Sacramento County, California, United States of America",
            "locType": "city"
        },
        "williams": {
            "longitude": "-122.1494186",
            "blogLinks": [
                "http://www.usatourist.com/english/destinations/california/california-driving-tour.html"
            ],
            "closest_to": "",
            "latitude": "39.1546137",
            "address": "Williams, Colusa County, California, United States of America",
            "locType": "city"
        },
        "calico": {
            "longitude": "-119.206496",
            "blogLinks": [
                "http://www.travbuddy.com/California-travel-guide-p85"
            ],
            "closest_to": "",
            "latitude": "35.6327332",
            "address": "Calico, Kern County, California, United States of America",
            "locType": "locality"
        },
        "america": {
            "longitude": "-119.8948706",
            "blogLinks": [
                "http://www.travbuddy.com/California-travel-guide-p85"
            ],
            "closest_to": "",
            "latitude": "36.2573198",
            "address": "America, Kings County, California, 93246, United States of America",
            "locType": "residential"
        },
        "yosemite national park": {
            "longitude": "-119.516587698025",
            "blogLinks": [
                "http://www.travbuddy.com/California-travel-guide-p85"
            ],
            "closest_to": "",
            "latitude": "37.84054795",
            "address": "Yosemite National Park, Mt. Hoffmann Trail, Mariposa County, California, United States of America",
            "locType": "national_park"
        },
        "santa": {
            "longitude": "-80.3796642",
            "blogLinks": [
                "https://www.berkeleyparentsnetwork.org/recommend/housing/santacruz",
                "http://www.bestplaces.net/compare-cities/santa_cruz_ca/berkeley_ca/housing",
                "http://www.distancesfrom.com/us/distance-from-Los-Angeles-to-Berkeley-via-Santa-Cruz/DistanceHistory/19318096.aspx",
                "https://www.tripadvisor.com/Tourism-g33048-Santa_Cruz_California-Vacations.html",
                "https://uk.answers.yahoo.com/question/index?qid=20100127020428AApYBwZ",
                "http://www.distancesfrom.com/us/travel-from-Santa-Cruz-to-Berkeley-CA/TravelFromHistory/4546922.aspx"
            ],
            "closest_to": "",
            "latitude": "22.4804035",
            "address": "California, Santa Isabel de las Lajas, Cienfuegos, Cuba",
            "locType": "hamlet"
        },
        "carmel": {
            "longitude": "-121.353308848273",
            "blogLinks": [
                "http://www.usatourist.com/english/destinations/california/california-driving-tour.html",
                "https://uk.answers.yahoo.com/question/index?qid=20100127020428AApYBwZ",
                "http://www.travbuddy.com/California-travel-guide-p85"
            ],
            "closest_to": "",
            "latitude": "38.75511285",
            "address": "Carmel, Roseville, Placer County, California, 95747, United States of America",
            "locType": "residential"
        },
        "palm springs": {
            "longitude": "-116.5403029",
            "blogLinks": [
                "http://www.usatourist.com/english/destinations/california/california-driving-tour.html"
            ],
            "closest_to": "",
            "latitude": "33.8246269",
            "address": "Palm Springs, Riverside County, California, United States of America",
            "locType": "city"
        },
        "orange county": {
            "longitude": "-117.870493",
            "blogLinks": [
                "http://www.travbuddy.com/California-travel-guide-p85"
            ],
            "closest_to": "",
            "latitude": "33.7500378",
            "address": "Orange County, California, United States of America",
            "locType": "administrative"
        },
        "solvang": {
            "longitude": "-120.1390893",
            "blogLinks": [
                "http://www.usatourist.com/english/destinations/california/california-driving-tour.html"
            ],
            "closest_to": "",
            "latitude": "34.5958572",
            "address": "Solvang, Santa Barbara County, California, United States of America",
            "locType": "city"
        },
        "east field": {
            "longitude": "-118.524003299971",
            "blogLinks": [
                "http://www.ucsc.edu/visit/"
            ],
            "closest_to": "",
            "latitude": "34.24176515",
            "address": "East Field, Zelzah Avenue, Northridge, LA, Los Angeles County, California, 91344, United States of America",
            "locType": "pitch"
        },
        "las vegas strip": {
            "longitude": "-115.173775796208",
            "blogLinks": [
                "http://www.usatourist.com/english/destinations/california/california-driving-tour.html"
            ],
            "closest_to": "",
            "latitude": "36.12050715",
            "address": "California Pizza Kitchen, South Las Vegas Boulevard, Hughes Center, Paradise, Clark County, Nevada, 89123, United States of America",
            "locType": "restaurant"
        },
        "hwy 101": {
            "longitude": "-117.2731974",
            "blogLinks": [
                "https://uk.answers.yahoo.com/question/index?qid=20100127020428AApYBwZ"
            ],
            "closest_to": "",
            "latitude": "32.9967358",
            "address": "Highway 101, Solana Beach, San Diego County, California, 92075, United States of America",
            "locType": "primary"
        },
        "boulder city": {
            "longitude": "-114.8341879",
            "blogLinks": [
                "http://www.usatourist.com/english/destinations/california/california-driving-tour.html"
            ],
            "closest_to": "",
            "latitude": "35.974186",
            "address": "California Avenue, Boulder City, Clark County, Nevada, 89005, United States of America",
            "locType": "residential"
        },
        "fort bragg": {
            "longitude": "-123.802699105743",
            "blogLinks": [
                "http://www.goldengatetours.net/places"
            ],
            "closest_to": "",
            "latitude": "39.4447345",
            "address": "Fort Bragg, Mendocino County, California, United States of America",
            "locType": "city"
        }
    },
    "berkeley": {
        "boundingbox": [
            "37.835727",
            "37.9066896",
            "-122.3686792",
            "-122.2341961"
        ],
        "lon": "-122.2728638",
        "class": "place",
        "licence": "Data \u00a9 OpenStreetMap contributors, ODbL 1.0. http://www.openstreetmap.org/copyright",
        "importance": 0.78550511760774,
        "icon": "https://nominatim.openstreetmap.org/images/mapicons/poi_place_city.p.20.png",
        "lat": "37.8708393",
        "osm_id": "2833528",
        "type": "city",
        "osm_type": "relation",
        "place_id": "159273659",
        "display_name": "Berkeley, Alameda County, California, United States of America"
    },
    "santa cruz": {
        "boundingbox": [
            "36.9479995",
            "37.0251537",
            "-122.1512979",
            "-121.9867104"
        ],
        "lon": "-122.0260569",
        "class": "place",
        "licence": "Data \u00a9 OpenStreetMap contributors, ODbL 1.0. http://www.openstreetmap.org/copyright",
        "importance": 0.80562903030115,
        "icon": "https://nominatim.openstreetmap.org/images/mapicons/poi_place_city.p.20.png",
        "lat": "36.9735903",
        "osm_id": "111737",
        "type": "city",
        "osm_type": "relation",
        "place_id": "157779626",
        "display_name": "Santa Cruz, Santa Cruz County, California, United States of America"
    }
}