{
    "fresno": {
        "type": "city",
        "osm_id": "33120274",
        "class": "place",
        "importance": 0.79213103374115,
        "lat": "36.748793",
        "lon": "-119.714839601149",
        "boundingbox": [
            "36.747122",
            "36.75042",
            "-119.7159249",
            "-119.7091549"
        ],
        "display_name": "Fresno, Fresno County, California, United States of America",
        "licence": "Data \u00a9 OpenStreetMap contributors, ODbL 1.0. http://www.openstreetmap.org/copyright",
        "icon": "https://nominatim.openstreetmap.org/images/mapicons/poi_place_city.p.20.png",
        "place_id": "72530219",
        "osm_type": "way"
    },
    "mentions": {
        "pacific coast highway": {
            "latitude": "33.6595127",
            "closest_to": "",
            "address": "Pacific Coast Highway, Huntington Beach, Orange County, California, 92648, United States of America",
            "locType": "primary",
            "blogLinks": [
                "http://www.travbuddy.com/California-travel-guide-p85",
                "http://highway1discoveryroute.com/blog/",
                "http://gocalifornia.about.com/cs/bigsur/a/highwayone.htm",
                "http://www.hopper.com/articles/291/five-great-stops-between-los-angeles-and-san-francisco-on-the-pacific-coast-highway"
            ],
            "longitude": "-118.0051687"
        },
        "lake dolores": {
            "latitude": "33.8330727",
            "closest_to": "",
            "address": "Dolores, Los Angeles County, California, United States of America",
            "locType": "hamlet",
            "blogLinks": [
                "http://www.parks.ca.gov/?page_id=22722"
            ],
            "longitude": "-118.2264594"
        },
        "spain": {
            "latitude": "37.1412332",
            "closest_to": "",
            "address": "La California, Mor\u00f3n de la Frontera, Sevilla, Andaluc\u00eda, Espa\u00f1a",
            "locType": "locality",
            "blogLinks": [
                "http://www.parks.ca.gov/?page_id=22722"
            ],
            "longitude": "-5.4610806"
        },
        "golden gate bridge": {
            "latitude": "37.8302809",
            "closest_to": "",
            "address": "Golden Gate Bridge, Waldo, Marin County, California, 94965, United States of America",
            "locType": "motorway",
            "blogLinks": [
                "http://www.usatourist.com/english/destinations/california/california-driving-tour.html",
                "http://gocalifornia.about.com/cs/bigsur/a/highwayone.htm"
            ],
            "longitude": "-122.4798473"
        },
        "irvine": {
            "latitude": "33.6856969",
            "closest_to": "",
            "address": "Irvine, Orange County, California, United States of America",
            "locType": "city",
            "blogLinks": [
                "http://www.tripleblaze.com/best/?c=59"
            ],
            "longitude": "-117.8259818"
        },
        "highway 101": {
            "latitude": "32.9967358",
            "closest_to": "",
            "address": "Highway 101, Solana Beach, San Diego County, California, 92075, United States of America",
            "locType": "primary",
            "blogLinks": [
                "http://travelblog.viator.com/road-trip-san-francisco-los-angeles/",
                "http://www.parks.ca.gov/?page_id=22722",
                "https://sanluisobispovacations.com/shareslo-blog/"
            ],
            "longitude": "-117.2731974"
        },
        "california state park": {
            "latitude": "33.895296",
            "closest_to": "",
            "address": "California Citrus State Historic Park, Van Buren Boulevard, Riverside, Riverside County, California, 92504, United States of America",
            "locType": "park",
            "blogLinks": [
                "http://www.hopper.com/articles/291/five-great-stops-between-los-angeles-and-san-francisco-on-the-pacific-coast-highway"
            ],
            "longitude": "-117.420521298137"
        },
        "arizona": {
            "latitude": "34.4631398",
            "closest_to": "",
            "address": "Arizona, San Bernardino County, California, 92371, United States of America",
            "locType": "track",
            "blogLinks": [
                "http://www.usatourist.com/english/destinations/california/california-driving-tour.html"
            ],
            "longitude": "-117.5060679"
        },
        "beverly hills": {
            "latitude": "34.0736204",
            "closest_to": "",
            "address": "Beverly Hills, Los Angeles County, California, United States of America",
            "locType": "city",
            "blogLinks": [
                "http://www.travbuddy.com/California-travel-guide-p85",
                "http://www.usatourist.com/english/destinations/california/california-driving-tour.html"
            ],
            "longitude": "-118.4003562"
        },
        "napa valley wine": {
            "latitude": "38.3354299",
            "closest_to": "",
            "address": "BEST WESTERN PREMIER Ivy Hotel Napa, Wine Country Avenue, Napa, Napa County, California, 94558, United States of America",
            "locType": "motel",
            "blogLinks": [
                "http://www.usatourist.com/english/destinations/california/california-driving-tour.html"
            ],
            "longitude": "-122.3232132"
        },
        "phoenix": {
            "latitude": "33.6988015",
            "closest_to": "",
            "address": "Phoenix, Heritage Park Apartments, El Camino Real, Irvine, Orange County, California, 92604, United States of America",
            "locType": "residential",
            "blogLinks": [
                "http://visitslo.com/getting-around/"
            ],
            "longitude": "-117.7764481"
        },
        "humboldt county": {
            "latitude": "40.5997415",
            "closest_to": "",
            "address": "Humboldt County, California, United States of America",
            "locType": "administrative",
            "blogLinks": [
                "http://www.travbuddy.com/California-travel-guide-p85"
            ],
            "longitude": "-123.8997733"
        },
        "monterey bay": {
            "latitude": "36.7999557",
            "closest_to": "",
            "address": "Monterey Bay, Monterey County, California, United States of America",
            "locType": "bay",
            "blogLinks": [
                "http://www.travbuddy.com/California-travel-guide-p85",
                "http://travelblog.viator.com/road-trip-san-francisco-los-angeles/",
                "http://www.parks.ca.gov/?page_id=22722",
                "http://www.hopper.com/articles/291/five-great-stops-between-los-angeles-and-san-francisco-on-the-pacific-coast-highway"
            ],
            "longitude": "-121.9010667"
        },
        "mission creek rd.": {
            "latitude": "33.329445",
            "closest_to": "",
            "address": "Mission Creek Road, Winterwarm, San Diego County, California, 92028, United States of America",
            "locType": "residential",
            "blogLinks": [
                "http://www.parks.ca.gov/?page_id=22722"
            ],
            "longitude": "-117.2382279"
        },
        "santa cruz": {
            "latitude": "36.9735903",
            "closest_to": "",
            "address": "Santa Cruz, Santa Cruz County, California, United States of America",
            "locType": "city",
            "blogLinks": [
                "http://www.travbuddy.com/California-travel-guide-p85",
                "http://www.usatourist.com/english/destinations/california/california-driving-tour.html",
                "http://gocalifornia.about.com/cs/bigsur/a/highwayone.htm",
                "http://www.parks.ca.gov/?page_id=22722"
            ],
            "longitude": "-122.0260569"
        },
        "morro bay strand": {
            "latitude": "33.255497",
            "closest_to": "",
            "address": "Morro Bay Street, Oceanside, San Diego County, California, 92057, United States of America",
            "locType": "residential",
            "blogLinks": [
                "http://highway1discoveryroute.com/blog/"
            ],
            "longitude": "-117.3174209"
        },
        "yerba buena island": {
            "latitude": "37.8099281",
            "closest_to": "",
            "address": "Yerba Buena Island, SF, California, United States of America",
            "locType": "island",
            "blogLinks": [
                "http://www.parks.ca.gov/?page_id=22722"
            ],
            "longitude": "-122.3660816"
        },
        "las angeles": {
            "latitude": "33.9995929",
            "closest_to": "",
            "address": "California, Obregon Street, West Whittier, Rosemead, Los Angeles County, California, 90606, United States of America",
            "locType": "abandoned",
            "blogLinks": [
                "http://www.travbuddy.com/California-travel-guide-p85"
            ],
            "longitude": "-118.0668337"
        },
        "san francisco bay area": {
            "latitude": "37.7884969",
            "closest_to": "",
            "address": "San Francisco Bay Area, SF, California, United States of America",
            "locType": "region",
            "blogLinks": [
                "https://main.transportation.ucla.edu/getting-to-ucla/travel-options/amtrak-california-thruway-service-to-and-from-ucla",
                "https://sanluisobispovacations.com/shareslo-blog/"
            ],
            "longitude": "-122.3558472"
        },
        "lax": {
            "latitude": "33.94211345",
            "closest_to": "",
            "address": "Los Angeles International Airport, Gate 41, Westchester, Playa del Rey, LA, Los Angeles County, California, 90245, United States of America",
            "locType": "aerodrome",
            "blogLinks": [
                "https://sanluisobispovacations.com/shareslo-blog/"
            ],
            "longitude": "-118.407057290249"
        },
        "camino capistrano": {
            "latitude": "33.5045525",
            "closest_to": "",
            "address": "Camino Capistrano, San Juan Capistrano, Orange County, California, 92675, United States of America",
            "locType": "secondary",
            "blogLinks": [
                "http://www.parks.ca.gov/?page_id=22722"
            ],
            "longitude": "-117.6641659"
        },
        "big city": {
            "latitude": "34.267886",
            "closest_to": "",
            "address": "Big Bear City, Anita Avenue, Big Bear City, San Bernardino County, California, 92314, United States of America",
            "locType": "administrative",
            "blogLinks": [
                "https://sanluisobispovacations.com/shareslo-blog/"
            ],
            "longitude": "-116.848597753191"
        },
        "north bay area": {
            "latitude": "32.7667127",
            "closest_to": "",
            "address": "California Collections, Smoking Area, Old Town, San Diego, San Diego County, California, 921009, United States of America",
            "locType": "gift",
            "blogLinks": [
                "https://sanluisobispovacations.com/shareslo-blog/"
            ],
            "longitude": "-117.228172861512"
        },
        "pacific coast": {
            "latitude": "33.8047323",
            "closest_to": "",
            "address": "Pacific Coast, Florista Street, Los Alamitos, Orange County, California, 90720, United States of America",
            "locType": "yes",
            "blogLinks": [
                "http://www.usatourist.com/english/destinations/california/california-driving-tour.html"
            ],
            "longitude": "-118.063517668143"
        },
        "golden state": {
            "latitude": "39.6712719",
            "closest_to": "",
            "address": "Golden State Island, Butte County, California, United States of America",
            "locType": "island",
            "blogLinks": [
                "http://www.parks.ca.gov/?page_id=22722"
            ],
            "longitude": "-121.9619226"
        },
        "central valley": {
            "latitude": "40.5626504",
            "closest_to": "",
            "address": "KNNN-FM (Central Valley), Rattlesnake Drive, Shasta County, California, 96001, United States of America",
            "locType": "tower",
            "blogLinks": [
                "https://main.transportation.ucla.edu/getting-to-ucla/travel-options/amtrak-california-thruway-service-to-and-from-ucla"
            ],
            "longitude": "-122.4530663"
        },
        "seattle": {
            "latitude": "41.9641881",
            "closest_to": "",
            "address": "Seattle, Dorris, Siskiyou County, California, 96023, United States of America",
            "locType": "residential",
            "blogLinks": [
                "http://visitslo.com/getting-around/"
            ],
            "longitude": "-121.9226289"
        },
        "san luis rey": {
            "latitude": "33.2319797",
            "closest_to": "",
            "address": "San Luis Rey, San Diego County, California, United States of America",
            "locType": "hamlet",
            "blogLinks": [
                "http://www.parks.ca.gov/?page_id=22722"
            ],
            "longitude": "-117.3236484"
        },
        "san francisco solano": {
            "latitude": "38.21389995",
            "closest_to": "",
            "address": "California Missions Museum, Arnold Drive, McGill, Sonoma County, California, United States of America",
            "locType": "museum",
            "blogLinks": [
                "http://www.parks.ca.gov/?page_id=22722"
            ],
            "longitude": "-122.458560315194"
        },
        "mallard lake ranch": {
            "latitude": "33.6682758",
            "closest_to": "",
            "address": "Mallard Road, Terra Cotta, Lake Elsinore, Riverside County, California, 92530, United States of America",
            "locType": "residential",
            "blogLinks": [
                "http://highway1discoveryroute.com/blog/"
            ],
            "longitude": "-117.3792448"
        },
        "pacific": {
            "latitude": "38.7601815",
            "closest_to": "",
            "address": "Pacific, El Dorado County, California, United States of America",
            "locType": "hamlet",
            "blogLinks": [
                "http://www.travbuddy.com/California-travel-guide-p85",
                "http://highway1discoveryroute.com/blog/",
                "http://travelblog.viator.com/road-trip-san-francisco-los-angeles/",
                "http://www.usatourist.com/english/destinations/california/california-driving-tour.html"
            ],
            "longitude": "-120.507146"
        },
        "sonoma": {
            "latitude": "38.5110803",
            "closest_to": "",
            "address": "Sonoma County, California, United States of America",
            "locType": "administrative",
            "blogLinks": [
                "http://www.tripleblaze.com/best/?c=59",
                "http://www.morrobay.org/things-to-do/free-things-to-do",
                "http://gocalifornia.about.com/cs/bigsur/a/highwayone.htm"
            ],
            "longitude": "-122.8473387"
        },
        "american riviera": {
            "latitude": "38.576666",
            "closest_to": "",
            "address": "American River Drive, La Riviera, Sacramento County, California, 95608, United States of America",
            "locType": "tertiary",
            "blogLinks": [
                "http://travelblog.viator.com/road-trip-san-francisco-los-angeles/",
                "http://www.hopper.com/articles/291/five-great-stops-between-los-angeles-and-san-francisco-on-the-pacific-coast-highway"
            ],
            "longitude": "-121.3602199"
        },
        "southern california": {
            "latitude": "34.0224149",
            "closest_to": "",
            "address": "University of Southern California, Watt Way, Saint James Park, LA, Los Angeles County, California, 90089, United States of America",
            "locType": "university",
            "blogLinks": [
                "http://www.usatourist.com/english/destinations/california/california-driving-tour.html",
                "http://www.hopper.com/articles/291/five-great-stops-between-los-angeles-and-san-francisco-on-the-pacific-coast-highway"
            ],
            "longitude": "-118.286343973446"
        },
        "los angeles county": {
            "latitude": "34.3155072",
            "closest_to": "",
            "address": "Los Angeles County, California, United States of America",
            "locType": "administrative",
            "blogLinks": [
                "http://www.travbuddy.com/California-travel-guide-p85"
            ],
            "longitude": "-118.2096813"
        },
        "guadalupe": {
            "latitude": "29.0350656",
            "closest_to": "",
            "address": "Isla Guadalupe, Ensenada, Baja California, M\u00e9xico",
            "locType": "island",
            "blogLinks": [
                "http://highway1discoveryroute.com/blog/"
            ],
            "longitude": "-118.269896818344"
        },
        "newport beach": {
            "latitude": "33.6170092",
            "closest_to": "",
            "address": "Newport Beach, Orange County, California, United States of America",
            "locType": "city",
            "blogLinks": [
                "http://www.travbuddy.com/California-travel-guide-p85"
            ],
            "longitude": "-117.92944"
        },
        "zinnia": {
            "latitude": "33.6646522",
            "closest_to": "",
            "address": "Zinnia, Woodbridge, Irvine, Orange County, California, 92618, United States of America",
            "locType": "residential",
            "blogLinks": [
                "https://sanluisobispovacations.com/shareslo-blog/"
            ],
            "longitude": "-117.7805767"
        },
        "central california": {
            "latitude": "38.392688",
            "closest_to": "",
            "address": "Central, Yolo County, California, United States of America",
            "locType": "hamlet",
            "blogLinks": [
                "http://highway1discoveryroute.com/blog/"
            ],
            "longitude": "-121.573011"
        },
        "south lake tahoe": {
            "latitude": "38.929125",
            "closest_to": "",
            "address": "South Lake Tahoe, El Dorado County, California, United States of America",
            "locType": "city",
            "blogLinks": [
                "http://www.travbuddy.com/California-travel-guide-p85"
            ],
            "longitude": "-119.987846390157"
        },
        "capistrano beach": {
            "latitude": "33.4625277",
            "closest_to": "",
            "address": "Capistrano Beach, Orange County, California, United States of America",
            "locType": "hamlet",
            "blogLinks": [
                "http://gocalifornia.about.com/cs/bigsur/a/highwayone.htm"
            ],
            "longitude": "-117.6717174"
        },
        "argentina": {
            "latitude": "-31.451096",
            "closest_to": "",
            "address": "California, C\u00f3rdoba, Departamento Capital, Cba., Argentina",
            "locType": "administrative",
            "blogLinks": [
                "http://www.parks.ca.gov/?page_id=22722"
            ],
            "longitude": "-64.205523"
        },
        "san elijo": {
            "latitude": "33.0228",
            "closest_to": "",
            "address": "San Elijo, Olivenhain, San Diego County, California, 92091, United States of America",
            "locType": "residential",
            "blogLinks": [
                "http://www.tripleblaze.com/best/?c=59"
            ],
            "longitude": "-117.2283709"
        },
        "chicago": {
            "latitude": "37.7850531",
            "closest_to": "",
            "address": "Chicago, Woodstock, Alameda, Alameda County, California, 94501, United States of America",
            "locType": "residential",
            "blogLinks": [
                "http://highway1discoveryroute.com/blog/",
                "https://sanluisobispovacations.com/shareslo-blog/"
            ],
            "longitude": "-122.2872948"
        },
        "rialto": {
            "latitude": "34.1064001",
            "closest_to": "",
            "address": "Rialto, San Bernardino County, California, United States of America",
            "locType": "city",
            "blogLinks": [
                "http://www.roadsideamerica.com/location/ca/all"
            ],
            "longitude": "-117.3703234"
        },
        "u.s.": {
            "latitude": "-32.5446226",
            "closest_to": "",
            "address": "La California, Municipio de Las Rosas, Departamento Belgrano, Sta. Fe, Argentina",
            "locType": "hamlet",
            "blogLinks": [
                "https://sanluisobispovacations.com/shareslo-blog/"
            ],
            "longitude": "-61.5489543"
        },
        "nevada": {
            "latitude": "39.3540335",
            "closest_to": "",
            "address": "Nevada County, California, United States of America",
            "locType": "administrative",
            "blogLinks": [
                "http://www.usatourist.com/english/destinations/california/california-driving-tour.html"
            ],
            "longitude": "-120.8089842"
        },
        "ocean beach": {
            "latitude": "32.7477784",
            "closest_to": "",
            "address": "Ocean Beach, San Diego, San Diego County, California, United States of America",
            "locType": "region",
            "blogLinks": [
                "http://travelblog.viator.com/road-trip-san-francisco-los-angeles/"
            ],
            "longitude": "-117.249321"
        },
        "santa cruz beach boardwalk": {
            "latitude": "36.96446855",
            "closest_to": "",
            "address": "Santa Cruz Beach Boardwalk, Boardwalk, Beach & Boardwalk District (Commercial), Seabright, Santa Cruz, Santa Cruz County, California, 1982, United States of America",
            "locType": "attraction",
            "blogLinks": [
                "http://travelblog.viator.com/road-trip-san-francisco-los-angeles/"
            ],
            "longitude": "-122.016027247326"
        },
        "grande valley": {
            "latitude": "38.8701806",
            "closest_to": "",
            "address": "Pino Grande, El Dorado County, California, United States of America",
            "locType": "hamlet",
            "blogLinks": [
                "http://highway1discoveryroute.com/blog/"
            ],
            "longitude": "-120.6260382"
        },
        "santa clara": {
            "latitude": "37.3541132",
            "closest_to": "",
            "address": "Santa Clara, Santa Clara County, California, United States of America",
            "locType": "city",
            "blogLinks": [
                "http://www.parks.ca.gov/?page_id=22722"
            ],
            "longitude": "-121.9551743"
        },
        "williams": {
            "latitude": "39.1546137",
            "closest_to": "",
            "address": "Williams, Colusa County, California, United States of America",
            "locType": "city",
            "blogLinks": [
                "http://www.usatourist.com/english/destinations/california/california-driving-tour.html"
            ],
            "longitude": "-122.1494186"
        },
        "cabrillo highway": {
            "latitude": "36.9897437",
            "closest_to": "",
            "address": "Cabrillo Highway, Downtown, Santa Cruz, Santa Cruz County, California, 95060, United States of America",
            "locType": "motorway",
            "blogLinks": [
                "http://gocalifornia.about.com/cs/bigsur/a/highwayone.htm"
            ],
            "longitude": "-122.0220453"
        },
        "pismo": {
            "latitude": "24.1378257",
            "closest_to": "",
            "address": "Pismo, La Paz, Baja California Sur, 23206, M\u00e9xico",
            "locType": "residential",
            "blogLinks": [
                "http://highway1discoveryroute.com/blog/",
                "https://sanluisobispovacations.com/shareslo-blog/"
            ],
            "longitude": "-110.3437034"
        },
        "san francisco bay": {
            "latitude": "37.708264",
            "closest_to": "",
            "address": "San Francisco Bay, Ferry Landing, Alameda, Alameda County, California, 94502, United States of America",
            "locType": "bay",
            "blogLinks": [
                "http://www.travbuddy.com/California-travel-guide-p85",
                "http://www.usatourist.com/english/destinations/california/california-driving-tour.html"
            ],
            "longitude": "-122.2802469"
        },
        "east coast": {
            "latitude": "37.858337",
            "closest_to": "",
            "address": "Coast, Ashby Avenue, Claremont, Berkeley, Alameda County, California, 94705, United States of America",
            "locType": "fuel",
            "blogLinks": [
                "https://sanluisobispovacations.com/shareslo-blog/"
            ],
            "longitude": "-122.2447393"
        },
        "morro beach": {
            "latitude": "33.7086968",
            "closest_to": "",
            "address": "Morro Bay Lane, Huntington Beach, Orange County, California, 92647, United States of America",
            "locType": "residential",
            "blogLinks": [
                "http://www.morrobay.org/things-to-do/free-things-to-do"
            ],
            "longitude": "-118.0169472"
        },
        "silicon valley": {
            "latitude": "37.4105333",
            "closest_to": "",
            "address": "Carnegie Mellon Silicon Valley, South Akron Road, Santa Clara County, California, 94035-0016, United States of America",
            "locType": "school",
            "blogLinks": [
                "http://www.travbuddy.com/California-travel-guide-p85",
                "http://www.usatourist.com/english/destinations/california/california-driving-tour.html"
            ],
            "longitude": "-122.0597491"
        },
        "alcatraz island": {
            "latitude": "37.8267283",
            "closest_to": "",
            "address": "Alcatraz Island, SF, California, United States of America",
            "locType": "island",
            "blogLinks": [
                "http://www.usatourist.com/english/destinations/california/california-driving-tour.html"
            ],
            "longitude": "-122.422746492409"
        },
        "napa valley": {
            "latitude": "39.0234679",
            "closest_to": "",
            "address": "Napa Valley, Cold Spring, Campbell County, Kentucky, 41076, United States of America",
            "locType": "residential",
            "blogLinks": [
                "http://www.travbuddy.com/California-travel-guide-p85"
            ],
            "longitude": "-84.4504647"
        },
        "santa": {
            "latitude": "22.4804035",
            "closest_to": "",
            "address": "California, Santa Isabel de las Lajas, Cienfuegos, Cuba",
            "locType": "hamlet",
            "blogLinks": [
                "http://highway1discoveryroute.com/blog/"
            ],
            "longitude": "-80.3796642"
        },
        "eureka": {
            "latitude": "40.8020712",
            "closest_to": "",
            "address": "Eureka, Humboldt County, California, United States of America",
            "locType": "city",
            "blogLinks": [
                "http://www.travbuddy.com/California-travel-guide-p85"
            ],
            "longitude": "-124.1636728"
        },
        "berkeley": {
            "latitude": "37.8708393",
            "closest_to": "",
            "address": "Berkeley, Alameda County, California, United States of America",
            "locType": "city",
            "blogLinks": [
                "http://www.travbuddy.com/California-travel-guide-p85"
            ],
            "longitude": "-122.2728638"
        },
        "west coast": {
            "latitude": "34.0222263",
            "closest_to": "",
            "address": "West Coast, Motor Avenue, Palms, LA, Los Angeles County, California, 90034-5702, United States of America",
            "locType": "plumber",
            "blogLinks": [
                "http://highway1discoveryroute.com/blog/"
            ],
            "longitude": "-118.4051087"
        },
        "higuera street": {
            "latitude": "34.0219755",
            "closest_to": "",
            "address": "Higuera Street, The Village Green, LA, Los Angeles County, California, 90232, United States of America",
            "locType": "residential",
            "blogLinks": [
                "http://visitslo.com/things-to-do/",
                "https://sanluisobispovacations.com/shareslo-blog/"
            ],
            "longitude": "-118.3779645"
        },
        "loon lake": {
            "latitude": "38.9998212",
            "closest_to": "",
            "address": "Loon Lake, Ice House Road, El Dorado County, California, United States of America",
            "locType": "water",
            "blogLinks": [
                "http://www.tripleblaze.com/best/?c=59"
            ],
            "longitude": "-120.306228938508"
        },
        "rockport": {
            "latitude": "39.7387659",
            "closest_to": "",
            "address": "Rockport, Mendocino County, California, United States of America",
            "locType": "hamlet",
            "blogLinks": [
                "http://gocalifornia.about.com/cs/bigsur/a/highwayone.htm"
            ],
            "longitude": "-123.8161312"
        },
        "republic of california": {
            "latitude": "34.0562192",
            "closest_to": "",
            "address": "Republic Street, El Pueblo, Little Tokyo Historic District, LA, Los Angeles County, California, 90012, United States of America",
            "locType": "residential",
            "blogLinks": [
                "http://www.parks.ca.gov/?page_id=22722"
            ],
            "longitude": "-118.2397302"
        },
        "caribbean": {
            "latitude": "33.81078775",
            "closest_to": "",
            "address": "Pirates of the Caribbean, 50, Esplanade Road, Anaheim Resort District, Anaheim, Orange County, California, 217, United States of America",
            "locType": "attraction",
            "blogLinks": [
                "https://sanluisobispovacations.com/shareslo-blog/"
            ],
            "longitude": "-117.921214705842"
        },
        "mojave desert": {
            "latitude": "35.1456319",
            "closest_to": "",
            "address": "Mojave Desert, Utility Road, San Bernardino County, California, United States of America",
            "locType": "desert",
            "blogLinks": [
                "http://www.usatourist.com/english/destinations/california/california-driving-tour.html"
            ],
            "longitude": "-115.548963686646"
        },
        "monterey bay aquarium": {
            "latitude": "36.61809095",
            "closest_to": "",
            "address": "MBA, 886, Cannery Row, Monterey, Monterey County, California, 93940, United States of America",
            "locType": "aquarium",
            "blogLinks": [
                "http://travelblog.viator.com/road-trip-san-francisco-los-angeles/",
                "http://www.hopper.com/articles/291/five-great-stops-between-los-angeles-and-san-francisco-on-the-pacific-coast-highway"
            ],
            "longitude": "-121.901680002002"
        },
        "avila": {
            "latitude": "34.151876",
            "closest_to": "",
            "address": "Avila, Los Angeles County, California, 91750, United States of America",
            "locType": "residential",
            "blogLinks": [
                "http://highway1discoveryroute.com/blog/"
            ],
            "longitude": "-117.7559123"
        },
        "san jose": {
            "latitude": "37.3361905",
            "closest_to": "",
            "address": "San Jos\u00e9, Santa Clara County, California, United States of America",
            "locType": "city",
            "blogLinks": [
                "http://www.travbuddy.com/California-travel-guide-p85",
                "http://www.usatourist.com/english/destinations/california/california-driving-tour.html",
                "http://www.parks.ca.gov/?page_id=22722"
            ],
            "longitude": "-121.8905832"
        },
        "baja california": {
            "latitude": "27.35789705",
            "closest_to": "",
            "address": "Pen\u00ednsula de Baja California, Muleg\u00e9, Baja California Sur, M\u00e9xico",
            "locType": "peninsula",
            "blogLinks": [
                "http://highway1discoveryroute.com/blog/"
            ],
            "longitude": "-113.380835042571"
        },
        "san luis": {
            "latitude": "32.4962137",
            "closest_to": "",
            "address": "California Street, Bienestar Estates, San Luis, Yuma County, Arizona, 85336, United States of America",
            "locType": "residential",
            "blogLinks": [
                "http://highway1discoveryroute.com/blog/"
            ],
            "longitude": "-114.7643625"
        },
        "peninsula": {
            "latitude": "33.5987849",
            "closest_to": "",
            "address": "Peninsula, Corona del Mar, Newport Beach, Orange County, California, 92657, United States of America",
            "locType": "residential",
            "blogLinks": [
                "https://sanluisobispovacations.com/shareslo-blog/"
            ],
            "longitude": "-117.830566223937"
        },
        "el dorado county": {
            "latitude": "38.7574137",
            "closest_to": "",
            "address": "El Dorado County, California, United States of America",
            "locType": "administrative",
            "blogLinks": [
                "http://www.travbuddy.com/California-travel-guide-p85"
            ],
            "longitude": "-120.5276128"
        },
        "las vegas strip": {
            "latitude": "36.12050715",
            "closest_to": "",
            "address": "California Pizza Kitchen, South Las Vegas Boulevard, Hughes Center, Paradise, Clark County, Nevada, 89123, United States of America",
            "locType": "restaurant",
            "blogLinks": [
                "http://www.usatourist.com/english/destinations/california/california-driving-tour.html"
            ],
            "longitude": "-115.173775796208"
        },
        "earth": {
            "latitude": "35.4780569",
            "closest_to": "",
            "address": "Mountain Pass Rare Earth Mine, Mountain Pass, San Bernardino County, California, 92364, United States of America",
            "locType": "quarry",
            "blogLinks": [
                "https://sanluisobispovacations.com/shareslo-blog/"
            ],
            "longitude": "-115.541994345811"
        },
        "san joaquin": {
            "latitude": "37.9372901",
            "closest_to": "",
            "address": "San Joaquin County, California, United States of America",
            "locType": "administrative",
            "blogLinks": [
                "https://main.transportation.ucla.edu/getting-to-ucla/travel-options/amtrak-california-thruway-service-to-and-from-ucla"
            ],
            "longitude": "-121.2773718"
        },
        "kingman": {
            "latitude": "33.3508348",
            "closest_to": "",
            "address": "Kingman, 31422, Borrego Palm Canyon Road, San Diego County, California, United States of America",
            "locType": "camp_site",
            "blogLinks": [
                "http://www.usatourist.com/english/destinations/california/california-driving-tour.html"
            ],
            "longitude": "-116.5745266"
        },
        "hollywood": {
            "latitude": "34.1028268",
            "closest_to": "",
            "address": "Hollywood, LA, Los Angeles County, California, United States of America",
            "locType": "suburb",
            "blogLinks": [
                "http://www.travbuddy.com/California-travel-guide-p85",
                "http://www.usatourist.com/english/destinations/california/california-driving-tour.html"
            ],
            "longitude": "-118.3299898"
        },
        "us hwy 101": {
            "latitude": "32.9967358",
            "closest_to": "",
            "address": "Highway 101, Solana Beach, San Diego County, California, 92075, United States of America",
            "locType": "primary",
            "blogLinks": [
                "http://gocalifornia.about.com/cs/bigsur/a/highwayone.htm"
            ],
            "longitude": "-117.2731974"
        },
        "sedona": {
            "latitude": "33.6916439",
            "closest_to": "",
            "address": "Sedona, Foothill Ranch, Lake Forest, Orange County, California, 92610, United States of America",
            "locType": "residential",
            "blogLinks": [
                "http://www.usatourist.com/english/destinations/california/california-driving-tour.html"
            ],
            "longitude": "-117.6689202"
        },
        "mount tamalpais": {
            "latitude": "37.879988",
            "closest_to": "",
            "address": "Tamalpais-Homestead Valley, Wendy Way, Almonte, Tamalpais Valley, Marin County, California, 94941, United States of America",
            "locType": "census",
            "blogLinks": [
                "http://www.parks.ca.gov/?page_id=22722"
            ],
            "longitude": "-122.535021480702"
        },
        "france": {
            "latitude": "34.2013715",
            "closest_to": "",
            "address": "France, Sherman Way, Canoga Park, LA, Los Angeles County, California, 91307, United States of America",
            "locType": "cafe",
            "blogLinks": [
                "http://www.parks.ca.gov/?page_id=22722"
            ],
            "longitude": "-118.5935353"
        },
        "san pedro": {
            "latitude": "33.7358518",
            "closest_to": "",
            "address": "San Pedro, LA, Los Angeles County, California, United States of America",
            "locType": "suburb",
            "blogLinks": [
                "http://www.travelcalifornia.com/Cities/Santa_Barbara/santa_barbara.htm"
            ],
            "longitude": "-118.2922933"
        },
        "alameda": {
            "latitude": "37.6090291",
            "closest_to": "",
            "address": "Alameda County, California, United States of America",
            "locType": "administrative",
            "blogLinks": [
                "http://www.parks.ca.gov/?page_id=22722"
            ],
            "longitude": "-121.8991419"
        },
        "chinatown": {
            "latitude": "37.7999301",
            "closest_to": "",
            "address": "Chinatown, Oakland, Alameda County, California, ca, United States of America",
            "locType": "neighbourhood",
            "blogLinks": [
                "http://www.usatourist.com/english/destinations/california/california-driving-tour.html"
            ],
            "longitude": "-122.2702385"
        },
        "oceanside": {
            "latitude": "33.1958696",
            "closest_to": "",
            "address": "Oceanside, San Diego County, California, United States of America",
            "locType": "city",
            "blogLinks": [
                "http://www.parks.ca.gov/?page_id=22722"
            ],
            "longitude": "-117.3794833"
        },
        "san juan capistrano": {
            "latitude": "33.5016932",
            "closest_to": "",
            "address": "San Juan Capistrano, Orange County, California, United States of America",
            "locType": "city",
            "blogLinks": [
                "http://gocalifornia.about.com/cs/bigsur/a/highwayone.htm",
                "http://www.parks.ca.gov/?page_id=22722"
            ],
            "longitude": "-117.6625508"
        },
        "st. anthony": {
            "latitude": "33.8449442",
            "closest_to": "",
            "address": "Saints (St Anthony) Stadium, Clark Avenue, Bixby Knolls, Long Beach, Los Angeles County, California, 90712, United States of America",
            "locType": "pitch",
            "blogLinks": [
                "http://www.parks.ca.gov/?page_id=22722"
            ],
            "longitude": "-118.132889673818"
        },
        "naval air station": {
            "latitude": "32.701613",
            "closest_to": "",
            "address": "Naval Air Station North Island, F West Road, Coronado, San Diego County, California, 92135, United States of America",
            "locType": "military",
            "blogLinks": [
                "http://highway1discoveryroute.com/blog/"
            ],
            "longitude": "-117.2043364"
        },
        "boulder city": {
            "latitude": "35.974186",
            "closest_to": "",
            "address": "California Avenue, Boulder City, Clark County, Nevada, 89005, United States of America",
            "locType": "residential",
            "blogLinks": [
                "http://www.usatourist.com/english/destinations/california/california-driving-tour.html"
            ],
            "longitude": "-114.8341879"
        },
        "santa ines": {
            "latitude": "22.88332",
            "closest_to": "",
            "address": "Santa Ines, Cabo San Lucas, Los Cabos, Baja California Sur, 23543, M\u00e9xico",
            "locType": "residential",
            "blogLinks": [
                "http://www.parks.ca.gov/?page_id=22722"
            ],
            "longitude": "-109.9425933"
        },
        "mendocino": {
            "latitude": "39.3176491",
            "closest_to": "",
            "address": "Mendocino County, California, United States of America",
            "locType": "administrative",
            "blogLinks": [
                "http://gocalifornia.about.com/cs/bigsur/a/highwayone.htm"
            ],
            "longitude": "-123.4126398"
        },
        "manhattan beach": {
            "latitude": "33.8950839",
            "closest_to": "",
            "address": "Manhattan Beach, Los Angeles County, California, United States of America",
            "locType": "city",
            "blogLinks": [
                "http://gocalifornia.about.com/cs/bigsur/a/highwayone.htm"
            ],
            "longitude": "-118.4000146"
        },
        "california-nevada": {
            "latitude": "36.17310935",
            "closest_to": "",
            "address": "California Hotel, Sky Walk(Connection from Main Street to California, Cultural Corridor, Vegas Heights, Las Vegas, Clark County, Nevada, 89101, United States of America",
            "locType": "hotel",
            "blogLinks": [
                "http://www.travbuddy.com/California-travel-guide-p85"
            ],
            "longitude": "-115.144667930325"
        },
        "orange county": {
            "latitude": "33.7500378",
            "closest_to": "",
            "address": "Orange County, California, United States of America",
            "locType": "administrative",
            "blogLinks": [
                "http://www.travbuddy.com/California-travel-guide-p85",
                "http://gocalifornia.about.com/cs/bigsur/a/highwayone.htm"
            ],
            "longitude": "-117.870493"
        },
        "oakland": {
            "latitude": "37.8044557",
            "closest_to": "",
            "address": "Oakland, Alameda County, California, United States of America",
            "locType": "city",
            "blogLinks": [
                "http://www.travbuddy.com/California-travel-guide-p85",
                "http://www.parks.ca.gov/?page_id=22722"
            ],
            "longitude": "-122.2713562"
        },
        "bay": {
            "latitude": "33.6899249",
            "closest_to": "",
            "address": "Bay, Meadows Mobile Home Park, El Camino Real, Irvine, Orange County, California, 92406, United States of America",
            "locType": "service",
            "blogLinks": [
                "http://travelblog.viator.com/road-trip-san-francisco-los-angeles/"
            ],
            "longitude": "-117.7729354"
        },
        "sacramento": {
            "latitude": "38.5815719",
            "closest_to": "",
            "address": "Sacramento, Sacramento County, California, United States of America",
            "locType": "city",
            "blogLinks": [
                "http://www.travbuddy.com/California-travel-guide-p85",
                "https://main.transportation.ucla.edu/getting-to-ucla/travel-options/amtrak-california-thruway-service-to-and-from-ucla"
            ],
            "longitude": "-121.4943995"
        },
        "puerto rico": {
            "latitude": "-11.2141388",
            "closest_to": "",
            "address": "Canton Victoria, California, Provincia de Manuripi, PND, Bolivia",
            "locType": "hamlet",
            "blogLinks": [
                "https://sanluisobispovacations.com/shareslo-blog/"
            ],
            "longitude": "-67.7071862"
        },
        "granada hills": {
            "latitude": "34.2647247",
            "closest_to": "",
            "address": "Granada Hills, Northridge, LA, Los Angeles County, California, 91344, United States of America",
            "locType": "neighbourhood",
            "blogLinks": [
                "http://www.roadsideamerica.com/location/ca/all"
            ],
            "longitude": "-118.5231414"
        },
        "boston": {
            "latitude": "33.696779",
            "closest_to": "",
            "address": "Boston, Heritage Park Apartments, El Camino Real, Irvine, Orange County, California, 92604, United States of America",
            "locType": "residential",
            "blogLinks": [
                "http://highway1discoveryroute.com/blog/"
            ],
            "longitude": "-117.7757132"
        },
        "san fernando mission blvd.": {
            "latitude": "34.2721749",
            "closest_to": "",
            "address": "San Fernando Mission Boulevard, Mission Hills, Sylmar, LA, Los Angeles County, California, 91326, United States of America",
            "locType": "secondary",
            "blogLinks": [
                "http://www.parks.ca.gov/?page_id=22722"
            ],
            "longitude": "-118.4668798"
        },
        "monterey st.": {
            "latitude": "34.097787",
            "closest_to": "",
            "address": "Monterey Street, Mount Washington, Highland Park, LA, Los Angeles County, California, 90065, United States of America",
            "locType": "residential",
            "blogLinks": [
                "http://www.parks.ca.gov/?page_id=22722"
            ],
            "longitude": "-118.2146689"
        },
        "laguna st.": {
            "latitude": "37.8048689",
            "closest_to": "",
            "address": "Laguna Street, Marina District, SF, California, 14123, United States of America",
            "locType": "secondary",
            "blogLinks": [
                "http://www.parks.ca.gov/?page_id=22722"
            ],
            "longitude": "-122.4320022"
        },
        "san diego": {
            "latitude": "32.7174209",
            "closest_to": "",
            "address": "San Diego, San Diego County, California, United States of America",
            "locType": "city",
            "blogLinks": [
                "http://www.travbuddy.com/California-travel-guide-p85",
                "http://highway1discoveryroute.com/blog/",
                "http://www.usatourist.com/english/destinations/california/california-driving-tour.html",
                "http://www.parks.ca.gov/?page_id=22722",
                "http://visitslo.com/getting-around/"
            ],
            "longitude": "-117.1627713"
        },
        "santa clara de asis": {
            "latitude": "33.8802979",
            "closest_to": "",
            "address": "Santa Clara de Asis, 22005, Avenida de la Paz, Yorba Linda, Orange County, California, 92887, United States of America",
            "locType": "place_of_worship",
            "blogLinks": [
                "http://www.parks.ca.gov/?page_id=22722"
            ],
            "longitude": "-117.746951586583"
        },
        "carlsbad": {
            "latitude": "33.1580933",
            "closest_to": "",
            "address": "Carlsbad, San Diego County, California, United States of America",
            "locType": "city",
            "blogLinks": [
                "http://www.travbuddy.com/California-travel-guide-p85"
            ],
            "longitude": "-117.3505938"
        },
        "gayley avenue": {
            "latitude": "34.0589282",
            "closest_to": "",
            "address": "Gayley Avenue, Westwood Village, Westwood, LA, Los Angeles County, California, 9024, United States of America",
            "locType": "residential",
            "blogLinks": [
                "https://main.transportation.ucla.edu/getting-to-ucla/travel-options/amtrak-california-thruway-service-to-and-from-ucla"
            ],
            "longitude": "-118.4455417"
        },
        "madonna mountain": {
            "latitude": "37.4698419",
            "closest_to": "",
            "address": "Madonna Creek, San Mateo County, California, United States of America",
            "locType": "stream",
            "blogLinks": [
                "https://sanluisobispovacations.com/shareslo-blog/"
            ],
            "longitude": "-122.3994358"
        },
        "marin": {
            "latitude": "38.0409144",
            "closest_to": "",
            "address": "Marin County, California, United States of America",
            "locType": "administrative",
            "blogLinks": [
                "http://www.usatourist.com/english/destinations/california/california-driving-tour.html",
                "http://gocalifornia.about.com/cs/bigsur/a/highwayone.htm"
            ],
            "longitude": "-122.6199637"
        },
        "san rafael": {
            "latitude": "37.9735346",
            "closest_to": "",
            "address": "San Rafael, Marin County, California, United States of America",
            "locType": "city",
            "blogLinks": [
                "http://www.parks.ca.gov/?page_id=22722"
            ],
            "longitude": "-122.5310873"
        },
        "las vegas": {
            "latitude": "36.17310935",
            "closest_to": "",
            "address": "California Hotel, Sky Walk(Connection from Main Street to California, Cultural Corridor, Vegas Heights, Las Vegas, Clark County, Nevada, 89101, United States of America",
            "locType": "hotel",
            "blogLinks": [
                "http://www.usatourist.com/english/destinations/california/california-driving-tour.html"
            ],
            "longitude": "-115.144667930325"
        },
        "big bear lake": {
            "latitude": "34.253293",
            "closest_to": "",
            "address": "Big Bear Lake, Lagunita Lane, Big Bear Lake, San Bernardino County, California, 92315, United States of America",
            "locType": "water",
            "blogLinks": [
                "http://www.travbuddy.com/California-travel-guide-p85"
            ],
            "longitude": "-116.932209587315"
        },
        "grand canyon": {
            "latitude": "33.9332326",
            "closest_to": "",
            "address": "Grand Canyon, Downtown Brea, Brea, Orange County, California, 92821, United States of America",
            "locType": "residential",
            "blogLinks": [
                "http://www.usatourist.com/english/destinations/california/california-driving-tour.html"
            ],
            "longitude": "-117.8915409"
        },
        "shoreline highway": {
            "latitude": "38.1829656",
            "closest_to": "",
            "address": "Shoreline Highway, McDonald, Marin County, California, 94940, United States of America",
            "locType": "primary",
            "blogLinks": [
                "http://gocalifornia.about.com/cs/bigsur/a/highwayone.htm"
            ],
            "longitude": "-122.9096456"
        },
        "x98train town usa": {
            "latitude": "39.8123836",
            "closest_to": "",
            "address": "Irish Town, Butte County, California, United States of America",
            "locType": "hamlet",
            "blogLinks": [
                "http://highway1discoveryroute.com/blog/"
            ],
            "longitude": "-121.6258072"
        },
        "geyserville": {
            "latitude": "38.707687",
            "closest_to": "",
            "address": "Geyserville, Sonoma County, California, United States of America",
            "locType": "hamlet",
            "blogLinks": [
                "http://www.tripleblaze.com/best/?c=59"
            ],
            "longitude": "-122.9024963"
        },
        "palou": {
            "latitude": "37.732919",
            "closest_to": "",
            "address": "Palou Avenue, Bayview District, SF, California, 94124, United States of America",
            "locType": "residential",
            "blogLinks": [
                "http://www.parks.ca.gov/?page_id=22722"
            ],
            "longitude": "-122.3890349"
        },
        "san diego mission rd.": {
            "latitude": "32.784578",
            "closest_to": "",
            "address": "San Diego Mission Road, City Heights, San Diego, San Diego County, California, 92108, United States of America",
            "locType": "tertiary",
            "blogLinks": [
                "http://www.parks.ca.gov/?page_id=22722"
            ],
            "longitude": "-117.1091279"
        },
        "needles": {
            "latitude": "34.8480597",
            "closest_to": "",
            "address": "Needles, San Bernardino County, California, United States of America",
            "locType": "city",
            "blogLinks": [
                "http://www.usatourist.com/english/destinations/california/california-driving-tour.html"
            ],
            "longitude": "-114.6141315"
        },
        "westport beach": {
            "latitude": "33.637635",
            "closest_to": "",
            "address": "Westport, Newport Center, Newport Beach, Orange County, California, 92660, United States of America",
            "locType": "residential",
            "blogLinks": [
                "http://www.tripleblaze.com/best/?c=59"
            ],
            "longitude": "-117.8688239"
        },
        "santa monica": {
            "latitude": "34.0195598",
            "closest_to": "",
            "address": "Santa Monica, Los Angeles County, California, United States of America",
            "locType": "city",
            "blogLinks": [
                "http://gocalifornia.about.com/cs/bigsur/a/highwayone.htm",
                "http://travelblog.viator.com/road-trip-san-francisco-los-angeles/"
            ],
            "longitude": "-118.4869738"
        },
        "rio rd.": {
            "latitude": "34.4960263",
            "closest_to": "",
            "address": "El Rio Road, Victorville, San Bernardino County, California, 92392, United States of America",
            "locType": "residential",
            "blogLinks": [
                "http://www.parks.ca.gov/?page_id=22722"
            ],
            "longitude": "-117.3317399"
        },
        "the edna valley": {
            "latitude": "33.8789058",
            "closest_to": "",
            "address": "Mount Edna, Menifee, Riverside County, California, United States of America",
            "locType": "peak",
            "blogLinks": [
                "http://highway1discoveryroute.com/blog/"
            ],
            "longitude": "-116.8814105"
        },
        "south rim": {
            "latitude": "39.0214541",
            "closest_to": "",
            "address": "Rim, Plumas Lake, Yuba County, California, United States of America",
            "locType": "residential",
            "blogLinks": [
                "http://www.usatourist.com/english/destinations/california/california-driving-tour.html"
            ],
            "longitude": "-121.5548741"
        },
        "bay area": {
            "latitude": "37.7884969",
            "closest_to": "",
            "address": "San Francisco Bay Area, SF, California, United States of America",
            "locType": "region",
            "blogLinks": [
                "http://highway1discoveryroute.com/blog/",
                "https://sanluisobispovacations.com/shareslo-blog/"
            ],
            "longitude": "-122.3558472"
        },
        "moonstone drive": {
            "latitude": "34.078796",
            "closest_to": "",
            "address": "Moonstone Drive, Rose Hill, Highland Park, LA, Los Angeles County, California, 90032, United States of America",
            "locType": "residential",
            "blogLinks": [
                "http://highway1discoveryroute.com/blog/"
            ],
            "longitude": "-118.1949773"
        },
        "el nino": {
            "latitude": "32.506272",
            "closest_to": "",
            "address": "El Ni\u00f1o, Tijuana, Baja California, M\u00e9xico",
            "locType": "village",
            "blogLinks": [
                "https://sanluisobispovacations.com/shareslo-blog/"
            ],
            "longitude": "-116.7932074"
        },
        "mission hills": {
            "latitude": "32.7528279",
            "closest_to": "",
            "address": "Mission Hills, San Diego County, California, United States of America",
            "locType": "hamlet",
            "blogLinks": [
                "http://www.parks.ca.gov/?page_id=22722"
            ],
            "longitude": "-117.1869788"
        },
        "barstow": {
            "latitude": "34.8957684",
            "closest_to": "",
            "address": "Barstow, San Bernardino County, California, United States of America",
            "locType": "administrative",
            "blogLinks": [
                "http://www.travbuddy.com/California-travel-guide-p85",
                "http://www.usatourist.com/english/destinations/california/california-driving-tour.html"
            ],
            "longitude": "-117.0172076"
        },
        "lake tahoe": {
            "latitude": "39.0888982",
            "closest_to": "",
            "address": "Lake Tahoe, Placer County, California, United States of America",
            "locType": "water",
            "blogLinks": [
                "http://www.travbuddy.com/California-travel-guide-p85"
            ],
            "longitude": "-120.050511752934"
        },
        "malibu": {
            "latitude": "33.7932142",
            "closest_to": "",
            "address": "Malibu, Palm Springs, Riverside County, California, 92264, United States of America",
            "locType": "residential",
            "blogLinks": [
                "http://www.travbuddy.com/California-travel-guide-p85",
                "http://gocalifornia.about.com/cs/bigsur/a/highwayone.htm"
            ],
            "longitude": "-116.5023561"
        },
        "san gabriel": {
            "latitude": "34.0991325",
            "closest_to": "",
            "address": "San Gabriel, Los Angeles County, California, United States of America",
            "locType": "city",
            "blogLinks": [
                "http://www.parks.ca.gov/?page_id=22722"
            ],
            "longitude": "-118.108604"
        },
        "burbank": {
            "latitude": "34.1816482",
            "closest_to": "",
            "address": "Burbank, Los Angeles County, California, United States of America",
            "locType": "city",
            "blogLinks": [
                "http://www.travbuddy.com/California-travel-guide-p85"
            ],
            "longitude": "-118.3258553"
        },
        "san diego river": {
            "latitude": "32.7686163",
            "closest_to": "",
            "address": "San Diego River, San Diego, San Diego County, California, United States of America",
            "locType": "river",
            "blogLinks": [
                "http://www.parks.ca.gov/?page_id=22722"
            ],
            "longitude": "-117.1585474"
        },
        "edna valley": {
            "latitude": "33.8789058",
            "closest_to": "",
            "address": "Mount Edna, Menifee, Riverside County, California, United States of America",
            "locType": "peak",
            "blogLinks": [
                "http://highway1discoveryroute.com/blog/",
                "http://visitslo.com/things-to-do/",
                "https://sanluisobispovacations.com/shareslo-blog/"
            ],
            "longitude": "-116.8814105"
        },
        "san fernando valley": {
            "latitude": "34.2819461",
            "closest_to": "",
            "address": "San Fernando, Los Angeles County, California, United States of America",
            "locType": "administrative",
            "blogLinks": [
                "http://www.parks.ca.gov/?page_id=22722"
            ],
            "longitude": "-118.4389718"
        },
        "las vegas nevada": {
            "latitude": "36.17310935",
            "closest_to": "",
            "address": "California Hotel, Sky Walk(Connection from Main Street to California, Cultural Corridor, Vegas Heights, Las Vegas, Clark County, Nevada, 89101, United States of America",
            "locType": "hotel",
            "blogLinks": [
                "http://www.usatourist.com/english/destinations/california/california-driving-tour.html"
            ],
            "longitude": "-115.144667930325"
        },
        "st. louis": {
            "latitude": "39.6985046",
            "closest_to": "",
            "address": "Saint Louis, Sierra County, California, United States of America",
            "locType": "hamlet",
            "blogLinks": [
                "http://www.parks.ca.gov/?page_id=22722"
            ],
            "longitude": "-120.9249513"
        },
        "california": {
            "latitude": "7.3480915",
            "closest_to": "",
            "address": "California, Santander, Colombia",
            "locType": "village",
            "blogLinks": [
                "http://www.travbuddy.com/California-travel-guide-p85",
                "http://www.bestplaces.net/cost_of_living/city/california/san_luis_obispo",
                "http://gocalifornia.about.com/cs/bigsur/a/highwayone.htm",
                "http://visitslo.com/things-to-do/",
                "http://travelblog.viator.com/road-trip-san-francisco-los-angeles/",
                "http://www.parks.ca.gov/?page_id=22722",
                "http://visitslo.com/",
                "http://www.usatourist.com/english/destinations/california/california-driving-tour.html",
                "http://www.travelcalifornia.com/Cities/Santa_Barbara/santa_barbara.htm",
                "https://main.transportation.ucla.edu/getting-to-ucla/travel-options/amtrak-california-thruway-service-to-and-from-ucla",
                "http://visitslo.com/getting-around/",
                "http://highway1discoveryroute.com/blog/",
                "https://sanluisobispovacations.com/shareslo-blog/"
            ],
            "longitude": "-72.945787"
        },
        "monterrey": {
            "latitude": "32.5492861",
            "closest_to": "",
            "address": "Monterrey, Mexicali, Baja California, M\u00e9xico",
            "locType": "village",
            "blogLinks": [
                "http://www.parks.ca.gov/?page_id=22722"
            ],
            "longitude": "-115.0704122"
        },
        "long beach": {
            "latitude": "33.78538945",
            "closest_to": "",
            "address": "Long Beach, Los Angeles County, California, United States of America",
            "locType": "city",
            "blogLinks": [
                "http://www.travbuddy.com/California-travel-guide-p85"
            ],
            "longitude": "-118.158049215311"
        },
        "san antonio valley": {
            "latitude": "38.1838069",
            "closest_to": "",
            "address": "San Antonio, Marin County, California, United States of America",
            "locType": "hamlet",
            "blogLinks": [
                "http://www.parks.ca.gov/?page_id=22722"
            ],
            "longitude": "-122.5913722"
        },
        "colorado river": {
            "latitude": "33.58648635",
            "closest_to": "",
            "address": "Colorado River, Riviera Drive, East Blythe, Riverside County, California, 92225, United States of America",
            "locType": "water",
            "blogLinks": [
                "http://www.usatourist.com/english/destinations/california/california-driving-tour.html"
            ],
            "longitude": "-114.542164096234"
        },
        "palm springs": {
            "latitude": "33.8246269",
            "closest_to": "",
            "address": "Palm Springs, Riverside County, California, United States of America",
            "locType": "city",
            "blogLinks": [
                "http://www.usatourist.com/english/destinations/california/california-driving-tour.html"
            ],
            "longitude": "-116.5403029"
        },
        "south mission drive": {
            "latitude": "34.0857762",
            "closest_to": "",
            "address": "South Mission Drive, San Bernardino, San Bernardino County, California, 92410, United States of America",
            "locType": "residential",
            "blogLinks": [
                "http://www.parks.ca.gov/?page_id=22722"
            ],
            "longitude": "-117.3098581"
        },
        "south carlsbad": {
            "latitude": "33.1580933",
            "closest_to": "",
            "address": "Carlsbad, San Diego County, California, United States of America",
            "locType": "city",
            "blogLinks": [
                "http://www.tripleblaze.com/best/?c=59"
            ],
            "longitude": "-117.3505938"
        },
        "carmel": {
            "latitude": "38.75511285",
            "closest_to": "",
            "address": "Carmel, Roseville, Placer County, California, 95747, United States of America",
            "locType": "residential",
            "blogLinks": [
                "http://www.travbuddy.com/California-travel-guide-p85",
                "http://gocalifornia.about.com/cs/bigsur/a/highwayone.htm",
                "http://travelblog.viator.com/road-trip-san-francisco-los-angeles/",
                "http://www.parks.ca.gov/?page_id=22722",
                "http://www.usatourist.com/english/destinations/california/california-driving-tour.html",
                "http://www.hopper.com/articles/291/five-great-stops-between-los-angeles-and-san-francisco-on-the-pacific-coast-highway"
            ],
            "longitude": "-121.353308848273"
        },
        "los angeles": {
            "latitude": "34.0543942",
            "closest_to": "",
            "address": "LA, Los Angeles County, California, United States of America",
            "locType": "city",
            "blogLinks": [
                "http://www.travbuddy.com/California-travel-guide-p85",
                "http://gocalifornia.about.com/cs/bigsur/a/highwayone.htm",
                "http://travelblog.viator.com/road-trip-san-francisco-los-angeles/",
                "http://www.parks.ca.gov/?page_id=22722",
                "http://www.usatourist.com/english/destinations/california/california-driving-tour.html",
                "http://www.travelcalifornia.com/Cities/Santa_Barbara/santa_barbara.htm",
                "http://visitslo.com/getting-around/",
                "http://highway1discoveryroute.com/blog/",
                "http://www.hopper.com/articles/291/five-great-stops-between-los-angeles-and-san-francisco-on-the-pacific-coast-highway",
                "https://sanluisobispovacations.com/shareslo-blog/"
            ],
            "longitude": "-118.2439408"
        },
        "san francisco": {
            "latitude": "37.7792808",
            "closest_to": "",
            "address": "SF, California, United States of America",
            "locType": "city",
            "blogLinks": [
                "http://www.travbuddy.com/California-travel-guide-p85",
                "http://gocalifornia.about.com/cs/bigsur/a/highwayone.htm",
                "http://travelblog.viator.com/road-trip-san-francisco-los-angeles/",
                "http://www.parks.ca.gov/?page_id=22722",
                "http://www.usatourist.com/english/destinations/california/california-driving-tour.html",
                "http://www.roadsideamerica.com/location/ca/all",
                "http://visitslo.com/getting-around/",
                "http://highway1discoveryroute.com/blog/",
                "http://www.hopper.com/articles/291/five-great-stops-between-los-angeles-and-san-francisco-on-the-pacific-coast-highway",
                "https://sanluisobispovacations.com/shareslo-blog/"
            ],
            "longitude": "-122.4192362"
        },
        "rome": {
            "latitude": "41.9628634",
            "closest_to": "",
            "address": "California, Via della Missione, Tivoli, Paterno, Tivoli, RM, LAZ, 00019, Italia",
            "locType": "pub",
            "blogLinks": [
                "http://www.parks.ca.gov/?page_id=22722"
            ],
            "longitude": "12.7977613"
        },
        "pacifica": {
            "latitude": "37.6138253",
            "closest_to": "",
            "address": "Pacifica, San Mateo County, California, United States of America",
            "locType": "city",
            "blogLinks": [
                "http://gocalifornia.about.com/cs/bigsur/a/highwayone.htm"
            ],
            "longitude": "-122.4869193"
        }
    },
    "san luis obispo": {
        "type": "city",
        "osm_id": "33111824",
        "class": "place",
        "importance": 0.87823218277902,
        "lat": "35.2827525",
        "lon": "-120.6596155",
        "boundingbox": [
            "35.233002",
            "35.31199",
            "-120.7229769",
            "-120.6177727"
        ],
        "display_name": "San Luis Obispo, San Luis Obispo County, California, United States of America",
        "licence": "Data \u00a9 OpenStreetMap contributors, ODbL 1.0. http://www.openstreetmap.org/copyright",
        "icon": "https://nominatim.openstreetmap.org/images/mapicons/poi_place_city.p.20.png",
        "place_id": "71485104",
        "osm_type": "way"
    }
}