{
    "san diego": {
        "type": "city",
        "osm_id": "253832",
        "class": "place",
        "importance": 0.93342309681118,
        "lat": "32.7174209",
        "lon": "-117.1627713",
        "boundingbox": [
            "32.5347839",
            "33.114249",
            "-117.3098052",
            "-116.9057225"
        ],
        "display_name": "San Diego, San Diego County, California, United States of America",
        "licence": "Data \u00a9 OpenStreetMap contributors, ODbL 1.0. http://www.openstreetmap.org/copyright",
        "icon": "https://nominatim.openstreetmap.org/images/mapicons/poi_place_city.p.20.png",
        "place_id": "157988328",
        "osm_type": "relation"
    },
    "irvine": {
        "type": "city",
        "osm_id": "114485",
        "class": "place",
        "importance": 0.55,
        "lat": "33.6856969",
        "lon": "-117.8259818",
        "boundingbox": [
            "33.5993914",
            "33.7736521",
            "-117.8687518",
            "-117.6780258"
        ],
        "display_name": "Irvine, Orange County, California, United States of America",
        "licence": "Data \u00a9 OpenStreetMap contributors, ODbL 1.0. http://www.openstreetmap.org/copyright",
        "icon": "https://nominatim.openstreetmap.org/images/mapicons/poi_place_city.p.20.png",
        "place_id": "159062335",
        "osm_type": "relation"
    },
    "mentions": {
        "spain": {
            "latitude": "37.1412332",
            "closest_to": "",
            "address": "La California, Mor\u00f3n de la Frontera, Sevilla, Andaluc\u00eda, Espa\u00f1a",
            "locType": "locality",
            "blogLinks": [
                "http://www.parks.ca.gov/?page_id=22722"
            ],
            "longitude": "-5.4610806"
        },
        "golden gate bridge": {
            "latitude": "37.8302809",
            "closest_to": "",
            "address": "Golden Gate Bridge, Waldo, Marin County, California, 94965, United States of America",
            "locType": "motorway",
            "blogLinks": [
                "https://blog.trekaroo.com/grand-california-road-trip/"
            ],
            "longitude": "-122.4798473"
        },
        "alcatraz": {
            "latitude": "37.8267283",
            "closest_to": "",
            "address": "Alcatraz Island, SF, California, United States of America",
            "locType": "island",
            "blogLinks": [
                "https://blog.trekaroo.com/grand-california-road-trip/"
            ],
            "longitude": "-122.422746492409"
        },
        "usa": {
            "latitude": "36.7014631",
            "closest_to": "",
            "address": "California, United States of America",
            "locType": "administrative",
            "blogLinks": [
                "https://blog.trekaroo.com/grand-california-road-trip/"
            ],
            "longitude": "-118.7559973"
        },
        "san mateo": {
            "latitude": "37.496904",
            "closest_to": "",
            "address": "San Mateo County, California, United States of America",
            "locType": "administrative",
            "blogLinks": [
                "http://www.movoto.com/guide/ca/best-places-in-california/",
                "http://www.parks.ca.gov/?page_id=22722"
            ],
            "longitude": "-122.3330572"
        },
        "monterey bay": {
            "latitude": "36.7999557",
            "closest_to": "",
            "address": "Monterey Bay, Monterey County, California, United States of America",
            "locType": "bay",
            "blogLinks": [
                "http://www.parks.ca.gov/?page_id=22722"
            ],
            "longitude": "-121.9010667"
        },
        "santa cruz": {
            "latitude": "36.9735903",
            "closest_to": "",
            "address": "Santa Cruz, Santa Cruz County, California, United States of America",
            "locType": "city",
            "blogLinks": [
                "https://www.tripit.com/blog/2016/01/california-driving-distances-and-times.html",
                "http://www.parks.ca.gov/?page_id=22722"
            ],
            "longitude": "-122.0260569"
        },
        "yerba buena island": {
            "latitude": "37.8099281",
            "closest_to": "",
            "address": "Yerba Buena Island, SF, California, United States of America",
            "locType": "island",
            "blogLinks": [
                "http://www.parks.ca.gov/?page_id=22722"
            ],
            "longitude": "-122.3660816"
        },
        "pacific northwest": {
            "latitude": "37.98042375",
            "closest_to": "",
            "address": "University of the Pacific, 3601, Pacific Avenue, Stockton, San Joaquin County, California, 95211, United States of America",
            "locType": "university",
            "blogLinks": [
                "https://www.tripit.com/blog/2016/01/california-driving-distances-and-times.html"
            ],
            "longitude": "-121.312847098327"
        },
        "us": {
            "latitude": "36.7014631",
            "closest_to": "",
            "address": "California, United States of America",
            "locType": "administrative",
            "blogLinks": [
                "https://blog.trekaroo.com/grand-california-road-trip/"
            ],
            "longitude": "-118.7559973"
        },
        "north pole": {
            "latitude": "19.3740853",
            "closest_to": "",
            "address": "California, 1291, Empresa, Ampliaci\u00f3n N\u00e1poles, Benito Ju\u00e1rez, CDMX, 03900, M\u00e9xico",
            "locType": "restaurant",
            "blogLinks": [
                "https://blog.trekaroo.com/top-ten-holiday-events-to-enjoy-with-kids-in-southern-california/"
            ],
            "longitude": "-99.1792586"
        },
        "national parks": {
            "latitude": "35.0310157",
            "closest_to": "",
            "address": "National Parks Service Road, San Bernardino County, California, United States of America",
            "locType": "residential",
            "blogLinks": [
                "https://blog.trekaroo.com/top-ten-holiday-events-to-enjoy-with-kids-in-southern-california/"
            ],
            "longitude": "-115.383967"
        },
        "dallas": {
            "latitude": "37.3099472",
            "closest_to": "",
            "address": "Upper Dallas Lateral, Merced County, California, United States of America",
            "locType": "ditch",
            "blogLinks": [
                "https://www.yelp.com/biz/amtrak-pacific-surfliner-los-angeles"
            ],
            "longitude": "-120.6404967"
        },
        "mission santa barbara": {
            "latitude": "34.4383725",
            "closest_to": "",
            "address": "Mission Santa Barbara, 2201, Laguna Street, Santa Barbara, Santa Barbara County, California, 93105, United States of America",
            "locType": "place_of_worship",
            "blogLinks": [
                "https://blog.trekaroo.com/grand-california-road-trip/"
            ],
            "longitude": "-119.713226705403"
        },
        "san juan bautista": {
            "latitude": "36.8455173",
            "closest_to": "",
            "address": "San Juan Bautista, San Benito County, California, United States of America",
            "locType": "city",
            "blogLinks": [
                "http://www.parks.ca.gov/?page_id=22722"
            ],
            "longitude": "-121.5379893"
        },
        "west beach": {
            "latitude": "34.4114406",
            "closest_to": "",
            "address": "West Beach, Stearns Wharf, Santa Barbara, Santa Barbara County, California, 93103, United States of America",
            "locType": "beach",
            "blogLinks": [
                "https://blog.trekaroo.com/grand-california-road-trip/"
            ],
            "longitude": "-119.688942969453"
        },
        "district": {
            "latitude": "37.7785808",
            "closest_to": "",
            "address": "District, Ritch Street, South Beach, SF, California, 94107, United States of America",
            "locType": "bar",
            "blogLinks": [
                "http://visitanaheim.org/amtrak"
            ],
            "longitude": "-122.393364"
        },
        "monterrey": {
            "latitude": "32.5492861",
            "closest_to": "",
            "address": "Monterrey, Mexicali, Baja California, M\u00e9xico",
            "locType": "village",
            "blogLinks": [
                "http://www.parks.ca.gov/?page_id=22722"
            ],
            "longitude": "-115.0704122"
        },
        "san francisco solano": {
            "latitude": "38.21389995",
            "closest_to": "",
            "address": "California Missions Museum, Arnold Drive, McGill, Sonoma County, California, United States of America",
            "locType": "museum",
            "blogLinks": [
                "http://www.parks.ca.gov/?page_id=22722"
            ],
            "longitude": "-122.458560315194"
        },
        "pacific": {
            "latitude": "38.7601815",
            "closest_to": "",
            "address": "Pacific, El Dorado County, California, United States of America",
            "locType": "hamlet",
            "blogLinks": [
                "http://www.sandiego.org/what-to-do/beaches/la-jolla.aspx"
            ],
            "longitude": "-120.507146"
        },
        "sonoma": {
            "latitude": "38.5110803",
            "closest_to": "",
            "address": "Sonoma County, California, United States of America",
            "locType": "administrative",
            "blogLinks": [
                "http://gocalifornia.about.com/od/caplaceslist/"
            ],
            "longitude": "-122.8473387"
        },
        "san rafael": {
            "latitude": "37.9735346",
            "closest_to": "",
            "address": "San Rafael, Marin County, California, United States of America",
            "locType": "city",
            "blogLinks": [
                "http://www.parks.ca.gov/?page_id=22722"
            ],
            "longitude": "-122.5310873"
        },
        "east county": {
            "latitude": "39.7452174",
            "closest_to": "",
            "address": "California, 16th Street, Upper Downtown, Denver, Denver County, Colorado, 80211, United States of America",
            "locType": "bus_stop",
            "blogLinks": [
                "http://www.sandiego.org/articles/25-fun-free-things-to-do-in-san-diego.aspx"
            ],
            "longitude": "-104.992379"
        },
        "santa clara": {
            "latitude": "37.3541132",
            "closest_to": "",
            "address": "Santa Clara, Santa Clara County, California, United States of America",
            "locType": "city",
            "blogLinks": [
                "http://www.parks.ca.gov/?page_id=22722"
            ],
            "longitude": "-121.9551743"
        },
        "santa barbara": {
            "latitude": "34.4221319",
            "closest_to": "",
            "address": "Santa Barbara, Santa Barbara County, California, United States of America",
            "locType": "city",
            "blogLinks": [
                "https://www.yelp.com/biz/amtrak-pacific-surfliner-los-angeles",
                "https://blog.trekaroo.com/grand-california-road-trip/",
                "http://www.parks.ca.gov/?page_id=22722"
            ],
            "longitude": "-119.7026672"
        },
        "dinuba": {
            "latitude": "36.5432837",
            "closest_to": "",
            "address": "Dinuba, Tulare County, California, United States of America",
            "locType": "administrative",
            "blogLinks": [
                "http://www.movoto.com/guide/ca/best-places-in-california/"
            ],
            "longitude": "-119.3870655"
        },
        "argentina": {
            "latitude": "-31.451096",
            "closest_to": "",
            "address": "California, C\u00f3rdoba, Departamento Capital, Cba., Argentina",
            "locType": "administrative",
            "blogLinks": [
                "http://www.parks.ca.gov/?page_id=22722"
            ],
            "longitude": "-64.205523"
        },
        "san jose": {
            "latitude": "37.3361905",
            "closest_to": "",
            "address": "San Jos\u00e9, Santa Clara County, California, United States of America",
            "locType": "city",
            "blogLinks": [
                "http://www.parks.ca.gov/?page_id=22722"
            ],
            "longitude": "-121.8905832"
        },
        "lompoc": {
            "latitude": "34.6391501",
            "closest_to": "",
            "address": "Lompoc, Santa Barbara County, California, United States of America",
            "locType": "city",
            "blogLinks": [
                "http://www.parks.ca.gov/?page_id=22722"
            ],
            "longitude": "-120.4579408"
        },
        "ritz carlton": {
            "latitude": "37.791867",
            "closest_to": "",
            "address": "Ritz-Carlton, 600, Stockton Street, Chinatown, SF, California, 94108, United States of America",
            "locType": "hotel",
            "blogLinks": [
                "https://blog.trekaroo.com/top-ten-holiday-events-to-enjoy-with-kids-in-southern-california/"
            ],
            "longitude": "-122.406834213408"
        },
        "golden state": {
            "latitude": "39.6712719",
            "closest_to": "",
            "address": "Golden State Island, Butte County, California, United States of America",
            "locType": "island",
            "blogLinks": [
                "https://www.tripit.com/blog/2016/01/california-driving-distances-and-times.html",
                "https://blog.trekaroo.com/grand-california-road-trip/",
                "http://www.parks.ca.gov/?page_id=22722"
            ],
            "longitude": "-121.9619226"
        },
        "ty warner sea center": {
            "latitude": "34.4104258",
            "closest_to": "",
            "address": "Santa Barbara Museum of Natural History Sea Center, 211, Stearns Wharf, Santa Barbara, Santa Barbara County, California, 93101, United States of America",
            "locType": "aquarium",
            "blogLinks": [
                "https://blog.trekaroo.com/grand-california-road-trip/"
            ],
            "longitude": "-119.685686"
        },
        "las vegas": {
            "latitude": "36.17310935",
            "closest_to": "",
            "address": "California Hotel, Sky Walk(Connection from Main Street to California, Cultural Corridor, Vegas Heights, Las Vegas, Clark County, Nevada, 89101, United States of America",
            "locType": "hotel",
            "blogLinks": [
                "https://www.tripit.com/blog/2016/01/california-driving-distances-and-times.html",
                "https://blog.trekaroo.com/grand-california-road-trip/"
            ],
            "longitude": "-115.144667930325"
        },
        "san francisco": {
            "latitude": "37.7792808",
            "closest_to": "",
            "address": "SF, California, United States of America",
            "locType": "city",
            "blogLinks": [
                "https://www.tripit.com/blog/2016/01/california-driving-distances-and-times.html",
                "http://www.movoto.com/guide/ca/best-places-in-california/",
                "https://blog.trekaroo.com/grand-california-road-trip/",
                "http://www.parks.ca.gov/?page_id=22722"
            ],
            "longitude": "-122.4192362"
        },
        "san antonio": {
            "latitude": "38.1838069",
            "closest_to": "",
            "address": "San Antonio, Marin County, California, United States of America",
            "locType": "hamlet",
            "blogLinks": [
                "https://www.yelp.com/biz/amtrak-pacific-surfliner-los-angeles"
            ],
            "longitude": "-122.5913722"
        },
        "san carlos": {
            "latitude": "37.4982065",
            "closest_to": "",
            "address": "San Carlos, San Mateo County, California, United States of America",
            "locType": "city",
            "blogLinks": [
                "http://www.movoto.com/guide/ca/best-places-in-california/"
            ],
            "longitude": "-122.266149723864"
        },
        "europe": {
            "latitude": "37.3491727",
            "closest_to": "",
            "address": "Europe Court, Santa Clara, Santa Clara County, California, 95051, United States of America",
            "locType": "residential",
            "blogLinks": [
                "https://www.yelp.com/biz/amtrak-pacific-surfliner-los-angeles"
            ],
            "longitude": "-121.9980641"
        },
        "santa": {
            "latitude": "22.4804035",
            "closest_to": "",
            "address": "California, Santa Isabel de las Lajas, Cienfuegos, Cuba",
            "locType": "hamlet",
            "blogLinks": [
                "https://blog.trekaroo.com/top-ten-holiday-events-to-enjoy-with-kids-in-southern-california/"
            ],
            "longitude": "-80.3796642"
        },
        "carmel valley ranch": {
            "latitude": "36.51756",
            "closest_to": "",
            "address": "Carmel Valley Ranch, Club House Road, Rancho Tierra Grande, Monterey County, California, United States of America",
            "locType": "hotel",
            "blogLinks": [
                "https://blog.trekaroo.com/grand-california-road-trip/"
            ],
            "longitude": "-121.79927851435"
        },
        "san luis obispo": {
            "latitude": "35.2827525",
            "closest_to": "",
            "address": "San Luis Obispo, San Luis Obispo County, California, United States of America",
            "locType": "city",
            "blogLinks": [
                "https://www.yelp.com/biz/amtrak-pacific-surfliner-los-angeles",
                "http://www.sandiego.org/articles/25-fun-free-things-to-do-in-san-diego.aspx",
                "http://www.parks.ca.gov/?page_id=22722"
            ],
            "longitude": "-120.6596155"
        },
        "east berlin": {
            "latitude": "37.7914627",
            "closest_to": "",
            "address": "Berlin Way, Dimond District, Oakland, Alameda County, California, 94602, United States of America",
            "locType": "residential",
            "blogLinks": [
                "https://www.yelp.com/biz/amtrak-pacific-surfliner-los-angeles"
            ],
            "longitude": "-122.2096608"
        },
        "balboa park": {
            "latitude": "37.72494875",
            "closest_to": "",
            "address": "Balboa Park, Sergeant John V Young Lane, Ingleside, SF, California, 94112, United States of America",
            "locType": "park",
            "blogLinks": [
                "https://blog.trekaroo.com/top-ten-holiday-events-to-enjoy-with-kids-in-southern-california/",
                "https://blog.trekaroo.com/grand-california-road-trip/",
                "http://www.sandiego.org/articles/25-fun-free-things-to-do-in-san-diego.aspx",
                "http://www.sandiegostop10.com/SeeAndDo.aspx"
            ],
            "longitude": "-122.444804424152"
        },
        "east beach": {
            "latitude": "37.8061771",
            "closest_to": "",
            "address": "East Beach, Mason Street, Presidio Heights, SF, California, 94129, United States of America",
            "locType": "beach",
            "blogLinks": [
                "https://blog.trekaroo.com/grand-california-road-trip/"
            ],
            "longitude": "-122.452368017781"
        },
        "mendota": {
            "latitude": "36.7535486",
            "closest_to": "",
            "address": "Mendota, Fresno County, California, United States of America",
            "locType": "administrative",
            "blogLinks": [
                "http://www.movoto.com/guide/ca/best-places-in-california/"
            ],
            "longitude": "-120.3815578"
        },
        "italy": {
            "latitude": "45.659844",
            "closest_to": "",
            "address": "California, MB, LOM, Italia",
            "locType": "village",
            "blogLinks": [
                "https://www.yelp.com/biz/amtrak-pacific-surfliner-los-angeles"
            ],
            "longitude": "9.3130453"
        },
        "salinas valley": {
            "latitude": "36.6744117",
            "closest_to": "",
            "address": "Salinas, Monterey County, California, United States of America",
            "locType": "city",
            "blogLinks": [
                "http://www.parks.ca.gov/?page_id=22722"
            ],
            "longitude": "-121.6550371"
        },
        "old town": {
            "latitude": "35.142943",
            "closest_to": "",
            "address": "Old Town, Golden Hills, Kern County, California, United States of America",
            "locType": "locality",
            "blogLinks": [
                "https://www.yelp.com/biz/amtrak-pacific-surfliner-los-angeles",
                "https://blog.trekaroo.com/grand-california-road-trip/"
            ],
            "longitude": "-118.4954422"
        },
        "la": {
            "latitude": "36.7014631",
            "closest_to": "",
            "address": "California, United States of America",
            "locType": "administrative",
            "blogLinks": [
                "https://www.tripadvisor.co.uk/ShowTopic-g60750-i41-k8872092-2_nights_and_days_between_San_Diego_and_Irvine_California-San_Diego_California.html",
                "https://www.yelp.com/biz/amtrak-pacific-surfliner-los-angeles",
                "https://www.yelp.com/biz/irvine-transportation-center-irvine",
                "https://blog.trekaroo.com/grand-california-road-trip/",
                "https://www.tripadvisor.com.au/ShowTopic-g60750-i41-k8872092-2_nights_and_days_between_San_Diego_and_Irvine_California-San_Diego_California.html"
            ],
            "longitude": "-118.7559973"
        },
        "strawberry cafe": {
            "latitude": "52.0941251",
            "closest_to": "",
            "address": "Wild Strawberry Cafe, Seckford Street, California, Woodbridge, Suffolk Coastal, Suffolk, East of England, England, IP12 1DS, UK",
            "locType": "cafe",
            "blogLinks": [
                "https://www.yelp.com/biz/irvine-transportation-center-irvine"
            ],
            "longitude": "1.3128372"
        },
        "mount tamalpais": {
            "latitude": "37.879988",
            "closest_to": "",
            "address": "Tamalpais-Homestead Valley, Wendy Way, Almonte, Tamalpais Valley, Marin County, California, 94941, United States of America",
            "locType": "census",
            "blogLinks": [
                "http://www.parks.ca.gov/?page_id=22722"
            ],
            "longitude": "-122.535021480702"
        },
        "solvang": {
            "latitude": "34.5958572",
            "closest_to": "",
            "address": "Solvang, Santa Barbara County, California, United States of America",
            "locType": "city",
            "blogLinks": [
                "http://www.parks.ca.gov/?page_id=22722"
            ],
            "longitude": "-120.1390893"
        },
        "alameda": {
            "latitude": "37.6090291",
            "closest_to": "",
            "address": "Alameda County, California, United States of America",
            "locType": "administrative",
            "blogLinks": [
                "http://www.parks.ca.gov/?page_id=22722"
            ],
            "longitude": "-121.8991419"
        },
        "san miguel": {
            "latitude": "35.7524679",
            "closest_to": "",
            "address": "San Miguel, San Luis Obispo County, California, United States of America",
            "locType": "village",
            "blogLinks": [
                "http://www.parks.ca.gov/?page_id=22722"
            ],
            "longitude": "-120.6962825"
        },
        "chinatown": {
            "latitude": "37.7999301",
            "closest_to": "",
            "address": "Chinatown, Oakland, Alameda County, California, ca, United States of America",
            "locType": "neighbourhood",
            "blogLinks": [
                "https://blog.trekaroo.com/grand-california-road-trip/"
            ],
            "longitude": "-122.2702385"
        },
        "oaktown": {
            "latitude": "37.808981",
            "closest_to": "",
            "address": "Oaktown Spice Shop, 546, Grand Avenue, Grand Lake, Oakland, Alameda County, California, 94610, United States of America",
            "locType": "spices",
            "blogLinks": [
                "http://www.movoto.com/guide/ca/best-places-in-california/"
            ],
            "longitude": "-122.2505715"
        },
        "santa ines": {
            "latitude": "22.88332",
            "closest_to": "",
            "address": "Santa Ines, Cabo San Lucas, Los Cabos, Baja California Sur, 23543, M\u00e9xico",
            "locType": "residential",
            "blogLinks": [
                "http://www.parks.ca.gov/?page_id=22722"
            ],
            "longitude": "-109.9425933"
        },
        "embarcadero": {
            "latitude": "37.7928455",
            "closest_to": "",
            "address": "Embarcadero, Market Street, Financial District, SF, California, 94111, United States of America",
            "locType": "station",
            "blogLinks": [
                "https://blog.trekaroo.com/grand-california-road-trip/"
            ],
            "longitude": "-122.396892"
        },
        "ventura county": {
            "latitude": "34.4458248",
            "closest_to": "",
            "address": "Ventura County, California, United States of America",
            "locType": "administrative",
            "blogLinks": [
                "https://www.yelp.com/biz/irvine-transportation-center-irvine"
            ],
            "longitude": "-119.0779358"
        },
        "oakland": {
            "latitude": "37.8044557",
            "closest_to": "",
            "address": "Oakland, Alameda County, California, United States of America",
            "locType": "city",
            "blogLinks": [
                "http://www.movoto.com/guide/ca/best-places-in-california/",
                "http://www.parks.ca.gov/?page_id=22722"
            ],
            "longitude": "-122.2713562"
        },
        "monterey": {
            "latitude": "36.5844165",
            "closest_to": "",
            "address": "Monterey, Monterey County, California, United States of America",
            "locType": "city",
            "blogLinks": [
                "https://blog.trekaroo.com/grand-california-road-trip/"
            ],
            "longitude": "-121.866792846206"
        },
        "golden gate park": {
            "latitude": "37.7693681",
            "closest_to": "",
            "address": "Golden Gate Park, Overlook Drive, Richmond District, SF, California, 94122, United States of America",
            "locType": "park",
            "blogLinks": [
                "https://www.tripit.com/blog/2016/01/california-driving-distances-and-times.html",
                "https://blog.trekaroo.com/grand-california-road-trip/"
            ],
            "longitude": "-122.482183611177"
        },
        "san andreas": {
            "latitude": "38.1875605",
            "closest_to": "",
            "address": "San Andreas, Angels Road, Toyanza Subdivision, Calaveras County, California, 95249, United States of America",
            "locType": "administrative",
            "blogLinks": [
                "http://www.parks.ca.gov/?page_id=22722"
            ],
            "longitude": "-120.675382525556"
        },
        "laguna st.": {
            "latitude": "37.8048689",
            "closest_to": "",
            "address": "Laguna Street, Marina District, SF, California, 14123, United States of America",
            "locType": "secondary",
            "blogLinks": [
                "http://www.parks.ca.gov/?page_id=22722"
            ],
            "longitude": "-122.4320022"
        },
        "s.d.": {
            "latitude": "44.359674",
            "closest_to": "",
            "address": "California Avenue Southwest, Huron, Beadle County, South Dakota, 57350, United States of America",
            "locType": "residential",
            "blogLinks": [
                "https://www.yelp.com/biz/amtrak-pacific-surfliner-los-angeles"
            ],
            "longitude": "-98.2151039"
        },
        "outback": {
            "latitude": "-21.2132381",
            "closest_to": "",
            "address": "Outback, 1540, Avenida Coronel Fernando Ferreira Leite, Jardim Calif\u00f3rnia, Ribeir\u00e3o Preto, Microrregi\u00e3o de Ribeir\u00e3o Preto, Mesorregi\u00e3o de Ribeir\u00e3o Preto, SP, Regi\u00e3o Sudeste, 14026-020, Brasil",
            "locType": "restaurant",
            "blogLinks": [
                "https://blog.trekaroo.com/grand-california-road-trip/"
            ],
            "longitude": "-47.8173735"
        },
        "salinas river": {
            "latitude": "35.2891002",
            "closest_to": "",
            "address": "Salinas River, San Luis Obispo County, California, United States of America",
            "locType": "river",
            "blogLinks": [
                "http://www.parks.ca.gov/?page_id=22722"
            ],
            "longitude": "-120.3596546"
        },
        "bay area discovery museum": {
            "latitude": "37.8357085",
            "closest_to": "",
            "address": "Bay Area Discovery Museum, East Road, Belvedere Island, Marin County, California, 94965, United States of America",
            "locType": "museum",
            "blogLinks": [
                "https://blog.trekaroo.com/grand-california-road-trip/"
            ],
            "longitude": "-122.4770556"
        },
        "l.a.": {
            "latitude": "-13.8305494",
            "closest_to": "",
            "address": "California, Provincia Abel Iturralde, LPZ, Bolivia",
            "locType": "hamlet",
            "blogLinks": [
                "https://www.yelp.com/biz/irvine-transportation-center-irvine"
            ],
            "longitude": "-67.9369134"
        },
        "soledad": {
            "latitude": "36.4269452",
            "closest_to": "",
            "address": "Soledad, Monterey County, California, United States of America",
            "locType": "city",
            "blogLinks": [
                "http://www.parks.ca.gov/?page_id=22722"
            ],
            "longitude": "-121.3272146"
        },
        "palou": {
            "latitude": "37.732919",
            "closest_to": "",
            "address": "Palou Avenue, Bayview District, SF, California, 94124, United States of America",
            "locType": "residential",
            "blogLinks": [
                "http://www.parks.ca.gov/?page_id=22722"
            ],
            "longitude": "-122.3890349"
        },
        "paso robles": {
            "latitude": "35.6267654",
            "closest_to": "",
            "address": "Paso Robles, San Luis Obispo County, California, United States of America",
            "locType": "city",
            "blogLinks": [
                "http://www.parks.ca.gov/?page_id=22722"
            ],
            "longitude": "-120.6912455"
        },
        "pacific ocean": {
            "latitude": "36.16305775",
            "closest_to": "",
            "address": "Pacific Ocean, Cabrillo Highway, Monterey County, California, 93920, United States of America",
            "locType": "cliff",
            "blogLinks": [
                "http://www.sandiego.org/articles/25-fun-free-things-to-do-in-san-diego.aspx",
                "http://www.sandiego.org/what-to-do/beaches/la-jolla.aspx"
            ],
            "longitude": "-121.678715787326"
        },
        "surf city": {
            "latitude": "37.8588436",
            "closest_to": "",
            "address": "Surf City, Tuolumne County, California, United States of America",
            "locType": "rapids",
            "blogLinks": [
                "https://blog.trekaroo.com/grand-california-road-trip/"
            ],
            "longitude": "-120.6349548"
        },
        "channel islands national park": {
            "latitude": "34.248597",
            "closest_to": "",
            "address": "Channel Islands National Park, Spinnaker Drive, Ventura, Ventura County, California, 93006, United States of America",
            "locType": "national_park",
            "blogLinks": [
                "https://blog.trekaroo.com/grand-california-road-trip/"
            ],
            "longitude": "-119.266377755078"
        },
        "bay area": {
            "latitude": "37.7884969",
            "closest_to": "",
            "address": "San Francisco Bay Area, SF, California, United States of America",
            "locType": "region",
            "blogLinks": [
                "http://www.sandiegostop10.com/SeeAndDo.aspx"
            ],
            "longitude": "-122.3558472"
        },
        "united states": {
            "latitude": "36.7014631",
            "closest_to": "",
            "address": "California, United States of America",
            "locType": "administrative",
            "blogLinks": [
                "https://blog.trekaroo.com/top-ten-holiday-events-to-enjoy-with-kids-in-southern-california/",
                "https://www.yelp.com/biz/amtrak-pacific-surfliner-los-angeles",
                "http://www.sandiego.org/articles/25-fun-free-things-to-do-in-san-diego.aspx",
                "https://blog.trekaroo.com/grand-california-road-trip/"
            ],
            "longitude": "-118.7559973"
        },
        "carmel": {
            "latitude": "38.75511285",
            "closest_to": "",
            "address": "Carmel, Roseville, Placer County, California, 95747, United States of America",
            "locType": "residential",
            "blogLinks": [
                "https://blog.trekaroo.com/grand-california-road-trip/",
                "http://www.parks.ca.gov/?page_id=22722"
            ],
            "longitude": "-121.353308848273"
        },
        "oxnard": {
            "latitude": "34.1976308",
            "closest_to": "",
            "address": "Oxnard, Ventura County, California, United States of America",
            "locType": "city",
            "blogLinks": [
                "https://www.yelp.com/biz/amtrak-pacific-surfliner-los-angeles"
            ],
            "longitude": "-119.1803817"
        },
        "pacifica": {
            "latitude": "37.6138253",
            "closest_to": "",
            "address": "Pacifica, San Mateo County, California, United States of America",
            "locType": "city",
            "blogLinks": [
                "https://blog.trekaroo.com/grand-california-road-trip/"
            ],
            "longitude": "-122.4869193"
        },
        "omni san francisco": {
            "latitude": "37.7930209",
            "closest_to": "",
            "address": "Omni San Francisco Hotel, 500, California Street, Chinatown, SF, California, 94104, United States of America",
            "locType": "hotel",
            "blogLinks": [
                "https://blog.trekaroo.com/grand-california-road-trip/"
            ],
            "longitude": "-122.403039"
        },
        "chase palm park": {
            "latitude": "34.41527625",
            "closest_to": "",
            "address": "Chase Palm Park, East Cabrillo Boulevard, Santa Barbara, Santa Barbara County, California, 93103, United States of America",
            "locType": "park",
            "blogLinks": [
                "https://blog.trekaroo.com/grand-california-road-trip/"
            ],
            "longitude": "-119.679267670006"
        },
        "new york city": {
            "latitude": "40.767819",
            "closest_to": "",
            "address": "California Sea Lion, 830, 5th Avenue, Upper East Side, Manhattan, New York County, NYC, New York, 10035, United States of America",
            "locType": "attraction",
            "blogLinks": [
                "https://www.tripit.com/blog/2016/01/california-driving-distances-and-times.html"
            ],
            "longitude": "-73.9717587"
        },
        "riviera": {
            "latitude": "38.568972",
            "closest_to": "",
            "address": "La Riviera, Sparks Way, Mayhew, Sacramento County, California, 95827, United States of America",
            "locType": "administrative",
            "blogLinks": [
                "https://blog.trekaroo.com/grand-california-road-trip/"
            ],
            "longitude": "-121.351801220501"
        },
        "san mateo county": {
            "latitude": "37.496904",
            "closest_to": "",
            "address": "San Mateo County, California, United States of America",
            "locType": "administrative",
            "blogLinks": [
                "http://www.movoto.com/guide/ca/best-places-in-california/"
            ],
            "longitude": "-122.3330572"
        },
        "ventura": {
            "latitude": "34.4458248",
            "closest_to": "",
            "address": "Ventura County, California, United States of America",
            "locType": "administrative",
            "blogLinks": [
                "http://www.parks.ca.gov/?page_id=22722"
            ],
            "longitude": "-119.0779358"
        },
        "palo alto": {
            "latitude": "37.442156",
            "closest_to": "",
            "address": "Palo Alto, Santa Clara County, California, United States of America",
            "locType": "city",
            "blogLinks": [
                "http://gocalifornia.about.com/od/caplaceslist/"
            ],
            "longitude": "-122.1634471"
        },
        "st. louis": {
            "latitude": "39.6985046",
            "closest_to": "",
            "address": "Saint Louis, Sierra County, California, United States of America",
            "locType": "hamlet",
            "blogLinks": [
                "http://www.parks.ca.gov/?page_id=22722"
            ],
            "longitude": "-120.9249513"
        },
        "california": {
            "latitude": "7.3480915",
            "closest_to": "",
            "address": "California, Santander, Colombia",
            "locType": "village",
            "blogLinks": [
                "http://www.movoto.com/guide/ca/best-places-in-california/",
                "https://blog.trekaroo.com/top-ten-holiday-events-to-enjoy-with-kids-in-southern-california/",
                "https://www.yelp.com/biz/amtrak-pacific-surfliner-los-angeles",
                "http://www.parks.ca.gov/?page_id=22722",
                "http://www.sandiego.org/what-to-do/beaches/la-jolla.aspx",
                "https://blog.trekaroo.com/grand-california-road-trip/",
                "https://www.tripit.com/blog/2016/01/california-driving-distances-and-times.html",
                "http://gocalifornia.about.com/od/caplaceslist/",
                "https://www.tripadvisor.co.uk/ShowTopic-g60750-i41-k8872092-2_nights_and_days_between_San_Diego_and_Irvine_California-San_Diego_California.html",
                "http://www.tvfoodmaps.com/s1/CA"
            ],
            "longitude": "-72.945787"
        },
        "san antonio valley": {
            "latitude": "38.1838069",
            "closest_to": "",
            "address": "San Antonio, Marin County, California, United States of America",
            "locType": "hamlet",
            "blogLinks": [
                "http://www.parks.ca.gov/?page_id=22722"
            ],
            "longitude": "-122.5913722"
        },
        "campo": {
            "latitude": "37.8974258",
            "closest_to": "",
            "address": "El Campo, Marin County, California, United States of America",
            "locType": "hamlet",
            "blogLinks": [
                "https://blog.trekaroo.com/top-ten-holiday-events-to-enjoy-with-kids-in-southern-california/"
            ],
            "longitude": "-122.4652506"
        },
        "laguna": {
            "latitude": "38.4210209",
            "closest_to": "",
            "address": "Laguna, Sacramento County, California, United States of America",
            "locType": "hamlet",
            "blogLinks": [
                "http://www.sandiego.org/articles/25-fun-free-things-to-do-in-san-diego.aspx"
            ],
            "longitude": "-121.4238413"
        },
        "san buenaventura": {
            "latitude": "34.2783355",
            "closest_to": "",
            "address": "Ventura, Ventura County, California, United States of America",
            "locType": "city",
            "blogLinks": [
                "http://www.parks.ca.gov/?page_id=22722"
            ],
            "longitude": "-119.2931742"
        },
        "rome": {
            "latitude": "41.9628634",
            "closest_to": "",
            "address": "California, Via della Missione, Tivoli, Paterno, Tivoli, RM, LAZ, 00019, Italia",
            "locType": "pub",
            "blogLinks": [
                "http://www.parks.ca.gov/?page_id=22722"
            ],
            "longitude": "12.7977613"
        }
    }
}