{
    "mammoth lakes": {
        "type": "administrative",
        "osm_id": "33114461",
        "class": "boundary",
        "importance": 0.67062928815144,
        "lat": "37.6432525",
        "lon": "-118.9668508",
        "boundingbox": [
            "37.580115",
            "37.659467",
            "-119.0613999",
            "-118.9370119"
        ],
        "display_name": "Mammoth Lakes, Mono County, California, United States of America",
        "licence": "Data \u00a9 OpenStreetMap contributors, ODbL 1.0. http://www.openstreetmap.org/copyright",
        "icon": "https://nominatim.openstreetmap.org/images/mapicons/poi_boundary_administrative.p.20.png",
        "place_id": "73282228",
        "osm_type": "way"
    },
    "mentions": {
        "smith river": {
            "latitude": "41.9281678",
            "closest_to": "",
            "address": "Smith River, Del Norte County, California, United States of America",
            "locType": "hamlet",
            "blogLinks": [
                "http://www.sunset.com/travel/california/best-campgrounds-california"
            ],
            "longitude": "-124.1470273"
        },
        "l.a.": {
            "latitude": "-13.8305494",
            "closest_to": "",
            "address": "California, Provincia Abel Iturralde, LPZ, Bolivia",
            "locType": "hamlet",
            "blogLinks": [
                "https://www.trekaroo.com/places/california/snapshot"
            ],
            "longitude": "-67.9369134"
        },
        "gulch state park": {
            "latitude": "39.3271285",
            "closest_to": "",
            "address": "Russian Gulch State Park, South Trail, Mendocino, Mendocino County, California, 95460, United States of America",
            "locType": "park",
            "blogLinks": [
                "http://www.sunset.com/travel/california/best-campgrounds-california"
            ],
            "longitude": "-123.806013867765"
        },
        "mackerricher haul road trail": {
            "latitude": "39.47837565",
            "closest_to": "",
            "address": "MacKerricher State Park, Haul Road Multiuse Path, Cleone, Mendocino County, California, 95437, United States of America",
            "locType": "nature_reserve",
            "blogLinks": [
                "http://www.traillink.com/stateactivity/ca-wheelchair-accessible-trails.aspx"
            ],
            "longitude": "-123.802797591692"
        },
        "little river": {
            "latitude": "39.2707318",
            "closest_to": "",
            "address": "Little River, Mendocino County, California, United States of America",
            "locType": "hamlet",
            "blogLinks": [
                "http://www.traillink.com/stateactivity/ca-wheelchair-accessible-trails.aspx"
            ],
            "longitude": "-123.7883472"
        },
        "medicine lake": {
            "latitude": "41.5826456",
            "closest_to": "",
            "address": "Medicine Lake, Medicine Lake Road, Siskiyou County, California, United States of America",
            "locType": "water",
            "blogLinks": [
                "https://www.nps.gov/state/ca/index.htm"
            ],
            "longitude": "-121.598880116143"
        },
        "ten mile beach trail": {
            "latitude": "39.5262749",
            "closest_to": "",
            "address": "Ten Mile Beach, Ocean View Drive, Inglenook, Mendocino County, California, 95437, United States of America",
            "locType": "beach",
            "blogLinks": [
                "http://www.traillink.com/stateactivity/ca-wheelchair-accessible-trails.aspx"
            ],
            "longitude": "-123.7764046"
        },
        "gate pass": {
            "latitude": "-12.1551056",
            "closest_to": "",
            "address": "California, Provincia Abel Iturralde, LPZ, Bolivia",
            "locType": "hamlet",
            "blogLinks": [
                "https://en.wikipedia.org/wiki/U.S._Route_395_in_California"
            ],
            "longitude": "-68.2263998"
        },
        "north": {
            "latitude": "-11.2141388",
            "closest_to": "",
            "address": "Canton Victoria, California, Provincia de Manuripi, PND, Bolivia",
            "locType": "hamlet",
            "blogLinks": [
                "https://en.wikipedia.org/wiki/U.S._Route_395_in_California"
            ],
            "longitude": "-67.7071862"
        },
        "california road": {
            "latitude": "52.6724331",
            "closest_to": "",
            "address": "California Road, Ormesby Saint Margaret with Scratby, Great Yarmouth, Norfolk, East of England, England, UK",
            "locType": "tertiary",
            "blogLinks": [
                "https://en.wikipedia.org/wiki/U.S._Route_395_in_California"
            ],
            "longitude": "1.7155275"
        },
        "redwoods state park": {
            "latitude": "41.40951025",
            "closest_to": "",
            "address": "Prairie Creek Redwoods State Park, West Ridge Trail, Humboldt County, California, United States of America",
            "locType": "national_park",
            "blogLinks": [
                "http://www.sunset.com/travel/california/best-campgrounds-california"
            ],
            "longitude": "-124.036052276854"
        },
        "modoc county": {
            "latitude": "41.5450487",
            "closest_to": "",
            "address": "Modoc County, California, United States of America",
            "locType": "administrative",
            "blogLinks": [
                "https://en.wikipedia.org/wiki/U.S._Route_395_in_California"
            ],
            "longitude": "-120.7435997"
        },
        "new pine creek": {
            "latitude": "41.9926652",
            "closest_to": "",
            "address": "New Pine Creek, Modoc County, California, United States of America",
            "locType": "hamlet",
            "blogLinks": [
                "https://en.wikipedia.org/wiki/U.S._Route_395_in_California"
            ],
            "longitude": "-120.2971775"
        },
        "los angeles metro": {
            "latitude": "14.7119101",
            "closest_to": "",
            "address": "East Los Angeles, California Village, San Bartolome, Quezon City, District V, Quezon City, Metro Manila, 1116, Philippines",
            "locType": "residential",
            "blogLinks": [
                "http://www.traillink.com/stateactivity/ca-wheelchair-accessible-trails.aspx"
            ],
            "longitude": "121.0228751"
        },
        "eureka": {
            "latitude": "40.8020712",
            "closest_to": "",
            "address": "Eureka, Humboldt County, California, United States of America",
            "locType": "city",
            "blogLinks": [
                "http://www.traillink.com/stateactivity/ca-wheelchair-accessible-trails.aspx"
            ],
            "longitude": "-124.1636728"
        },
        "missouri": {
            "latitude": "38.6275421",
            "closest_to": "",
            "address": "California, Moniteau County, Missouri, United States of America",
            "locType": "city",
            "blogLinks": [
                "https://www.nps.gov/state/ca/index.htm"
            ],
            "longitude": "-92.566517"
        },
        "hamilton": {
            "latitude": "39.0652059",
            "closest_to": "",
            "address": "California, Cincinnati, Hamilton County, Ohio, United States of America",
            "locType": "suburb",
            "blogLinks": [
                "http://www.traillink.com/stateactivity/ca-wheelchair-accessible-trails.aspx"
            ],
            "longitude": "-84.4272385"
        },
        "north fork pit river": {
            "latitude": "41.6424019",
            "closest_to": "",
            "address": "North Fork Pit River, Modoc County, California, United States of America",
            "locType": "river",
            "blogLinks": [
                "https://en.wikipedia.org/wiki/U.S._Route_395_in_California"
            ],
            "longitude": "-120.4215073"
        },
        "san cruz": {
            "latitude": "-17.8219717",
            "closest_to": "",
            "address": "California, Municipio Santa Cruz de la Sierra, Provincia Andres Ibanez, SCZ, 6320, Bolivia",
            "locType": "neighbourhood",
            "blogLinks": [
                "https://www.tripadvisor.com/ShowTopic-g28926-i29-k6578200-Must_stop_places_in_Highway_1-California.html"
            ],
            "longitude": "-63.2174814"
        },
        "santa": {
            "latitude": "22.4804035",
            "closest_to": "",
            "address": "California, Santa Isabel de las Lajas, Cienfuegos, Cuba",
            "locType": "hamlet",
            "blogLinks": [
                "http://www.traillink.com/stateactivity/ca-wheelchair-accessible-trails.aspx"
            ],
            "longitude": "-80.3796642"
        },
        "virginia": {
            "latitude": "37.9090178",
            "closest_to": "",
            "address": "California, Rockbridge County, Virginia, United States of America",
            "locType": "hamlet",
            "blogLinks": [
                "https://en.wikipedia.org/wiki/U.S._Route_395_in_California"
            ],
            "longitude": "-79.5869878"
        },
        "napa valley": {
            "latitude": "39.0234679",
            "closest_to": "",
            "address": "Napa Valley, Cold Spring, Campbell County, Kentucky, 41076, United States of America",
            "locType": "residential",
            "blogLinks": [
                "https://www.trekaroo.com/places/california/snapshot"
            ],
            "longitude": "-84.4504647"
        },
        "alturas": {
            "latitude": "41.487123",
            "closest_to": "",
            "address": "Alturas, Modoc County, California, United States of America",
            "locType": "city",
            "blogLinks": [
                "https://en.wikipedia.org/wiki/U.S._Route_395_in_California"
            ],
            "longitude": "-120.542327"
        },
        "mammoth": {
            "latitude": "41.7304379",
            "closest_to": "",
            "address": "Mammoth, Modoc County, California, United States of America",
            "locType": "hamlet",
            "blogLinks": [
                "http://www.greeneadventures.com/2011/08/28/exploring-mammoth-hiking-to-devils-postpile-and-rainbow-falls/"
            ],
            "longitude": "-121.3549877"
        },
        "mckinleyville": {
            "latitude": "40.966005",
            "closest_to": "",
            "address": "McKinleyville, Airport Road, McKinleyville, Humboldt County, California, 95519, United States of America",
            "locType": "administrative",
            "blogLinks": [
                "http://www.traillink.com/stateactivity/ca-wheelchair-accessible-trails.aspx"
            ],
            "longitude": "-124.102789674524"
        },
        "new mexico": {
            "latitude": "32.2644096",
            "closest_to": "",
            "address": "California Lateral, Mesilla, Do\u00f1a Ana County, New Mexico, United States of America",
            "locType": "drain",
            "blogLinks": [
                "https://www.nps.gov/state/ca/index.htm"
            ],
            "longitude": "-106.8036705"
        },
        "hikshari trail": {
            "latitude": "40.767892",
            "closest_to": "",
            "address": "Hikshari' Trail, Eureka, Humboldt County, California, 95503, United States of America",
            "locType": "path",
            "blogLinks": [
                "http://www.traillink.com/stateactivity/ca-wheelchair-accessible-trails.aspx"
            ],
            "longitude": "-124.1965449"
        },
        "fort bragg": {
            "latitude": "39.4447345",
            "closest_to": "",
            "address": "Fort Bragg, Mendocino County, California, United States of America",
            "locType": "city",
            "blogLinks": [
                "http://www.traillink.com/stateactivity/ca-wheelchair-accessible-trails.aspx"
            ],
            "longitude": "-123.802699105743"
        },
        "arcata": {
            "latitude": "40.8665166",
            "closest_to": "",
            "address": "Arcata, Humboldt County, California, United States of America",
            "locType": "city",
            "blogLinks": [
                "https://en.wikipedia.org/wiki/U.S._Route_395_in_California"
            ],
            "longitude": "-124.0828395"
        },
        "u.s.": {
            "latitude": "-32.5446226",
            "closest_to": "",
            "address": "La California, Municipio de Las Rosas, Departamento Belgrano, Sta. Fe, Argentina",
            "locType": "hamlet",
            "blogLinks": [
                "https://en.wikipedia.org/wiki/U.S._Route_395_in_California",
                "https://www.nps.gov/state/ca/index.htm",
                "https://www.trekaroo.com/places/california/snapshot",
                "https://www.tripadvisor.com/ShowTopic-g28926-i29-k6578200-Must_stop_places_in_Highway_1-California.html",
                "http://www.greeneadventures.com/2011/08/28/exploring-mammoth-hiking-to-devils-postpile-and-rainbow-falls/"
            ],
            "longitude": "-61.5489543"
        },
        "goose lake": {
            "latitude": "41.9077138",
            "closest_to": "",
            "address": "Goose Lake, Modoc County, California, United States of America",
            "locType": "water",
            "blogLinks": [
                "https://en.wikipedia.org/wiki/U.S._Route_395_in_California"
            ],
            "longitude": "-120.438892886151"
        },
        "washington": {
            "latitude": "40.0657724",
            "closest_to": "",
            "address": "California, Washington County, Pennsylvania, United States of America",
            "locType": "administrative",
            "blogLinks": [
                "https://en.wikipedia.org/wiki/U.S._Route_395_in_California"
            ],
            "longitude": "-79.8918435"
        },
        "spokane": {
            "latitude": "47.5625688",
            "closest_to": "",
            "address": "California Creek, Spokane County, Washington, United States of America",
            "locType": "stream",
            "blogLinks": [
                "https://en.wikipedia.org/wiki/U.S._Route_395_in_California"
            ],
            "longitude": "-117.1822239"
        },
        "mount shasta": {
            "latitude": "41.3098746",
            "closest_to": "",
            "address": "Mount Shasta, Siskiyou County, California, United States of America",
            "locType": "city",
            "blogLinks": [
                "https://www.trekaroo.com/places/california/snapshot"
            ],
            "longitude": "-122.3105665"
        },
        "laguna creek west": {
            "latitude": "14.215853",
            "closest_to": "",
            "address": "California, Land Mark Subdivision, Calamba, Laguna, Calabarzon, 4027, Philippines",
            "locType": "residential",
            "blogLinks": [
                "http://www.traillink.com/stateactivity/ca-wheelchair-accessible-trails.aspx"
            ],
            "longitude": "121.141842"
        },
        "california": {
            "latitude": "7.3480915",
            "closest_to": "",
            "address": "California, Santander, Colombia",
            "locType": "village",
            "blogLinks": [
                "http://www.mammothmountain.com/winter/plan-a-vacation/plan-a-vacation/getting-here",
                "http://www.traillink.com/stateactivity/ca-wheelchair-accessible-trails.aspx",
                "http://www.sunset.com/travel/california/best-campgrounds-california",
                "https://www.nps.gov/state/ca/index.htm",
                "https://www.trekaroo.com/places/california/snapshot",
                "http://distancecalculator.globefeed.com/US_Distance_Calculator.asp?state=CA",
                "http://www.visitmammoth.com/adventures",
                "https://en.wikipedia.org/wiki/U.S._Route_395_in_California",
                "http://www.travelchannel.com/destinations/us/ca"
            ],
            "longitude": "-72.945787"
        }
    },
    "santa ana": {
        "type": "city",
        "osm_id": "2311446",
        "class": "place",
        "importance": 0.80067109924196,
        "lat": "33.7494951",
        "lon": "-117.8732212",
        "boundingbox": [
            "33.6916541",
            "33.7840133",
            "-117.9439458",
            "-117.8303494"
        ],
        "display_name": "Santa Ana, Orange County, California, United States of America",
        "licence": "Data \u00a9 OpenStreetMap contributors, ODbL 1.0. http://www.openstreetmap.org/copyright",
        "icon": "https://nominatim.openstreetmap.org/images/mapicons/poi_place_city.p.20.png",
        "place_id": "159122957",
        "osm_type": "relation"
    }
}