{
    "mentions": {
        "pacific coast highway": {
            "latitude": "33.6595127",
            "closest_to": "",
            "address": "Pacific Coast Highway, Huntington Beach, Orange County, California, 92648, United States of America",
            "locType": "primary",
            "blogLinks": [
                "http://www.travbuddy.com/California-travel-guide-p85"
            ],
            "longitude": "-118.0051687"
        },
        "strawberry lodge": {
            "latitude": "38.7964604",
            "closest_to": "",
            "address": "Strawberry Lodge, 17510, US 50, Strawberry, El Dorado County, California, 95735, United States of America",
            "locType": "hotel",
            "blogLinks": [
                "http://www.sfgate.com/restaurants/article/SECOND-OF-TWO-PARTS-On-the-Road-to-Tahoe-2957593.php"
            ],
            "longitude": "-120.1455928"
        },
        "cambria": {
            "latitude": "35.5641381",
            "closest_to": "",
            "address": "Cambria, San Luis Obispo County, California, United States of America",
            "locType": "administrative",
            "blogLinks": [
                "http://www.trippy.com/question/California-Where-to-stay-half-way-between-S-F--and-L-A"
            ],
            "longitude": "-121.0807467"
        },
        "xa0oakland hills": {
            "latitude": "33.8818158",
            "closest_to": "",
            "address": "The Hills, Yorba Linda, Orange County, California, 92887, United States of America",
            "locType": "residential",
            "blogLinks": [
                "https://www.visitoakland.org/explore/101-things-to-do/"
            ],
            "longitude": "-117.732371978438"
        },
        "yreka": {
            "latitude": "41.7326157",
            "closest_to": "",
            "address": "Yreka, Siskiyou County, California, United States of America",
            "locType": "city",
            "blogLinks": [
                "https://www.yelp.com/topic/san-francisco-driving-from-sf-to-portland-what-to-see-along-the-way"
            ],
            "longitude": "-122.6377654"
        },
        "humboldt county": {
            "latitude": "40.5997415",
            "closest_to": "",
            "address": "Humboldt County, California, United States of America",
            "locType": "administrative",
            "blogLinks": [
                "http://www.travbuddy.com/California-travel-guide-p85"
            ],
            "longitude": "-123.8997733"
        },
        "monterey bay": {
            "latitude": "36.7999557",
            "closest_to": "",
            "address": "Monterey Bay, Monterey County, California, United States of America",
            "locType": "bay",
            "blogLinks": [
                "http://www.travbuddy.com/California-travel-guide-p85"
            ],
            "longitude": "-121.9010667"
        },
        "pismo beach": {
            "latitude": "35.1427533",
            "closest_to": "",
            "address": "Pismo Beach, San Luis Obispo County, California, United States of America",
            "locType": "city",
            "blogLinks": [
                "http://www.trippy.com/question/California-Where-to-stay-half-way-between-S-F--and-L-A"
            ],
            "longitude": "-120.6412826"
        },
        "central valley": {
            "latitude": "40.5626504",
            "closest_to": "",
            "address": "KNNN-FM (Central Valley), Rattlesnake Drive, Shasta County, California, 96001, United States of America",
            "locType": "tower",
            "blogLinks": [
                "http://gocalifornia.about.com/od/topcalifornia/ss/Los-Angeles-to-San-Francisco-on-I-5.htm"
            ],
            "longitude": "-122.4530663"
        },
        "long beach": {
            "latitude": "33.78538945",
            "closest_to": "",
            "address": "Long Beach, Los Angeles County, California, United States of America",
            "locType": "city",
            "blogLinks": [
                "http://www.travbuddy.com/California-travel-guide-p85"
            ],
            "longitude": "-118.158049215311"
        },
        "columbia state historic park": {
            "latitude": "38.03119515",
            "closest_to": "",
            "address": "Columbia State Historic Park, Kennebec Lane, Columbia, Tuolumne County, California, 95310, United States of America",
            "locType": "park",
            "blogLinks": [
                "http://matadornetwork.com/trips/30-incredible-places-4-hours-oakland/"
            ],
            "longitude": "-120.400655051373"
        },
        "las angeles": {
            "latitude": "33.9995929",
            "closest_to": "",
            "address": "California, Obregon Street, West Whittier, Rosemead, Los Angeles County, California, 90606, United States of America",
            "locType": "abandoned",
            "blogLinks": [
                "http://www.travbuddy.com/California-travel-guide-p85"
            ],
            "longitude": "-118.0668337"
        },
        "bixby bridge": {
            "latitude": "36.3710197",
            "closest_to": "",
            "address": "Bixby Creek Bridge, Notleys Landing, Monterey County, California, 93923, United States of America",
            "locType": "primary",
            "blogLinks": [
                "http://matadornetwork.com/trips/30-incredible-places-4-hours-oakland/"
            ],
            "longitude": "-121.9017572"
        },
        "redding": {
            "latitude": "40.5863563",
            "closest_to": "",
            "address": "Redding, Shasta County, California, United States of America",
            "locType": "city",
            "blogLinks": [
                "https://www.yelp.com/topic/san-francisco-driving-from-sf-to-portland-what-to-see-along-the-way",
                "https://www.tripadvisor.com/ShowTopic-g28958-i237-k2363529-4_days_road_trip_from_West_Sacramento_CA_to_Oregon-Oregon.html"
            ],
            "longitude": "-122.3916753"
        },
        "antelope valley": {
            "latitude": "34.67743",
            "closest_to": "",
            "address": "Antelope Valley College, West Avenue K, Lancaster, Los Angeles County, California, 93536, United States of America",
            "locType": "college",
            "blogLinks": [
                "http://gocalifornia.about.com/od/topcalifornia/ss/Los-Angeles-to-San-Francisco-on-I-5.htm"
            ],
            "longitude": "-118.1865629"
        },
        "san simeon": {
            "latitude": "35.6438587",
            "closest_to": "",
            "address": "San Simeon, San Luis Obispo County, California, United States of America",
            "locType": "hamlet",
            "blogLinks": [
                "http://www.travbuddy.com/California-travel-guide-p85",
                "http://www.trippy.com/question/California-Where-to-stay-half-way-between-S-F--and-L-A",
                "http://www.goldengatetours.net/places"
            ],
            "longitude": "-121.1907532"
        },
        "trinity alps": {
            "latitude": "40.857366",
            "closest_to": "",
            "address": "Trinity Alps, Trinity County, California, United States of America",
            "locType": "hamlet",
            "blogLinks": [
                "http://blog.sfgate.com/sfmoms/2010/06/07/i-5-sacramento-to-redding/"
            ],
            "longitude": "-122.8903046"
        },
        "harris ranch": {
            "latitude": "36.2535766",
            "closest_to": "",
            "address": "Harris Ranch, West Dorris Avenue, Fresno County, California, 93210, United States of America",
            "locType": "hotel",
            "blogLinks": [
                "https://www.yelp.com/topic/san-francisco-place-to-eat-off-i-5-between-la-and-sf"
            ],
            "longitude": "-120.237368306069"
        },
        "london": {
            "latitude": "36.4760619",
            "closest_to": "",
            "address": "London, Tulare County, California, United States of America",
            "locType": "village",
            "blogLinks": [
                "http://www.goldengatetours.net/places"
            ],
            "longitude": "-119.4431784"
        },
        "san luis obispo county": {
            "latitude": "35.3540209",
            "closest_to": "",
            "address": "San Luis Obispo County, California, United States of America",
            "locType": "administrative",
            "blogLinks": [
                "http://www.travbuddy.com/California-travel-guide-p85"
            ],
            "longitude": "-120.3757162"
        },
        "bass lake": {
            "latitude": "37.3246665",
            "closest_to": "",
            "address": "Bass Lake, Madera County, California, United States of America",
            "locType": "hamlet",
            "blogLinks": [
                "http://matadornetwork.com/trips/30-incredible-places-4-hours-oakland/",
                "https://www.visitoakland.org/explore/101-things-to-do/"
            ],
            "longitude": "-119.5662538"
        },
        "stateline": {
            "latitude": "38.9582412",
            "closest_to": "",
            "address": "Stateline, El Dorado County, California, United States of America",
            "locType": "hamlet",
            "blogLinks": [
                "http://www.sfgate.com/restaurants/article/SECOND-OF-TWO-PARTS-On-the-Road-to-Tahoe-2957593.php"
            ],
            "longitude": "-119.9437918"
        },
        "los angeles county": {
            "latitude": "34.3155072",
            "closest_to": "",
            "address": "Los Angeles County, California, United States of America",
            "locType": "administrative",
            "blogLinks": [
                "http://www.travbuddy.com/California-travel-guide-p85"
            ],
            "longitude": "-118.2096813"
        },
        "mammoth cave": {
            "latitude": "41.6722473",
            "closest_to": "",
            "address": "Mammoth Cave, 45N11, Mammoth, Modoc County, California, United States of America",
            "locType": "cave_entrance",
            "blogLinks": [
                "http://www.goldengatetours.net/places"
            ],
            "longitude": "-121.3349028"
        },
        "newport beach": {
            "latitude": "33.6170092",
            "closest_to": "",
            "address": "Newport Beach, Orange County, California, United States of America",
            "locType": "city",
            "blogLinks": [
                "http://www.travbuddy.com/California-travel-guide-p85"
            ],
            "longitude": "-117.92944"
        },
        "california-nevada": {
            "latitude": "36.17310935",
            "closest_to": "",
            "address": "California Hotel, Sky Walk(Connection from Main Street to California, Cultural Corridor, Vegas Heights, Las Vegas, Clark County, Nevada, 89101, United States of America",
            "locType": "hotel",
            "blogLinks": [
                "http://www.travbuddy.com/California-travel-guide-p85"
            ],
            "longitude": "-115.144667930325"
        },
        "south lake tahoe": {
            "latitude": "38.929125",
            "closest_to": "",
            "address": "South Lake Tahoe, El Dorado County, California, United States of America",
            "locType": "city",
            "blogLinks": [
                "http://www.travbuddy.com/California-travel-guide-p85",
                "https://www.tripadvisor.com/ShowTopic-g28926-i29-k4351504-Driving_from_San_Francisco_to_South_Lake_Tahoe-California.html",
                "http://www.sfgate.com/restaurants/article/SECOND-OF-TWO-PARTS-On-the-Road-to-Tahoe-2957593.php"
            ],
            "longitude": "-119.987846390157"
        },
        "redwood rd": {
            "latitude": "34.2595918",
            "closest_to": "",
            "address": "Redwood Road, Cedar Glen, San Bernardino County, California, 92402, United States of America",
            "locType": "residential",
            "blogLinks": [
                "http://matadornetwork.com/trips/30-incredible-places-4-hours-oakland/"
            ],
            "longitude": "-117.1542962"
        },
        "rio": {
            "latitude": "34.24399815",
            "closest_to": "",
            "address": "El Rio, Cortez Street, El Rio, Ventura County, California, 93030, United States of America",
            "locType": "administrative",
            "blogLinks": [
                "https://www.tripadvisor.com/ShowTopic-g28926-i29-k4351504-Driving_from_San_Francisco_to_South_Lake_Tahoe-California.html"
            ],
            "longitude": "-119.156915198615"
        },
        "tejon pass": {
            "latitude": "34.8027895",
            "closest_to": "",
            "address": "Tejon Pass, Golden State Freeway, Gorman, Los Angeles County, California, 93243, United States of America",
            "locType": "saddle",
            "blogLinks": [
                "http://gocalifornia.about.com/od/topcalifornia/ss/Los-Angeles-to-San-Francisco-on-I-5.htm"
            ],
            "longitude": "-118.8767819"
        },
        "monterey bay aquarium": {
            "latitude": "36.61809095",
            "closest_to": "",
            "address": "MBA, 886, Cannery Row, Monterey, Monterey County, California, 93940, United States of America",
            "locType": "aquarium",
            "blogLinks": [
                "http://matadornetwork.com/trips/30-incredible-places-4-hours-oakland/",
                "http://www.trippy.com/question/California-Where-to-stay-half-way-between-S-F--and-L-A"
            ],
            "longitude": "-121.901680002002"
        },
        "mexico": {
            "latitude": "28.973",
            "closest_to": "",
            "address": "California, Hermosillo, Sonora, M\u00e9xico",
            "locType": "village",
            "blogLinks": [
                "https://www.tripadvisor.com/ShowTopic-g28926-i29-k4351504-Driving_from_San_Francisco_to_South_Lake_Tahoe-California.html"
            ],
            "longitude": "-111.8196666"
        },
        "carson road": {
            "latitude": "33.9511986",
            "closest_to": "",
            "address": "Carson Road, Riverside, Riverside County, California, 92506, United States of America",
            "locType": "residential",
            "blogLinks": [
                "http://www.sfgate.com/restaurants/article/SECOND-OF-TWO-PARTS-On-the-Road-to-Tahoe-2957593.php"
            ],
            "longitude": "-117.375439"
        },
        "calico": {
            "latitude": "35.6327332",
            "closest_to": "",
            "address": "Calico, Kern County, California, United States of America",
            "locType": "locality",
            "blogLinks": [
                "http://www.travbuddy.com/California-travel-guide-p85"
            ],
            "longitude": "-119.206496"
        },
        "ocean beach": {
            "latitude": "32.7477784",
            "closest_to": "",
            "address": "Ocean Beach, San Diego, San Diego County, California, United States of America",
            "locType": "region",
            "blogLinks": [
                "http://www.goldengatetours.net/places"
            ],
            "longitude": "-117.249321"
        },
        "hollywood": {
            "latitude": "34.1028268",
            "closest_to": "",
            "address": "Hollywood, LA, Los Angeles County, California, United States of America",
            "locType": "suburb",
            "blogLinks": [
                "http://www.travbuddy.com/California-travel-guide-p85"
            ],
            "longitude": "-118.3299898"
        },
        "beverly hills": {
            "latitude": "34.0736204",
            "closest_to": "",
            "address": "Beverly Hills, Los Angeles County, California, United States of America",
            "locType": "city",
            "blogLinks": [
                "http://www.travbuddy.com/California-travel-guide-p85"
            ],
            "longitude": "-118.4003562"
        },
        "santa barbara": {
            "latitude": "34.4221319",
            "closest_to": "",
            "address": "Santa Barbara, Santa Barbara County, California, United States of America",
            "locType": "city",
            "blogLinks": [
                "http://www.trippy.com/question/California-Where-to-stay-half-way-between-S-F--and-L-A"
            ],
            "longitude": "-119.7026672"
        },
        "mt.": {
            "latitude": "-11.8891419",
            "closest_to": "",
            "address": "Calif\u00f3rnia, Microrregi\u00e3o de Sinop, Mesorregi\u00e3o Norte Mato-Grossense, MT, Regi\u00e3o Centro-Oeste, Brasil",
            "locType": "hamlet",
            "blogLinks": [
                "https://www.yelp.com/topic/san-francisco-driving-from-sf-to-portland-what-to-see-along-the-way"
            ],
            "longitude": "-55.4576859"
        },
        "burbank": {
            "latitude": "34.1816482",
            "closest_to": "",
            "address": "Burbank, Los Angeles County, California, United States of America",
            "locType": "city",
            "blogLinks": [
                "http://www.travbuddy.com/California-travel-guide-p85"
            ],
            "longitude": "-118.3258553"
        },
        "state beach": {
            "latitude": "34.03385755",
            "closest_to": "",
            "address": "Malibu Lagoon State Beach, Pacific Coast Highway, Malibu, Los Angeles County, California, 90265, United States of America",
            "locType": "beach",
            "blogLinks": [
                "http://www.trippy.com/question/California-Where-to-stay-half-way-between-S-F--and-L-A"
            ],
            "longitude": "-118.679064060789"
        },
        "madera county": {
            "latitude": "37.1716264",
            "closest_to": "",
            "address": "Madera County, California, United States of America",
            "locType": "administrative",
            "blogLinks": [
                "http://matadornetwork.com/trips/30-incredible-places-4-hours-oakland/"
            ],
            "longitude": "-119.773799"
        },
        "london square": {
            "latitude": "35.13394805",
            "closest_to": "",
            "address": "The Square, Pismo Beach, San Luis Obispo County, California, 93449, United States of America",
            "locType": "recreation_ground",
            "blogLinks": [
                "https://www.visitoakland.org/explore/101-things-to-do/"
            ],
            "longitude": "-120.638273085773"
        },
        "us": {
            "latitude": "36.7014631",
            "closest_to": "",
            "address": "California, United States of America",
            "locType": "administrative",
            "blogLinks": [
                "http://www.travbuddy.com/California-travel-guide-p85",
                "https://www.tripadvisor.com/ShowTopic-g28926-i29-k4351504-Driving_from_San_Francisco_to_South_Lake_Tahoe-California.html",
                "http://gocalifornia.about.com/od/topcalifornia/ss/Los-Angeles-to-San-Francisco-on-I-5.htm",
                "http://matadornetwork.com/trips/30-incredible-places-4-hours-oakland/"
            ],
            "longitude": "-118.7559973"
        },
        "santa clarita": {
            "latitude": "34.3916641",
            "closest_to": "",
            "address": "Santa Clarita, Los Angeles County, California, United States of America",
            "locType": "city",
            "blogLinks": [
                "http://gocalifornia.about.com/od/topcalifornia/ss/Los-Angeles-to-San-Francisco-on-I-5.htm"
            ],
            "longitude": "-118.5425859"
        },
        "eureka": {
            "latitude": "40.8020712",
            "closest_to": "",
            "address": "Eureka, Humboldt County, California, United States of America",
            "locType": "city",
            "blogLinks": [
                "http://www.travbuddy.com/California-travel-guide-p85",
                "https://www.tripadvisor.com/ShowTopic-g28958-i237-k2363529-4_days_road_trip_from_West_Sacramento_CA_to_Oregon-Oregon.html"
            ],
            "longitude": "-124.1636728"
        },
        "main street": {
            "latitude": "34.10780565",
            "closest_to": "",
            "address": "Main Street, Alta Loma, Rancho Cucamonga, San Bernardino County, California, 91730, United States of America",
            "locType": "residential",
            "blogLinks": [
                "http://www.sfgate.com/restaurants/article/SECOND-OF-TWO-PARTS-On-the-Road-to-Tahoe-2957593.php"
            ],
            "longitude": "-117.59857297034"
        },
        "san luis obispo": {
            "latitude": "35.2827525",
            "closest_to": "",
            "address": "San Luis Obispo, San Luis Obispo County, California, United States of America",
            "locType": "city",
            "blogLinks": [
                "http://www.trippy.com/question/California-Where-to-stay-half-way-between-S-F--and-L-A"
            ],
            "longitude": "-120.6596155"
        },
        "castaic": {
            "latitude": "34.4888822",
            "closest_to": "",
            "address": "Castaic, Los Angeles County, California, United States of America",
            "locType": "hamlet",
            "blogLinks": [
                "http://gocalifornia.about.com/od/topcalifornia/ss/Los-Angeles-to-San-Francisco-on-I-5.htm"
            ],
            "longitude": "-118.6228655"
        },
        "tillamook": {
            "latitude": "32.728329",
            "closest_to": "",
            "address": "Tillamook Bay Drive, San Diego, San Diego County, California, 92114, United States of America",
            "locType": "residential",
            "blogLinks": [
                "https://www.yelp.com/topic/san-francisco-driving-from-sf-to-portland-what-to-see-along-the-way"
            ],
            "longitude": "-117.0726319"
        },
        "sundial bridge": {
            "latitude": "40.5932269",
            "closest_to": "",
            "address": "Sundial Bridge, Redding, Shasta County, California, 96001, United States of America",
            "locType": "footway",
            "blogLinks": [
                "https://www.tripadvisor.com/ShowTopic-g28958-i237-k2363529-4_days_road_trip_from_West_Sacramento_CA_to_Oregon-Oregon.html"
            ],
            "longitude": "-122.3775705"
        },
        "crescent city": {
            "latitude": "41.8528065",
            "closest_to": "",
            "address": "Crescent City, Del Norte County, California, United States of America",
            "locType": "city",
            "blogLinks": [
                "https://www.tripadvisor.com/ShowTopic-g28958-i237-k2363529-4_days_road_trip_from_West_Sacramento_CA_to_Oregon-Oregon.html"
            ],
            "longitude": "-124.149861883096"
        },
        "los angeles aqueduct": {
            "latitude": "36.6516297",
            "closest_to": "",
            "address": "Los Angeles Aqueduct, Inyo County, California, United States of America",
            "locType": "canal",
            "blogLinks": [
                "http://gocalifornia.about.com/od/topcalifornia/ss/Los-Angeles-to-San-Francisco-on-I-5.htm"
            ],
            "longitude": "-118.0956309"
        },
        "yosemite": {
            "latitude": "37.7488554",
            "closest_to": "",
            "address": "Yosemite, Village Drive, Yosemite Village, Yosemite Valley, Mariposa County, California, United States of America",
            "locType": "attraction",
            "blogLinks": [
                "http://matadornetwork.com/trips/30-incredible-places-4-hours-oakland/"
            ],
            "longitude": "-119.5893389"
        },
        "cantina": {
            "latitude": "32.7984677",
            "closest_to": "",
            "address": "Cantina, Felspar Street, Pacific Beach, San Diego, San Diego County, California, 92109, United States of America",
            "locType": "restaurant",
            "blogLinks": [
                "http://www.sfgate.com/restaurants/article/SECOND-OF-TWO-PARTS-On-the-Road-to-Tahoe-2957593.php"
            ],
            "longitude": "-117.252573"
        },
        "union creek": {
            "latitude": "39.8157118",
            "closest_to": "",
            "address": "Union Creek, Plumas County, California, United States of America",
            "locType": "stream",
            "blogLinks": [
                "https://www.tripadvisor.com/ShowTopic-g28958-i237-k2363529-4_days_road_trip_from_West_Sacramento_CA_to_Oregon-Oregon.html"
            ],
            "longitude": "-120.8544241"
        },
        "interstate 80": {
            "latitude": "33.704135",
            "closest_to": "",
            "address": "Interstate 10, Desert Center, Riverside County, California, 92239, United States of America",
            "locType": "motorway",
            "blogLinks": [
                "http://www.sfgate.com/restaurants/article/SECOND-OF-TWO-PARTS-On-the-Road-to-Tahoe-2957593.php"
            ],
            "longitude": "-115.44222"
        },
        "lake berryessa": {
            "latitude": "35.376803",
            "closest_to": "",
            "address": "Lake Berryessa, Rosedale, Kern County, California, 93314, United States of America",
            "locType": "residential",
            "blogLinks": [
                "https://www.tripadvisor.com/ShowTopic-g60713-i30-k5261581-Scenic_Route_from_San_Francisco_to_Sacramento-San_Francisco_California.html"
            ],
            "longitude": "-119.1745059"
        },
        "los tres hombres": {
            "latitude": "39.73015435",
            "closest_to": "",
            "address": "Tr\u00e9s Hombres, Broadway Street, Chico, Butte County, California, 95928, United States of America",
            "locType": "restaurant",
            "blogLinks": [
                "http://www.sfgate.com/restaurants/article/SECOND-OF-TWO-PARTS-On-the-Road-to-Tahoe-2957593.php"
            ],
            "longitude": "-121.842092521152"
        },
        "old town": {
            "latitude": "35.142943",
            "closest_to": "",
            "address": "Old Town, Golden Hills, Kern County, California, United States of America",
            "locType": "locality",
            "blogLinks": [
                "http://blog.sfgate.com/sfmoms/2010/06/07/i-5-sacramento-to-redding/"
            ],
            "longitude": "-118.4954422"
        },
        "claremont": {
            "latitude": "34.0966764",
            "closest_to": "",
            "address": "Claremont, Los Angeles County, California, United States of America",
            "locType": "city",
            "blogLinks": [
                "http://matadornetwork.com/trips/30-incredible-places-4-hours-oakland/"
            ],
            "longitude": "-117.7197784"
        },
        "tejon ranch": {
            "latitude": "34.9885197",
            "closest_to": "",
            "address": "Bob Stine Road, Wheeler Ridge, Kern County, California, United States of America",
            "locType": "tertiary",
            "blogLinks": [
                "http://gocalifornia.about.com/od/topcalifornia/ss/Los-Angeles-to-San-Francisco-on-I-5.htm"
            ],
            "longitude": "-118.9408535"
        },
        "sierra at tahoe": {
            "latitude": "38.7999683",
            "closest_to": "",
            "address": "Sierra-at-Tahoe Resort, Sierra Ski Ranch Road, Phillips, El Dorado County, California, 95721, United States of America",
            "locType": "sports_centre",
            "blogLinks": [
                "http://www.sfgate.com/restaurants/article/SECOND-OF-TWO-PARTS-On-the-Road-to-Tahoe-2957593.php"
            ],
            "longitude": "-120.0809885"
        },
        "la": {
            "latitude": "36.7014631",
            "closest_to": "",
            "address": "California, United States of America",
            "locType": "administrative",
            "blogLinks": [
                "http://www.travbuddy.com/California-travel-guide-p85",
                "http://gocalifornia.about.com/od/topcalifornia/ss/Los-Angeles-to-San-Francisco-on-I-5.htm",
                "https://www.yelp.com/topic/san-francisco-place-to-eat-off-i-5-between-la-and-sf",
                "http://www.trippy.com/question/California-Where-to-stay-half-way-between-S-F--and-L-A"
            ],
            "longitude": "-118.7559973"
        },
        "barstow": {
            "latitude": "34.8957684",
            "closest_to": "",
            "address": "Barstow, San Bernardino County, California, United States of America",
            "locType": "administrative",
            "blogLinks": [
                "http://www.travbuddy.com/California-travel-guide-p85"
            ],
            "longitude": "-117.0172076"
        },
        "turtle bay": {
            "latitude": "33.5504463",
            "closest_to": "",
            "address": "Turtle Bay, Montego Bay, Four Seasons, Riverside County, California, 92591, United States of America",
            "locType": "residential",
            "blogLinks": [
                "https://www.tripadvisor.com/ShowTopic-g28958-i237-k2363529-4_days_road_trip_from_West_Sacramento_CA_to_Oregon-Oregon.html"
            ],
            "longitude": "-117.130193"
        },
        "madison bear garden": {
            "latitude": "39.7290957",
            "closest_to": "",
            "address": "Madison Bear Garden, West 2nd Street, Chico, Butte County, California, 95928, United States of America",
            "locType": "restaurant",
            "blogLinks": [
                "https://www.yelp.com/topic/san-francisco-driving-from-sf-to-portland-what-to-see-along-the-way"
            ],
            "longitude": "-121.8426174"
        },
        "us hwy 101": {
            "latitude": "32.9967358",
            "closest_to": "",
            "address": "Highway 101, Solana Beach, San Diego County, California, 92075, United States of America",
            "locType": "primary",
            "blogLinks": [
                "http://gocalifornia.about.com/od/topcalifornia/ss/Los-Angeles-to-San-Francisco-on-I-5.htm"
            ],
            "longitude": "-117.2731974"
        },
        "pioneer center": {
            "latitude": "35.7857871",
            "closest_to": "",
            "address": "Pioneer Point, San Bernardino County, California, United States of America",
            "locType": "hamlet",
            "blogLinks": [
                "http://www.sfgate.com/restaurants/article/SECOND-OF-TWO-PARTS-On-the-Road-to-Tahoe-2957593.php"
            ],
            "longitude": "-117.3633901"
        },
        "kettleman city": {
            "latitude": "36.008937",
            "closest_to": "",
            "address": "Kettleman City, 7th Street, Kettleman City, Kings County, California, 93239, United States of America",
            "locType": "administrative",
            "blogLinks": [
                "http://gocalifornia.about.com/od/topcalifornia/ss/Los-Angeles-to-San-Francisco-on-I-5.htm"
            ],
            "longitude": "-119.962676860725"
        },
        "carlsbad": {
            "latitude": "33.1580933",
            "closest_to": "",
            "address": "Carlsbad, San Diego County, California, United States of America",
            "locType": "city",
            "blogLinks": [
                "http://www.travbuddy.com/California-travel-guide-p85"
            ],
            "longitude": "-117.3505938"
        },
        "tustin": {
            "latitude": "33.7458511",
            "closest_to": "",
            "address": "Tustin, Orange County, California, United States of America",
            "locType": "city",
            "blogLinks": [
                "http://blog.sfgate.com/sfmoms/2010/06/07/i-5-sacramento-to-redding/"
            ],
            "longitude": "-117.8261659"
        },
        "oregon": {
            "latitude": "33.7123207",
            "closest_to": "",
            "address": "Oregon, Walnut, Irvine, Orange County, California, 92606, United States of America",
            "locType": "residential",
            "blogLinks": [
                "https://www.yelp.com/topic/san-francisco-driving-from-sf-to-portland-what-to-see-along-the-way",
                "https://www.tripadvisor.com/ShowTopic-g28958-i237-k2363529-4_days_road_trip_from_West_Sacramento_CA_to_Oregon-Oregon.html"
            ],
            "longitude": "-117.7911567"
        },
        "harrison ave.": {
            "latitude": "33.9891813",
            "closest_to": "",
            "address": "Harrison Avenue, Venice, LA, Los Angeles County, California, 90291, United States of America",
            "locType": "residential",
            "blogLinks": [
                "http://www.sfgate.com/restaurants/article/SECOND-OF-TWO-PARTS-On-the-Road-to-Tahoe-2957593.php"
            ],
            "longitude": "-118.4516407"
        },
        "l.a.": {
            "latitude": "-13.8305494",
            "closest_to": "",
            "address": "California, Provincia Abel Iturralde, LPZ, Bolivia",
            "locType": "hamlet",
            "blogLinks": [
                "http://www.trippy.com/question/California-Where-to-stay-half-way-between-S-F--and-L-A"
            ],
            "longitude": "-67.9369134"
        },
        "northern california": {
            "latitude": "32.7349196",
            "closest_to": "",
            "address": "Northern Frontier, San Diego, San Diego County, California, United States of America",
            "locType": "locality",
            "blogLinks": [
                "https://www.yelp.com/topic/san-francisco-driving-from-sf-to-portland-what-to-see-along-the-way",
                "http://www.goldengatetours.net/places"
            ],
            "longitude": "-117.1545973"
        },
        "buellton": {
            "latitude": "34.6134727",
            "closest_to": "",
            "address": "Buellton, Santa Barbara County, California, United States of America",
            "locType": "city",
            "blogLinks": [
                "https://www.yelp.com/topic/san-francisco-place-to-eat-off-i-5-between-la-and-sf"
            ],
            "longitude": "-120.1936691"
        },
        "hyde street": {
            "latitude": "34.0819866",
            "closest_to": "",
            "address": "Hyde Street, El Sereno, Highland Park, LA, Los Angeles County, California, 90032, United States of America",
            "locType": "residential",
            "blogLinks": [
                "http://sfpl.org/index.php?pg=2000154601"
            ],
            "longitude": "-118.1670546"
        },
        "prunedale": {
            "latitude": "36.7851358",
            "closest_to": "",
            "address": "Prunedale, Monterey County, California, United States of America",
            "locType": "administrative",
            "blogLinks": [
                "http://matadornetwork.com/trips/30-incredible-places-4-hours-oakland/"
            ],
            "longitude": "-121.6666415"
        },
        "hyatt resort": {
            "latitude": "33.78958555",
            "closest_to": "",
            "address": "Hyatt Regency Orange County, 11999, Harbor Boulevard, Anaheim Resort District, Anaheim, Orange County, California, 92840, United States of America",
            "locType": "hotel",
            "blogLinks": [
                "https://www.tripadvisor.com/ShowTopic-g28926-i29-k4351504-Driving_from_San_Francisco_to_South_Lake_Tahoe-California.html"
            ],
            "longitude": "-117.916819743709"
        },
        "mendocino": {
            "latitude": "39.3176491",
            "closest_to": "",
            "address": "Mendocino County, California, United States of America",
            "locType": "administrative",
            "blogLinks": [
                "https://www.yelp.com/topic/san-francisco-driving-from-sf-to-portland-what-to-see-along-the-way"
            ],
            "longitude": "-123.4126398"
        },
        "oakland hills": {
            "latitude": "33.8145007",
            "closest_to": "",
            "address": "Oakland Hills Street, Thousand Palms, Cathedral City, Riverside County, California, 92276, United States of America",
            "locType": "residential",
            "blogLinks": [
                "https://www.visitoakland.org/explore/101-things-to-do/"
            ],
            "longitude": "-116.386065"
        },
        "jamba juice": {
            "latitude": "34.1512542",
            "closest_to": "",
            "address": "Jamba Juice, 14622, Ventura Boulevard, Sherman Oaks, LA, Los Angeles County, California, 91403, United States of America",
            "locType": "fast_food",
            "blogLinks": [
                "http://www.sfgate.com/restaurants/article/SECOND-OF-TWO-PARTS-On-the-Road-to-Tahoe-2957593.php"
            ],
            "longitude": "-118.452295698088"
        },
        "shasta": {
            "latitude": "40.7965121",
            "closest_to": "",
            "address": "Shasta County, California, United States of America",
            "locType": "administrative",
            "blogLinks": [
                "https://www.yelp.com/topic/san-francisco-driving-from-sf-to-portland-what-to-see-along-the-way"
            ],
            "longitude": "-121.9979193"
        },
        "los angeles": {
            "latitude": "34.0543942",
            "closest_to": "",
            "address": "LA, Los Angeles County, California, United States of America",
            "locType": "city",
            "blogLinks": [
                "http://www.travbuddy.com/California-travel-guide-p85",
                "http://gocalifornia.about.com/od/topcalifornia/ss/Los-Angeles-to-San-Francisco-on-I-5.htm",
                "https://www.tripadvisor.com/ShowTopic-g60713-i30-k5261581-Scenic_Route_from_San_Francisco_to_Sacramento-San_Francisco_California.html",
                "https://www.yelp.com/topic/san-francisco-place-to-eat-off-i-5-between-la-and-sf",
                "http://www.trippy.com/question/California-Where-to-stay-half-way-between-S-F--and-L-A"
            ],
            "longitude": "-118.2439408"
        },
        "tahoe": {
            "latitude": "33.659221",
            "closest_to": "",
            "address": "Tahoe, Turtle Rock, Irvine, Orange County, California, 92612, United States of America",
            "locType": "residential",
            "blogLinks": [
                "http://www.sfgate.com/restaurants/article/SECOND-OF-TWO-PARTS-On-the-Road-to-Tahoe-2957593.php"
            ],
            "longitude": "-117.8193574"
        },
        "monterey": {
            "latitude": "36.5844165",
            "closest_to": "",
            "address": "Monterey, Monterey County, California, United States of America",
            "locType": "city",
            "blogLinks": [
                "http://www.travbuddy.com/California-travel-guide-p85",
                "http://matadornetwork.com/trips/30-incredible-places-4-hours-oakland/",
                "http://www.sfgate.com/restaurants/article/SECOND-OF-TWO-PARTS-On-the-Road-to-Tahoe-2957593.php",
                "http://www.trippy.com/question/California-Where-to-stay-half-way-between-S-F--and-L-A"
            ],
            "longitude": "-121.866792846206"
        },
        "portland": {
            "latitude": "33.8979116",
            "closest_to": "",
            "address": "Portland, Riverside, Riverside County, California, 92508, United States of America",
            "locType": "residential",
            "blogLinks": [
                "https://www.yelp.com/topic/san-francisco-driving-from-sf-to-portland-what-to-see-along-the-way",
                "https://www.tripadvisor.com/ShowTopic-g28958-i237-k2363529-4_days_road_trip_from_West_Sacramento_CA_to_Oregon-Oregon.html",
                "http://www.trippy.com/question/California-Where-to-stay-half-way-between-S-F--and-L-A"
            ],
            "longitude": "-117.3105194"
        },
        "heavenly valley": {
            "latitude": "37.9665914",
            "closest_to": "",
            "address": "Heavenly Hills, Tuolumne County, California, United States of America",
            "locType": "hamlet",
            "blogLinks": [
                "http://www.sfgate.com/restaurants/article/SECOND-OF-TWO-PARTS-On-the-Road-to-Tahoe-2957593.php"
            ],
            "longitude": "-120.4707523"
        },
        "medford": {
            "latitude": "33.7053166",
            "closest_to": "",
            "address": "Medford, Stonegate, Irvine, Orange County, California, 92676, United States of America",
            "locType": "residential",
            "blogLinks": [
                "https://www.tripadvisor.com/ShowTopic-g28958-i237-k2363529-4_days_road_trip_from_West_Sacramento_CA_to_Oregon-Oregon.html"
            ],
            "longitude": "-117.7381732"
        },
        "san benito county": {
            "latitude": "36.6248089",
            "closest_to": "",
            "address": "San Benito County, California, United States of America",
            "locType": "administrative",
            "blogLinks": [
                "http://matadornetwork.com/trips/30-incredible-places-4-hours-oakland/"
            ],
            "longitude": "-121.1177378"
        },
        "mckinleyville": {
            "latitude": "40.966005",
            "closest_to": "",
            "address": "McKinleyville, Airport Road, McKinleyville, Humboldt County, California, 95519, United States of America",
            "locType": "administrative",
            "blogLinks": [
                "https://www.tripadvisor.com/ShowTopic-g28958-i237-k2363529-4_days_road_trip_from_West_Sacramento_CA_to_Oregon-Oregon.html"
            ],
            "longitude": "-124.102789674524"
        },
        "boston": {
            "latitude": "33.696779",
            "closest_to": "",
            "address": "Boston, Heritage Park Apartments, El Camino Real, Irvine, Orange County, California, 92604, United States of America",
            "locType": "residential",
            "blogLinks": [
                "http://blog.sfgate.com/sfmoms/2010/06/07/i-5-sacramento-to-redding/"
            ],
            "longitude": "-117.7757132"
        },
        "lake tahoe blvd": {
            "latitude": "38.9319369",
            "closest_to": "",
            "address": "Lake Tahoe Boulevard, South Lake Tahoe, El Dorado County, California, 96151, United States of America",
            "locType": "trunk",
            "blogLinks": [
                "http://www.sfgate.com/restaurants/article/SECOND-OF-TWO-PARTS-On-the-Road-to-Tahoe-2957593.php"
            ],
            "longitude": "-119.9788365"
        },
        "south fork": {
            "latitude": "39.4260015",
            "closest_to": "",
            "address": "South Fork, Mendocino County, California, United States of America",
            "locType": "hamlet",
            "blogLinks": [
                "http://matadornetwork.com/trips/30-incredible-places-4-hours-oakland/"
            ],
            "longitude": "-123.7272359"
        },
        "san diego": {
            "latitude": "32.7174209",
            "closest_to": "",
            "address": "San Diego, San Diego County, California, United States of America",
            "locType": "city",
            "blogLinks": [
                "http://www.travbuddy.com/California-travel-guide-p85",
                "http://gocalifornia.about.com/od/topcalifornia/ss/Los-Angeles-to-San-Francisco-on-I-5.htm"
            ],
            "longitude": "-117.1627713"
        },
        "orange county": {
            "latitude": "33.7500378",
            "closest_to": "",
            "address": "Orange County, California, United States of America",
            "locType": "administrative",
            "blogLinks": [
                "http://www.travbuddy.com/California-travel-guide-p85"
            ],
            "longitude": "-117.870493"
        },
        "sylmar": {
            "latitude": "34.3076252",
            "closest_to": "",
            "address": "Sylmar, LA, Los Angeles County, California, United States of America",
            "locType": "suburb",
            "blogLinks": [
                "http://gocalifornia.about.com/od/topcalifornia/ss/Los-Angeles-to-San-Francisco-on-I-5.htm"
            ],
            "longitude": "-118.4492147"
        },
        "truckee": {
            "latitude": "39.327962",
            "closest_to": "",
            "address": "Truckee, Nevada County, California, United States of America",
            "locType": "administrative",
            "blogLinks": [
                "https://www.tripadvisor.com/ShowTopic-g28926-i29-k4351504-Driving_from_San_Francisco_to_South_Lake_Tahoe-California.html"
            ],
            "longitude": "-120.1832532"
        },
        "bixby creek bridge": {
            "latitude": "36.3710197",
            "closest_to": "",
            "address": "Bixby Creek Bridge, Notleys Landing, Monterey County, California, 93923, United States of America",
            "locType": "primary",
            "blogLinks": [
                "http://matadornetwork.com/trips/30-incredible-places-4-hours-oakland/"
            ],
            "longitude": "-121.9017572"
        },
        "buttonwillow": {
            "latitude": "35.3997369",
            "closest_to": "",
            "address": "Buttonwillow, Kern County, California, United States of America",
            "locType": "village",
            "blogLinks": [
                "http://gocalifornia.about.com/od/topcalifornia/ss/Los-Angeles-to-San-Francisco-on-I-5.htm"
            ],
            "longitude": "-119.474104"
        },
        "u.s.": {
            "latitude": "-32.5446226",
            "closest_to": "",
            "address": "La California, Municipio de Las Rosas, Departamento Belgrano, Sta. Fe, Argentina",
            "locType": "hamlet",
            "blogLinks": [
                "http://gocalifornia.about.com/od/topcalifornia/ss/Los-Angeles-to-San-Francisco-on-I-5.htm",
                "http://www.bestplaces.net/city/california/discovery_bay"
            ],
            "longitude": "-61.5489543"
        },
        "big bear lake": {
            "latitude": "34.253293",
            "closest_to": "",
            "address": "Big Bear Lake, Lagunita Lane, Big Bear Lake, San Bernardino County, California, 92315, United States of America",
            "locType": "water",
            "blogLinks": [
                "http://www.travbuddy.com/California-travel-guide-p85"
            ],
            "longitude": "-116.932209587315"
        },
        "emerald bay road": {
            "latitude": "38.9217387",
            "closest_to": "",
            "address": "Emerald Bay Road, South Lake Tahoe, El Dorado County, California, 96152, United States of America",
            "locType": "primary",
            "blogLinks": [
                "http://www.sfgate.com/restaurants/article/SECOND-OF-TWO-PARTS-On-the-Road-to-Tahoe-2957593.php"
            ],
            "longitude": "-120.0215657"
        },
        "south lake": {
            "latitude": "35.6368977",
            "closest_to": "",
            "address": "South Lake, California, United States of America",
            "locType": "hamlet",
            "blogLinks": [
                "http://www.sfgate.com/restaurants/article/SECOND-OF-TWO-PARTS-On-the-Road-to-Tahoe-2957593.php"
            ],
            "longitude": "-118.3670266"
        },
        "lithia park": {
            "latitude": "33.381",
            "closest_to": "",
            "address": "Stewart Lithia Mine, Henderson Road, Pala, San Diego County, California, 92059, United States of America",
            "locType": "mine",
            "blogLinks": [
                "https://www.tripadvisor.com/ShowTopic-g28958-i237-k2363529-4_days_road_trip_from_West_Sacramento_CA_to_Oregon-Oregon.html"
            ],
            "longitude": "-117.0619999"
        },
        "taqueria jalisco": {
            "latitude": "38.941221",
            "closest_to": "",
            "address": "Taqueria Jalisco, Tallac Avenue, South Lake Tahoe, El Dorado County, California, 96150, United States of America",
            "locType": "restaurant",
            "blogLinks": [
                "http://www.sfgate.com/restaurants/article/SECOND-OF-TWO-PARTS-On-the-Road-to-Tahoe-2957593.php"
            ],
            "longitude": "-119.9778954"
        },
        "southern pacific": {
            "latitude": "34.391601",
            "closest_to": "",
            "address": "Southern Pacific, Fillmore, Ventura County, California, 93015, United States of America",
            "locType": "residential",
            "blogLinks": [
                "http://www.bestplaces.net/city/california/discovery_bay"
            ],
            "longitude": "-118.9223619"
        },
        "pacific ocean": {
            "latitude": "36.16305775",
            "closest_to": "",
            "address": "Pacific Ocean, Cabrillo Highway, Monterey County, California, 93920, United States of America",
            "locType": "cliff",
            "blogLinks": [
                "http://www.travbuddy.com/California-travel-guide-p85",
                "http://matadornetwork.com/trips/30-incredible-places-4-hours-oakland/",
                "http://www.goldengatetours.net/places"
            ],
            "longitude": "-121.678715787326"
        },
        "fort bragg": {
            "latitude": "39.4447345",
            "closest_to": "",
            "address": "Fort Bragg, Mendocino County, California, United States of America",
            "locType": "city",
            "blogLinks": [
                "http://www.goldengatetours.net/places"
            ],
            "longitude": "-123.802699105743"
        },
        "owens river": {
            "latitude": "37.4100005",
            "closest_to": "",
            "address": "Owens River, Inyo County, California, United States of America",
            "locType": "river",
            "blogLinks": [
                "http://gocalifornia.about.com/od/topcalifornia/ss/Los-Angeles-to-San-Francisco-on-I-5.htm"
            ],
            "longitude": "-118.3819013"
        },
        "sonora": {
            "latitude": "37.9840911",
            "closest_to": "",
            "address": "Sonora, Tuolumne County, California, United States of America",
            "locType": "city",
            "blogLinks": [
                "http://matadornetwork.com/trips/30-incredible-places-4-hours-oakland/"
            ],
            "longitude": "-120.382138"
        },
        "taft highway": {
            "latitude": "35.2670566",
            "closest_to": "",
            "address": "Taft Highway, Kern County, California, 93276, United States of America",
            "locType": "primary",
            "blogLinks": [
                "http://gocalifornia.about.com/od/topcalifornia/ss/Los-Angeles-to-San-Francisco-on-I-5.htm"
            ],
            "longitude": "-119.3064987"
        },
        "fort tejon": {
            "latitude": "34.8736894",
            "closest_to": "",
            "address": "Fort Tejon Road, Lebec, Kern County, California, 93243, United States of America",
            "locType": "tertiary",
            "blogLinks": [
                "http://gocalifornia.about.com/od/topcalifornia/ss/Los-Angeles-to-San-Francisco-on-I-5.htm"
            ],
            "longitude": "-118.8918151"
        },
        "united states": {
            "latitude": "36.7014631",
            "closest_to": "",
            "address": "California, United States of America",
            "locType": "administrative",
            "blogLinks": [
                "http://www.bestplaces.net/city/california/discovery_bay",
                "http://www.goldengatetours.net/places"
            ],
            "longitude": "-118.7559973"
        },
        "morro bay": {
            "latitude": "35.3658075",
            "closest_to": "",
            "address": "Morro Bay, San Luis Obispo County, California, United States of America",
            "locType": "city",
            "blogLinks": [
                "http://www.trippy.com/question/California-Where-to-stay-half-way-between-S-F--and-L-A"
            ],
            "longitude": "-120.8499012"
        },
        "s.f.": {
            "latitude": "19.9908291",
            "closest_to": "",
            "address": "California, Bosque de Canalejas, Jilotepec, M\u00e9xico, 54270, M\u00e9xico",
            "locType": "residential",
            "blogLinks": [
                "http://www.trippy.com/question/California-Where-to-stay-half-way-between-S-F--and-L-A",
                "http://blog.sfgate.com/sfmoms/2010/06/07/i-5-sacramento-to-redding/"
            ],
            "longitude": "-99.6183945"
        },
        "cape horn": {
            "latitude": "39.1354565",
            "closest_to": "",
            "address": "Cape Horn, Mendocino County, California, United States of America",
            "locType": "hamlet",
            "blogLinks": [
                "http://blog.sfgate.com/sfmoms/2010/06/07/i-5-sacramento-to-redding/"
            ],
            "longitude": "-123.6352912"
        },
        "sierra": {
            "latitude": "39.5849065",
            "closest_to": "",
            "address": "Sierra County, California, United States of America",
            "locType": "administrative",
            "blogLinks": [
                "https://www.tripadvisor.com/ShowTopic-g28926-i29-k4351504-Driving_from_San_Francisco_to_South_Lake_Tahoe-California.html"
            ],
            "longitude": "-120.530573"
        },
        "salem": {
            "latitude": "39.0652059",
            "closest_to": "",
            "address": "California, Cincinnati, Hamilton County, Ohio, United States of America",
            "locType": "suburb",
            "blogLinks": [
                "https://www.yelp.com/topic/san-francisco-driving-from-sf-to-portland-what-to-see-along-the-way"
            ],
            "longitude": "-84.4272385"
        },
        "manhattan beach": {
            "latitude": "33.8950839",
            "closest_to": "",
            "address": "Manhattan Beach, Los Angeles County, California, United States of America",
            "locType": "city",
            "blogLinks": [
                "http://sfpl.org/index.php?pg=2000154601"
            ],
            "longitude": "-118.4000146"
        },
        "lake shasta": {
            "latitude": "40.7965121",
            "closest_to": "",
            "address": "Shasta County, California, United States of America",
            "locType": "administrative",
            "blogLinks": [
                "https://www.yelp.com/topic/san-francisco-driving-from-sf-to-portland-what-to-see-along-the-way",
                "https://www.tripadvisor.com/ShowTopic-g28958-i237-k2363529-4_days_road_trip_from_West_Sacramento_CA_to_Oregon-Oregon.html"
            ],
            "longitude": "-121.9979193"
        },
        "belgium": {
            "latitude": "39.7276351",
            "closest_to": "",
            "address": "Belgium Avenue, Chico, Butte County, California, 95928, United States of America",
            "locType": "residential",
            "blogLinks": [
                "https://www.visitoakland.org/explore/101-things-to-do/"
            ],
            "longitude": "-121.785498"
        },
        "yosemite national park": {
            "latitude": "37.84054795",
            "closest_to": "",
            "address": "Yosemite National Park, Mt. Hoffmann Trail, Mariposa County, California, United States of America",
            "locType": "national_park",
            "blogLinks": [
                "http://www.travbuddy.com/California-travel-guide-p85"
            ],
            "longitude": "-119.516587698025"
        },
        "lake tahoe": {
            "latitude": "39.0888982",
            "closest_to": "",
            "address": "Lake Tahoe, Placer County, California, United States of America",
            "locType": "water",
            "blogLinks": [
                "http://www.travbuddy.com/California-travel-guide-p85",
                "https://www.tripadvisor.com/ShowTopic-g28926-i29-k4351504-Driving_from_San_Francisco_to_South_Lake_Tahoe-California.html",
                "http://www.sfgate.com/restaurants/article/SECOND-OF-TWO-PARTS-On-the-Road-to-Tahoe-2957593.php"
            ],
            "longitude": "-120.050511752934"
        },
        "malibu": {
            "latitude": "33.7932142",
            "closest_to": "",
            "address": "Malibu, Palm Springs, Riverside County, California, 92264, United States of America",
            "locType": "residential",
            "blogLinks": [
                "http://www.travbuddy.com/California-travel-guide-p85"
            ],
            "longitude": "-116.5023561"
        },
        "yosemite valley": {
            "latitude": "37.734435",
            "closest_to": "",
            "address": "Yosemite Valley, Mariposa County, California, United States of America",
            "locType": "town",
            "blogLinks": [
                "http://matadornetwork.com/trips/30-incredible-places-4-hours-oakland/"
            ],
            "longitude": "-119.6064673"
        },
        "garberville": {
            "latitude": "40.1005685",
            "closest_to": "",
            "address": "Garberville, Humboldt County, California, United States of America",
            "locType": "village",
            "blogLinks": [
                "https://www.tripadvisor.com/ShowTopic-g28958-i237-k2363529-4_days_road_trip_from_West_Sacramento_CA_to_Oregon-Oregon.html"
            ],
            "longitude": "-123.7961393"
        },
        "sacramento river": {
            "latitude": "39.5840295",
            "closest_to": "",
            "address": "Sacramento River, Glenn County, California, United States of America",
            "locType": "river",
            "blogLinks": [
                "http://blog.sfgate.com/sfmoms/2010/06/07/i-5-sacramento-to-redding/"
            ],
            "longitude": "-121.9960598"
        },
        "del monte ave": {
            "latitude": "32.742191",
            "closest_to": "",
            "address": "Del Monte Avenue, Old Town, San Diego, San Diego County, California, 92107, United States of America",
            "locType": "residential",
            "blogLinks": [
                "http://matadornetwork.com/trips/30-incredible-places-4-hours-oakland/"
            ],
            "longitude": "-117.2497789"
        },
        "klamath": {
            "latitude": "41.533995",
            "closest_to": "",
            "address": "Klamath, Klamath Glen Road, Klamath Glen, Del Norte County, California, 95548, United States of America",
            "locType": "administrative",
            "blogLinks": [
                "https://www.yelp.com/topic/san-francisco-driving-from-sf-to-portland-what-to-see-along-the-way"
            ],
            "longitude": "-124.015565064009"
        },
        "north carolina": {
            "latitude": "35.9043367",
            "closest_to": "",
            "address": "California, Dare County, North Carolina, United States of America",
            "locType": "hamlet",
            "blogLinks": [
                "https://www.yelp.com/topic/san-francisco-driving-from-sf-to-portland-what-to-see-along-the-way"
            ],
            "longitude": "-75.6804524"
        },
        "jalisco": {
            "latitude": "33.6650107",
            "closest_to": "",
            "address": "Jalisco, La Quinta, Riverside County, California, 92201, United States of America",
            "locType": "residential",
            "blogLinks": [
                "http://www.sfgate.com/restaurants/article/SECOND-OF-TWO-PARTS-On-the-Road-to-Tahoe-2957593.php"
            ],
            "longitude": "-116.2355864"
        },
        "mount lassen": {
            "latitude": "40.4881308",
            "closest_to": "",
            "address": "Lassen Peak, Shasta County, California, United States of America",
            "locType": "peak",
            "blogLinks": [
                "https://www.yelp.com/topic/san-francisco-driving-from-sf-to-portland-what-to-see-along-the-way"
            ],
            "longitude": "-121.5049199"
        },
        "california": {
            "latitude": "7.3480915",
            "closest_to": "",
            "address": "California, Santander, Colombia",
            "locType": "village",
            "blogLinks": [
                "http://www.travbuddy.com/California-travel-guide-p85",
                "http://gocalifornia.about.com/od/topcalifornia/ss/Los-Angeles-to-San-Francisco-on-I-5.htm",
                "http://www.trippy.com/question/California-Where-to-stay-half-way-between-S-F--and-L-A",
                "http://www.goldengatetours.net/places",
                "http://sfpl.org/index.php?pg=2000154601",
                "http://matadornetwork.com/trips/30-incredible-places-4-hours-oakland/",
                "https://www.visitoakland.org/explore/101-things-to-do/",
                "http://www.sfgate.com/restaurants/article/SECOND-OF-TWO-PARTS-On-the-Road-to-Tahoe-2957593.php"
            ],
            "longitude": "-72.945787"
        },
        "seattle": {
            "latitude": "41.9641881",
            "closest_to": "",
            "address": "Seattle, Dorris, Siskiyou County, California, 96023, United States of America",
            "locType": "residential",
            "blogLinks": [
                "http://blog.sfgate.com/sfmoms/2010/06/07/i-5-sacramento-to-redding/"
            ],
            "longitude": "-121.9226289"
        },
        "bay": {
            "latitude": "33.6899249",
            "closest_to": "",
            "address": "Bay, Meadows Mobile Home Park, El Camino Real, Irvine, Orange County, California, 92406, United States of America",
            "locType": "service",
            "blogLinks": [
                "https://www.visitoakland.org/explore/101-things-to-do/",
                "http://sfpl.org/index.php?pg=2000154601"
            ],
            "longitude": "-117.7729354"
        },
        "new zealand": {
            "latitude": "-41.1069272",
            "closest_to": "",
            "address": "California Drive, Totara Park, Upper Hutt, Upper Hutt City, Wellington, 5371, New Zealand/Aotearoa",
            "locType": "tertiary",
            "blogLinks": [
                "http://www.trippy.com/question/California-Where-to-stay-half-way-between-S-F--and-L-A"
            ],
            "longitude": "175.0832904"
        },
        "california aqueduct": {
            "latitude": "36.2979299",
            "closest_to": "",
            "address": "California Aqueduct, Fresno County, California, United States of America",
            "locType": "canal",
            "blogLinks": [
                "http://gocalifornia.about.com/od/topcalifornia/ss/Los-Angeles-to-San-Francisco-on-I-5.htm"
            ],
            "longitude": "-120.1567036"
        },
        "napa valley": {
            "latitude": "39.0234679",
            "closest_to": "",
            "address": "Napa Valley, Cold Spring, Campbell County, Kentucky, 41076, United States of America",
            "locType": "residential",
            "blogLinks": [
                "http://www.travbuddy.com/California-travel-guide-p85",
                "http://matadornetwork.com/trips/30-incredible-places-4-hours-oakland/",
                "https://www.tripadvisor.com/ShowTopic-g60713-i30-k5261581-Scenic_Route_from_San_Francisco_to_Sacramento-San_Francisco_California.html"
            ],
            "longitude": "-84.4504647"
        },
        "america": {
            "latitude": "36.2573198",
            "closest_to": "",
            "address": "America, Kings County, California, 93246, United States of America",
            "locType": "residential",
            "blogLinks": [
                "http://www.travbuddy.com/California-travel-guide-p85",
                "http://sfpl.org/index.php?pg=2000154601"
            ],
            "longitude": "-119.8948706"
        },
        "arcata": {
            "latitude": "40.8665166",
            "closest_to": "",
            "address": "Arcata, Humboldt County, California, United States of America",
            "locType": "city",
            "blogLinks": [
                "https://www.yelp.com/topic/san-francisco-driving-from-sf-to-portland-what-to-see-along-the-way"
            ],
            "longitude": "-124.0828395"
        },
        "middle earth": {
            "latitude": "33.64434515",
            "closest_to": "",
            "address": "Middle Earth, Turtle Rock, Irvine, Orange County, California, 92617, United States of America",
            "locType": "residential",
            "blogLinks": [
                "https://www.tripadvisor.com/ShowTopic-g28926-i29-k4351504-Driving_from_San_Francisco_to_South_Lake_Tahoe-California.html"
            ],
            "longitude": "-117.837186650942"
        },
        "city hall": {
            "latitude": "32.84439345",
            "closest_to": "",
            "address": "City Hall, Imperial, Imperial County, California, 92251, United States of America",
            "locType": "commercial",
            "blogLinks": [
                "http://www.sfgate.com/restaurants/article/SECOND-OF-TWO-PARTS-On-the-Road-to-Tahoe-2957593.php"
            ],
            "longitude": "-115.569543523702"
        },
        "gold country": {
            "latitude": "35.300501",
            "closest_to": "",
            "address": "Gold Country Way, Bakersfield, Kern County, California, 93311, United States of America",
            "locType": "residential",
            "blogLinks": [
                "http://www.goldengatetours.net/places"
            ],
            "longitude": "-119.0856049"
        },
        "kings beach": {
            "latitude": "39.2438568",
            "closest_to": "",
            "address": "Kings Beach, Placer County, California, United States of America",
            "locType": "hamlet",
            "blogLinks": [
                "https://www.tripadvisor.com/ShowTopic-g28926-i29-k4351504-Driving_from_San_Francisco_to_South_Lake_Tahoe-California.html"
            ],
            "longitude": "-120.0227479"
        },
        "lincoln city": {
            "latitude": "34.2209765",
            "closest_to": "",
            "address": "Galpin Lincoln, 15500, Roscoe Boulevard, Raymer, Sepulveda, LA, Los Angeles County, California, 91406, United States of America",
            "locType": "car",
            "blogLinks": [
                "https://www.yelp.com/topic/san-francisco-driving-from-sf-to-portland-what-to-see-along-the-way"
            ],
            "longitude": "-118.4710273"
        },
        "bear mountain road": {
            "latitude": "40.721773",
            "closest_to": "",
            "address": "Bear Mountain Road, Sherman, Shasta County, California, United States of America",
            "locType": "tertiary",
            "blogLinks": [
                "http://gocalifornia.about.com/od/topcalifornia/ss/Los-Angeles-to-San-Francisco-on-I-5.htm"
            ],
            "longitude": "-122.2381749"
        }
    },
    "oakland": {
        "type": "city",
        "osm_id": "2833530",
        "class": "place",
        "importance": 0.80539006393216,
        "lat": "37.8044557",
        "lon": "-122.2713562",
        "boundingbox": [
            "37.632226",
            "37.885368",
            "-122.3558809",
            "-122.1146719"
        ],
        "display_name": "Oakland, Alameda County, California, United States of America",
        "licence": "Data \u00a9 OpenStreetMap contributors, ODbL 1.0. http://www.openstreetmap.org/copyright",
        "icon": "https://nominatim.openstreetmap.org/images/mapicons/poi_place_city.p.20.png",
        "place_id": "159417720",
        "osm_type": "relation"
    },
    "sacramento": {
        "type": "city",
        "osm_id": "6232940",
        "class": "place",
        "importance": 0.80674211027009,
        "lat": "38.5815719",
        "lon": "-121.4943995",
        "boundingbox": [
            "38.437574",
            "38.685507",
            "-121.5601199",
            "-121.3627399"
        ],
        "display_name": "Sacramento, Sacramento County, California, United States of America",
        "licence": "Data \u00a9 OpenStreetMap contributors, ODbL 1.0. http://www.openstreetmap.org/copyright",
        "icon": "https://nominatim.openstreetmap.org/images/mapicons/poi_place_city.p.20.png",
        "place_id": "159758891",
        "osm_type": "relation"
    }
}