{
    "santa barbara": {
        "type": "city",
        "class": "place",
        "lat": "34.4221319",
        "lon": "-119.7026672",
        "licence": "Data \u00a9 OpenStreetMap contributors, ODbL 1.0. http://www.openstreetmap.org/copyright",
        "osm_type": "way",
        "importance": 0.84553400574646,
        "boundingbox": [
            "34.336029",
            "34.463922",
            "-119.8597817",
            "-119.6399339"
        ],
        "icon": "https://nominatim.openstreetmap.org/images/mapicons/poi_place_city.p.20.png",
        "osm_id": "33113642",
        "display_name": "Santa Barbara, Santa Barbara County, California, United States of America",
        "place_id": "71537873"
    },
    "mentions": {
        "san diego": {
            "closest_to": "avalon",
            "locType": "city",
            "address": "San Diego, San Diego County, California, United States of America",
            "latitude": "32.7174209",
            "longitude": "-117.1627713",
            "blogLinks": [
                "https://beachtreasuresandtreasurebeaches.com/tag/southern-california-seashells/",
                "http://moon.com/2011/02/fun-road-trip-ideas-road-trip-the-california-coast/",
                "http://www.travbuddy.com/California-popular-cities-p85",
                "http://myfamilytravels.com/content/10507-road-trip-usa-pacific-coast-highway-san-francisco-los-angeles"
            ]
        },
        "san juan capistrano": {
            "closest_to": "avalon",
            "locType": "city",
            "address": "San Juan Capistrano, Orange County, California, United States of America",
            "latitude": "33.5016932",
            "longitude": "-117.6625508",
            "blogLinks": [
                "http://moon.com/2011/02/fun-road-trip-ideas-road-trip-the-california-coast/",
                "http://www.travbuddy.com/California-popular-cities-p85"
            ]
        },
        "calico": {
            "closest_to": "santa barbara",
            "locType": "locality",
            "address": "Calico, Kern County, California, United States of America",
            "latitude": "35.6327332",
            "longitude": "-119.206496",
            "blogLinks": [
                "http://www.travbuddy.com/California-popular-cities-p85"
            ]
        },
        "culver city": {
            "closest_to": "santa barbara",
            "locType": "administrative",
            "address": "Culver City, Los Angeles County, California, United States of America",
            "latitude": "34.0211224",
            "longitude": "-118.3964664",
            "blogLinks": [
                "https://www.viator.com/tours/Los-Angeles/3-Day-California-Coast-Tour-Santa-Barbara-San-Francisco-and-Carmel/d645-3857SFOYOS"
            ]
        },
        "state beach": {
            "closest_to": "santa barbara",
            "locType": "beach",
            "address": "Malibu Lagoon State Beach, Pacific Coast Highway, Malibu, Los Angeles County, California, 90265, United States of America",
            "latitude": "34.03385755",
            "longitude": "-118.679064060789",
            "blogLinks": [
                "http://myfamilytravels.com/content/10507-road-trip-usa-pacific-coast-highway-san-francisco-los-angeles"
            ]
        },
        "venice beach": {
            "closest_to": "santa barbara",
            "locType": "police",
            "address": "Venice Beach, Venice Beach Bike Path, Venice, LA, Los Angeles County, California, 90405, United States of America",
            "latitude": "33.9862012",
            "longitude": "-118.4739815",
            "blogLinks": [
                "http://myfamilytravels.com/content/10507-road-trip-usa-pacific-coast-highway-san-francisco-los-angeles"
            ]
        },
        "ojai valley": {
            "closest_to": "santa barbara",
            "locType": "city",
            "address": "Ojai, Ventura County, California, United States of America",
            "latitude": "34.4480495",
            "longitude": "-119.2428889",
            "blogLinks": [
                "http://www.california-blog.com/"
            ]
        },
        "catalina": {
            "closest_to": "avalon",
            "locType": "forest",
            "address": "Catalina, Anaheim Resort District, Anaheim, Orange County, California, 217, United States of America",
            "latitude": "33.810513",
            "longitude": "-117.920102663284",
            "blogLinks": [
                "https://beachtreasuresandtreasurebeaches.com/tag/southern-california-seashells/",
                "http://visitanaheim.org/blog-post/2015/08/05/day-trip-anaheim-catalina-island",
                "http://www.visitcatalinaisland.com/blog"
            ]
        },
        "mount san jacinto ca": {
            "closest_to": "avalon",
            "locType": "city",
            "address": "San Jacinto, Riverside County, California, United States of America",
            "latitude": "33.7839084",
            "longitude": "-116.9586349",
            "blogLinks": [
                "http://www.california-blog.com/"
            ]
        },
        "malibu lagoon state beach": {
            "closest_to": "santa barbara",
            "locType": "beach",
            "address": "Malibu Lagoon State Beach, Pacific Coast Highway, Malibu, Los Angeles County, California, 90265, United States of America",
            "latitude": "34.03385755",
            "longitude": "-118.679064060789",
            "blogLinks": [
                "http://moon.com/2011/02/fun-road-trip-ideas-road-trip-the-california-coast/"
            ]
        },
        "avalon canyon": {
            "closest_to": "avalon",
            "locType": "residential",
            "address": "Avalon, Lower Peters Canyon, Irvine, Orange County, California, 92602, United States of America",
            "latitude": "33.7182832",
            "longitude": "-117.7751725",
            "blogLinks": [
                "http://www.visitcatalinaisland.com/blog"
            ]
        },
        "mount san gorgonio ca": {
            "closest_to": "avalon",
            "locType": "secondary",
            "address": "San Gorgonio Avenue, Banning, Riverside County, California, 92220, United States of America",
            "latitude": "33.9121294",
            "longitude": "-116.8766731",
            "blogLinks": [
                "http://www.california-blog.com/"
            ]
        },
        "abbot kinney boulevard": {
            "closest_to": "santa barbara",
            "locType": "tertiary",
            "address": "Abbot Kinney Boulevard, Venice, LA, Los Angeles County, California, 90291, United States of America",
            "latitude": "33.9915304",
            "longitude": "-118.4694806",
            "blogLinks": [
                "http://myfamilytravels.com/content/10507-road-trip-usa-pacific-coast-highway-san-francisco-los-angeles"
            ]
        },
        "hermosa beach": {
            "closest_to": "santa barbara",
            "locType": "city",
            "address": "Hermosa Beach, Los Angeles County, California, United States of America",
            "latitude": "33.86428",
            "longitude": "-118.3959099",
            "blogLinks": [
                "http://www.travbuddy.com/California-popular-cities-p85"
            ]
        },
        "avila beach": {
            "closest_to": "santa barbara",
            "locType": "hamlet",
            "address": "Avila Beach, San Luis Obispo County, California, United States of America",
            "latitude": "35.1799752",
            "longitude": "-120.7318417",
            "blogLinks": [
                "http://myfamilytravels.com/content/10507-road-trip-usa-pacific-coast-highway-san-francisco-los-angeles"
            ]
        },
        "topanga canyon boulevard": {
            "closest_to": "santa barbara",
            "locType": "primary",
            "address": "Topanga Canyon Boulevard, Canoga Park, LA, Los Angeles County, California, 91303, United States of America",
            "latitude": "34.2091793",
            "longitude": "-118.6059598",
            "blogLinks": [
                "https://blog.virgin-atlantic.com/t5/Our-Places/mini-road-trips-los-angeles-to-santa-barbara/ba-p/1216"
            ]
        },
        "mount palomar ca": {
            "closest_to": "avalon",
            "locType": "bank",
            "address": "California Bank & Trust, 2501, Palomar Airport Road, Carlsbad, San Diego County, California, 92011, United States of America",
            "latitude": "33.1278146",
            "longitude": "-117.270809764613",
            "blogLinks": [
                "http://www.california-blog.com/"
            ]
        },
        "ontario": {
            "closest_to": "avalon",
            "locType": "city",
            "address": "Ontario, San Bernardino County, California, United States of America",
            "latitude": "34.065846",
            "longitude": "-117.6484303",
            "blogLinks": [
                "http://www.california-blog.com/"
            ]
        },
        "palos verdes peninsula ca": {
            "closest_to": "santa barbara",
            "locType": "school",
            "address": "Palos Verdes Peninsula High School, Hawthorne Boulevard, Rolling Hills Estates, Los Angeles County, California, 90274, United States of America",
            "latitude": "33.77984925",
            "longitude": "-118.372196730215",
            "blogLinks": [
                "http://www.california-blog.com/"
            ]
        },
        "west coast": {
            "closest_to": "santa barbara",
            "locType": "plumber",
            "address": "West Coast, Motor Avenue, Palms, LA, Los Angeles County, California, 90034-5702, United States of America",
            "latitude": "34.0222263",
            "longitude": "-118.4051087",
            "blogLinks": [
                "https://www.viator.com/tours/Los-Angeles/3-Day-California-Coast-Tour-Santa-Barbara-San-Francisco-and-Carmel/d645-3857SFOYOS",
                "https://blog.virgin-atlantic.com/t5/Our-Places/mini-road-trips-los-angeles-to-santa-barbara/ba-p/1216"
            ]
        },
        "morro bay estuary": {
            "closest_to": "santa barbara",
            "locType": "protected_area",
            "address": "Morro Estuary Natural Preserve, Morro Bay State Park Road, Morro Bay, San Luis Obispo County, California, 93442, United States of America",
            "latitude": "35.34429655",
            "longitude": "-120.832195691858",
            "blogLinks": [
                "http://myfamilytravels.com/content/10507-road-trip-usa-pacific-coast-highway-san-francisco-los-angeles"
            ]
        },
        "san luis obispo county": {
            "closest_to": "santa barbara",
            "locType": "administrative",
            "address": "San Luis Obispo County, California, United States of America",
            "latitude": "35.3540209",
            "longitude": "-120.3757162",
            "blogLinks": [
                "http://www.travbuddy.com/California-popular-cities-p85",
                "http://myfamilytravels.com/content/10507-road-trip-usa-pacific-coast-highway-san-francisco-los-angeles"
            ]
        },
        "redondo beach": {
            "closest_to": "santa barbara",
            "locType": "city",
            "address": "Redondo Beach, Los Angeles County, California, United States of America",
            "latitude": "33.8455911",
            "longitude": "-118.3886765",
            "blogLinks": [
                "https://beachtreasuresandtreasurebeaches.com/tag/southern-california-seashells/",
                "http://moon.com/2011/02/fun-road-trip-ideas-road-trip-the-california-coast/"
            ]
        },
        "santa monica": {
            "closest_to": "santa barbara",
            "locType": "city",
            "address": "Santa Monica, Los Angeles County, California, United States of America",
            "latitude": "34.0195598",
            "longitude": "-118.4869738",
            "blogLinks": [
                "http://moon.com/2011/02/fun-road-trip-ideas-road-trip-the-california-coast/",
                "http://www.travbuddy.com/California-popular-cities-p85",
                "http://myfamilytravels.com/content/10507-road-trip-usa-pacific-coast-highway-san-francisco-los-angeles",
                "https://blog.virgin-atlantic.com/t5/Our-Places/mini-road-trips-los-angeles-to-santa-barbara/ba-p/1216"
            ]
        },
        "santa monica mountains": {
            "closest_to": "santa barbara",
            "locType": "protected_area",
            "address": "Santa Monica Mountains National Recreation Area, Simes Lane, Seminole Hot Springs, Los Angeles County, California, 91301, United States of America",
            "latitude": "34.11008435",
            "longitude": "-118.789983284662",
            "blogLinks": [
                "http://myfamilytravels.com/content/10507-road-trip-usa-pacific-coast-highway-san-francisco-los-angeles"
            ]
        },
        "japan": {
            "closest_to": "santa barbara",
            "locType": "clothes",
            "address": "Japan LA, Melrose Avenue, Park La Brea, Hollywood, LA, Los Angeles County, California, 90069, United States of America",
            "latitude": "34.0833889",
            "longitude": "-118.3494693",
            "blogLinks": [
                "https://www.viator.com/tours/Los-Angeles/3-Day-California-Coast-Tour-Santa-Barbara-San-Francisco-and-Carmel/d645-3857SFOYOS"
            ]
        },
        "oxnard": {
            "closest_to": "santa barbara",
            "locType": "city",
            "address": "Oxnard, Ventura County, California, United States of America",
            "latitude": "34.1976308",
            "longitude": "-119.1803817",
            "blogLinks": [
                "http://moon.com/2011/02/fun-road-trip-ideas-road-trip-the-california-coast/",
                "https://blog.virgin-atlantic.com/t5/Our-Places/mini-road-trips-los-angeles-to-santa-barbara/ba-p/1216"
            ]
        },
        "manhattan": {
            "closest_to": "avalon",
            "locType": "forest",
            "address": "Manhattan, Anaheim Resort District, Anaheim, Orange County, California, 217, United States of America",
            "latitude": "33.8109789",
            "longitude": "-117.919744373725",
            "blogLinks": [
                "http://moon.com/2011/02/fun-road-trip-ideas-road-trip-the-california-coast/"
            ]
        },
        "morro bay": {
            "closest_to": "santa barbara",
            "locType": "city",
            "address": "Morro Bay, San Luis Obispo County, California, United States of America",
            "latitude": "35.3658075",
            "longitude": "-120.8499012",
            "blogLinks": [
                "http://myfamilytravels.com/content/10507-road-trip-usa-pacific-coast-highway-san-francisco-los-angeles"
            ]
        },
        "moreno valley ca": {
            "closest_to": "avalon",
            "locType": "city",
            "address": "Moreno Valley, Riverside County, California, United States of America",
            "latitude": "33.937517",
            "longitude": "-117.2305943",
            "blogLinks": [
                "http://www.california-blog.com/"
            ]
        },
        "central coast": {
            "closest_to": "santa barbara",
            "locType": "residential",
            "address": "Central Coast Street, Bakersfield, Kern County, California, 93314, United States of America",
            "latitude": "35.3611193",
            "longitude": "-119.1665989",
            "blogLinks": [
                "http://myfamilytravels.com/content/10507-road-trip-usa-pacific-coast-highway-san-francisco-los-angeles"
            ]
        },
        "phoenix": {
            "closest_to": "avalon",
            "locType": "residential",
            "address": "Phoenix, Heritage Park Apartments, El Camino Real, Irvine, Orange County, California, 92604, United States of America",
            "latitude": "33.6988015",
            "longitude": "-117.7764481",
            "blogLinks": [
                "http://moon.com/2011/02/fun-road-trip-ideas-road-trip-the-california-coast/"
            ]
        },
        "santa monica bay": {
            "closest_to": "santa barbara",
            "locType": "bay",
            "address": "Santa Monica Bay, South Bay Bike Path, El Segundo, Los Angeles County, California, 90245, United States of America",
            "latitude": "33.9350121",
            "longitude": "-118.4667443",
            "blogLinks": [
                "https://beachtreasuresandtreasurebeaches.com/tag/southern-california-seashells/"
            ]
        },
        "highway 101": {
            "closest_to": "avalon",
            "locType": "primary",
            "address": "Highway 101, Solana Beach, San Diego County, California, 92075, United States of America",
            "latitude": "32.9967358",
            "longitude": "-117.2731974",
            "blogLinks": [
                "http://moon.com/2011/02/fun-road-trip-ideas-road-trip-the-california-coast/"
            ]
        },
        "france": {
            "closest_to": "santa barbara",
            "locType": "cafe",
            "address": "France, Sherman Way, Canoga Park, LA, Los Angeles County, California, 91307, United States of America",
            "latitude": "34.2013715",
            "longitude": "-118.5935353",
            "blogLinks": [
                "http://myfamilytravels.com/content/10507-road-trip-usa-pacific-coast-highway-san-francisco-los-angeles"
            ]
        },
        "monrovia": {
            "closest_to": "santa barbara",
            "locType": "city",
            "address": "Monrovia, Los Angeles County, California, United States of America",
            "latitude": "34.1483499",
            "longitude": "-118.0014516",
            "blogLinks": [
                "http://www.california-blog.com/"
            ]
        },
        "san pedro": {
            "closest_to": "santa barbara",
            "locType": "suburb",
            "address": "San Pedro, LA, Los Angeles County, California, United States of America",
            "latitude": "33.7358518",
            "longitude": "-118.2922933",
            "blogLinks": [
                "https://beachtreasuresandtreasurebeaches.com/tag/southern-california-seashells/",
                "http://www.visitcatalinaisland.com/blog"
            ]
        },
        "coronado": {
            "closest_to": "avalon",
            "locType": "city",
            "address": "Coronado, San Diego County, California, United States of America",
            "latitude": "32.6858854",
            "longitude": "-117.183089",
            "blogLinks": [
                "https://beachtreasuresandtreasurebeaches.com/tag/southern-california-seashells/"
            ]
        },
        "hollywood": {
            "closest_to": "santa barbara",
            "locType": "suburb",
            "address": "Hollywood, LA, Los Angeles County, California, United States of America",
            "latitude": "34.1028268",
            "longitude": "-118.3299898",
            "blogLinks": [
                "http://myfamilytravels.com/content/10507-road-trip-usa-pacific-coast-highway-san-francisco-los-angeles",
                "https://blog.virgin-atlantic.com/t5/Our-Places/mini-road-trips-los-angeles-to-santa-barbara/ba-p/1216"
            ]
        },
        "santa monica pier": {
            "closest_to": "santa barbara",
            "locType": "service",
            "address": "Santa Monica Pier, Santa Monica, Los Angeles County, California, CA 90401, United States of America",
            "latitude": "34.0104809",
            "longitude": "-118.4960541",
            "blogLinks": [
                "http://myfamilytravels.com/content/10507-road-trip-usa-pacific-coast-highway-san-francisco-los-angeles"
            ]
        },
        "los angeles county": {
            "closest_to": "santa barbara",
            "locType": "administrative",
            "address": "Los Angeles County, California, United States of America",
            "latitude": "34.3155072",
            "longitude": "-118.2096813",
            "blogLinks": [
                "http://www.travbuddy.com/California-popular-cities-p85"
            ]
        },
        "san diego county": {
            "closest_to": "avalon",
            "locType": "administrative",
            "address": "San Diego County, California, United States of America",
            "latitude": "32.9637838",
            "longitude": "-116.7706276",
            "blogLinks": [
                "http://www.travbuddy.com/California-popular-cities-p85"
            ]
        },
        "los osos": {
            "closest_to": "santa barbara",
            "locType": "village",
            "address": "Los Osos, San Luis Obispo County, California, United States of America",
            "latitude": "35.3107214",
            "longitude": "-120.8323486",
            "blogLinks": [
                "http://myfamilytravels.com/content/10507-road-trip-usa-pacific-coast-highway-san-francisco-los-angeles"
            ]
        },
        "cypress point": {
            "closest_to": "avalon",
            "locType": "administrative",
            "address": "Cypress Point, Temecula, Riverside County, California, United States of America",
            "latitude": "33.5170137",
            "longitude": "-117.10695135087",
            "blogLinks": [
                "http://myfamilytravels.com/content/10507-road-trip-usa-pacific-coast-highway-san-francisco-los-angeles"
            ]
        },
        "manhattan beach": {
            "closest_to": "santa barbara",
            "locType": "city",
            "address": "Manhattan Beach, Los Angeles County, California, United States of America",
            "latitude": "33.8950839",
            "longitude": "-118.4000146",
            "blogLinks": [
                "http://www.travbuddy.com/California-popular-cities-p85"
            ]
        },
        "beverly hills": {
            "closest_to": "santa barbara",
            "locType": "city",
            "address": "Beverly Hills, Los Angeles County, California, United States of America",
            "latitude": "34.0736204",
            "longitude": "-118.4003562",
            "blogLinks": [
                "http://www.travbuddy.com/California-popular-cities-p85"
            ]
        },
        "san diego bay": {
            "closest_to": "avalon",
            "locType": "bay",
            "address": "San Diego Bay, Leyte Road, Crown Island, Coronado, San Diego County, California, 92118, United States of America",
            "latitude": "32.6500534",
            "longitude": "-117.1341977",
            "blogLinks": [
                "https://beachtreasuresandtreasurebeaches.com/tag/southern-california-seashells/"
            ]
        },
        "orange county": {
            "closest_to": "avalon",
            "locType": "administrative",
            "address": "Orange County, California, United States of America",
            "latitude": "33.7500378",
            "longitude": "-117.870493",
            "blogLinks": [
                "http://www.travbuddy.com/California-popular-cities-p85",
                "http://visitanaheim.org/blog-post/2015/08/05/day-trip-anaheim-catalina-island",
                "https://blog.virgin-atlantic.com/t5/Our-Places/mini-road-trips-los-angeles-to-santa-barbara/ba-p/1216"
            ]
        },
        "riverside national cemetery": {
            "closest_to": "avalon",
            "locType": "cemetery",
            "address": "Riverside National Cemetery, 22495, Alessandro, Riverside County, California, 92518, United States of America",
            "latitude": "33.87692125",
            "longitude": "-117.270726607134",
            "blogLinks": [
                "http://www.california-blog.com/"
            ]
        },
        "malibu pier": {
            "closest_to": "santa barbara",
            "locType": "pier",
            "address": "Malibu Pier, Pacific Coast Highway, Malibu, Los Angeles County, California, 90265, United States of America",
            "latitude": "34.0364323",
            "longitude": "-118.676144945982",
            "blogLinks": [
                "http://moon.com/2011/02/fun-road-trip-ideas-road-trip-the-california-coast/"
            ]
        },
        "silver strand state beach": {
            "closest_to": "avalon",
            "locType": "park",
            "address": "Silver Strand State Beach, Bayshore Bikeway, Crown Island, Coronado, San Diego County, California, 91910, United States of America",
            "latitude": "32.636022",
            "longitude": "-117.141384510521",
            "blogLinks": [
                "https://beachtreasuresandtreasurebeaches.com/tag/southern-california-seashells/"
            ]
        },
        "solvang": {
            "closest_to": "santa barbara",
            "locType": "city",
            "address": "Solvang, Santa Barbara County, California, United States of America",
            "latitude": "34.5958572",
            "longitude": "-120.1390893",
            "blogLinks": [
                "https://www.viator.com/tours/Los-Angeles/3-Day-California-Coast-Tour-Santa-Barbara-San-Francisco-and-Carmel/d645-3857SFOYOS",
                "http://myfamilytravels.com/content/10507-road-trip-usa-pacific-coast-highway-san-francisco-los-angeles"
            ]
        },
        "old town san diego": {
            "closest_to": "avalon",
            "locType": "hamlet",
            "address": "Old Town San Diego, San Diego County, California, United States of America",
            "latitude": "32.7542167",
            "longitude": "-117.1969792",
            "blogLinks": [
                "http://www.california-blog.com/"
            ]
        },
        "big bear lake": {
            "closest_to": "avalon",
            "locType": "water",
            "address": "Big Bear Lake, Lagunita Lane, Big Bear Lake, San Bernardino County, California, 92315, United States of America",
            "latitude": "34.253293",
            "longitude": "-116.932209587315",
            "blogLinks": [
                "http://www.travbuddy.com/California-popular-cities-p85"
            ]
        },
        "ocean beach": {
            "closest_to": "avalon",
            "locType": "region",
            "address": "Ocean Beach, San Diego, San Diego County, California, United States of America",
            "latitude": "32.7477784",
            "longitude": "-117.249321",
            "blogLinks": [
                "http://moon.com/2011/02/fun-road-trip-ideas-road-trip-the-california-coast/"
            ]
        },
        "marina del rey": {
            "closest_to": "santa barbara",
            "locType": "suburb",
            "address": "Marina del Rey, Ocean Park, Los Angeles County, California, United States of America",
            "latitude": "33.9774017",
            "longitude": "-118.4508017",
            "blogLinks": [
                "https://beachtreasuresandtreasurebeaches.com/tag/southern-california-seashells/",
                "http://myfamilytravels.com/content/10507-road-trip-usa-pacific-coast-highway-san-francisco-los-angeles"
            ]
        },
        "newport beach": {
            "closest_to": "avalon",
            "locType": "city",
            "address": "Newport Beach, Orange County, California, United States of America",
            "latitude": "33.6170092",
            "longitude": "-117.92944",
            "blogLinks": [
                "https://beachtreasuresandtreasurebeaches.com/tag/southern-california-seashells/",
                "http://www.travbuddy.com/California-popular-cities-p85",
                "http://visitanaheim.org/blog-post/2015/08/05/day-trip-anaheim-catalina-island"
            ]
        },
        "santa barbara": {
            "closest_to": "santa barbara",
            "locType": "city",
            "address": "Santa Barbara, Santa Barbara County, California, United States of America",
            "latitude": "34.4221319",
            "longitude": "-119.7026672",
            "blogLinks": [
                "http://moon.com/2011/02/fun-road-trip-ideas-road-trip-the-california-coast/",
                "https://www.tripadvisor.com/ShowTopic-g28926-i29-k6469704-Carmel_to_Los_Angeles_Stop_Overs-California.html",
                "http://www.distancesfrom.com/travel-from-Santa-Barbara-to-Toluca-Hills-Apartments-by-Avalon-Los-Angeles/TravelFromHistory/33118075.aspx",
                "https://www.viator.com/tours/Los-Angeles/3-Day-California-Coast-Tour-Santa-Barbara-San-Francisco-and-Carmel/d645-3857SFOYOS",
                "http://myfamilytravels.com/content/10507-road-trip-usa-pacific-coast-highway-san-francisco-los-angeles",
                "https://blog.virgin-atlantic.com/t5/Our-Places/mini-road-trips-los-angeles-to-santa-barbara/ba-p/1216",
                "http://www.distancesfrom.com/directions-from-Santa-Barbara-to-Toluca-Hills-Apartments-by-Avalon-Los-Angeles/DirectionHistory/33118075.aspx"
            ]
        },
        "pismo beach": {
            "closest_to": "santa barbara",
            "locType": "city",
            "address": "Pismo Beach, San Luis Obispo County, California, United States of America",
            "latitude": "35.1427533",
            "longitude": "-120.6412826",
            "blogLinks": [
                "http://moon.com/2011/02/fun-road-trip-ideas-road-trip-the-california-coast/",
                "http://myfamilytravels.com/content/10507-road-trip-usa-pacific-coast-highway-san-francisco-los-angeles"
            ]
        },
        "huntington beach": {
            "closest_to": "avalon",
            "locType": "city",
            "address": "Huntington Beach, Orange County, California, United States of America",
            "latitude": "33.6783336",
            "longitude": "-118.0000165",
            "blogLinks": [
                "http://moon.com/2011/02/fun-road-trip-ideas-road-trip-the-california-coast/",
                "http://www.travbuddy.com/California-popular-cities-p85"
            ]
        },
        "las angeles": {
            "closest_to": "santa barbara",
            "locType": "abandoned",
            "address": "California, Obregon Street, West Whittier, Rosemead, Los Angeles County, California, 90606, United States of America",
            "latitude": "33.9995929",
            "longitude": "-118.0668337",
            "blogLinks": [
                "http://www.travbuddy.com/California-popular-cities-p85"
            ]
        },
        "newport beach ca": {
            "closest_to": "avalon",
            "locType": "city",
            "address": "Newport Beach, Orange County, California, United States of America",
            "latitude": "33.6170092",
            "longitude": "-117.92944",
            "blogLinks": [
                "http://www.california-blog.com/"
            ]
        },
        "pasadena": {
            "closest_to": "santa barbara",
            "locType": "city",
            "address": "Pasadena, Los Angeles County, California, United States of America",
            "latitude": "34.1476452",
            "longitude": "-118.1444778",
            "blogLinks": [
                "http://www.visitcatalinaisland.com/blog"
            ]
        },
        "san fernando valley": {
            "closest_to": "santa barbara",
            "locType": "administrative",
            "address": "San Fernando, Los Angeles County, California, United States of America",
            "latitude": "34.2819461",
            "longitude": "-118.4389718",
            "blogLinks": [
                "https://blog.virgin-atlantic.com/t5/Our-Places/mini-road-trips-los-angeles-to-santa-barbara/ba-p/1216"
            ]
        },
        "mount baldy ca": {
            "closest_to": "avalon",
            "locType": "hamlet",
            "address": "Mount Baldy, Los Angeles County, California, United States of America",
            "latitude": "34.2361168",
            "longitude": "-117.6600552",
            "blogLinks": [
                "http://www.california-blog.com/"
            ]
        },
        "mission san luis obispo de tolosa": {
            "closest_to": "santa barbara",
            "locType": "place_of_worship",
            "address": "Mission San Luis Obispo de Tolosa, 782, Chorro Street, San Luis Obispo, San Luis Obispo County, California, 93405, United States of America",
            "latitude": "35.2807422",
            "longitude": "-120.664098712263",
            "blogLinks": [
                "http://myfamilytravels.com/content/10507-road-trip-usa-pacific-coast-highway-san-francisco-los-angeles"
            ]
        },
        "long beach": {
            "closest_to": "santa barbara",
            "locType": "city",
            "address": "Long Beach, Los Angeles County, California, United States of America",
            "latitude": "33.78538945",
            "longitude": "-118.158049215311",
            "blogLinks": [
                "https://beachtreasuresandtreasurebeaches.com/tag/southern-california-seashells/",
                "http://moon.com/2011/02/fun-road-trip-ideas-road-trip-the-california-coast/",
                "http://www.travbuddy.com/California-popular-cities-p85"
            ]
        },
        "morro bay ca": {
            "closest_to": "santa barbara",
            "locType": "city",
            "address": "Morro Bay, San Luis Obispo County, California, United States of America",
            "latitude": "35.3658075",
            "longitude": "-120.8499012",
            "blogLinks": [
                "http://www.california-blog.com/"
            ]
        },
        "ventura beach": {
            "closest_to": "avalon",
            "locType": "unclassified",
            "address": "Ventura Place, Pacific Beach, San Diego, San Diego County, California, 92109, United States of America",
            "latitude": "32.772073",
            "longitude": "-117.2514716",
            "blogLinks": [
                "https://blog.virgin-atlantic.com/t5/Our-Places/mini-road-trips-los-angeles-to-santa-barbara/ba-p/1216"
            ]
        },
        "paris": {
            "closest_to": "santa barbara",
            "locType": "hamlet",
            "address": "Paris, Los Angeles County, California, United States of America",
            "latitude": "34.4719383",
            "longitude": "-118.1809078",
            "blogLinks": [
                "https://beachtreasuresandtreasurebeaches.com/tag/southern-california-seashells/"
            ]
        },
        "pacific coast highway": {
            "closest_to": "avalon",
            "locType": "primary",
            "address": "Pacific Coast Highway, Huntington Beach, Orange County, California, 92648, United States of America",
            "latitude": "33.6595127",
            "longitude": "-118.0051687",
            "blogLinks": [
                "http://moon.com/2011/02/fun-road-trip-ideas-road-trip-the-california-coast/",
                "http://myfamilytravels.com/content/10507-road-trip-usa-pacific-coast-highway-san-francisco-los-angeles",
                "https://blog.virgin-atlantic.com/t5/Our-Places/mini-road-trips-los-angeles-to-santa-barbara/ba-p/1216"
            ]
        },
        "los angeles": {
            "closest_to": "santa barbara",
            "locType": "city",
            "address": "LA, Los Angeles County, California, United States of America",
            "latitude": "34.0543942",
            "longitude": "-118.2439408",
            "blogLinks": [
                "https://www.tripadvisor.com/ShowTopic-g28926-i29-k6469704-Carmel_to_Los_Angeles_Stop_Overs-California.html",
                "http://www.visitcatalinaisland.com/blog",
                "http://www.distancesfrom.com/travel-from-Santa-Barbara-to-Toluca-Hills-Apartments-by-Avalon-Los-Angeles/TravelFromHistory/33118075.aspx",
                "https://www.viator.com/tours/Los-Angeles/3-Day-California-Coast-Tour-Santa-Barbara-San-Francisco-and-Carmel/d645-3857SFOYOS",
                "http://myfamilytravels.com/content/10507-road-trip-usa-pacific-coast-highway-san-francisco-los-angeles",
                "https://blog.virgin-atlantic.com/t5/Our-Places/mini-road-trips-los-angeles-to-santa-barbara/ba-p/1216",
                "https://beachtreasuresandtreasurebeaches.com/tag/southern-california-seashells/",
                "http://www.travbuddy.com/California-popular-cities-p85",
                "http://www.distancesfrom.com/directions-from-Santa-Barbara-to-Toluca-Hills-Apartments-by-Avalon-Los-Angeles/DirectionHistory/33118075.aspx"
            ]
        },
        "burbank": {
            "closest_to": "santa barbara",
            "locType": "city",
            "address": "Burbank, Los Angeles County, California, United States of America",
            "latitude": "34.1816482",
            "longitude": "-118.3258553",
            "blogLinks": [
                "http://www.travbuddy.com/California-popular-cities-p85"
            ]
        },
        "south coast plaza": {
            "closest_to": "avalon",
            "locType": "mall",
            "address": "South Coast Plaza, Bear Street, Costa Mesa, Orange County, California, 92704, United States of America",
            "latitude": "33.6907283",
            "longitude": "-117.889168433903",
            "blogLinks": [
                "http://www.travbuddy.com/California-popular-cities-p85"
            ]
        },
        "boston": {
            "closest_to": "avalon",
            "locType": "residential",
            "address": "Boston, Heritage Park Apartments, El Camino Real, Irvine, Orange County, California, 92604, United States of America",
            "latitude": "33.696779",
            "longitude": "-117.7757132",
            "blogLinks": [
                "http://www.visitcatalinaisland.com/blog"
            ]
        },
        "morro rock ca": {
            "closest_to": "santa barbara",
            "locType": "peak",
            "address": "Morro Rock, Morro Bay, San Luis Obispo County, California, United States of America",
            "latitude": "35.369669",
            "longitude": "-120.8676993",
            "blogLinks": [
                "http://www.california-blog.com/"
            ]
        },
        "venice": {
            "closest_to": "santa barbara",
            "locType": "suburb",
            "address": "Venice, LA, Los Angeles County, California, United States of America",
            "latitude": "33.995044",
            "longitude": "-118.4668874",
            "blogLinks": [
                "http://moon.com/2011/02/fun-road-trip-ideas-road-trip-the-california-coast/",
                "http://www.travbuddy.com/California-popular-cities-p85"
            ]
        },
        "southern california": {
            "closest_to": "santa barbara",
            "locType": "university",
            "address": "University of Southern California, Watt Way, Saint James Park, LA, Los Angeles County, California, 90089, United States of America",
            "latitude": "34.0224149",
            "longitude": "-118.286343973446",
            "blogLinks": [
                "https://beachtreasuresandtreasurebeaches.com/tag/southern-california-seashells/",
                "http://www.travbuddy.com/California-popular-cities-p85",
                "https://www.viator.com/tours/Los-Angeles/3-Day-California-Coast-Tour-Santa-Barbara-San-Francisco-and-Carmel/d645-3857SFOYOS",
                "http://www.visitcatalinaisland.com/blog"
            ]
        },
        "ventura": {
            "closest_to": "santa barbara",
            "locType": "administrative",
            "address": "Ventura County, California, United States of America",
            "latitude": "34.4458248",
            "longitude": "-119.0779358",
            "blogLinks": [
                "http://moon.com/2011/02/fun-road-trip-ideas-road-trip-the-california-coast/",
                "https://blog.virgin-atlantic.com/t5/Our-Places/mini-road-trips-los-angeles-to-santa-barbara/ba-p/1216"
            ]
        },
        "arizona": {
            "closest_to": "avalon",
            "locType": "track",
            "address": "Arizona, San Bernardino County, California, 92371, United States of America",
            "latitude": "34.4631398",
            "longitude": "-117.5060679",
            "blogLinks": [
                "http://moon.com/2011/02/fun-road-trip-ideas-road-trip-the-california-coast/"
            ]
        },
        "black canyon": {
            "closest_to": "santa barbara",
            "locType": "residential",
            "address": "Black Canyon, Kern County, California, United States of America",
            "latitude": "35.307",
            "longitude": "-118.2999469",
            "blogLinks": [
                "http://www.tripleblaze.com/best/?c=86"
            ]
        },
        "ventana": {
            "closest_to": "avalon",
            "locType": "residential",
            "address": "Ventana, Morgan Hill, Riverside County, California, 92592, United States of America",
            "latitude": "33.4767484",
            "longitude": "-117.0594043",
            "blogLinks": [
                "http://moon.com/2011/02/fun-road-trip-ideas-road-trip-the-california-coast/"
            ]
        },
        "carlsbad": {
            "closest_to": "avalon",
            "locType": "city",
            "address": "Carlsbad, San Diego County, California, United States of America",
            "latitude": "33.1580933",
            "longitude": "-117.3505938",
            "blogLinks": [
                "http://www.travbuddy.com/California-popular-cities-p85"
            ]
        },
        "west hollywood": {
            "closest_to": "santa barbara",
            "locType": "city",
            "address": "West Hollywood, Los Angeles County, California, United States of America",
            "latitude": "34.0900091",
            "longitude": "-118.3617442",
            "blogLinks": [
                "http://www.travbuddy.com/California-popular-cities-p85"
            ]
        },
        "santa barbara county courthouse": {
            "closest_to": "santa barbara",
            "locType": "courthouse",
            "address": "Santa Barbara County Courthouse, Anacapa Street, Santa Barbara, Santa Barbara County, California, 93105, United States of America",
            "latitude": "34.4243592",
            "longitude": "-119.702541023445",
            "blogLinks": [
                "http://myfamilytravels.com/content/10507-road-trip-usa-pacific-coast-highway-san-francisco-los-angeles"
            ]
        },
        "santa barbara botanic garden": {
            "closest_to": "santa barbara",
            "locType": "park",
            "address": "Santa Barbara Botanic Gardens, Mission Canyon Road, Mission Canyon, Santa Barbara County, California, 93105, United States of America",
            "latitude": "34.456953",
            "longitude": "-119.709585108231",
            "blogLinks": [
                "http://myfamilytravels.com/content/10507-road-trip-usa-pacific-coast-highway-san-francisco-los-angeles"
            ]
        },
        "san luis obispo": {
            "closest_to": "santa barbara",
            "locType": "city",
            "address": "San Luis Obispo, San Luis Obispo County, California, United States of America",
            "latitude": "35.2827525",
            "longitude": "-120.6596155",
            "blogLinks": [
                "http://myfamilytravels.com/content/10507-road-trip-usa-pacific-coast-highway-san-francisco-los-angeles"
            ]
        },
        "channel islands national park": {
            "closest_to": "santa barbara",
            "locType": "national_park",
            "address": "Channel Islands National Park, Spinnaker Drive, Ventura, Ventura County, California, 93006, United States of America",
            "latitude": "34.248597",
            "longitude": "-119.266377755078",
            "blogLinks": [
                "https://blog.virgin-atlantic.com/t5/Our-Places/mini-road-trips-los-angeles-to-santa-barbara/ba-p/1216"
            ]
        },
        "catalina island": {
            "closest_to": "santa barbara",
            "locType": "island",
            "address": "Santa Catalina Island, Los Angeles County, California, United States of America",
            "latitude": "33.3890232",
            "longitude": "-118.424154004558",
            "blogLinks": [
                "https://beachtreasuresandtreasurebeaches.com/tag/southern-california-seashells/",
                "http://www.visitcatalinaisland.com/blog"
            ]
        },
        "muscle beach": {
            "closest_to": "santa barbara",
            "locType": "sports_centre",
            "address": "Muscle Beach, Ocean Front Walk, Venice, LA, Los Angeles County, California, 90292, United States of America",
            "latitude": "33.985446",
            "longitude": "-118.4725820875",
            "blogLinks": [
                "http://www.travbuddy.com/California-popular-cities-p85"
            ]
        },
        "new orleans": {
            "closest_to": "avalon",
            "locType": "locality",
            "address": "New Orleans Square, Anaheim, Orange County, California, United States of America",
            "latitude": "33.8116219",
            "longitude": "-117.9206364",
            "blogLinks": [
                "http://www.visitcatalinaisland.com/blog"
            ]
        },
        "lompoc": {
            "closest_to": "santa barbara",
            "locType": "city",
            "address": "Lompoc, Santa Barbara County, California, United States of America",
            "latitude": "34.6391501",
            "longitude": "-120.4579408",
            "blogLinks": [
                "http://moon.com/2011/02/fun-road-trip-ideas-road-trip-the-california-coast/"
            ]
        },
        "dana point": {
            "closest_to": "avalon",
            "locType": "city",
            "address": "Dana Point, Orange County, California, United States of America",
            "latitude": "33.4669721",
            "longitude": "-117.6981074",
            "blogLinks": [
                "http://moon.com/2011/02/fun-road-trip-ideas-road-trip-the-california-coast/",
                "http://visitanaheim.org/blog-post/2015/08/05/day-trip-anaheim-catalina-island",
                "https://blog.virgin-atlantic.com/t5/Our-Places/mini-road-trips-los-angeles-to-santa-barbara/ba-p/1216"
            ]
        }
    },
    "avalon": {
        "type": "city",
        "class": "place",
        "lat": "33.34221",
        "lon": "-118.3272611",
        "licence": "Data \u00a9 OpenStreetMap contributors, ODbL 1.0. http://www.openstreetmap.org/copyright",
        "osm_type": "relation",
        "importance": 0.59676353508209,
        "boundingbox": [
            "33.317583",
            "33.356566",
            "-118.3466549",
            "-118.3073689"
        ],
        "icon": "https://nominatim.openstreetmap.org/images/mapicons/poi_place_city.p.20.png",
        "osm_id": "6169443",
        "display_name": "Avalon, Los Angeles County, California, United States of America",
        "place_id": "159849240"
    }
}