{
    "bakersfield": {
        "boundingbox": [
            "35.193979",
            "35.447975",
            "-119.2650329",
            "-118.7723409"
        ],
        "lon": "-119.0194638",
        "class": "place",
        "licence": "Data \u00a9 OpenStreetMap contributors, ODbL 1.0. http://www.openstreetmap.org/copyright",
        "importance": 0.74358237824296,
        "icon": "https://nominatim.openstreetmap.org/images/mapicons/poi_place_city.p.20.png",
        "lat": "35.3738712",
        "osm_id": "113006",
        "type": "city",
        "osm_type": "relation",
        "place_id": "158454478",
        "display_name": "Bakersfield, Kern County, California, United States of America"
    },
    "mentions": {
        "embarcadero": {
            "longitude": "-122.396892",
            "blogLinks": [
                "http://www.citypass.com/san-francisco/things-to-do-san-francisco"
            ],
            "closest_to": "san francisco",
            "latitude": "37.7928455",
            "address": "Embarcadero, Market Street, Financial District, SF, California, 94111, United States of America",
            "locType": "station"
        },
        "arcata": {
            "longitude": "-124.0828395",
            "blogLinks": [
                "http://gocalifornia.about.com/od/caplaceslist/ss/Redwood-Forests-in-California.htm"
            ],
            "closest_to": "san francisco",
            "latitude": "40.8665166",
            "address": "Arcata, Humboldt County, California, United States of America",
            "locType": "city"
        },
        "mount palomar ca": {
            "longitude": "-117.270809764613",
            "blogLinks": [
                "http://www.california-blog.com/"
            ],
            "closest_to": "bakersfield",
            "latitude": "33.1278146",
            "address": "California Bank & Trust, 2501, Palomar Airport Road, Carlsbad, San Diego County, California, 92011, United States of America",
            "locType": "bank"
        },
        "pebble beach golf course": {
            "longitude": "-121.937790801787",
            "blogLinks": [
                "http://traveltips.usatoday.com/fun-things-los-angeles-san-francisco-14664.html"
            ],
            "closest_to": "san francisco",
            "latitude": "36.56413635",
            "address": "Pebble Beach Golf Course, Live Oak Meadow Road, Del Monte Forest, Monterey County, California, 93953, United States of America",
            "locType": "golf_course"
        },
        "oildale": {
            "longitude": "-119.023994307757",
            "blogLinks": [
                "http://wikitravel.org/en/Bakersfield"
            ],
            "closest_to": "san francisco",
            "latitude": "35.42831395",
            "address": "Oildale, Galaxy Avenue, Oildale, Kern County, California, 93308, United States of America",
            "locType": "administrative"
        },
        "springville": {
            "longitude": "-118.839739899248",
            "blogLinks": [
                "https://www.tripadvisor.com/ShowTopic-g28926-i29-k5349841-Bakersfield_to_San_Fransico_drive-California.html"
            ],
            "closest_to": "san francisco",
            "latitude": "36.123081",
            "address": "Springville, Wilson Drive, Springville, Tulare County, California, United States of America",
            "locType": "administrative"
        },
        "shaver lake": {
            "longitude": "-119.320258225573",
            "blogLinks": [
                "https://www.tripadvisor.com/ShowTopic-g28926-i29-k5349841-Bakersfield_to_San_Fransico_drive-California.html"
            ],
            "closest_to": "san francisco",
            "latitude": "37.09684",
            "address": "Shaver Lake, Huntington Lake Road, Rock Haven, Fresno County, California, 93664, United States of America",
            "locType": "administrative"
        },
        "lakeview ave": {
            "longitude": "-117.8160948",
            "blogLinks": [
                "http://wikitravel.org/en/Bakersfield"
            ],
            "closest_to": "bakersfield",
            "latitude": "33.8533062",
            "address": "Lakeview Avenue, Anaheim Hills, Anaheim, Orange County, California, 92807, United States of America",
            "locType": "secondary"
        },
        "la": {
            "longitude": "-118.7559973",
            "blogLinks": [
                "https://www.yelp.com/topic/san-francisco-place-to-eat-off-i-5-between-la-and-sf",
                "http://traveltips.usatoday.com/fun-things-los-angeles-san-francisco-14664.html",
                "https://answers.yahoo.com/question/index?qid=20100720110201AARismL"
            ],
            "closest_to": "san francisco",
            "latitude": "36.7014631",
            "address": "California, United States of America",
            "locType": "administrative"
        },
        "mount san jacinto ca": {
            "longitude": "-116.9586349",
            "blogLinks": [
                "http://www.california-blog.com/"
            ],
            "closest_to": "bakersfield",
            "latitude": "33.7839084",
            "address": "San Jacinto, Riverside County, California, United States of America",
            "locType": "city"
        },
        "pacific ocean": {
            "longitude": "-121.678715787326",
            "blogLinks": [
                "http://travelblog.viator.com/road-trip-san-francisco-los-angeles/",
                "http://www.citypass.com/san-francisco/things-to-do-san-francisco",
                "http://www.hopper.com/articles/291/five-great-stops-between-los-angeles-and-san-francisco-on-the-pacific-coast-highway"
            ],
            "closest_to": "san francisco",
            "latitude": "36.16305775",
            "address": "Pacific Ocean, Cabrillo Highway, Monterey County, California, 93920, United States of America",
            "locType": "cliff"
        },
        "mount san gorgonio ca": {
            "longitude": "-116.8766731",
            "blogLinks": [
                "http://www.california-blog.com/"
            ],
            "closest_to": "bakersfield",
            "latitude": "33.9121294",
            "address": "San Gorgonio Avenue, Banning, Riverside County, California, 92220, United States of America",
            "locType": "secondary"
        },
        "yosemite valley": {
            "longitude": "-119.6064673",
            "blogLinks": [
                "http://gocalifornia.about.com/od/caplaceslist/ss/Redwood-Forests-in-California.htm"
            ],
            "closest_to": "san francisco",
            "latitude": "37.734435",
            "address": "Yosemite Valley, Mariposa County, California, United States of America",
            "locType": "town"
        },
        "madonna inn": {
            "longitude": "-120.674725246222",
            "blogLinks": [
                "http://traveltips.usatoday.com/fun-things-los-angeles-san-francisco-14664.html"
            ],
            "closest_to": "san francisco",
            "latitude": "35.2673282",
            "address": "Madonna Inn, 100, Madonna Road, San Luis Obispo, San Luis Obispo County, California, 93405, United States of America",
            "locType": "hotel"
        },
        "buellton": {
            "longitude": "-120.1936691",
            "blogLinks": [
                "https://www.yelp.com/topic/san-francisco-place-to-eat-off-i-5-between-la-and-sf",
                "http://traveltips.usatoday.com/fun-things-los-angeles-san-francisco-14664.html"
            ],
            "closest_to": "san francisco",
            "latitude": "34.6134727",
            "address": "Buellton, Santa Barbara County, California, United States of America",
            "locType": "city"
        },
        "palm springs air museum ca": {
            "longitude": "-116.504677958796",
            "blogLinks": [
                "http://www.california-blog.com/"
            ],
            "closest_to": "bakersfield",
            "latitude": "33.83250375",
            "address": "Palm Springs Air Museum, 745, North Gene Autry Trail, Palm Springs, Riverside County, California, 92262, United States of America",
            "locType": "museum"
        },
        "nevada city": {
            "longitude": "-121.0160593",
            "blogLinks": [
                "https://www.tripadvisor.com/ShowTopic-g28926-i29-k5349841-Bakersfield_to_San_Fransico_drive-California.html"
            ],
            "closest_to": "san francisco",
            "latitude": "39.2615606",
            "address": "Nevada City, Nevada County, California, United States of America",
            "locType": "city"
        },
        "delano municipal airport": {
            "longitude": "-119.231273887245",
            "blogLinks": [
                "http://wikitravel.org/en/Bakersfield"
            ],
            "closest_to": "san francisco",
            "latitude": "35.742627",
            "address": "Delano Municipal Airport, Woollomes Avenue, Delano, Kern County, California, 93215, United States of America",
            "locType": "aerodrome"
        },
        "suisun": {
            "longitude": "-121.971724116502",
            "blogLinks": [
                "http://www.visitcentralvalley.com/places/"
            ],
            "closest_to": "san francisco",
            "latitude": "38.24690555",
            "address": "Suisun City, Solano County, California, United States of America",
            "locType": "city"
        },
        "los angeles international airport": {
            "longitude": "-118.407057290249",
            "blogLinks": [
                "http://wikitravel.org/en/California",
                "http://wikitravel.org/en/Bakersfield"
            ],
            "closest_to": "bakersfield",
            "latitude": "33.94211345",
            "address": "Los Angeles International Airport, Gate 41, Westchester, Playa del Rey, LA, Los Angeles County, California, 90245, United States of America",
            "locType": "aerodrome"
        },
        "highway 101": {
            "longitude": "-117.2731974",
            "blogLinks": [
                "http://travelblog.viator.com/road-trip-san-francisco-los-angeles/",
                "http://traveltips.usatoday.com/fun-things-los-angeles-san-francisco-14664.html"
            ],
            "closest_to": "bakersfield",
            "latitude": "32.9967358",
            "address": "Highway 101, Solana Beach, San Diego County, California, 92075, United States of America",
            "locType": "primary"
        },
        "cambria": {
            "longitude": "-121.0807467",
            "blogLinks": [
                "https://www.tripadvisor.com/ShowTopic-g28926-i29-k5349841-Bakersfield_to_San_Fransico_drive-California.html"
            ],
            "closest_to": "san francisco",
            "latitude": "35.5641381",
            "address": "Cambria, San Luis Obispo County, California, United States of America",
            "locType": "administrative"
        },
        "maiden lane": {
            "longitude": "-122.4066888",
            "blogLinks": [
                "http://www.citypass.com/san-francisco/things-to-do-san-francisco"
            ],
            "closest_to": "san francisco",
            "latitude": "37.7880412",
            "address": "Maiden Lane, Chinatown, SF, California, 94108, United States of America",
            "locType": "service"
        },
        "bay": {
            "longitude": "-117.7729354",
            "blogLinks": [
                "http://travelblog.viator.com/road-trip-san-francisco-los-angeles/",
                "http://www.citypass.com/san-francisco/things-to-do-san-francisco"
            ],
            "closest_to": "bakersfield",
            "latitude": "33.6899249",
            "address": "Bay, Meadows Mobile Home Park, El Camino Real, Irvine, Orange County, California, 92406, United States of America",
            "locType": "service"
        },
        "joaquin county": {
            "longitude": "-121.2773718",
            "blogLinks": [
                "http://www.visitcentralvalley.com/places/"
            ],
            "closest_to": "san francisco",
            "latitude": "37.9372901",
            "address": "San Joaquin County, California, United States of America",
            "locType": "administrative"
        },
        "grant village": {
            "longitude": "-118.9626077",
            "blogLinks": [
                "http://gocalifornia.about.com/od/caplaceslist/ss/Redwood-Forests-in-California.htm"
            ],
            "closest_to": "san francisco",
            "latitude": "36.7399465",
            "address": "Grant Grove Village, Tulare County, California, United States of America",
            "locType": "hamlet"
        },
        "creek": {
            "longitude": "-123.0482197",
            "blogLinks": [
                "http://gocalifornia.about.com/od/caplaceslist/ss/Redwood-Forests-in-California.htm"
            ],
            "closest_to": "san francisco",
            "latitude": "39.3751013",
            "address": "Creek, Mendocino County, California, United States of America",
            "locType": "stream"
        },
        "little giants park": {
            "longitude": "-123.9376025",
            "blogLinks": [
                "http://www.citypass.com/san-francisco/things-to-do-san-francisco"
            ],
            "closest_to": "san francisco",
            "latitude": "40.3410481",
            "address": "California Federation of Womens Clubs Grove, Avenue of the Giants, Weott, Humboldt County, California, 95565, United States of America",
            "locType": "wood"
        },
        "hearst castle": {
            "longitude": "-121.167587299509",
            "blogLinks": [
                "http://traveltips.usatoday.com/fun-things-los-angeles-san-francisco-14664.html"
            ],
            "closest_to": "san francisco",
            "latitude": "35.6853689",
            "address": "Hearst Castle, 750, Hearst Castle Road, San Simeon, San Luis Obispo County, California, 93452, United States of America",
            "locType": "museum"
        },
        "monterey county": {
            "longitude": "-121.3877427",
            "blogLinks": [
                "http://travelblog.viator.com/road-trip-san-francisco-los-angeles/"
            ],
            "closest_to": "san francisco",
            "latitude": "36.2231079",
            "address": "Monterey County, California, United States of America",
            "locType": "administrative"
        },
        "adventure park visalia": {
            "longitude": "-119.352945975",
            "blogLinks": [
                "http://www.visitcentralvalley.com/places/"
            ],
            "closest_to": "san francisco",
            "latitude": "36.326007",
            "address": "Adventure Park, West Cypress Avenue, Visalia, Tulare County, California, 93277, United States of America",
            "locType": "theme_park"
        },
        "ventura": {
            "longitude": "-119.0779358",
            "blogLinks": [
                "http://travelblog.viator.com/road-trip-san-francisco-los-angeles/",
                "http://traveltips.usatoday.com/fun-things-los-angeles-san-francisco-14664.html"
            ],
            "closest_to": "bakersfield",
            "latitude": "34.4458248",
            "address": "Ventura County, California, United States of America",
            "locType": "administrative"
        },
        "wasco airport": {
            "longitude": "-119.353818151638",
            "blogLinks": [
                "http://wikitravel.org/en/Bakersfield"
            ],
            "closest_to": "san francisco",
            "latitude": "35.6199235",
            "address": "Wasco-Kern County Airport, McCombs Avenue, Kern County, California, 93280, United States of America",
            "locType": "aerodrome"
        },
        "san juan bautista": {
            "longitude": "-121.5379893",
            "blogLinks": [
                "https://www.tripadvisor.com/ShowTopic-g28926-i29-k5349841-Bakersfield_to_San_Fransico_drive-California.html"
            ],
            "closest_to": "san francisco",
            "latitude": "36.8455173",
            "address": "San Juan Bautista, San Benito County, California, United States of America",
            "locType": "city"
        },
        "nepenthe": {
            "longitude": "-121.7596564",
            "blogLinks": [
                "http://travelblog.viator.com/road-trip-san-francisco-los-angeles/"
            ],
            "closest_to": "san francisco",
            "latitude": "36.2218116",
            "address": "Nepenthe, 48510, Cabrillo Highway, Posts, Monterey County, California, 93920-9549, United States of America",
            "locType": "restaurant"
        },
        "national parks": {
            "longitude": "-115.383967",
            "blogLinks": [
                "http://www.visitcentralvalley.com/places/"
            ],
            "closest_to": "bakersfield",
            "latitude": "35.0310157",
            "address": "National Parks Service Road, San Bernardino County, California, United States of America",
            "locType": "residential"
        },
        "france": {
            "longitude": "-118.5935353",
            "blogLinks": [
                "http://www.citypass.com/san-francisco/things-to-do-san-francisco"
            ],
            "closest_to": "bakersfield",
            "latitude": "34.2013715",
            "address": "France, Sherman Way, Canoga Park, LA, Los Angeles County, California, 91307, United States of America",
            "locType": "cafe"
        },
        "north lake ca": {
            "longitude": "-122.501983281136",
            "blogLinks": [
                "http://www.california-blog.com/"
            ],
            "closest_to": "san francisco",
            "latitude": "37.76958295",
            "address": "North Lake, Chain of Lakes Drive East, Sunset District, SF, California, 94122, United States of America",
            "locType": "water"
        },
        "grass valley": {
            "longitude": "-121.053122977412",
            "blogLinks": [
                "https://www.tripadvisor.com/ShowTopic-g28926-i29-k5349841-Bakersfield_to_San_Fransico_drive-California.html"
            ],
            "closest_to": "san francisco",
            "latitude": "39.2086655",
            "address": "Grass Valley, Nevada County, California, United States of America",
            "locType": "city"
        },
        "yosemite": {
            "longitude": "-119.5893389",
            "blogLinks": [
                "https://www.tripadvisor.com/ShowTopic-g28926-i29-k5349841-Bakersfield_to_San_Fransico_drive-California.html",
                "http://gocalifornia.about.com/od/caplaceslist/ss/Redwood-Forests-in-California.htm"
            ],
            "closest_to": "san francisco",
            "latitude": "37.7488554",
            "address": "Yosemite, Village Drive, Yosemite Village, Yosemite Valley, Mariposa County, California, United States of America",
            "locType": "attraction"
        },
        "bus bay": {
            "longitude": "-118.364393154677",
            "blogLinks": [
                "http://wikitravel.org/en/California"
            ],
            "closest_to": "bakersfield",
            "latitude": "33.88803365",
            "address": "2601-2641, West Bay Business Park, Redondo Beach, Los Angeles County, California, 90260, United States of America",
            "locType": "commercial"
        },
        "pepperwood": {
            "longitude": "-123.9928218",
            "blogLinks": [
                "http://gocalifornia.about.com/od/caplaceslist/ss/Redwood-Forests-in-California.htm"
            ],
            "closest_to": "san francisco",
            "latitude": "40.4459712",
            "address": "Pepperwood, Humboldt County, California, United States of America",
            "locType": "hamlet"
        },
        "sacramento valley": {
            "longitude": "-121.4943995",
            "blogLinks": [
                "http://www.visitcentralvalley.com/places/"
            ],
            "closest_to": "san francisco",
            "latitude": "38.5815719",
            "address": "Sacramento, Sacramento County, California, United States of America",
            "locType": "city"
        },
        "napa valley ca": {
            "longitude": "-122.3002947",
            "blogLinks": [
                "http://www.california-blog.com/"
            ],
            "closest_to": "san francisco",
            "latitude": "38.2972603",
            "address": "California Boulevard, Napa, Napa County, California, 94558, United States of America",
            "locType": "secondary"
        },
        "morro bay ca": {
            "longitude": "-120.8499012",
            "blogLinks": [
                "http://www.california-blog.com/"
            ],
            "closest_to": "san francisco",
            "latitude": "35.3658075",
            "address": "Morro Bay, San Luis Obispo County, California, United States of America",
            "locType": "city"
        },
        "morro bay": {
            "longitude": "-120.8499012",
            "blogLinks": [
                "http://traveltips.usatoday.com/fun-things-los-angeles-san-francisco-14664.html"
            ],
            "closest_to": "san francisco",
            "latitude": "35.3658075",
            "address": "Morro Bay, San Luis Obispo County, California, United States of America",
            "locType": "city"
        },
        "paso robles": {
            "longitude": "-120.6912455",
            "blogLinks": [
                "http://wikitravel.org/en/California",
                "https://www.tripadvisor.com/ShowTopic-g28926-i29-k5349841-Bakersfield_to_San_Fransico_drive-California.html"
            ],
            "closest_to": "san francisco",
            "latitude": "35.6267654",
            "address": "Paso Robles, San Luis Obispo County, California, United States of America",
            "locType": "city"
        },
        "bixby creek bridge": {
            "longitude": "-121.9017572",
            "blogLinks": [
                "http://travelblog.viator.com/road-trip-san-francisco-los-angeles/"
            ],
            "closest_to": "san francisco",
            "latitude": "36.3710197",
            "address": "Bixby Creek Bridge, Notleys Landing, Monterey County, California, 93923, United States of America",
            "locType": "primary"
        },
        "central california": {
            "longitude": "-121.573011",
            "blogLinks": [
                "http://wikitravel.org/en/California"
            ],
            "closest_to": "san francisco",
            "latitude": "38.392688",
            "address": "Central, Yolo County, California, United States of America",
            "locType": "hamlet"
        },
        "malibu": {
            "longitude": "-116.5023561",
            "blogLinks": [
                "http://wikitravel.org/en/California"
            ],
            "closest_to": "bakersfield",
            "latitude": "33.7932142",
            "address": "Malibu, Palm Springs, Riverside County, California, 92264, United States of America",
            "locType": "residential"
        },
        "golden gate park": {
            "longitude": "-122.482183611177",
            "blogLinks": [
                "http://www.citypass.com/san-francisco/things-to-do-san-francisco"
            ],
            "closest_to": "san francisco",
            "latitude": "37.7693681",
            "address": "Golden Gate Park, Overlook Drive, Richmond District, SF, California, 94122, United States of America",
            "locType": "park"
        },
        "phoenix": {
            "longitude": "-117.7764481",
            "blogLinks": [
                "https://answers.yahoo.com/question/index?qid=20090127155637AApyfgG",
                "http://www.citypass.com/san-francisco/things-to-do-san-francisco",
                "http://wikitravel.org/en/Bakersfield"
            ],
            "closest_to": "bakersfield",
            "latitude": "33.6988015",
            "address": "Phoenix, Heritage Park Apartments, El Camino Real, Irvine, Orange County, California, 92604, United States of America",
            "locType": "residential"
        },
        "santa lucia mountain": {
            "longitude": "-119.8003246",
            "blogLinks": [
                "http://travelblog.viator.com/road-trip-san-francisco-los-angeles/"
            ],
            "closest_to": "bakersfield",
            "latitude": "34.4379129",
            "address": "Santa Lucia, Santa Barbara County, California, 93111, United States of America",
            "locType": "residential"
        },
        "santa ana": {
            "longitude": "-117.8732212",
            "blogLinks": [
                "http://wikitravel.org/en/California"
            ],
            "closest_to": "bakersfield",
            "latitude": "33.7494951",
            "address": "Santa Ana, Orange County, California, United States of America",
            "locType": "city"
        },
        "el torito": {
            "longitude": "-118.447739187814",
            "blogLinks": [
                "https://www.tripadvisor.com/ShowUserReviews-g32037-d627479-r51783537-SpringHill_Suites_Bakersfield-Bakersfield_California.html"
            ],
            "closest_to": "bakersfield",
            "latitude": "34.15108785",
            "address": "El Torito, 14433, Ventura Boulevard, Sherman Oaks, LA, Los Angeles County, California, 91423, United States of America",
            "locType": "restaurant"
        },
        "santa cruz": {
            "longitude": "-122.0260569",
            "blogLinks": [
                "http://wikitravel.org/en/California",
                "https://www.tripadvisor.com/ShowTopic-g28926-i29-k5349841-Bakersfield_to_San_Fransico_drive-California.html",
                "http://traveltips.usatoday.com/fun-things-los-angeles-san-francisco-14664.html",
                "http://gocalifornia.about.com/od/caplaceslist/ss/Redwood-Forests-in-California.htm"
            ],
            "closest_to": "san francisco",
            "latitude": "36.9735903",
            "address": "Santa Cruz, Santa Cruz County, California, United States of America",
            "locType": "city"
        },
        "santa monica": {
            "longitude": "-118.4869738",
            "blogLinks": [
                "http://travelblog.viator.com/road-trip-san-francisco-los-angeles/"
            ],
            "closest_to": "bakersfield",
            "latitude": "34.0195598",
            "address": "Santa Monica, Los Angeles County, California, United States of America",
            "locType": "city"
        },
        "giant forest": {
            "longitude": "-118.7514867",
            "blogLinks": [
                "http://gocalifornia.about.com/od/caplaceslist/ss/Redwood-Forests-in-California.htm"
            ],
            "closest_to": "san francisco",
            "latitude": "36.5624446",
            "address": "Giant Forest, Tharp's Log Trail, Pinewood, Tulare County, California, 93262, United States of America",
            "locType": "forest"
        },
        "big basin": {
            "longitude": "-122.1875564",
            "blogLinks": [
                "http://gocalifornia.about.com/od/caplaceslist/ss/Redwood-Forests-in-California.htm"
            ],
            "closest_to": "san francisco",
            "latitude": "37.1665748",
            "address": "Big Basin, Santa Cruz County, California, United States of America",
            "locType": "hamlet"
        },
        "moro rock road": {
            "longitude": "-118.7655024",
            "blogLinks": [
                "http://gocalifornia.about.com/od/caplaceslist/ss/Redwood-Forests-in-California.htm"
            ],
            "closest_to": "san francisco",
            "latitude": "36.5442378",
            "address": "Moro Rock, Tulare County, California, United States of America",
            "locType": "peak"
        },
        "hotels.com": {
            "longitude": "-122.06555095",
            "blogLinks": [
                "https://www.tripadvisor.com/ShowUserReviews-g32037-d627479-r51783537-SpringHill_Suites_Bakersfield-Bakersfield_California.html"
            ],
            "closest_to": "san francisco",
            "latitude": "37.410567",
            "address": "Vernon Avenue, Santa Clara County, California, 94043, United States of America",
            "locType": "hotel"
        },
        "financial district": {
            "longitude": "-118.2593046",
            "blogLinks": [
                "http://www.citypass.com/san-francisco/things-to-do-san-francisco"
            ],
            "closest_to": "bakersfield",
            "latitude": "34.0457621",
            "address": "Financial District, Bunker Hill, LA, Los Angeles County, California, 90079, United States of America",
            "locType": "neighbourhood"
        },
        "newport beach ca": {
            "longitude": "-117.92944",
            "blogLinks": [
                "http://www.california-blog.com/"
            ],
            "closest_to": "bakersfield",
            "latitude": "33.6170092",
            "address": "Newport Beach, Orange County, California, United States of America",
            "locType": "city"
        },
        "bay bridge": {
            "longitude": "-122.342234",
            "blogLinks": [
                "http://www.citypass.com/san-francisco/things-to-do-san-francisco"
            ],
            "closest_to": "san francisco",
            "latitude": "37.8193514",
            "address": "San Francisco \u2013 Oakland Bay Bridge, Oakland, Alameda County, California, 94625, United States of America",
            "locType": "abandoned"
        },
        "dewey monument": {
            "longitude": "-122.4074977",
            "blogLinks": [
                "http://www.citypass.com/san-francisco/things-to-do-san-francisco"
            ],
            "closest_to": "san francisco",
            "latitude": "37.7879582",
            "address": "Dewey Monument, Post Street, Chinatown, SF, California, 94115, United States of America",
            "locType": "monument"
        },
        "paris": {
            "longitude": "-118.1809078",
            "blogLinks": [
                "http://www.citypass.com/san-francisco/things-to-do-san-francisco"
            ],
            "closest_to": "bakersfield",
            "latitude": "34.4719383",
            "address": "Paris, Los Angeles County, California, United States of America",
            "locType": "hamlet"
        },
        "san fernando": {
            "longitude": "-118.4389718",
            "blogLinks": [
                "http://wikitravel.org/en/California"
            ],
            "closest_to": "bakersfield",
            "latitude": "34.2819461",
            "address": "San Fernando, Los Angeles County, California, United States of America",
            "locType": "administrative"
        },
        "marin headlands": {
            "longitude": "-122.534327312107",
            "blogLinks": [
                "http://www.citypass.com/san-francisco/things-to-do-san-francisco"
            ],
            "closest_to": "san francisco",
            "latitude": "37.856162",
            "address": "Marin Headlands (GGNRA), Old Springs Trail, Marin City, Marin County, California, 94941, United States of America",
            "locType": "park"
        },
        "bradley": {
            "longitude": "-120.803695455663",
            "blogLinks": [
                "https://www.tripadvisor.com/ShowTopic-g28926-i29-k5349841-Bakersfield_to_San_Fransico_drive-California.html"
            ],
            "closest_to": "san francisco",
            "latitude": "35.862856",
            "address": "Bradley, Dixie Street, Bradley, Monterey County, California, United States of America",
            "locType": "administrative"
        },
        "mariposa": {
            "longitude": "-119.9036591",
            "blogLinks": [
                "https://www.tripadvisor.com/ShowTopic-g28926-i29-k5349841-Bakersfield_to_San_Fransico_drive-California.html"
            ],
            "closest_to": "san francisco",
            "latitude": "37.570148",
            "address": "Mariposa County, California, United States of America",
            "locType": "administrative"
        },
        "kern county": {
            "longitude": "-118.7538221",
            "blogLinks": [
                "http://wikitravel.org/en/Bakersfield"
            ],
            "closest_to": "bakersfield",
            "latitude": "35.3145701",
            "address": "Kern County, California, United States of America",
            "locType": "administrative"
        },
        "alaska": {
            "longitude": "-117.7917164",
            "blogLinks": [
                "http://wikitravel.org/en/California"
            ],
            "closest_to": "bakersfield",
            "latitude": "33.7147833",
            "address": "Alaska, Walnut, Irvine, Orange County, California, 92606, United States of America",
            "locType": "residential"
        },
        "tea garden": {
            "longitude": "-117.7616589",
            "blogLinks": [
                "http://www.citypass.com/san-francisco/things-to-do-san-francisco"
            ],
            "closest_to": "bakersfield",
            "latitude": "33.7006659",
            "address": "Tea Garden, Northwood, Irvine, Orange County, California, 92620, United States of America",
            "locType": "residential"
        },
        "pismo beach": {
            "longitude": "-120.6412826",
            "blogLinks": [
                "https://www.tripadvisor.com/ShowTopic-g28926-i29-k5349841-Bakersfield_to_San_Fransico_drive-California.html",
                "http://traveltips.usatoday.com/fun-things-los-angeles-san-francisco-14664.html",
                "http://www.hopper.com/articles/291/five-great-stops-between-los-angeles-and-san-francisco-on-the-pacific-coast-highway"
            ],
            "closest_to": "san francisco",
            "latitude": "35.1427533",
            "address": "Pismo Beach, San Luis Obispo County, California, United States of America",
            "locType": "city"
        },
        "lodi": {
            "longitude": "-121.387849546574",
            "blogLinks": [
                "http://www.visitcentralvalley.com/places/"
            ],
            "closest_to": "san francisco",
            "latitude": "38.097198",
            "address": "Lodi, San Joaquin County, California, United States of America",
            "locType": "city"
        },
        "sacramento county": {
            "longitude": "-121.2980706",
            "blogLinks": [
                "http://wikitravel.org/en/California"
            ],
            "closest_to": "san francisco",
            "latitude": "38.4732259",
            "address": "Sacramento County, California, United States of America",
            "locType": "administrative"
        },
        "kern valley airport": {
            "longitude": "-118.4191999",
            "blogLinks": [
                "http://wikitravel.org/en/Bakersfield"
            ],
            "closest_to": "bakersfield",
            "latitude": "35.7284",
            "address": "Kern Valley Airport, Sierra Way, Wofford Heights, Kern County, California, 93238, United States of America",
            "locType": "aerodrome"
        },
        "prairie creek": {
            "longitude": "-120.5846481",
            "blogLinks": [
                "http://gocalifornia.about.com/od/caplaceslist/ss/Redwood-Forests-in-California.htm"
            ],
            "closest_to": "san francisco",
            "latitude": "39.4487665",
            "address": "Prairie Creek, Nevada County, California, United States of America",
            "locType": "stream"
        },
        "carmel": {
            "longitude": "-121.353308848273",
            "blogLinks": [
                "http://travelblog.viator.com/road-trip-san-francisco-los-angeles/",
                "http://www.hopper.com/articles/291/five-great-stops-between-los-angeles-and-san-francisco-on-the-pacific-coast-highway"
            ],
            "closest_to": "san francisco",
            "latitude": "38.75511285",
            "address": "Carmel, Roseville, Placer County, California, 95747, United States of America",
            "locType": "residential"
        },
        "lost hills airport": {
            "longitude": "-119.687735737775",
            "blogLinks": [
                "http://wikitravel.org/en/Bakersfield"
            ],
            "closest_to": "san francisco",
            "latitude": "35.62471525",
            "address": "Lost Hills Airport, Lost Hills Road, Lost Hills, Kern County, California, United States of America",
            "locType": "aerodrome"
        },
        "morrison planetarium": {
            "longitude": "-122.4656039",
            "blogLinks": [
                "http://www.citypass.com/san-francisco/things-to-do-san-francisco"
            ],
            "closest_to": "san francisco",
            "latitude": "37.7699859",
            "address": "Morrison Planetarium, 55, Music Concourse Drive, Inner Sunset, SF, California, 94122, United States of America",
            "locType": "museum"
        },
        "bay area of california": {
            "longitude": "-122.3558472",
            "blogLinks": [
                "https://www.tripadvisor.com/ShowUserReviews-g32037-d627479-r51783537-SpringHill_Suites_Bakersfield-Bakersfield_California.html"
            ],
            "closest_to": "san francisco",
            "latitude": "37.7884969",
            "address": "San Francisco Bay Area, SF, California, United States of America",
            "locType": "region"
        },
        "san luis obispo museum of art": {
            "longitude": "-120.6649345",
            "blogLinks": [
                "http://travelblog.viator.com/road-trip-san-francisco-los-angeles/"
            ],
            "closest_to": "san francisco",
            "latitude": "35.2795773",
            "address": "San Luis Obispo Museum of Art, 1010, Broad Street, San Luis Obispo, San Luis Obispo County, California, 93401, United States of America",
            "locType": "museum"
        },
        "shafter": {
            "longitude": "-119.285365133155",
            "blogLinks": [
                "http://wikitravel.org/en/Bakersfield"
            ],
            "closest_to": "san francisco",
            "latitude": "35.4698255",
            "address": "Shafter, Kern County, California, United States of America",
            "locType": "city"
        },
        "santa barbara mission": {
            "longitude": "-119.6779962",
            "blogLinks": [
                "http://traveltips.usatoday.com/fun-things-los-angeles-san-francisco-14664.html"
            ],
            "closest_to": "bakersfield",
            "latitude": "34.4662154",
            "address": "KDB-FM (Santa Barbara), Gibraltar Road, Santa Barbara County, California, 93103, United States of America",
            "locType": "tower"
        },
        "harris ranch": {
            "longitude": "-120.237368306069",
            "blogLinks": [
                "https://www.yelp.com/topic/san-francisco-place-to-eat-off-i-5-between-la-and-sf"
            ],
            "closest_to": "san francisco",
            "latitude": "36.2535766",
            "address": "Harris Ranch, West Dorris Avenue, Fresno County, California, 93210, United States of America",
            "locType": "hotel"
        },
        "sierra nevada": {
            "longitude": "-121.1396689",
            "blogLinks": [
                "http://wikitravel.org/en/California",
                "https://www.tripadvisor.com/ShowTopic-g28926-i29-k5349841-Bakersfield_to_San_Fransico_drive-California.html"
            ],
            "closest_to": "san francisco",
            "latitude": "39.097593",
            "address": "Sierra, Wolf, Nevada County, California, 95949, United States of America",
            "locType": "residential"
        },
        "mission district of san francisco": {
            "longitude": "-122.4191375",
            "blogLinks": [
                "http://wikitravel.org/en/California"
            ],
            "closest_to": "san francisco",
            "latitude": "37.75993",
            "address": "Mission District, SF, California, 94110, United States of America",
            "locType": "neighbourhood"
        },
        "jamestown": {
            "longitude": "-120.404431068133",
            "blogLinks": [
                "https://www.tripadvisor.com/ShowTopic-g28926-i29-k5349841-Bakersfield_to_San_Fransico_drive-California.html"
            ],
            "closest_to": "san francisco",
            "latitude": "37.9588565",
            "address": "Jamestown, Golden Oaks Drive, Volponi Acres, Tuolumne County, California, 95327, United States of America",
            "locType": "administrative"
        },
        "highway 395": {
            "longitude": "-117.0860115",
            "blogLinks": [
                "http://gocalifornia.about.com/od/caplaceslist/ss/Redwood-Forests-in-California.htm"
            ],
            "closest_to": "bakersfield",
            "latitude": "33.1182711",
            "address": "South Centre City Parkway, Escondido, San Diego County, California, 92025, United States of America",
            "locType": "primary"
        },
        "manteca": {
            "longitude": "-121.2117147",
            "blogLinks": [
                "http://www.visitcentralvalley.com/places/"
            ],
            "closest_to": "san francisco",
            "latitude": "37.7986184",
            "address": "Manteca, San Joaquin County, California, United States of America",
            "locType": "city"
        },
        "portland": {
            "longitude": "-117.3105194",
            "blogLinks": [
                "https://answers.yahoo.com/question/index?qid=20090127155637AApyfgG"
            ],
            "closest_to": "bakersfield",
            "latitude": "33.8979116",
            "address": "Portland, Riverside, Riverside County, California, 92508, United States of America",
            "locType": "residential"
        },
        "bay area": {
            "longitude": "-122.3558472",
            "blogLinks": [
                "http://wikitravel.org/en/California",
                "http://wikitravel.org/en/Bakersfield"
            ],
            "closest_to": "san francisco",
            "latitude": "37.7884969",
            "address": "San Francisco Bay Area, SF, California, United States of America",
            "locType": "region"
        },
        "redwood forest.big basin": {
            "longitude": "-122.2232594",
            "blogLinks": [
                "http://gocalifornia.about.com/od/caplaceslist/ss/Redwood-Forests-in-California.htm"
            ],
            "closest_to": "san francisco",
            "latitude": "37.1700236",
            "address": "Redwood Trail, Big Basin, Santa Cruz County, California, United States of America",
            "locType": "path"
        },
        "southern california": {
            "longitude": "-118.286343973446",
            "blogLinks": [
                "http://wikitravel.org/en/California",
                "http://www.hopper.com/articles/291/five-great-stops-between-los-angeles-and-san-francisco-on-the-pacific-coast-highway"
            ],
            "closest_to": "bakersfield",
            "latitude": "34.0224149",
            "address": "University of Southern California, Watt Way, Saint James Park, LA, Los Angeles County, California, 90089, United States of America",
            "locType": "university"
        },
        "yuba-sutter": {
            "longitude": "-121.6169107",
            "blogLinks": [
                "http://www.visitcentralvalley.com/places/"
            ],
            "closest_to": "san francisco",
            "latitude": "39.1404477",
            "address": "Yuba City, Sutter County, California, United States of America",
            "locType": "city"
        },
        "bass lake": {
            "longitude": "-119.5662538",
            "blogLinks": [
                "http://www.visitcentralvalley.com/places/"
            ],
            "closest_to": "san francisco",
            "latitude": "37.3246665",
            "address": "Bass Lake, Madera County, California, United States of America",
            "locType": "hamlet"
        },
        "monrovia": {
            "longitude": "-118.0014516",
            "blogLinks": [
                "http://www.california-blog.com/"
            ],
            "closest_to": "bakersfield",
            "latitude": "34.1483499",
            "address": "Monrovia, Los Angeles County, California, United States of America",
            "locType": "city"
        },
        "san francisco": {
            "longitude": "-122.4192362",
            "blogLinks": [
                "https://www.tripadvisor.com/ShowTopic-g28926-i29-k5349841-Bakersfield_to_San_Fransico_drive-California.html",
                "http://wikitravel.org/en/Bakersfield",
                "http://www.visitcentralvalley.com/places/",
                "https://www.yelp.com/topic/san-francisco-place-to-eat-off-i-5-between-la-and-sf",
                "http://travelblog.viator.com/road-trip-san-francisco-los-angeles/",
                "http://wikitravel.org/en/California",
                "https://answers.yahoo.com/question/index?qid=20090127155637AApyfgG",
                "https://answers.yahoo.com/question/index?qid=20100720110201AARismL",
                "http://www.citypass.com/san-francisco/things-to-do-san-francisco",
                "http://www.fathomaway.com/guides/usa/san-francisco/",
                "https://www.tripadvisor.com/ShowUserReviews-g32037-d627479-r51783537-SpringHill_Suites_Bakersfield-Bakersfield_California.html",
                "http://traveltips.usatoday.com/fun-things-los-angeles-san-francisco-14664.html",
                "http://www.hopper.com/articles/291/five-great-stops-between-los-angeles-and-san-francisco-on-the-pacific-coast-highway",
                "http://gocalifornia.about.com/od/caplaceslist/ss/Redwood-Forests-in-California.htm"
            ],
            "closest_to": "san francisco",
            "latitude": "37.7792808",
            "address": "SF, California, United States of America",
            "locType": "city"
        },
        "grant grove": {
            "longitude": "-117.9939711",
            "blogLinks": [
                "http://gocalifornia.about.com/od/caplaceslist/ss/Redwood-Forests-in-California.htm"
            ],
            "closest_to": "bakersfield",
            "latitude": "36.2554945",
            "address": "Grant, Inyo County, California, United States of America",
            "locType": "hamlet"
        },
        "mission soledad": {
            "longitude": "-121.3560421",
            "blogLinks": [
                "https://www.tripadvisor.com/ShowTopic-g28926-i29-k5349841-Bakersfield_to_San_Fransico_drive-California.html"
            ],
            "closest_to": "san francisco",
            "latitude": "36.4046865",
            "address": "Mission Soledad, 36641, Fort Romie Road, Los Coche Adobe, Fort Romie, Monterey County, California, 93960, United States of America",
            "locType": "place_of_worship"
        },
        "sonora": {
            "longitude": "-120.382138",
            "blogLinks": [
                "http://wikitravel.org/en/California",
                "https://www.tripadvisor.com/ShowTopic-g28926-i29-k5349841-Bakersfield_to_San_Fransico_drive-California.html"
            ],
            "closest_to": "san francisco",
            "latitude": "37.9840911",
            "address": "Sonora, Tuolumne County, California, United States of America",
            "locType": "city"
        },
        "san francisco bay": {
            "longitude": "-122.2802469",
            "blogLinks": [
                "http://www.visitcentralvalley.com/places/",
                "http://www.citypass.com/san-francisco/things-to-do-san-francisco"
            ],
            "closest_to": "san francisco",
            "latitude": "37.708264",
            "address": "San Francisco Bay, Ferry Landing, Alameda, Alameda County, California, 94502, United States of America",
            "locType": "bay"
        },
        "moreno valley ca": {
            "longitude": "-117.2305943",
            "blogLinks": [
                "http://www.california-blog.com/"
            ],
            "closest_to": "bakersfield",
            "latitude": "33.937517",
            "address": "Moreno Valley, Riverside County, California, United States of America",
            "locType": "city"
        },
        "humboldt county": {
            "longitude": "-123.8997733",
            "blogLinks": [
                "http://gocalifornia.about.com/od/caplaceslist/ss/Redwood-Forests-in-California.htm"
            ],
            "closest_to": "san francisco",
            "latitude": "40.5997415",
            "address": "Humboldt County, California, United States of America",
            "locType": "administrative"
        },
        "asia": {
            "longitude": "-122.2533348",
            "blogLinks": [
                "http://wikitravel.org/en/California"
            ],
            "closest_to": "san francisco",
            "latitude": "37.7949149",
            "address": "Asia, 6th Avenue, San Antonio, Oakland, Alameda County, California, 94606, United States of America",
            "locType": "restaurant"
        },
        "springhill suites bakersfield": {
            "longitude": "-119.049795236274",
            "blogLinks": [
                "https://www.tripadvisor.com/ShowUserReviews-g32037-d627479-r51783537-SpringHill_Suites_Bakersfield-Bakersfield_California.html"
            ],
            "closest_to": "san francisco",
            "latitude": "35.3798357",
            "address": "SpringHill Suites Bakersfield, Marriott Drive, Bakersfield, Kern County, California, 93301, United States of America",
            "locType": "hotel"
        },
        "springhill suites": {
            "longitude": "-118.163917450489",
            "blogLinks": [
                "https://www.tripadvisor.com/ShowUserReviews-g32037-d627479-r51783537-SpringHill_Suites_Bakersfield-Bakersfield_California.html"
            ],
            "closest_to": "bakersfield",
            "latitude": "34.67902705",
            "address": "SpringHill Suites Lancaster Palmdale, 1811, West Avenue J-12, Lancaster, Los Angeles County, California, 93534, United States of America",
            "locType": "hotel"
        },
        "garberville": {
            "longitude": "-123.7961393",
            "blogLinks": [
                "http://gocalifornia.about.com/od/caplaceslist/ss/Redwood-Forests-in-California.htm"
            ],
            "closest_to": "san francisco",
            "latitude": "40.1005685",
            "address": "Garberville, Humboldt County, California, United States of America",
            "locType": "village"
        },
        "jolon": {
            "longitude": "-121.1760321",
            "blogLinks": [
                "https://www.tripadvisor.com/ShowTopic-g28926-i29-k5349841-Bakersfield_to_San_Fransico_drive-California.html"
            ],
            "closest_to": "san francisco",
            "latitude": "35.9708004",
            "address": "Jolon, Monterey County, California, United States of America",
            "locType": "hamlet"
        },
        "south bakersfield": {
            "longitude": "-119.0194638",
            "blogLinks": [
                "http://wikitravel.org/en/Bakersfield"
            ],
            "closest_to": "san francisco",
            "latitude": "35.3738712",
            "address": "Bakersfield, Kern County, California, United States of America",
            "locType": "city"
        },
        "commerce casino": {
            "longitude": "-118.1449293",
            "blogLinks": [
                "http://wikitravel.org/en/California"
            ],
            "closest_to": "bakersfield",
            "latitude": "33.9982954",
            "address": "The Commerce Casino, 6131, Telegraph Road, Commerce, Los Angeles County, California, 90040, United States of America",
            "locType": "casino"
        },
        "sacramento": {
            "longitude": "-121.4943995",
            "blogLinks": [
                "http://www.visitcentralvalley.com/places/",
                "http://wikitravel.org/en/California",
                "http://wikitravel.org/en/Bakersfield"
            ],
            "closest_to": "san francisco",
            "latitude": "38.5815719",
            "address": "Sacramento, Sacramento County, California, United States of America",
            "locType": "city"
        },
        "mcway falls trail": {
            "longitude": "-121.6723957",
            "blogLinks": [
                "http://travelblog.viator.com/road-trip-san-francisco-los-angeles/"
            ],
            "closest_to": "san francisco",
            "latitude": "36.1578211",
            "address": "McWay Falls, Monterey County, California, United States of America",
            "locType": "waterfall"
        },
        "vacaville": {
            "longitude": "-121.9877443",
            "blogLinks": [
                "http://www.visitcentralvalley.com/places/"
            ],
            "closest_to": "san francisco",
            "latitude": "38.3565773",
            "address": "Vacaville, Solano County, California, United States of America",
            "locType": "city"
        },
        "sacramento river": {
            "longitude": "-121.9960598",
            "blogLinks": [
                "http://www.visitcentralvalley.com/places/"
            ],
            "closest_to": "san francisco",
            "latitude": "39.5840295",
            "address": "Sacramento River, Glenn County, California, United States of America",
            "locType": "river"
        },
        "yosemite national park": {
            "longitude": "-119.516587698025",
            "blogLinks": [
                "http://www.visitcentralvalley.com/places/",
                "http://gocalifornia.about.com/od/caplaceslist/ss/Redwood-Forests-in-California.htm"
            ],
            "closest_to": "san francisco",
            "latitude": "37.84054795",
            "address": "Yosemite National Park, Mt. Hoffmann Trail, Mariposa County, California, United States of America",
            "locType": "national_park"
        },
        "san joaquin valley": {
            "longitude": "-121.2773718",
            "blogLinks": [
                "https://www.tripadvisor.com/ShowTopic-g28926-i29-k5349841-Bakersfield_to_San_Fransico_drive-California.html",
                "https://www.tripadvisor.com/ShowUserReviews-g32037-d627479-r51783537-SpringHill_Suites_Bakersfield-Bakersfield_California.html"
            ],
            "closest_to": "san francisco",
            "latitude": "37.9372901",
            "address": "San Joaquin County, California, United States of America",
            "locType": "administrative"
        },
        "houston": {
            "longitude": "-118.4777157",
            "blogLinks": [
                "http://wikitravel.org/en/Bakersfield"
            ],
            "closest_to": "bakersfield",
            "latitude": "34.4422871",
            "address": "Houston, Plum Canyon, Canyon Country, Los Angeles County, California, 91351, United States of America",
            "locType": "residential"
        },
        "north calaveras": {
            "longitude": "-120.4981491",
            "blogLinks": [
                "http://gocalifornia.about.com/od/caplaceslist/ss/Redwood-Forests-in-California.htm"
            ],
            "closest_to": "san francisco",
            "latitude": "38.2558181",
            "address": "Calaveras County, California, United States of America",
            "locType": "administrative"
        },
        "mendocino": {
            "longitude": "-123.4126398",
            "blogLinks": [
                "http://wikitravel.org/en/California"
            ],
            "closest_to": "san francisco",
            "latitude": "39.3176491",
            "address": "Mendocino County, California, United States of America",
            "locType": "administrative"
        },
        "pinecrest": {
            "longitude": "-120.9682776",
            "blogLinks": [
                "https://www.tripadvisor.com/ShowTopic-g28926-i29-k5349841-Bakersfield_to_San_Fransico_drive-California.html"
            ],
            "closest_to": "san francisco",
            "latitude": "39.1626734",
            "address": "Pinecrest, Nevada County, California, United States of America",
            "locType": "hamlet"
        },
        "riverside national cemetery": {
            "longitude": "-117.270726607134",
            "blogLinks": [
                "http://www.california-blog.com/"
            ],
            "closest_to": "bakersfield",
            "latitude": "33.87692125",
            "address": "Riverside National Cemetery, 22495, Alessandro, Riverside County, California, 92518, United States of America",
            "locType": "cemetery"
        },
        "angels camp": {
            "longitude": "-120.5396455",
            "blogLinks": [
                "https://www.tripadvisor.com/ShowTopic-g28926-i29-k5349841-Bakersfield_to_San_Fransico_drive-California.html"
            ],
            "closest_to": "san francisco",
            "latitude": "38.0682555",
            "address": "Angels Camp, Calaveras County, California, United States of America",
            "locType": "village"
        },
        "alcatraz island": {
            "longitude": "-122.422746492409",
            "blogLinks": [
                "http://www.citypass.com/san-francisco/things-to-do-san-francisco"
            ],
            "closest_to": "san francisco",
            "latitude": "37.8267283",
            "address": "Alcatraz Island, SF, California, United States of America",
            "locType": "island"
        },
        "sequoia national park": {
            "longitude": "-118.559919284386",
            "blogLinks": [
                "http://www.visitcentralvalley.com/places/",
                "http://gocalifornia.about.com/od/caplaceslist/ss/Redwood-Forests-in-California.htm"
            ],
            "closest_to": "san francisco",
            "latitude": "36.49584065",
            "address": "Sequoia National Park, Black Rock Pass Trail, Mineral King, Tulare County, California, United States of America",
            "locType": "national_park"
        },
        "sweden": {
            "longitude": "-118.4974999",
            "blogLinks": [
                "http://wikitravel.org/en/California"
            ],
            "closest_to": "bakersfield",
            "latitude": "34.1997222",
            "address": "Saint Bridget of Sweden Church, Whitaker Avenue, Reseda, LA, Los Angeles County, California, 91406, United States of America",
            "locType": "place_of_worship"
        },
        "knudsen drive": {
            "longitude": "-119.0624635",
            "blogLinks": [
                "http://wikitravel.org/en/Bakersfield"
            ],
            "closest_to": "san francisco",
            "latitude": "35.4235958",
            "address": "Knudsen Drive, Kern County, California, 93308, United States of America",
            "locType": "tertiary"
        },
        "calaveras state park": {
            "longitude": "-120.278540141632",
            "blogLinks": [
                "http://gocalifornia.about.com/od/caplaceslist/ss/Redwood-Forests-in-California.htm"
            ],
            "closest_to": "san francisco",
            "latitude": "38.2638071",
            "address": "Calaveras Big Trees State Park, Big Trees Parkway, Snowshoe Springs, Calaveras County, California, 95223, United States of America",
            "locType": "protected_area"
        },
        "san jose": {
            "longitude": "-121.8905832",
            "blogLinks": [
                "http://wikitravel.org/en/California",
                "http://gocalifornia.about.com/od/caplaceslist/ss/Redwood-Forests-in-California.htm"
            ],
            "closest_to": "san francisco",
            "latitude": "37.3361905",
            "address": "San Jos\u00e9, Santa Clara County, California, United States of America",
            "locType": "city"
        },
        "columbia": {
            "longitude": "-120.402418618899",
            "blogLinks": [
                "https://www.tripadvisor.com/ShowTopic-g28926-i29-k5349841-Bakersfield_to_San_Fransico_drive-California.html"
            ],
            "closest_to": "san francisco",
            "latitude": "38.03227005",
            "address": "Columbia, Maiden Lane, Columbia, Tuolumne County, California, 95310, United States of America",
            "locType": "administrative"
        },
        "monterey": {
            "longitude": "-121.866792846206",
            "blogLinks": [
                "http://wikitravel.org/en/California",
                "http://www.citypass.com/san-francisco/things-to-do-san-francisco",
                "https://www.tripadvisor.com/ShowTopic-g28926-i29-k5349841-Bakersfield_to_San_Fransico_drive-California.html",
                "http://traveltips.usatoday.com/fun-things-los-angeles-san-francisco-14664.html"
            ],
            "closest_to": "san francisco",
            "latitude": "36.5844165",
            "address": "Monterey, Monterey County, California, United States of America",
            "locType": "city"
        },
        "tehachapi municipal airport": {
            "longitude": "-118.436837945807",
            "blogLinks": [
                "http://wikitravel.org/en/Bakersfield"
            ],
            "closest_to": "bakersfield",
            "latitude": "35.1350737",
            "address": "Tehachapi Municipal Airport, East H Street, Tehachapi, Kern County, California, 93561, United States of America",
            "locType": "aerodrome"
        },
        "monterey bay aquarium ca": {
            "longitude": "-121.901680002002",
            "blogLinks": [
                "http://www.california-blog.com/"
            ],
            "closest_to": "san francisco",
            "latitude": "36.61809095",
            "address": "MBA, 886, Cannery Row, Monterey, Monterey County, California, 93940, United States of America",
            "locType": "aquarium"
        },
        "king city": {
            "longitude": "-121.1260286",
            "blogLinks": [
                "https://www.tripadvisor.com/ShowTopic-g28926-i29-k5349841-Bakersfield_to_San_Fransico_drive-California.html",
                "http://traveltips.usatoday.com/fun-things-los-angeles-san-francisco-14664.html"
            ],
            "closest_to": "san francisco",
            "latitude": "36.2127439",
            "address": "King City, Monterey County, California, United States of America",
            "locType": "city"
        },
        "mission bay ca": {
            "longitude": "-122.3911711",
            "blogLinks": [
                "http://www.california-blog.com/"
            ],
            "closest_to": "san francisco",
            "latitude": "37.7707742",
            "address": "Mission Bay, SF, California, 94158, United States of America",
            "locType": "neighbourhood"
        },
        "angel island": {
            "longitude": "-122.430885671184",
            "blogLinks": [
                "http://www.citypass.com/san-francisco/things-to-do-san-francisco"
            ],
            "closest_to": "san francisco",
            "latitude": "37.862338",
            "address": "Angel Island, Tiburon, Marin County, California, United States of America",
            "locType": "island"
        },
        "long beach": {
            "longitude": "-118.158049215311",
            "blogLinks": [
                "http://wikitravel.org/en/California"
            ],
            "closest_to": "bakersfield",
            "latitude": "33.78538945",
            "address": "Long Beach, Los Angeles County, California, United States of America",
            "locType": "city"
        },
        "los angeles": {
            "longitude": "-118.2439408",
            "blogLinks": [
                "https://www.tripadvisor.com/ShowTopic-g28926-i29-k5349841-Bakersfield_to_San_Fransico_drive-California.html",
                "http://wikitravel.org/en/Bakersfield",
                "http://travelblog.viator.com/road-trip-san-francisco-los-angeles/",
                "http://wikitravel.org/en/California",
                "https://answers.yahoo.com/question/index?qid=20100720110201AARismL",
                "https://www.tripadvisor.com/ShowUserReviews-g32037-d627479-r51783537-SpringHill_Suites_Bakersfield-Bakersfield_California.html",
                "http://traveltips.usatoday.com/fun-things-los-angeles-san-francisco-14664.html",
                "http://www.hopper.com/articles/291/five-great-stops-between-los-angeles-and-san-francisco-on-the-pacific-coast-highway"
            ],
            "closest_to": "bakersfield",
            "latitude": "34.0543942",
            "address": "LA, Los Angeles County, California, United States of America",
            "locType": "city"
        },
        "meadows field": {
            "longitude": "-119.059223560743",
            "blogLinks": [
                "http://wikitravel.org/en/Bakersfield"
            ],
            "closest_to": "san francisco",
            "latitude": "35.4372678",
            "address": "Meadows Field Airport, 7th Standard Road, Kern County, California, 93308, United States of America",
            "locType": "aerodrome"
        },
        "monterey bay": {
            "longitude": "-121.9010667",
            "blogLinks": [
                "http://travelblog.viator.com/road-trip-san-francisco-los-angeles/",
                "http://www.hopper.com/articles/291/five-great-stops-between-los-angeles-and-san-francisco-on-the-pacific-coast-highway"
            ],
            "closest_to": "san francisco",
            "latitude": "36.7999557",
            "address": "Monterey Bay, Monterey County, California, United States of America",
            "locType": "bay"
        },
        "pebble beach ca": {
            "longitude": "-121.9466112",
            "blogLinks": [
                "http://www.california-blog.com/"
            ],
            "closest_to": "san francisco",
            "latitude": "36.5664874",
            "address": "Pebble Beach, Monterey County, California, United States of America",
            "locType": "hamlet"
        },
        "turlock lake": {
            "longitude": "-120.5940883",
            "blogLinks": [
                "http://www.visitcentralvalley.com/places/"
            ],
            "closest_to": "san francisco",
            "latitude": "37.6118774",
            "address": "Turlock Lake, Davis Road, Stanislaus County, California, 95323, United States of America",
            "locType": "reservoir"
        },
        "las vegas": {
            "longitude": "-115.144667930325",
            "blogLinks": [
                "https://www.tripadvisor.com/ShowUserReviews-g32037-d627479-r51783537-SpringHill_Suites_Bakersfield-Bakersfield_California.html"
            ],
            "closest_to": "bakersfield",
            "latitude": "36.17310935",
            "address": "California Hotel, Sky Walk(Connection from Main Street to California, Cultural Corridor, Vegas Heights, Las Vegas, Clark County, Nevada, 89101, United States of America",
            "locType": "hotel"
        },
        "monterey bay aquarium": {
            "longitude": "-121.901680002002",
            "blogLinks": [
                "http://travelblog.viator.com/road-trip-san-francisco-los-angeles/",
                "http://www.citypass.com/san-francisco/things-to-do-san-francisco",
                "http://traveltips.usatoday.com/fun-things-los-angeles-san-francisco-14664.html",
                "http://www.hopper.com/articles/291/five-great-stops-between-los-angeles-and-san-francisco-on-the-pacific-coast-highway"
            ],
            "closest_to": "san francisco",
            "latitude": "36.61809095",
            "address": "MBA, 886, Cannery Row, Monterey, Monterey County, California, 93940, United States of America",
            "locType": "aquarium"
        },
        "oakdale": {
            "longitude": "-120.8471544",
            "blogLinks": [
                "http://www.visitcentralvalley.com/places/"
            ],
            "closest_to": "san francisco",
            "latitude": "37.7665947",
            "address": "Oakdale, Stanislaus County, California, United States of America",
            "locType": "city"
        },
        "anza-borrego desert": {
            "longitude": "-116.330414288395",
            "blogLinks": [
                "https://www.tripadvisor.com/ShowUserReviews-g32037-d627479-r51783537-SpringHill_Suites_Bakersfield-Bakersfield_California.html"
            ],
            "closest_to": "bakersfield",
            "latitude": "33.2528053",
            "address": "Anza-Borrego Desert State Park, Palm Canyon Drive, Borrego, San Diego County, California, 92004, United States of America",
            "locType": "protected_area"
        },
        "soledad": {
            "longitude": "-121.3272146",
            "blogLinks": [
                "http://traveltips.usatoday.com/fun-things-los-angeles-san-francisco-14664.html"
            ],
            "closest_to": "san francisco",
            "latitude": "36.4269452",
            "address": "Soledad, Monterey County, California, United States of America",
            "locType": "city"
        },
        "ocean beach": {
            "longitude": "-117.249321",
            "blogLinks": [
                "http://travelblog.viator.com/road-trip-san-francisco-los-angeles/",
                "http://www.citypass.com/san-francisco/things-to-do-san-francisco"
            ],
            "closest_to": "bakersfield",
            "latitude": "32.7477784",
            "address": "Ocean Beach, San Diego, San Diego County, California, United States of America",
            "locType": "region"
        },
        "gilroy": {
            "longitude": "-121.5631722",
            "blogLinks": [
                "http://traveltips.usatoday.com/fun-things-los-angeles-san-francisco-14664.html"
            ],
            "closest_to": "san francisco",
            "latitude": "37.0065078",
            "address": "Gilroy, Santa Clara County, California, United States of America",
            "locType": "city"
        },
        "palos verdes peninsula ca": {
            "longitude": "-118.372196730215",
            "blogLinks": [
                "http://www.california-blog.com/"
            ],
            "closest_to": "bakersfield",
            "latitude": "33.77984925",
            "address": "Palos Verdes Peninsula High School, Hawthorne Boulevard, Rolling Hills Estates, Los Angeles County, California, 90274, United States of America",
            "locType": "school"
        },
        "mariposa grove": {
            "longitude": "-119.6040411",
            "blogLinks": [
                "http://gocalifornia.about.com/od/caplaceslist/ss/Redwood-Forests-in-California.htm"
            ],
            "closest_to": "san francisco",
            "latitude": "37.515215",
            "address": "Mariposa Grove, Mariposa Grove Road, Mariposa County, California, United States of America",
            "locType": "wood"
        },
        "mendocino county": {
            "longitude": "-123.4126398",
            "blogLinks": [
                "http://wikitravel.org/en/California"
            ],
            "closest_to": "san francisco",
            "latitude": "39.3176491",
            "address": "Mendocino County, California, United States of America",
            "locType": "administrative"
        },
        "central valley california": {
            "longitude": "-122.4530663",
            "blogLinks": [
                "http://www.visitcentralvalley.com/places/"
            ],
            "closest_to": "san francisco",
            "latitude": "40.5626504",
            "address": "KNNN-FM (Central Valley), Rattlesnake Drive, Shasta County, California, 96001, United States of America",
            "locType": "tower"
        },
        "hollister": {
            "longitude": "-121.401602",
            "blogLinks": [
                "https://www.tripadvisor.com/ShowTopic-g28926-i29-k5349841-Bakersfield_to_San_Fransico_drive-California.html"
            ],
            "closest_to": "san francisco",
            "latitude": "36.8524545",
            "address": "Hollister, San Benito County, California, United States of America",
            "locType": "administrative"
        },
        "chico": {
            "longitude": "-121.8374776",
            "blogLinks": [
                "http://wikitravel.org/en/California"
            ],
            "closest_to": "san francisco",
            "latitude": "39.7284945",
            "address": "Chico, Butte County, California, United States of America",
            "locType": "city"
        },
        "san luis obispo county": {
            "longitude": "-120.3757162",
            "blogLinks": [
                "http://www.hopper.com/articles/291/five-great-stops-between-los-angeles-and-san-francisco-on-the-pacific-coast-highway"
            ],
            "closest_to": "san francisco",
            "latitude": "35.3540209",
            "address": "San Luis Obispo County, California, United States of America",
            "locType": "administrative"
        },
        "monterey aquarium": {
            "longitude": "-121.901680002002",
            "blogLinks": [
                "https://www.tripadvisor.com/ShowTopic-g28926-i29-k5349841-Bakersfield_to_San_Fransico_drive-California.html"
            ],
            "closest_to": "san francisco",
            "latitude": "36.61809095",
            "address": "MBA, 886, Cannery Row, Monterey, Monterey County, California, 93940, United States of America",
            "locType": "aquarium"
        },
        "coastal san diego": {
            "longitude": "-116.9445817",
            "blogLinks": [
                "http://wikitravel.org/en/California"
            ],
            "closest_to": "bakersfield",
            "latitude": "32.6689099",
            "address": "Coastal Hills Drive, Chula Vista, San Diego County, California, 91914, United States of America",
            "locType": "residential"
        },
        "madera county": {
            "longitude": "-119.773799",
            "blogLinks": [
                "http://www.visitcentralvalley.com/places/"
            ],
            "closest_to": "san francisco",
            "latitude": "37.1716264",
            "address": "Madera County, California, United States of America",
            "locType": "administrative"
        },
        "big sur bakery": {
            "longitude": "-121.7693642",
            "blogLinks": [
                "http://travelblog.viator.com/road-trip-san-francisco-los-angeles/"
            ],
            "closest_to": "san francisco",
            "latitude": "36.2359105",
            "address": "Big Sur Bakery, 47540, Cabrillo Highway, Posts, Monterey County, California, 93920, United States of America",
            "locType": "bakery"
        },
        "virgin america": {
            "longitude": "-122.339995",
            "blogLinks": [
                "http://wikitravel.org/en/California"
            ],
            "closest_to": "san francisco",
            "latitude": "37.5887164",
            "address": "Virgin America Parkway, Burlingame, San Mateo County, California, 94101, United States of America",
            "locType": "residential"
        },
        "stockton & san jose": {
            "longitude": "-121.9131994",
            "blogLinks": [
                "http://wikitravel.org/en/California"
            ],
            "closest_to": "san francisco",
            "latitude": "37.3404469",
            "address": "Stockton Avenue, College Park, Rose Garden, San Jos\u00e9, Santa Clara County, California, 95126, United States of America",
            "locType": "secondary"
        },
        "usa": {
            "longitude": "-118.7559973",
            "blogLinks": [
                "http://wikitravel.org/en/California"
            ],
            "closest_to": "san francisco",
            "latitude": "36.7014631",
            "address": "California, United States of America",
            "locType": "administrative"
        },
        "kern river": {
            "longitude": "-118.4124188",
            "blogLinks": [
                "http://wikitravel.org/en/Bakersfield",
                "http://www.chowhound.com/post/recommendations-good-place-eat-5-freeway-bakersfield-orange-370718",
                "http://www.visitcentralvalley.com/places/",
                "http://www.fathomaway.com/guides/usa/san-francisco/",
                "http://www.california-blog.com/",
                "https://www.tripadvisor.com/ShowUserReviews-g32037-d627479-r51783537-SpringHill_Suites_Bakersfield-Bakersfield_California.html"
            ],
            "closest_to": "san francisco",
            "latitude": "36.6816956",
            "address": "Kern River, Tulare County, California, United States of America",
            "locType": "river"
        },
        "fresno": {
            "longitude": "-119.714839601149",
            "blogLinks": [
                "http://wikitravel.org/en/California",
                "https://www.tripadvisor.com/ShowTopic-g28926-i29-k5349841-Bakersfield_to_San_Fransico_drive-California.html"
            ],
            "closest_to": "san francisco",
            "latitude": "36.748793",
            "address": "Fresno, Fresno County, California, United States of America",
            "locType": "city"
        },
        "golden gate bridge": {
            "longitude": "-122.4798473",
            "blogLinks": [
                "http://wikitravel.org/en/California",
                "http://www.citypass.com/san-francisco/things-to-do-san-francisco"
            ],
            "closest_to": "san francisco",
            "latitude": "37.8302809",
            "address": "Golden Gate Bridge, Waldo, Marin County, California, 94965, United States of America",
            "locType": "motorway"
        },
        "san simeon": {
            "longitude": "-121.1907532",
            "blogLinks": [
                "https://www.tripadvisor.com/ShowTopic-g28926-i29-k5349841-Bakersfield_to_San_Fransico_drive-California.html",
                "http://traveltips.usatoday.com/fun-things-los-angeles-san-francisco-14664.html",
                "http://www.hopper.com/articles/291/five-great-stops-between-los-angeles-and-san-francisco-on-the-pacific-coast-highway"
            ],
            "closest_to": "san francisco",
            "latitude": "35.6438587",
            "address": "San Simeon, San Luis Obispo County, California, United States of America",
            "locType": "hamlet"
        },
        "fairfield": {
            "longitude": "-122.0399662",
            "blogLinks": [
                "http://www.visitcentralvalley.com/places/"
            ],
            "closest_to": "san francisco",
            "latitude": "38.2493581",
            "address": "Fairfield, Solano County, California, United States of America",
            "locType": "city"
        },
        "lake tahoe": {
            "longitude": "-120.050511752934",
            "blogLinks": [
                "http://wikitravel.org/en/California"
            ],
            "closest_to": "san francisco",
            "latitude": "39.0888982",
            "address": "Lake Tahoe, Placer County, California, United States of America",
            "locType": "water"
        },
        "death valley": {
            "longitude": "-116.914043572057",
            "blogLinks": [
                "http://wikitravel.org/en/California"
            ],
            "closest_to": "bakersfield",
            "latitude": "36.42404725",
            "address": "Death Valley, Timbisha, Inyo County, California, 92328, United States of America",
            "locType": "desert"
        },
        "los alamos": {
            "longitude": "-120.26591036241",
            "blogLinks": [
                "http://travelblog.viator.com/road-trip-san-francisco-los-angeles/"
            ],
            "closest_to": "san francisco",
            "latitude": "34.7379311",
            "address": "Los Alamos, Bell Street, Los Alamos, Santa Barbara County, California, 93455, United States of America",
            "locType": "administrative"
        },
        "wawona-mariposa grove": {
            "longitude": "-119.6549159",
            "blogLinks": [
                "http://gocalifornia.about.com/od/caplaceslist/ss/Redwood-Forests-in-California.htm"
            ],
            "closest_to": "san francisco",
            "latitude": "37.5368699",
            "address": "Wawona, Mariposa County, California, United States of America",
            "locType": "hamlet"
        },
        "alcatraz": {
            "longitude": "-122.422746492409",
            "blogLinks": [
                "http://www.citypass.com/san-francisco/things-to-do-san-francisco"
            ],
            "closest_to": "san francisco",
            "latitude": "37.8267283",
            "address": "Alcatraz Island, SF, California, United States of America",
            "locType": "island"
        },
        "mid-san joaquin valley": {
            "longitude": "-121.3804151",
            "blogLinks": [
                "http://wikitravel.org/en/California"
            ],
            "closest_to": "san francisco",
            "latitude": "37.8379938",
            "address": "Middle River, San Joaquin County, California, United States of America",
            "locType": "river"
        },
        "california welcome center": {
            "longitude": "-122.4101238",
            "blogLinks": [
                "http://www.visitcentralvalley.com/places/"
            ],
            "closest_to": "san francisco",
            "latitude": "37.8091709",
            "address": "California Welcome Center, Pier 39, Fisherman's Warf, SF, California, 94133, United States of America",
            "locType": "information"
        },
        "san francisco museum of modern art": {
            "longitude": "-122.400921724922",
            "blogLinks": [
                "http://www.citypass.com/san-francisco/things-to-do-san-francisco"
            ],
            "closest_to": "san francisco",
            "latitude": "37.78583605",
            "address": "SFMOMA, 151, 3rd Street, South of Market, SF, California, 94103, United States of America",
            "locType": "museum"
        },
        "northern california": {
            "longitude": "-117.1545973",
            "blogLinks": [
                "http://www.visitcentralvalley.com/places/"
            ],
            "closest_to": "bakersfield",
            "latitude": "32.7349196",
            "address": "Northern Frontier, San Diego, San Diego County, California, United States of America",
            "locType": "locality"
        },
        "san diego": {
            "longitude": "-117.1627713",
            "blogLinks": [
                "http://wikitravel.org/en/California",
                "http://traveltips.usatoday.com/fun-things-los-angeles-san-francisco-14664.html"
            ],
            "closest_to": "bakersfield",
            "latitude": "32.7174209",
            "address": "San Diego, San Diego County, California, United States of America",
            "locType": "city"
        },
        "orange county": {
            "longitude": "-117.870493",
            "blogLinks": [
                "http://wikitravel.org/en/California"
            ],
            "closest_to": "bakersfield",
            "latitude": "33.7500378",
            "address": "Orange County, California, United States of America",
            "locType": "administrative"
        },
        "west coast": {
            "longitude": "-118.4051087",
            "blogLinks": [
                "http://www.citypass.com/san-francisco/things-to-do-san-francisco",
                "http://wikitravel.org/en/Bakersfield"
            ],
            "closest_to": "bakersfield",
            "latitude": "34.0222263",
            "address": "West Coast, Motor Avenue, Palms, LA, Los Angeles County, California, 90034-5702, United States of America",
            "locType": "plumber"
        },
        "oxnard": {
            "longitude": "-119.1803817",
            "blogLinks": [
                "http://traveltips.usatoday.com/fun-things-los-angeles-san-francisco-14664.html"
            ],
            "closest_to": "bakersfield",
            "latitude": "34.1976308",
            "address": "Oxnard, Ventura County, California, United States of America",
            "locType": "city"
        },
        "pacific": {
            "longitude": "-120.507146",
            "blogLinks": [
                "http://travelblog.viator.com/road-trip-san-francisco-los-angeles/",
                "http://www.visitcentralvalley.com/places/"
            ],
            "closest_to": "san francisco",
            "latitude": "38.7601815",
            "address": "Pacific, El Dorado County, California, United States of America",
            "locType": "hamlet"
        },
        "san joaquin": {
            "longitude": "-121.2773718",
            "blogLinks": [
                "http://www.visitcentralvalley.com/places/",
                "http://wikitravel.org/en/California",
                "http://wikitravel.org/en/Bakersfield"
            ],
            "closest_to": "san francisco",
            "latitude": "37.9372901",
            "address": "San Joaquin County, California, United States of America",
            "locType": "administrative"
        },
        "denver": {
            "longitude": "-117.7762651",
            "blogLinks": [
                "http://wikitravel.org/en/Bakersfield"
            ],
            "closest_to": "bakersfield",
            "latitude": "33.6996403",
            "address": "Denver, Heritage Park Apartments, El Camino Real, Irvine, Orange County, California, 92604, United States of America",
            "locType": "residential"
        },
        "morro rock ca": {
            "longitude": "-120.8676993",
            "blogLinks": [
                "http://www.california-blog.com/"
            ],
            "closest_to": "san francisco",
            "latitude": "35.369669",
            "address": "Morro Rock, Morro Bay, San Luis Obispo County, California, United States of America",
            "locType": "peak"
        },
        "united states": {
            "longitude": "-118.7559973",
            "blogLinks": [
                "http://www.visitcentralvalley.com/places/",
                "https://www.tripadvisor.com/ShowUserReviews-g32037-d627479-r51783537-SpringHill_Suites_Bakersfield-Bakersfield_California.html"
            ],
            "closest_to": "san francisco",
            "latitude": "36.7014631",
            "address": "California, United States of America",
            "locType": "administrative"
        },
        "san joaquin county": {
            "longitude": "-121.2773718",
            "blogLinks": [
                "http://www.visitcentralvalley.com/places/"
            ],
            "closest_to": "san francisco",
            "latitude": "37.9372901",
            "address": "San Joaquin County, California, United States of America",
            "locType": "administrative"
        },
        "san luis obispo": {
            "longitude": "-120.6596155",
            "blogLinks": [
                "http://travelblog.viator.com/road-trip-san-francisco-los-angeles/",
                "http://traveltips.usatoday.com/fun-things-los-angeles-san-francisco-14664.html"
            ],
            "closest_to": "san francisco",
            "latitude": "35.2827525",
            "address": "San Luis Obispo, San Luis Obispo County, California, United States of America",
            "locType": "city"
        },
        "kettleman": {
            "longitude": "-121.2436738",
            "blogLinks": [
                "https://www.yelp.com/topic/san-francisco-place-to-eat-off-i-5-between-la-and-sf"
            ],
            "closest_to": "san francisco",
            "latitude": "38.1163906",
            "address": "Kettleman, San Joaquin County, California, United States of America",
            "locType": "hamlet"
        },
        "santa nella": {
            "longitude": "-122.9666643",
            "blogLinks": [
                "https://www.yelp.com/topic/san-francisco-place-to-eat-off-i-5-between-la-and-sf",
                "http://travelblog.viator.com/road-trip-san-francisco-los-angeles/"
            ],
            "closest_to": "san francisco",
            "latitude": "38.497135",
            "address": "Santa Nella, Sonoma County, California, United States of America",
            "locType": "hamlet"
        },
        "stanislaus county": {
            "longitude": "-121.0501424",
            "blogLinks": [
                "http://www.visitcentralvalley.com/places/"
            ],
            "closest_to": "san francisco",
            "latitude": "37.5500871",
            "address": "Stanislaus County, California, United States of America",
            "locType": "administrative"
        },
        "sausalito": {
            "longitude": "-122.4854693",
            "blogLinks": [
                "http://www.citypass.com/san-francisco/things-to-do-san-francisco",
                "http://gocalifornia.about.com/od/caplaceslist/ss/Redwood-Forests-in-California.htm"
            ],
            "closest_to": "san francisco",
            "latitude": "37.8590272",
            "address": "Sausalito, Marin County, California, United States of America",
            "locType": "administrative"
        },
        "africa": {
            "longitude": "-122.3064005",
            "blogLinks": [
                "http://www.citypass.com/san-francisco/things-to-do-san-francisco"
            ],
            "closest_to": "san francisco",
            "latitude": "37.8212626",
            "address": "Africa Street, Lower Bottoms, Oakland, Alameda County, California, 94626, United States of America",
            "locType": "residential"
        },
        "eureka": {
            "longitude": "-124.1636728",
            "blogLinks": [
                "http://wikitravel.org/en/California",
                "http://gocalifornia.about.com/od/caplaceslist/ss/Redwood-Forests-in-California.htm"
            ],
            "closest_to": "san francisco",
            "latitude": "40.8020712",
            "address": "Eureka, Humboldt County, California, United States of America",
            "locType": "city"
        },
        "yosemite falls": {
            "longitude": "-119.5972922",
            "blogLinks": [
                "http://www.visitcentralvalley.com/places/"
            ],
            "closest_to": "san francisco",
            "latitude": "37.7542252",
            "address": "Middle Cascades, Mariposa County, California, United States of America",
            "locType": "waterfall"
        },
        "sonoma": {
            "longitude": "-122.8473387",
            "blogLinks": [
                "http://www.visitcentralvalley.com/places/",
                "http://wikitravel.org/en/California"
            ],
            "closest_to": "san francisco",
            "latitude": "38.5110803",
            "address": "Sonoma County, California, United States of America",
            "locType": "administrative"
        },
        "big basin redwoods state park": {
            "longitude": "-122.239816619658",
            "blogLinks": [
                "http://gocalifornia.about.com/od/caplaceslist/ss/Redwood-Forests-in-California.htm"
            ],
            "closest_to": "san francisco",
            "latitude": "37.1550317",
            "address": "Big Basin Redwoods State Park, Last Chance Trail, Big Basin, Santa Cruz County, California, United States of America",
            "locType": "park"
        },
        "morongo valley": {
            "longitude": "-116.596723958419",
            "blogLinks": [
                "http://www.california-blog.com/"
            ],
            "closest_to": "bakersfield",
            "latitude": "34.0537585",
            "address": "Morongo Valley, Vista Drive, Morongo Valley, San Bernardino County, California, 92256, United States of America",
            "locType": "administrative"
        },
        "venice": {
            "longitude": "-118.4668874",
            "blogLinks": [
                "http://wikitravel.org/en/California"
            ],
            "closest_to": "bakersfield",
            "latitude": "33.995044",
            "address": "Venice, LA, Los Angeles County, California, United States of America",
            "locType": "suburb"
        },
        "pacific coast highway": {
            "longitude": "-118.0051687",
            "blogLinks": [
                "http://wikitravel.org/en/California",
                "http://traveltips.usatoday.com/fun-things-los-angeles-san-francisco-14664.html",
                "http://www.hopper.com/articles/291/five-great-stops-between-los-angeles-and-san-francisco-on-the-pacific-coast-highway"
            ],
            "closest_to": "bakersfield",
            "latitude": "33.6595127",
            "address": "Pacific Coast Highway, Huntington Beach, Orange County, California, 92648, United States of America",
            "locType": "primary"
        },
        "muir woods": {
            "longitude": "-121.3457819",
            "blogLinks": [
                "http://gocalifornia.about.com/od/caplaceslist/ss/Redwood-Forests-in-California.htm"
            ],
            "closest_to": "san francisco",
            "latitude": "38.049581",
            "address": "Muir Woods Avenue, Stockton, San Joaquin County, California, 95209, United States of America",
            "locType": "residential"
        },
        "central valley": {
            "longitude": "-122.4530663",
            "blogLinks": [
                "http://www.visitcentralvalley.com/places/",
                "http://wikitravel.org/en/California",
                "http://wikitravel.org/en/Bakersfield"
            ],
            "closest_to": "san francisco",
            "latitude": "40.5626504",
            "address": "KNNN-FM (Central Valley), Rattlesnake Drive, Shasta County, California, 96001, United States of America",
            "locType": "tower"
        },
        "lodgepole": {
            "longitude": "-119.2495697",
            "blogLinks": [
                "http://gocalifornia.about.com/od/caplaceslist/ss/Redwood-Forests-in-California.htm"
            ],
            "closest_to": "san francisco",
            "latitude": "38.0558156",
            "address": "Lodgepole, Lundy, Mono County, California, United States of America",
            "locType": "residential"
        },
        "monterey peninsula ca": {
            "longitude": "-121.843618374407",
            "blogLinks": [
                "http://www.california-blog.com/"
            ],
            "closest_to": "san francisco",
            "latitude": "36.5878734",
            "address": "Monterey Regional Airport, Airport Road, Seaside, Del Monte Heights, Monterey County, California, 93940, United States of America",
            "locType": "aerodrome"
        },
        "redwood": {
            "longitude": "-117.094843184352",
            "blogLinks": [
                "http://www.citypass.com/san-francisco/things-to-do-san-francisco"
            ],
            "closest_to": "bakersfield",
            "latitude": "33.45713595",
            "address": "Redwood, Wolf Creek, Temecula, Riverside County, California, 92592, United States of America",
            "locType": "residential"
        },
        "madera": {
            "longitude": "-119.773799",
            "blogLinks": [
                "http://wikitravel.org/en/California"
            ],
            "closest_to": "san francisco",
            "latitude": "37.1716264",
            "address": "Madera County, California, United States of America",
            "locType": "administrative"
        },
        "myers flat": {
            "longitude": "-123.8703145",
            "blogLinks": [
                "http://gocalifornia.about.com/od/caplaceslist/ss/Redwood-Forests-in-California.htm"
            ],
            "closest_to": "san francisco",
            "latitude": "40.2662524",
            "address": "Myers Flat, Humboldt County, California, United States of America",
            "locType": "hamlet"
        },
        "visalia": {
            "longitude": "-119.2920584",
            "blogLinks": [
                "http://www.visitcentralvalley.com/places/"
            ],
            "closest_to": "san francisco",
            "latitude": "36.3302284",
            "address": "Visalia, Tulare County, California, United States of America",
            "locType": "city"
        },