{
    "long beach": {
        "boundingbox": [
            "33.6905847",
            "33.8855951",
            "-118.2489659",
            "-118.0632824"
        ],
        "lon": "-118.158049215311",
        "class": "place",
        "licence": "Data \u00a9 OpenStreetMap contributors, ODbL 1.0. http://www.openstreetmap.org/copyright",
        "importance": 0.87291598958998,
        "icon": "https://nominatim.openstreetmap.org/images/mapicons/poi_place_city.p.20.png",
        "lat": "33.78538945",
        "osm_id": "112100",
        "type": "city",
        "osm_type": "relation",
        "place_id": "158641779",
        "display_name": "Long Beach, Los Angeles County, California, United States of America"
    },
    "berkeley": {
        "boundingbox": [
            "37.835727",
            "37.9066896",
            "-122.3686792",
            "-122.2341961"
        ],
        "lon": "-122.2728638",
        "class": "place",
        "licence": "Data \u00a9 OpenStreetMap contributors, ODbL 1.0. http://www.openstreetmap.org/copyright",
        "importance": 0.78550511760774,
        "icon": "https://nominatim.openstreetmap.org/images/mapicons/poi_place_city.p.20.png",
        "lat": "37.8708393",
        "osm_id": "2833528",
        "type": "city",
        "osm_type": "relation",
        "place_id": "159273659",
        "display_name": "Berkeley, Alameda County, California, United States of America"
    },
    "mentions": {
        "la": {
            "longitude": "-118.7559973",
            "blogLinks": [
                "https://www.tripadvisor.com/ShowTopic-g60713-i30-k3866102-Drive_between_SF_to_LA_List_of_things_to_do-San_Francisco_California.html",
                "https://www.berkeleyparentsnetwork.org/recommend/housing/la",
                "https://www.yelp.com/biz/long-beach-beaches-long-beach"
            ],
            "closest_to": "long beach",
            "latitude": "36.7014631",
            "address": "California, United States of America",
            "locType": "administrative"
        },
        "westchester": {
            "longitude": "-118.4006321",
            "blogLinks": [
                "https://www.berkeleyparentsnetwork.org/recommend/housing/la"
            ],
            "closest_to": "long beach",
            "latitude": "33.9597349",
            "address": "Westchester, Playa Vista, LA, Los Angeles County, California, 90045, United States of America",
            "locType": "neighbourhood"
        },
        "pacific ocean": {
            "longitude": "-121.678715787326",
            "blogLinks": [
                "http://www.hopper.com/articles/291/five-great-stops-between-los-angeles-and-san-francisco-on-the-pacific-coast-highway",
                "https://www.tripadvisor.com/ShowTopic-g60713-i30-k3866102-Drive_between_SF_to_LA_List_of_things_to_do-San_Francisco_California.html",
                "http://travelblog.viator.com/road-trip-san-francisco-los-angeles/",
                "https://www.seemonterey.com/things-to-do/attractions/scenic-drives/",
                "http://www.mygola.com/road-trip-vancouver-to-san-francisco/q4996"
            ],
            "closest_to": "long beach",
            "latitude": "36.16305775",
            "address": "Pacific Ocean, Cabrillo Highway, Monterey County, California, 93920, United States of America",
            "locType": "cliff"
        },
        "san pedro": {
            "longitude": "-118.2922933",
            "blogLinks": [
                "https://www.yelp.com/biz/long-beach-beaches-long-beach"
            ],
            "closest_to": "long beach",
            "latitude": "33.7358518",
            "address": "San Pedro, LA, Los Angeles County, California, United States of America",
            "locType": "suburb"
        },
        "granada beach": {
            "longitude": "-122.4705359",
            "blogLinks": [
                "https://www.yelp.com/biz/long-beach-beaches-long-beach"
            ],
            "closest_to": "long beach",
            "latitude": "37.5005331",
            "address": "El Granada Beach, Cabrillo Highway, Half Moon Bay, San Mateo County, California, 94019, United States of America",
            "locType": "beach"
        },
        "seattle": {
            "longitude": "-121.9226289",
            "blogLinks": [
                "http://www.mygola.com/road-trip-vancouver-to-san-francisco/q4996"
            ],
            "closest_to": "berkeley",
            "latitude": "41.9641881",
            "address": "Seattle, Dorris, Siskiyou County, California, 96023, United States of America",
            "locType": "residential"
        },
        "toledo": {
            "longitude": "-118.1346424",
            "blogLinks": [
                "http://www.mygola.com/road-trip-vancouver-to-san-francisco/q4996"
            ],
            "closest_to": "long beach",
            "latitude": "33.7636318",
            "address": "The Toledo, Marina Pacifica, Belmont Shore, Long Beach, Los Angeles County, California, 90803, United States of America",
            "locType": "tertiary"
        },
        "golden gate": {
            "longitude": "-122.4793972",
            "blogLinks": [
                "http://www.bestplaces.net/city/california/berkeley"
            ],
            "closest_to": "berkeley",
            "latitude": "37.8190177",
            "address": "Golden Gate, Golden Gate Bridge, Waldo, Marin County, California, 94965, United States of America",
            "locType": "strait"
        },
        "vancouver": {
            "longitude": "-117.4634669",
            "blogLinks": [
                "http://www.mygola.com/road-trip-vancouver-to-san-francisco/q4996"
            ],
            "closest_to": "long beach",
            "latitude": "34.824773",
            "address": "Vancouver, San Bernardino County, California, United States of America",
            "locType": "residential"
        },
        "painted canyon": {
            "longitude": "-116.0142047",
            "blogLinks": [
                "http://ucmp.berkeley.edu/blog/archives/category/fieldnotes"
            ],
            "closest_to": "long beach",
            "latitude": "33.5885197",
            "address": "Painted Canyon Road, Riverside County, California, 92251, United States of America",
            "locType": "residential"
        },
        "highway 101": {
            "longitude": "-117.2731974",
            "blogLinks": [
                "http://travelblog.viator.com/road-trip-san-francisco-los-angeles/",
                "http://www.mygola.com/road-trip-vancouver-to-san-francisco/q4996"
            ],
            "closest_to": "long beach",
            "latitude": "32.9967358",
            "address": "Highway 101, Solana Beach, San Diego County, California, 92075, United States of America",
            "locType": "primary"
        },
        "fort romie road": {
            "longitude": "-121.3755519",
            "blogLinks": [
                "https://www.seemonterey.com/things-to-do/attractions/scenic-drives/"
            ],
            "closest_to": "long beach",
            "latitude": "36.408964",
            "address": "Fort Romie Road, Monterey County, California, 93960, United States of America",
            "locType": "secondary"
        },
        "massachusetts": {
            "longitude": "-117.0430219",
            "blogLinks": [
                "https://www.berkeleyparentsnetwork.org/advice/school/visitingcolleges"
            ],
            "closest_to": "long beach",
            "latitude": "32.728622",
            "address": "Massachusetts Avenue, Lemon Grove, San Diego County, California, 91941:91945, United States of America",
            "locType": "secondary"
        },
        "bay": {
            "longitude": "-117.7729354",
            "blogLinks": [
                "http://travelblog.viator.com/road-trip-san-francisco-los-angeles/"
            ],
            "closest_to": "long beach",
            "latitude": "33.6899249",
            "address": "Bay, Meadows Mobile Home Park, El Camino Real, Irvine, Orange County, California, 92406, United States of America",
            "locType": "service"
        },
        "sierra hill": {
            "longitude": "-120.530573",
            "blogLinks": [
                "https://www.seemonterey.com/things-to-do/attractions/scenic-drives/"
            ],
            "closest_to": "berkeley",
            "latitude": "39.5849065",
            "address": "Sierra County, California, United States of America",
            "locType": "administrative"
        },
        "usa": {
            "longitude": "-118.7559973",
            "blogLinks": [
                "http://www.mygola.com/road-trip-vancouver-to-san-francisco/q4996"
            ],
            "closest_to": "long beach",
            "latitude": "36.7014631",
            "address": "California, United States of America",
            "locType": "administrative"
        },
        "rosemead": {
            "longitude": "-118.0879762",
            "blogLinks": [
                "https://www.berkeleyparentsnetwork.org/recommend/housing/la"
            ],
            "closest_to": "long beach",
            "latitude": "34.0676169",
            "address": "Rosemead, Los Angeles County, California, United States of America",
            "locType": "city"
        },
        "monterey county": {
            "longitude": "-121.3877427",
            "blogLinks": [
                "http://travelblog.viator.com/road-trip-san-francisco-los-angeles/",
                "http://ucmp.berkeley.edu/blog/archives/category/fieldnotes",
                "https://www.seemonterey.com/things-to-do/attractions/scenic-drives/"
            ],
            "closest_to": "long beach",
            "latitude": "36.2231079",
            "address": "Monterey County, California, United States of America",
            "locType": "administrative"
        },
        "little sur river": {
            "longitude": "-121.818577",
            "blogLinks": [
                "https://www.seemonterey.com/things-to-do/attractions/scenic-drives/"
            ],
            "closest_to": "long beach",
            "latitude": "36.339883",
            "address": "Little Sur River, Monterey County, California, United States of America",
            "locType": "river"
        },
        "canada": {
            "longitude": "-117.7641381",
            "blogLinks": [
                "https://www.berkeleyparentsnetwork.org/advice/school/visitingcolleges"
            ],
            "closest_to": "long beach",
            "latitude": "33.7298842",
            "address": "La Canada, Lower Peters Canyon, Irvine, Orange County, California, 92602, United States of America",
            "locType": "residential"
        },
        "ventura": {
            "longitude": "-119.0779358",
            "blogLinks": [
                "http://travelblog.viator.com/road-trip-san-francisco-los-angeles/",
                "https://www.yelp.com/biz/long-beach-beaches-long-beach"
            ],
            "closest_to": "long beach",
            "latitude": "34.4458248",
            "address": "Ventura County, California, United States of America",
            "locType": "administrative"
        },
        "carmel valley": {
            "longitude": "-121.7324475",
            "blogLinks": [
                "https://www.seemonterey.com/things-to-do/attractions/scenic-drives/"
            ],
            "closest_to": "long beach",
            "latitude": "36.4796839",
            "address": "Carmel Valley, Monterey County, California, United States of America",
            "locType": "village"
        },
        "oregon": {
            "longitude": "-117.7911567",
            "blogLinks": [
                "http://ucmp.berkeley.edu/blog/archives/category/fieldnotes",
                "https://www.berkeleyparentsnetwork.org/recommend/housing/la",
                "http://www.mygola.com/road-trip-vancouver-to-san-francisco/q4996"
            ],
            "closest_to": "long beach",
            "latitude": "33.7123207",
            "address": "Oregon, Walnut, Irvine, Orange County, California, 92606, United States of America",
            "locType": "residential"
        },
        "union station": {
            "longitude": "-118.235796451972",
            "blogLinks": [
                "https://www.berkeleyparentsnetwork.org/recommend/housing/la"
            ],
            "closest_to": "long beach",
            "latitude": "34.0560576",
            "address": "Union Station, 800, Alameda Street, Naud Junction, Little Tokyo Historic District, LA, Los Angeles County, California, 90012, United States of America",
            "locType": "yes"
        },
        "newport bay": {
            "longitude": "-117.9092241",
            "blogLinks": [
                "http://ucmp.berkeley.edu/blog/archives/category/fieldnotes"
            ],
            "closest_to": "long beach",
            "latitude": "33.608355",
            "address": "Newport Bay, Via Lido Soud, Balboa Island, Newport Beach, Orange County, California, 92663, United States of America",
            "locType": "bay"
        },
        "warrenton": {
            "longitude": "-117.8927076",
            "blogLinks": [
                "https://funbeach.com/explore/maps-directions/"
            ],
            "closest_to": "long beach",
            "latitude": "33.8504229",
            "address": "East Warrenton Avenue, Anaheim, Orange County, California, 92805, United States of America",
            "locType": "residential"
        },
        "nepenthe": {
            "longitude": "-121.7596564",
            "blogLinks": [
                "http://travelblog.viator.com/road-trip-san-francisco-los-angeles/"
            ],
            "closest_to": "long beach",
            "latitude": "36.2218116",
            "address": "Nepenthe, 48510, Cabrillo Highway, Posts, Monterey County, California, 93920-9549, United States of America",
            "locType": "restaurant"
        },
        "elm avenue": {
            "longitude": "-117.2469781",
            "blogLinks": [
                "https://www.seemonterey.com/things-to-do/attractions/scenic-drives/"
            ],
            "closest_to": "long beach",
            "latitude": "34.0696195",
            "address": "Elm Avenue, San Bernardino, San Bernardino County, California, 92354, United States of America",
            "locType": "residential"
        },
        "london": {
            "longitude": "-119.4431784",
            "blogLinks": [
                "https://www.seemonterey.com/things-to-do/attractions/scenic-drives/"
            ],
            "closest_to": "long beach",
            "latitude": "36.4760619",
            "address": "London, Tulare County, California, United States of America",
            "locType": "village"
        },
        "old coast road": {
            "longitude": "-122.1922656",
            "blogLinks": [
                "https://www.seemonterey.com/things-to-do/attractions/scenic-drives/"
            ],
            "closest_to": "long beach",
            "latitude": "37.0114572",
            "address": "Old Coast Road, Davenport, Santa Cruz County, California, 95017, United States of America",
            "locType": "residential"
        },
        "arroyo seco road": {
            "longitude": "-118.1661337",
            "blogLinks": [
                "https://www.seemonterey.com/things-to-do/attractions/scenic-drives/"
            ],
            "closest_to": "long beach",
            "latitude": "34.1978653",
            "address": "Arroyo Seco Road, Pasadena, Los Angeles County, California, 91109, United States of America",
            "locType": "track"
        },
        "santa barbara": {
            "longitude": "-119.7026672",
            "blogLinks": [
                "http://www.hopper.com/articles/291/five-great-stops-between-los-angeles-and-san-francisco-on-the-pacific-coast-highway",
                "https://www.tripadvisor.com/ShowTopic-g60713-i30-k3866102-Drive_between_SF_to_LA_List_of_things_to_do-San_Francisco_California.html",
                "http://travelblog.viator.com/road-trip-san-francisco-los-angeles/",
                "http://ucmp.berkeley.edu/blog/archives/category/fieldnotes"
            ],
            "closest_to": "long beach",
            "latitude": "34.4221319",
            "address": "Santa Barbara, Santa Barbara County, California, United States of America",
            "locType": "city"
        },
        "carmel mission": {
            "longitude": "-121.9197418",
            "blogLinks": [
                "https://www.seemonterey.com/things-to-do/attractions/scenic-drives/"
            ],
            "closest_to": "long beach",
            "latitude": "36.5426927",
            "address": "Mission San Carlos Borromeo de Carmelo, 3080, Rio Road, Carmel-by-the-Sea, Monterey County, California, 93923, United States of America",
            "locType": "museum"
        },
        "gaviota state park": {
            "longitude": "-120.23689175403",
            "blogLinks": [
                "http://ucmp.berkeley.edu/blog/archives/category/fieldnotes"
            ],
            "closest_to": "long beach",
            "latitude": "34.51187925",
            "address": "Gaviota State Park, San Julian Road, Las Cruces, Santa Barbara County, California, United States of America",
            "locType": "park"
        },
        "salinas valley": {
            "longitude": "-121.6550371",
            "blogLinks": [
                "https://www.seemonterey.com/things-to-do/attractions/scenic-drives/"
            ],
            "closest_to": "long beach",
            "latitude": "36.6744117",
            "address": "Salinas, Monterey County, California, United States of America",
            "locType": "city"
        },
        "hawk tower": {
            "longitude": "-121.9310658",
            "blogLinks": [
                "https://www.seemonterey.com/things-to-do/attractions/scenic-drives/"
            ],
            "closest_to": "long beach",
            "latitude": "36.5419056",
            "address": "Hawk Tower, Stewart Way, Pebble Beach, Monterey County, California, 93923, United States of America",
            "locType": "yes"
        },
        "great basin": {
            "longitude": "-121.2713333",
            "blogLinks": [
                "http://ucmp.berkeley.edu/blog/archives/category/fieldnotes"
            ],
            "closest_to": "berkeley",
            "latitude": "38.7875775",
            "address": "Great Basin Drive, Roseville, Placer County, California, 95678, United States of America",
            "locType": "residential"
        },
        "newport": {
            "longitude": "-123.7747387",
            "blogLinks": [
                "https://www.yelp.com/biz/long-beach-beaches-long-beach",
                "http://www.mygola.com/road-trip-vancouver-to-san-francisco/q4996"
            ],
            "closest_to": "berkeley",
            "latitude": "39.5773839",
            "address": "Newport, Mendocino County, California, United States of America",
            "locType": "hamlet"
        },
        "salton sea": {
            "longitude": "-115.779429602876",
            "blogLinks": [
                "http://ucmp.berkeley.edu/blog/archives/category/fieldnotes",
                "https://www.yelp.com/biz/long-beach-beaches-long-beach"
            ],
            "closest_to": "long beach",
            "latitude": "33.31215995",
            "address": "Salton Sea, Imperial County, California, United States of America",
            "locType": "water"
        },
        "clear lake": {
            "longitude": "-123.274814179039",
            "blogLinks": [
                "http://www.bestplaces.net/city/california/berkeley",
                "http://ucmp.berkeley.edu/blog/archives/category/fieldnotes"
            ],
            "closest_to": "berkeley",
            "latitude": "41.38373055",
            "address": "Clear Lake, Siskiyou County, California, United States of America",
            "locType": "water"
        },
        "santa lucia mountain": {
            "longitude": "-119.8003246",
            "blogLinks": [
                "http://travelblog.viator.com/road-trip-san-francisco-los-angeles/"
            ],
            "closest_to": "long beach",
            "latitude": "34.4379129",
            "address": "Santa Lucia, Santa Barbara County, California, 93111, United States of America",
            "locType": "residential"
        },
        "alamitos beach": {
            "longitude": "-118.106541235029",
            "blogLinks": [
                "https://www.yelp.com/biz/long-beach-beaches-long-beach"
            ],
            "closest_to": "long beach",
            "latitude": "33.7791145",
            "address": "Alamitos Yard, Los Altos, Long Beach, Los Angeles County, California, 90840, United States of America",
            "locType": "industrial"
        },
        "carmel highlands": {
            "longitude": "-121.9316212",
            "blogLinks": [
                "https://www.seemonterey.com/things-to-do/attractions/scenic-drives/"
            ],
            "closest_to": "long beach",
            "latitude": "36.5041286",
            "address": "Carmel Highlands, Monterey County, California, United States of America",
            "locType": "hamlet"
        },
        "california north coast": {
            "longitude": "-117.868012896798",
            "blogLinks": [
                "http://www.mygola.com/road-trip-vancouver-to-san-francisco/q4996"
            ],
            "closest_to": "long beach",
            "latitude": "33.751259",
            "address": "California Coast University, North Main Street, Santa Ana, Orange County, California, 92706, United States of America",
            "locType": "university"
        },
        "pismo beach": {
            "longitude": "-120.6412826",
            "blogLinks": [
                "http://www.hopper.com/articles/291/five-great-stops-between-los-angeles-and-san-francisco-on-the-pacific-coast-highway"
            ],
            "closest_to": "long beach",
            "latitude": "35.1427533",
            "address": "Pismo Beach, San Luis Obispo County, California, United States of America",
            "locType": "city"
        },
        "bay area": {
            "longitude": "-122.3558472",
            "blogLinks": [
                "https://www.berkeleyparentsnetwork.org/advice/school/visitingcolleges"
            ],
            "closest_to": "long beach",
            "latitude": "37.7884969",
            "address": "San Francisco Bay Area, SF, California, United States of America",
            "locType": "region"
        },
        "bay bridge": {
            "longitude": "-122.342234",
            "blogLinks": [
                "http://www.bestplaces.net/city/california/berkeley"
            ],
            "closest_to": "long beach",
            "latitude": "37.8193514",
            "address": "San Francisco \u2013 Oakland Bay Bridge, Oakland, Alameda County, California, 94625, United States of America",
            "locType": "abandoned"
        },
        "redwood city": {
            "longitude": "-122.2363547",
            "blogLinks": [
                "http://www.bestplaces.net/city/california/berkeley"
            ],
            "closest_to": "long beach",
            "latitude": "37.4852152",
            "address": "Redwood City, San Mateo County, California, United States of America",
            "locType": "city"
        },
        "el capitan state beach": {
            "longitude": "-120.012544859619",
            "blogLinks": [
                "http://ucmp.berkeley.edu/blog/archives/category/fieldnotes"
            ],
            "closest_to": "long beach",
            "latitude": "34.48736925",
            "address": "El Capitan State Beach, Bill Wallace Trail, Santa Barbara County, California, United States of America",
            "locType": "park"
        },
        "santa monica": {
            "longitude": "-118.4869738",
            "blogLinks": [
                "http://travelblog.viator.com/road-trip-san-francisco-los-angeles/",
                "https://www.berkeleyparentsnetwork.org/recommend/housing/la"
            ],
            "closest_to": "long beach",
            "latitude": "34.0195598",
            "address": "Santa Monica, Los Angeles County, California, United States of America",
            "locType": "city"
        },
        "menlo park": {
            "longitude": "-122.182187",
            "blogLinks": [
                "http://www.bestplaces.net/city/california/berkeley"
            ],
            "closest_to": "long beach",
            "latitude": "37.4538274",
            "address": "Menlo Park, San Mateo County, California, United States of America",
            "locType": "administrative"
        },
        "san francisco bay area": {
            "longitude": "-122.3558472",
            "blogLinks": [
                "https://answers.yahoo.com/question/index?qid=20100720110201AARismL",
                "http://gocalifornia.about.com/od/caplaceslist/",
                "https://www.berkeleyparentsnetwork.org/advice/school/visitingcolleges"
            ],
            "closest_to": "long beach",
            "latitude": "37.7884969",
            "address": "San Francisco Bay Area, SF, California, United States of America",
            "locType": "region"
        },
        "culver city": {
            "longitude": "-118.3964664",
            "blogLinks": [
                "https://www.berkeleyparentsnetwork.org/recommend/housing/la"
            ],
            "closest_to": "long beach",
            "latitude": "34.0211224",
            "address": "Culver City, Los Angeles County, California, United States of America",
            "locType": "administrative"
        },
        "monterey bay": {
            "longitude": "-121.9010667",
            "blogLinks": [
                "http://www.hopper.com/articles/291/five-great-stops-between-los-angeles-and-san-francisco-on-the-pacific-coast-highway",
                "http://travelblog.viator.com/road-trip-san-francisco-los-angeles/",
                "http://ucmp.berkeley.edu/blog/archives/category/fieldnotes"
            ],
            "closest_to": "long beach",
            "latitude": "36.7999557",
            "address": "Monterey Bay, Monterey County, California, United States of America",
            "locType": "bay"
        },
        "tesla": {
            "longitude": "-117.1983799",
            "blogLinks": [
                "http://ucmp.berkeley.edu/blog/archives/category/fieldnotes"
            ],
            "closest_to": "long beach",
            "latitude": "32.793411",
            "address": "Tesla, Old Town, San Diego, San Diego County, California, 92117, United States of America",
            "locType": "residential"
        },
        "bixby": {
            "longitude": "-117.6705904",
            "blogLinks": [
                "https://www.yelp.com/biz/long-beach-beaches-long-beach"
            ],
            "closest_to": "long beach",
            "latitude": "33.6850248",
            "address": "Bixby, Foothill Ranch, Lake Forest, Orange County, California, 92610, United States of America",
            "locType": "residential"
        },
        "belmont shores": {
            "longitude": "-117.252157006201",
            "blogLinks": [
                "https://www.yelp.com/biz/long-beach-beaches-long-beach"
            ],
            "closest_to": "long beach",
            "latitude": "32.7709175",
            "address": "Belmont Park, Ocean Front Walk, Pacific Beach, San Diego, San Diego County, California, 92109, United States of America",
            "locType": "theme_park"
        },
        "carmel valley village": {
            "longitude": "-121.714600790494",
            "blogLinks": [
                "https://www.seemonterey.com/things-to-do/attractions/scenic-drives/"
            ],
            "closest_to": "long beach",
            "latitude": "36.4829185",
            "address": "Carmel Valley Village, Holman Road, Carmel Valley Village, Monterey County, California, 93924, United States of America",
            "locType": "administrative"
        },
        "albany": {
            "longitude": "-122.2977474",
            "blogLinks": [
                "https://www.berkeleyparentsnetwork.org/recommend/housing/la"
            ],
            "closest_to": "berkeley",
            "latitude": "37.88687",
            "address": "Albany, Alameda County, California, United States of America",
            "locType": "administrative"
        },
        "us": {
            "longitude": "-118.7559973",
            "blogLinks": [
                "https://www.berkeleyparentsnetwork.org/recommend/housing/la",
                "https://www.berkeleyparentsnetwork.org/advice/school/visitingcolleges",
                "http://www.visitlongbeach.com/attractions/",
                "http://distancecalculator.globefeed.com/US_Distance_Calculator.asp?state=CA",
                "http://www.mygola.com/road-trip-vancouver-to-san-francisco/q4996"
            ],
            "closest_to": "long beach",
            "latitude": "36.7014631",
            "address": "California, United States of America",
            "locType": "administrative"
        },
        "huntington beach": {
            "longitude": "-118.0000165",
            "blogLinks": [
                "https://www.yelp.com/biz/long-beach-beaches-long-beach"
            ],
            "closest_to": "long beach",
            "latitude": "33.6783336",
            "address": "Huntington Beach, Orange County, California, United States of America",
            "locType": "city"
        },
        "florence": {
            "longitude": "-118.2659105",
            "blogLinks": [
                "http://www.mygola.com/road-trip-vancouver-to-san-francisco/q4996"
            ],
            "closest_to": "long beach",
            "latitude": "33.9752173",
            "address": "Florence, LA, Los Angeles County, California, United States of America",
            "locType": "suburb"
        },
        "san luis obispo museum of art": {
            "longitude": "-120.6649345",
            "blogLinks": [
                "http://travelblog.viator.com/road-trip-san-francisco-los-angeles/"
            ],
            "closest_to": "long beach",
            "latitude": "35.2795773",
            "address": "San Luis Obispo Museum of Art, 1010, Broad Street, San Luis Obispo, San Luis Obispo County, California, 93401, United States of America",
            "locType": "museum"
        },
        "carmel river state beach": {
            "longitude": "-121.918604967215",
            "blogLinks": [
                "https://www.seemonterey.com/things-to-do/attractions/scenic-drives/"
            ],
            "closest_to": "long beach",
            "latitude": "36.5315721",
            "address": "Carmel River State Beach, Cabrillo Highway, Carmel Highlands, Monterey County, California, 93923, United States of America",
            "locType": "national_park"
        },
        "east coast": {
            "longitude": "-122.2447393",
            "blogLinks": [
                "https://www.berkeleyparentsnetwork.org/advice/school/visitingcolleges",
                "http://www.mygola.com/road-trip-vancouver-to-san-francisco/q4996"
            ],
            "closest_to": "long beach",
            "latitude": "37.858337",
            "address": "Coast, Ashby Avenue, Claremont, Berkeley, Alameda County, California, 94705, United States of America",
            "locType": "fuel"
        },
        "yellow sea": {
            "longitude": "-115.9568328",
            "blogLinks": [
                "http://ucmp.berkeley.edu/blog/archives/category/fieldnotes"
            ],
            "closest_to": "long beach",
            "latitude": "33.3308527",
            "address": "Yellow Sea Avenue, Salton City, Imperial County, California, 92274, United States of America",
            "locType": "residential"
        },
        "hot springs": {
            "longitude": "-121.0338461",
            "blogLinks": [
                "http://ucmp.berkeley.edu/blog/archives/category/fieldnotes"
            ],
            "closest_to": "berkeley",
            "latitude": "40.0187792",
            "address": "Hot Springs, Plumas County, California, United States of America",
            "locType": "hamlet"
        },
        "south bay": {
            "longitude": "-122.4927499",
            "blogLinks": [
                "https://www.yelp.com/biz/long-beach-beaches-long-beach"
            ],
            "closest_to": "berkeley",
            "latitude": "37.794096",
            "address": "South Bay, Sea Cliff Avenue, Seacliff, SF, California, 94121, United States of America",
            "locType": "bay"
        },
        "portland": {
            "longitude": "-117.3105194",
            "blogLinks": [
                "http://www.mygola.com/road-trip-vancouver-to-san-francisco/q4996"
            ],
            "closest_to": "long beach",
            "latitude": "33.8979116",
            "address": "Portland, Riverside, Riverside County, California, 92508, United States of America",
            "locType": "residential"
        },
        "pacific coast of california": {
            "longitude": "-118.063517668143",
            "blogLinks": [
                "http://www.mygola.com/road-trip-vancouver-to-san-francisco/q4996"
            ],
            "closest_to": "long beach",
            "latitude": "33.8047323",
            "address": "Pacific Coast, Florista Street, Los Alamitos, Orange County, California, 90720, United States of America",
            "locType": "yes"
        },
        "wilshire": {
            "longitude": "-117.9034923",
            "blogLinks": [
                "https://www.berkeleyparentsnetwork.org/recommend/housing/la"
            ],
            "closest_to": "long beach",
            "latitude": "33.7805094",
            "address": "Wilshire, Garden Grove, Orange County, California, 92868, United States of America",
            "locType": "service"
        },
        "southern california": {
            "longitude": "-118.286343973446",
            "blogLinks": [
                "http://www.berkeley.edu/about/visit",
                "http://www.hopper.com/articles/291/five-great-stops-between-los-angeles-and-san-francisco-on-the-pacific-coast-highway",
                "http://www.visitlongbeach.com/attractions/",
                "https://www.berkeleyparentsnetwork.org/advice/school/visitingcolleges"
            ],
            "closest_to": "long beach",
            "latitude": "34.0224149",
            "address": "University of Southern California, Watt Way, Saint James Park, LA, Los Angeles County, California, 90089, United States of America",
            "locType": "university"
        },
        "monrovia": {
            "longitude": "-118.0014516",
            "blogLinks": [
                "https://www.berkeleyparentsnetwork.org/recommend/housing/la"
            ],
            "closest_to": "long beach",
            "latitude": "34.1483499",
            "address": "Monrovia, Los Angeles County, California, United States of America",
            "locType": "city"
        },
        "san francisco": {
            "longitude": "-122.4192362",
            "blogLinks": [
                "http://www.bestplaces.net/city/california/berkeley",
                "https://www.tripadvisor.com/ShowTopic-g60713-i30-k3866102-Drive_between_SF_to_LA_List_of_things_to_do-San_Francisco_California.html",
                "http://distancecalculator.globefeed.com/US_Distance_Calculator.asp?state=CA",
                "https://www.seemonterey.com/things-to-do/attractions/scenic-drives/",
                "https://answers.yahoo.com/question/index?qid=20100720110201AARismL",
                "http://www.hopper.com/articles/291/five-great-stops-between-los-angeles-and-san-francisco-on-the-pacific-coast-highway",
                "http://travelblog.viator.com/road-trip-san-francisco-los-angeles/",
                "http://www.mygola.com/road-trip-vancouver-to-san-francisco/q4996"
            ],
            "closest_to": "berkeley",
            "latitude": "37.7792808",
            "address": "SF, California, United States of America",
            "locType": "city"
        },
        "holyoke": {
            "longitude": "-118.53125",
            "blogLinks": [
                "https://www.berkeleyparentsnetwork.org/advice/school/visitingcolleges"
            ],
            "closest_to": "long beach",
            "latitude": "34.0384942",
            "address": "North Mount Holyoke Avenue, Pacific Palisades, LA, Los Angeles County, California, 90272, United States of America",
            "locType": "residential"
        },
        "east": {
            "longitude": "-116.570124",
            "blogLinks": [
                "https://www.berkeleyparentsnetwork.org/advice/school/visitingcolleges"
            ],
            "closest_to": "long beach",
            "latitude": "34.0577029",
            "address": "East, Morongo Valley, San Bernardino County, California, 92256, United States of America",
            "locType": "track"
        },
        "san francisco bay": {
            "longitude": "-122.2802469",
            "blogLinks": [
                "http://ucmp.berkeley.edu/blog/archives/category/fieldnotes"
            ],
            "closest_to": "long beach",
            "latitude": "37.708264",
            "address": "San Francisco Bay, Ferry Landing, Alameda, Alameda County, California, 94502, United States of America",
            "locType": "bay"
        },
        "creek wash": {
            "longitude": "-115.9912412",
            "blogLinks": [
                "http://ucmp.berkeley.edu/blog/archives/category/fieldnotes"
            ],
            "closest_to": "long beach",
            "latitude": "33.2944949",
            "address": "Wash, Imperial County, California, United States of America",
            "locType": "stream"
        },
        "catalina island": {
            "longitude": "-118.424154004558",
            "blogLinks": [
                "https://www.yelp.com/biz/long-beach-beaches-long-beach"
            ],
            "closest_to": "long beach",
            "latitude": "33.3890232",
            "address": "Santa Catalina Island, Los Angeles County, California, United States of America",
            "locType": "island"
        },
        "tiburon": {
            "longitude": "-122.4566121",
            "blogLinks": [
                "http://ucmp.berkeley.edu/blog/archives/category/fieldnotes"
            ],
            "closest_to": "berkeley",
            "latitude": "37.8734371",
            "address": "Tiburon, Marin County, California, United States of America",
            "locType": "administrative"
        },
        "american riviera": {
            "longitude": "-121.3602199",
            "blogLinks": [
                "http://www.hopper.com/articles/291/five-great-stops-between-los-angeles-and-san-francisco-on-the-pacific-coast-highway",
                "http://travelblog.viator.com/road-trip-san-francisco-los-angeles/"
            ],
            "closest_to": "berkeley",
            "latitude": "38.576666",
            "address": "American River Drive, La Riviera, Sacramento County, California, 95608, United States of America",
            "locType": "tertiary"
        },
        "manhattan beach": {
            "longitude": "-118.4000146",
            "blogLinks": [
                "https://www.yelp.com/biz/long-beach-beaches-long-beach"
            ],
            "closest_to": "long beach",
            "latitude": "33.8950839",
            "address": "Manhattan Beach, Los Angeles County, California, United States of America",
            "locType": "city"
        },
        "highland park": {
            "longitude": "-118.1969827",
            "blogLinks": [
                "https://www.berkeleyparentsnetwork.org/recommend/housing/la"
            ],
            "closest_to": "long beach",
            "latitude": "34.1099469",
            "address": "Highland Park, LA, Los Angeles County, California, United States of America",
            "locType": "suburb"
        },
        "astoria": {
            "longitude": "-117.6278767",
            "blogLinks": [
                "https://funbeach.com/explore/maps-directions/",
                "http://www.mygola.com/road-trip-vancouver-to-san-francisco/q4996"
            ],
            "closest_to": "long beach",
            "latitude": "33.6521919",
            "address": "Astoria, Palmia, Mission Viejo, Orange County, California, 92692, United States of America",
            "locType": "residential"
        },
        "hollywood hills": {
            "longitude": "-118.3355473",
            "blogLinks": [
                "https://www.berkeleyparentsnetwork.org/recommend/housing/la"
            ],
            "closest_to": "long beach",
            "latitude": "34.1311792",
            "address": "Hollywood Hills, LA, Los Angeles County, California, United States of America",
            "locType": "suburb"
        },
        "tor house": {
            "longitude": "-122.4793972",
            "blogLinks": [
                "https://www.seemonterey.com/things-to-do/attractions/scenic-drives/"
            ],
            "closest_to": "berkeley",
            "latitude": "37.8190177",
            "address": "Golden Gate, Golden Gate Bridge, Waldo, Marin County, California, 94965, United States of America",
            "locType": "strait"
        },
        "mcway falls trail": {
            "longitude": "-121.6723957",
            "blogLinks": [
                "http://travelblog.viator.com/road-trip-san-francisco-los-angeles/"
            ],
            "closest_to": "long beach",
            "latitude": "36.1578211",
            "address": "McWay Falls, Monterey County, California, United States of America",
            "locType": "waterfall"
        },
        "ethiopia": {
            "longitude": "-122.259261231789",
            "blogLinks": [
                "http://ucmp.berkeley.edu/blog/archives/category/fieldnotes"
            ],
            "closest_to": "long beach",
            "latitude": "37.8567857",
            "address": "Ethiopia Restaurant, 2955, Telegraph Avenue, LeConte, Berkeley, Alameda County, California, 94705, United States of America",
            "locType": "restaurant"
        },
        "carmel": {
            "longitude": "-121.353308848273",
            "blogLinks": [
                "http://www.hopper.com/articles/291/five-great-stops-between-los-angeles-and-san-francisco-on-the-pacific-coast-highway",
                "http://travelblog.viator.com/road-trip-san-francisco-los-angeles/",
                "https://www.seemonterey.com/things-to-do/attractions/scenic-drives/"
            ],
            "closest_to": "berkeley",
            "latitude": "38.75511285",
            "address": "Carmel, Roseville, Placer County, California, 95747, United States of America",
            "locType": "residential"
        },
        "drakes beach": {
            "longitude": "-122.96473252067",
            "blogLinks": [
                "http://ucmp.berkeley.edu/blog/archives/category/fieldnotes"
            ],
            "closest_to": "berkeley",
            "latitude": "38.02535185",
            "address": "Drakes Beach, Peter Behr Overlook, Marin County, California, United States of America",
            "locType": "beach"
        },
        "pike": {
            "longitude": "-120.9980078",
            "blogLinks": [
                "https://www.yelp.com/biz/long-beach-beaches-long-beach"
            ],
            "closest_to": "berkeley",
            "latitude": "39.4390595",
            "address": "Pike, Sierra County, California, United States of America",
            "locType": "hamlet"
        },
        "metro": {
            "longitude": "-118.4710141",
            "blogLinks": [
                "https://www.berkeleyparentsnetwork.org/recommend/housing/la"
            ],
            "closest_to": "long beach",
            "latitude": "33.9880063",
            "address": "Metro, Windward Circle, Venice, LA, Los Angeles County, California, 90291, United States of America",
            "locType": "bus_station"
        },
        "south africa": {
            "longitude": "-122.2378391",
            "blogLinks": [
                "http://ucmp.berkeley.edu/blog/archives/category/fieldnotes"
            ],
            "closest_to": "long beach",
            "latitude": "37.8749498",
            "address": "South Africa, Centennial Drive, Oakland, Alameda County, California, 94720, United States of America",
            "locType": "garden"
        },
        "san jose": {
            "longitude": "-121.8905832",
            "blogLinks": [
                "http://www.bestplaces.net/city/california/berkeley"
            ],
            "closest_to": "long beach",
            "latitude": "37.3361905",
            "address": "San Jos\u00e9, Santa Clara County, California, United States of America",
            "locType": "city"
        },
        "chinatown": {
            "longitude": "-122.2702385",
            "blogLinks": [
                "http://www.bestplaces.net/city/california/berkeley"
            ],
            "closest_to": "long beach",
            "latitude": "37.7999301",
            "address": "Chinatown, Oakland, Alameda County, California, ca, United States of America",
            "locType": "neighbourhood"
        },
        "monterey": {
            "longitude": "-121.866792846206",
            "blogLinks": [
                "https://www.tripadvisor.com/ShowTopic-g60713-i30-k3866102-Drive_between_SF_to_LA_List_of_things_to_do-San_Francisco_California.html",
                "https://www.seemonterey.com/things-to-do/attractions/scenic-drives/"
            ],
            "closest_to": "long beach",
            "latitude": "36.5844165",
            "address": "Monterey, Monterey County, California, United States of America",
            "locType": "city"
        },
        "redwood national park": {
            "longitude": "-124.030095146171",
            "blogLinks": [
                "http://www.mygola.com/road-trip-vancouver-to-san-francisco/q4996"
            ],
            "closest_to": "berkeley",
            "latitude": "41.27553155",
            "address": "Redwood National Park, Redwood Creek Trail, Orick, Humboldt County, California, 95555, United States of America",
            "locType": "national_park"
        },
        "los angeles river": {
            "longitude": "-118.4421904",
            "blogLinks": [
                "https://www.yelp.com/biz/long-beach-beaches-long-beach"
            ],
            "closest_to": "long beach",
            "latitude": "34.1557816",
            "address": "Los Angeles River, LA, Los Angeles County, California, United States of America",
            "locType": "river"
        },
        "daly city": {
            "longitude": "-122.4619204",
            "blogLinks": [
                "http://www.bestplaces.net/city/california/berkeley"
            ],
            "closest_to": "long beach",
            "latitude": "37.7057671",
            "address": "Daly City, San Mateo County, California, United States of America",
            "locType": "city"
        },
        "river road": {
            "longitude": "-114.6384652",
            "blogLinks": [
                "https://www.seemonterey.com/things-to-do/attractions/scenic-drives/"
            ],
            "closest_to": "long beach",
            "latitude": "34.871679",
            "address": "River Road, Needles, San Bernardino County, California, United States of America",
            "locType": "secondary"
        },
        "egypt": {
            "longitude": "-118.544859",
            "blogLinks": [
                "http://www.berkeley.edu/about/visit"
            ],
            "closest_to": "long beach",
            "latitude": "37.2547835",
            "address": "Egypt Creek, Inyo County, California, United States of America",
            "locType": "stream"
        },
        "carmel valley road": {
            "longitude": "-117.1946599",
            "blogLinks": [
                "https://www.seemonterey.com/things-to-do/attractions/scenic-drives/"
            ],
            "closest_to": "long beach",
            "latitude": "32.9529657",
            "address": "Carmel Valley Road, San Diego, San Diego County, California, 92130, United States of America",
            "locType": "secondary"
        },
        "laguna beach": {
            "longitude": "-117.7834146",
            "blogLinks": [
                "https://www.yelp.com/biz/long-beach-beaches-long-beach"
            ],
            "closest_to": "long beach",
            "latitude": "33.5420888",
            "address": "Laguna Beach, Orange County, California, United States of America",
            "locType": "city"
        },
        "carmelo street": {
            "longitude": "-117.2557679",
            "blogLinks": [
                "https://www.seemonterey.com/things-to-do/attractions/scenic-drives/"
            ],
            "closest_to": "long beach",
            "latitude": "32.721252",
            "address": "Carmelo Street, San Diego, San Diego County, California, 92107, United States of America",
            "locType": "residential"
        },
        "new england": {
            "longitude": "-118.0890007",
            "blogLinks": [
                "https://www.berkeleyparentsnetwork.org/advice/school/visitingcolleges"
            ],
            "closest_to": "long beach",
            "latitude": "33.8793794",
            "address": "New England, Cerritos, Los Angeles County, California, 90701, United States of America",
            "locType": "residential"
        },
        "long beach": {
            "longitude": "-118.158049215311",
            "blogLinks": [
                "http://www.visitlongbeach.com/attractions/",
                "https://www.yelp.com/biz/long-beach-beaches-long-beach",
                "https://www.berkeleyparentsnetwork.org/advice/school/visitingcolleges"
            ],
            "closest_to": "long beach",
            "latitude": "33.78538945",
            "address": "Long Beach, Los Angeles County, California, United States of America",
            "locType": "city"
        },
        "los angeles": {
            "longitude": "-118.2439408",
            "blogLinks": [
                "https://www.berkeleyparentsnetwork.org/recommend/housing/la",
                "https://www.yelp.com/biz/long-beach-beaches-long-beach",
                "https://www.seemonterey.com/things-to-do/attractions/scenic-drives/",
                "https://answers.yahoo.com/question/index?qid=20100720110201AARismL",
                "http://www.hopper.com/articles/291/five-great-stops-between-los-angeles-and-san-francisco-on-the-pacific-coast-highway",
                "http://travelblog.viator.com/road-trip-san-francisco-los-angeles/"
            ],
            "closest_to": "long beach",
            "latitude": "34.0543942",
            "address": "LA, Los Angeles County, California, United States of America",
            "locType": "city"
        },
        "manhattan": {
            "longitude": "-117.919744373725",
            "blogLinks": [
                "https://www.yelp.com/biz/long-beach-beaches-long-beach"
            ],
            "closest_to": "long beach",
            "latitude": "33.8109789",
            "address": "Manhattan, Anaheim Resort District, Anaheim, Orange County, California, 217, United States of America",
            "locType": "forest"
        },
        "south san francisco": {
            "longitude": "-122.408125",
            "blogLinks": [
                "http://www.bestplaces.net/city/california/berkeley"
            ],
            "closest_to": "long beach",
            "latitude": "37.6549493",
            "address": "South San Francisco, San Mateo County, California, United States of America",
            "locType": "administrative"
        },
        "lake county": {
            "longitude": "-122.7776555",
            "blogLinks": [
                "http://ucmp.berkeley.edu/blog/archives/category/fieldnotes"
            ],
            "closest_to": "berkeley",
            "latitude": "39.0505411",
            "address": "Lake County, California, United States of America",
            "locType": "administrative"
        },
        "monterey bay aquarium": {
            "longitude": "-121.901680002002",
            "blogLinks": [
                "http://www.hopper.com/articles/291/five-great-stops-between-los-angeles-and-san-francisco-on-the-pacific-coast-highway",
                "http://travelblog.viator.com/road-trip-san-francisco-los-angeles/"
            ],
            "closest_to": "long beach",
            "latitude": "36.61809095",
            "address": "MBA, 886, Cannery Row, Monterey, Monterey County, California, 93940, United States of America",
            "locType": "aquarium"
        },
        "disneyland": {
            "longitude": "-117.91971186569",
            "blogLinks": [
                "https://www.berkeleyparentsnetwork.org/advice/school/visitingcolleges"
            ],
            "closest_to": "long beach",
            "latitude": "33.8136367",
            "address": "DL, 1313, South Harbor Boulevard, Anaheim Resort District, Anaheim, Orange County, California, 92805, United States of America",
            "locType": "theme_park"
        },
        "soledad": {
            "longitude": "-121.3272146",
            "blogLinks": [
                "http://ucmp.berkeley.edu/blog/archives/category/fieldnotes",
                "https://www.seemonterey.com/things-to-do/attractions/scenic-drives/"
            ],
            "closest_to": "long beach",
            "latitude": "36.4269452",
            "address": "Soledad, Monterey County, California, United States of America",
            "locType": "city"
        },
        "galathea": {
            "longitude": "-117.241940815778",
            "blogLinks": [
                "http://ucmp.berkeley.edu/blog/archives/category/fieldnotes"
            ],
            "closest_to": "long beach",
            "latitude": "32.87381165",
            "address": "Galathea Hall, Revelle Plaza, Revelle College, La Jolla, San Diego, San Diego County, California, 92093, United States of America",
            "locType": "yes"
        },
        "ocean beach": {
            "longitude": "-117.249321",
            "blogLinks": [
                "http://travelblog.viator.com/road-trip-san-francisco-los-angeles/"
            ],
            "closest_to": "long beach",
            "latitude": "32.7477784",
            "address": "Ocean Beach, San Diego, San Diego County, California, United States of America",
            "locType": "region"
        },
        "altadena": {
            "longitude": "-118.1352328",
            "blogLinks": [
                "https://www.berkeleyparentsnetwork.org/recommend/housing/la"
            ],
            "closest_to": "long beach",
            "latitude": "34.1863161",
            "address": "Altadena, Los Angeles County, California, United States of America",
            "locType": "town"
        },
        "tejon pass": {
            "longitude": "-118.8767819",
            "blogLinks": [
                "http://ucmp.berkeley.edu/blog/archives/category/fieldnotes"
            ],
            "closest_to": "long beach",
            "latitude": "34.8027895",
            "address": "Tejon Pass, Golden State Freeway, Gorman, Los Angeles County, California, 93243, United States of America",
            "locType": "saddle"
        },
        "eagle rock": {
            "longitude": "-118.6053476",
            "blogLinks": [
                "https://www.berkeleyparentsnetwork.org/recommend/housing/la"
            ],
            "closest_to": "long beach",
            "latitude": "33.4723736",
            "address": "Eagle Rock, Los Angeles County, California, United States of America",
            "locType": "island"
        },
        "clear lake state park": {
            "longitude": "-122.812070398199",
            "blogLinks": [
                "http://ucmp.berkeley.edu/blog/archives/category/fieldnotes"
            ],
            "closest_to": "berkeley",
            "latitude": "39.01087985",
            "address": "Clear Lake State Park, State Park Road, Soda Bay, Lake County, California, United States of America",
            "locType": "park"
        },
        "chico": {
            "longitude": "-121.8374776",
            "blogLinks": [
                "https://www.yelp.com/biz/long-beach-beaches-long-beach"
            ],
            "closest_to": "berkeley",
            "latitude": "39.7284945",
            "address": "Chico, Butte County, California, United States of America",
            "locType": "city"
        },
        "carmel beach": {
            "longitude": "-121.929450352027",
            "blogLinks": [
                "https://www.seemonterey.com/things-to-do/attractions/scenic-drives/"
            ],
            "closest_to": "long beach",
            "latitude": "36.5512525",
            "address": "Carmel Beach, Scenic Road, Carmel-by-the-Sea, Monterey County, California, 93921, United States of America",
            "locType": "beach"
        },
        "belmont shore": {
            "longitude": "-118.1370106",
            "blogLinks": [
                "https://www.yelp.com/biz/long-beach-beaches-long-beach"
            ],
            "closest_to": "long beach",
            "latitude": "33.7572435",
            "address": "Belmont Shore, Long Beach, Los Angeles County, California, United States of America",
            "locType": "suburb"
        },
        "klondike canyon": {
            "longitude": "-121.0103391",
            "blogLinks": [
                "https://www.seemonterey.com/things-to-do/attractions/scenic-drives/"
            ],
            "closest_to": "berkeley",
            "latitude": "38.6798822",
            "address": "Klondike Way, Bridlewood Canyon, El Dorado County, California, 95762, United States of America",
            "locType": "residential"
        },
        "split mountain": {
            "longitude": "-116.1197316",
            "blogLinks": [
                "http://ucmp.berkeley.edu/blog/archives/category/fieldnotes"
            ],
            "closest_to": "long beach",
            "latitude": "33.0047734",
            "address": "Split Mountain, San Diego County, California, United States of America",
            "locType": "peak"
        },
        "big sur bakery": {
            "longitude": "-121.7693642",
            "blogLinks": [
                "http://travelblog.viator.com/road-trip-san-francisco-los-angeles/"
            ],
            "closest_to": "long beach",
            "latitude": "36.2359105",
            "address": "Big Sur Bakery, 47540, Cabrillo Highway, Posts, Monterey County, California, 93920, United States of America",
            "locType": "bakery"
        },
        "utah": {
            "longitude": "-118.6125359",
            "blogLinks": [
                "http://ucmp.berkeley.edu/blog/archives/category/fieldnotes"
            ],
            "closest_to": "long beach",
            "latitude": "37.413408",
            "address": "Utah, Rovana, Inyo County, California, United States of America",
            "locType": "residential"
        },
        "queen mary": {
            "longitude": "-118.189813309483",
            "blogLinks": [
                "https://www.yelp.com/biz/long-beach-beaches-long-beach"
            ],
            "closest_to": "long beach",
            "latitude": "33.7528971",
            "address": "The Queen Mary, Windsor Way, Long Beach, Los Angeles County, California, 90802, United States of America",
            "locType": "hotel"
        },
        "marin county": {
            "longitude": "-122.6199637",
            "blogLinks": [
                "http://www.bestplaces.net/city/california/berkeley"
            ],
            "closest_to": "berkeley",
            "latitude": "38.0409144",
            "address": "Marin County, California, United States of America",
            "locType": "administrative"
        },
        "junipero & ocean": {
            "longitude": "-122.471776",
            "blogLinks": [
                "https://www.yelp.com/biz/long-beach-beaches-long-beach"
            ],
            "closest_to": "berkeley",
            "latitude": "37.731486",
            "address": "Junipero Serra & Ocean Ave\u200e, Junipero Serra Boulevard, Saint Francis Wood, SF, California, 94127, United States of America",
            "locType": "tram_stop"
        },
        "san simeon": {
            "longitude": "-121.1907532",
            "blogLinks": [
                "http://www.hopper.com/articles/291/five-great-stops-between-los-angeles-and-san-francisco-on-the-pacific-coast-highway"
            ],
            "closest_to": "long beach",
            "latitude": "35.6438587",
            "address": "San Simeon, San Luis Obispo County, California, United States of America",
            "locType": "hamlet"
        },
        "long beach.and": {
            "longitude": "-118.158049215311",
            "blogLinks": [
                "https://www.yelp.com/biz/long-beach-beaches-long-beach"
            ],
            "closest_to": "long beach",
            "latitude": "33.78538945",
            "address": "Long Beach, Los Angeles County, California, United States of America",
            "locType": "city"
        },
        "santa fe springs": {
            "longitude": "-118.0676102",
            "blogLinks": [
                "https://www.berkeleyparentsnetwork.org/recommend/housing/la"
            ],
            "closest_to": "long beach",
            "latitude": "33.9482434",
            "address": "Santa Fe Springs, Los Angeles County, California, United States of America",
            "locType": "city"
        },
        "garland ranch regional park": {
            "longitude": "-121.8224505",
            "blogLinks": [
                "https://www.seemonterey.com/things-to-do/attractions/scenic-drives/"
            ],
            "closest_to": "long beach",
            "latitude": "36.5119059",
            "address": "Garland Ranch Regional Park, River Meadow Road, Carmel Valley Manor, Monterey County, California, United States of America",
            "locType": "park"
        },
        "moss landing": {
            "longitude": "-121.786581",
            "blogLinks": [
                "https://www.seemonterey.com/things-to-do/attractions/scenic-drives/"
            ],
            "closest_to": "long beach",
            "latitude": "36.7988827",
            "address": "Moss Landing, Monterey County, California, United States of America",
            "locType": "administrative"
        },
        "san diego": {
            "longitude": "-117.1627713",
            "blogLinks": [
                "http://ucmp.berkeley.edu/blog/archives/category/fieldnotes",
                "http://gocalifornia.about.com/od/caplaceslist/",
                "https://www.yelp.com/biz/long-beach-beaches-long-beach"
            ],
            "closest_to": "long beach",
            "latitude": "32.7174209",
            "address": "San Diego, San Diego County, California, United States of America",
            "locType": "city"
        },
        "orange county": {
            "longitude": "-117.870493",
            "blogLinks": [
                "http://ucmp.berkeley.edu/blog/archives/category/fieldnotes"
            ],
            "closest_to": "long beach",
            "latitude": "33.7500378",
            "address": "Orange County, California, United States of America",
            "locType": "administrative"
        },
        "west coast": {
            "longitude": "-118.4051087",
            "blogLinks": [
                "http://www.mygola.com/road-trip-vancouver-to-san-francisco/q4996"
            ],
            "closest_to": "long beach",
            "latitude": "34.0222263",
            "address": "West Coast, Motor Avenue, Palms, LA, Los Angeles County, California, 90034-5702, United States of America",
            "locType": "plumber"
        },
        "big sur": {
            "longitude": "-121.8074544",
            "blogLinks": [
                "https://www.seemonterey.com/things-to-do/attractions/scenic-drives/"
            ],
            "closest_to": "long beach",
            "latitude": "36.270241",
            "address": "Big Sur, Monterey County, California, United States of America",
            "locType": "village"
        },
        "laguna": {
            "longitude": "-121.4238413",
            "blogLinks": [
                "https://www.yelp.com/biz/long-beach-beaches-long-beach"
            ],
            "closest_to": "berkeley",
            "latitude": "38.4210209",
            "address": "Laguna, Sacramento County, California, United States of America",
            "locType": "hamlet"
        },
        "us highway 101": {
            "longitude": "-117.2731974",
            "blogLinks": [
                "http://www.mygola.com/road-trip-vancouver-to-san-francisco/q4996"
            ],
            "closest_to": "long beach",
            "latitude": "32.9967358",
            "address": "Highway 101, Solana Beach, San Diego County, California, 92075, United States of America",
            "locType": "primary"
        },
        "pacific": {
            "longitude": "-120.507146",
            "blogLinks": [
                "http://travelblog.viator.com/road-trip-san-francisco-los-angeles/",
                "http://www.visitlongbeach.com/attractions/",
                "https://www.yelp.com/biz/long-beach-beaches-long-beach"
            ],
            "closest_to": "berkeley",
            "latitude": "38.7601815",
            "address": "Pacific, El Dorado County, California, United States of America",
            "locType": "hamlet"
        },
        "monterey peninsula": {
            "longitude": "-121.843618374407",
            "blogLinks": [
                "https://www.seemonterey.com/things-to-do/attractions/scenic-drives/"
            ],
            "closest_to": "long beach",
            "latitude": "36.5878734",
            "address": "Monterey Regional Airport, Airport Road, Seaside, Del Monte Heights, Monterey County, California, 93940, United States of America",
            "locType": "aerodrome"
        },
        "scenic road": {
            "longitude": "-121.9284886",
            "blogLinks": [
                "https://www.seemonterey.com/things-to-do/attractions/scenic-drives/"
            ],
            "closest_to": "long beach",
            "latitude": "36.5492648",
            "address": "Scenic Road, Carmel-by-the-Sea, Monterey County, California, 93921, United States of America",
            "locType": "residential"
        },
        "united states": {
            "longitude": "-118.7559973",
            "blogLinks": [
                "http://www.bestplaces.net/city/california/berkeley",
                "https://www.tripadvisor.com/ShowTopic-g60713-i30-k3866102-Drive_between_SF_to_LA_List_of_things_to_do-San_Francisco_California.html",
                "http://www.mygola.com/road-trip-vancouver-to-san-francisco/q4996"
            ],
            "closest_to": "long beach",
            "latitude": "36.7014631",
            "address": "California, United States of America",
            "locType": "administrative"
        },
        "undersea gardens": {
            "longitude": "-117.9213663",
            "blogLinks": [
                "http://www.mygola.com/road-trip-vancouver-to-san-francisco/q4996"
            ],
            "closest_to": "long beach",
            "latitude": "33.8063623",
            "address": "Little Mermaid: Ariel's Undersea Adventure, 1620, South Disneyland Drive, Anaheim Resort District, Anaheim, Orange County, California, 92802, United States of America",
            "locType": "attraction"
        },
        "san luis obispo": {
            "longitude": "-120.6596155",
            "blogLinks": [
                "http://travelblog.viator.com/road-trip-san-francisco-los-angeles/"
            ],
            "closest_to": "long beach",
            "latitude": "35.2827525",
            "address": "San Luis Obispo, San Luis Obispo County, California, United States of America",
            "locType": "city"
        },
        "africa": {
            "longitude": "-122.3064005",
            "blogLinks": [
                "http://ucmp.berkeley.edu/blog/archives/category/fieldnotes"
            ],
            "closest_to": "long beach",
            "latitude": "37.8212626",
            "address": "Africa Street, Lower Bottoms, Oakland, Alameda County, California, 94626, United States of America",
            "locType": "residential"
        },
        "anza": {
            "longitude": "-116.67457",
            "blogLinks": [
                "http://ucmp.berkeley.edu/blog/archives/category/fieldnotes"
            ],
            "closest_to": "long beach",
            "latitude": "33.5559483",
            "address": "Anza, Riverside County, California, United States of America",
            "locType": "village"
        },
        "san leandro": {
            "longitude": "-122.1560767",
            "blogLinks": [
                "https://www.berkeleyparentsnetwork.org/advice/school/visitingcolleges"
            ],
            "closest_to": "long beach",
            "latitude": "37.7249296",
            "address": "San Leandro, Alameda County, California, United States of America",
            "locType": "city"
        },
        "cuba": {
            "longitude": "-119.9804117",
            "blogLinks": [
                "http://ucmp.berkeley.edu/blog/archives/category/fieldnotes"
            ],
            "closest_to": "long beach",
            "latitude": "35.9513438",
            "address": "La Cuba, Kings County, California, United States of America",
            "locType": "peak"
        },
        "san luis obispo county": {
            "longitude": "-120.3757162",
            "blogLinks": [
                "http://www.hopper.com/articles/291/five-great-stops-between-los-angeles-and-san-francisco-on-the-pacific-coast-highway"
            ],
            "closest_to": "long beach",
            "latitude": "35.3540209",
            "address": "San Luis Obispo County, California, United States of America",
            "locType": "administrative"
        },
        "china": {
            "longitude": "-122.49033307856",
            "blogLinks": [
                "http://ucmp.berkeley.edu/blog/archives/category/fieldnotes"
            ],
            "closest_to": "berkeley",
            "latitude": "37.9989198",
            "address": "China Camp State Park, Bay View Trail, Santa Venetia, Marin County, California, 94901, United States of America",
            "locType": "park"
        },
        "pacific coast highway": {
            "longitude": "-118.0051687",
            "blogLinks": [
                "http://www.hopper.com/articles/291/five-great-stops-between-los-angeles-and-san-francisco-on-the-pacific-coast-highway"
            ],
            "closest_to": "long beach",
            "latitude": "33.6595127",
            "address": "Pacific Coast Highway, Huntington Beach, Orange County, California, 92648, United States of America",
            "locType": "primary"
        },
        "san nicolas island": {
            "longitude": "-119.509897848601",
            "blogLinks": [
                "http://ucmp.berkeley.edu/blog/archives/category/fieldnotes"
            ],
            "closest_to": "long beach",
            "latitude": "33.24999425",
            "address": "San Nicolas Island, California, United States of America",
            "locType": "island"
        },
        "los alamos": {
            "longitude": "-120.26591036241",
            "blogLinks": [
                "http://travelblog.viator.com/road-trip-san-francisco-los-angeles/"
            ],
            "closest_to": "long beach",
            "latitude": "34.7379311",
            "address": "Los Alamos, Bell Street, Los Alamos, Santa Barbara County, California, 93455, United States of America",
            "locType": "administrative"
        },
        "death valley": {
            "longitude": "-116.914043572057",
            "blogLinks": [
                "http://ucmp.berkeley.edu/blog/archives/category/fieldnotes"
            ],
            "closest_to": "long beach",
            "latitude": "36.42404725",
            "address": "Death Valley, Timbisha, Inyo County, California, 92328, United States of America",
            "locType": "desert"
        },
        "bixby creek": {
            "longitude": "-121.8642246",
            "blogLinks": [
                "https://www.seemonterey.com/things-to-do/attractions/scenic-drives/"
            ],
            "closest_to": "long beach",
            "latitude": "36.3691036",
            "address": "Bixby Creek, Monterey County, California, United States of America",
            "locType": "stream"
        },
        "clearlake oaks": {
            "longitude": "-122.651520290803",
            "blogLinks": [
                "http://ucmp.berkeley.edu/blog/archives/category/fieldnotes"
            ],
            "closest_to": "berkeley",
            "latitude": "39.0174285",
            "address": "Clearlake Oaks, Walnut Way, Clear Lake Keys, Lake County, California, 95423, United States of America",
            "locType": "administrative"
        },
        "kruger park": {
            "longitude": "-123.9495572",
            "blogLinks": [
                "http://ucmp.berkeley.edu/blog/archives/category/fieldnotes"
            ],
            "closest_to": "berkeley",
            "latitude": "40.9483114",
            "address": "Krueger Creek, Humboldt County, California, United States of America",
            "locType": "stream"
        },
        "berkeley": {
            "longitude": "-122.2728638",
            "blogLinks": [
                "http://www.berkeley.edu/about/visit",
                "https://funbeach.com/explore/maps-directions/",
                "https://www.berkeleyparentsnetwork.org/recommend/housing/la",
                "http://www.bestplaces.net/city/california/berkeley",
                "http://ucmp.berkeley.edu/blog/archives/category/fieldnotes",
                "https://www.berkeleyparentsnetwork.org/advice/school/visitingcolleges",
                "http://travelblog.viator.com/road-trip-san-francisco-los-angeles/"
            ],
            "closest_to": "berkeley",
            "latitude": "37.8708393",
            "address": "Berkeley, Alameda County, California, United States of America",
            "locType": "city"
        },
        "san mateo": {
            "longitude": "-122.3330572",
            "blogLinks": [
                "http://www.bestplaces.net/city/california/berkeley"
            ],
            "closest_to": "long beach",
            "latitude": "37.496904",
            "address": "San Mateo County, California, United States of America",
            "locType": "administrative"
        },
        "san marino": {
            "longitude": "-118.1057393",
            "blogLinks": [
                "https://www.berkeleyparentsnetwork.org/recommend/housing/la"
            ],
            "closest_to": "long beach",
            "latitude": "34.1215947",
            "address": "San Marino, Los Angeles County, California, United States of America",
            "locType": "town"
        },
        "greenfield": {
            "longitude": "-119.002873",
            "blogLinks": [
                "https://www.seemonterey.com/things-to-do/attractions/scenic-drives/"
            ],
            "closest_to": "long beach",
            "latitude": "35.2688739",
            "address": "Greenfield, Kern County, California, United States of America",
            "locType": "hamlet"
        },
        "cal": {
            "longitude": "-115.484614171269",
            "blogLinks": [
                "http://www.berkeley.edu/about/visit",
                "https://www.yelp.com/biz/long-beach-beaches-long-beach"
            ],
            "closest_to": "long beach",
            "latitude": "33.16643595",
            "address": "CAL, 7018, Blair Road, Calipatria, Imperial County, California, 92233, United States of America",
            "locType": "prison"
        },
        "uc san diego": {
            "longitude": "-117.239357346441",
            "blogLinks": [
                "https://www.berkeleyparentsnetwork.org/advice/school/visitingcolleges"
            ],
            "closest_to": "long beach",
            "latitude": "32.88377545",
            "address": "Hopkins Parking Structure, Voigt Lane, San Diego, San Diego County, California, 92092, United States of America",
            "locType": "parking"
        },
        "uc berkeley": {
            "longitude": "-122.238859169444",
            "blogLinks": [
                "http://ucmp.berkeley.edu/blog/archives/category/fieldnotes"
            ],
            "closest_to": "long beach",
            "latitude": "37.87631055",
            "address": "UC Berkeley, Centennial Drive, Oakland, Alameda County, California, 94720, United States of America",
            "locType": "university"
        },
        "burbank": {
            "longitude": "-118.3258553",
            "blogLinks": [
                "https://www.berkeleyparentsnetwork.org/recommend/housing/la"
            ],
            "closest_to": "long beach",
            "latitude": "34.1816482",
            "address": "Burbank, Los Angeles County, California, United States of America",
            "locType": "city"
        },
        "boston": {
            "longitude": "-117.7757132",
            "blogLinks": [
                "https://www.berkeleyparentsnetwork.org/advice/school/visitingcolleges"
            ],
            "closest_to": "long beach",
            "latitude": "33.696779",
            "address": "Boston, Heritage Park Apartments, El Camino Real, Irvine, Orange County, California, 92604, United States of America",
            "locType": "residential"
        },
        "rio road": {
            "longitude": "-117.3317399",
            "blogLinks": [
                "https://www.seemonterey.com/things-to-do/attractions/scenic-drives/"
            ],
            "closest_to": "long beach",
            "latitude": "34.4960263",
            "address": "El Rio Road, Victorville, San Bernardino County, California, 92392, United States of America",
            "locType": "residential"
        },
        "naples": {
            "longitude": "-118.123797605753",
            "blogLinks": [
                "https://www.yelp.com/biz/long-beach-beaches-long-beach"
            ],
            "closest_to": "long beach",
            "latitude": "33.75419085",
            "address": "Naples, California, United States of America",
            "locType": "administrative"
        },
        "cambria": {
            "longitude": "-121.0807467",
            "blogLinks": [
                "https://www.tripadvisor.com/ShowTopic-g60713-i30-k3866102-Drive_between_SF_to_LA_List_of_things_to_do-San_Francisco_California.html"
            ],
            "closest_to": "long beach",
            "latitude": "35.5641381",
            "address": "Cambria, San Luis Obispo County, California, United States of America",
            "locType": "administrative"
        },
        "charleston": {
            "longitude": "-117.160560207655",
            "blogLinks": [
                "http://ucmp.berkeley.edu/blog/archives/category/fieldnotes"
            ],
            "closest_to": "long beach",
            "latitude": "33.53745",
            "address": "Charleston, Harveston, Temecula, Riverside County, California, United States of America",
            "locType": "administrative"
        },
        "south pasadena": {
            "longitude": "-118.147829",
            "blogLinks": [
                "https://www.berkeleyparentsnetwork.org/recommend/housing/la"
            ],
            "closest_to": "long beach",
            "latitude": "34.1133062",
            "address": "South Pasadena, Los Angeles County, California, United States of America",
            "locType": "administrative"
        },
        "bixby creek bridge": {
            "longitude": "-121.9017572",
            "blogLinks": [
                "http://travelblog.viator.com/road-trip-san-francisco-los-angeles/"
            ],
            "closest_to": "long beach",
            "latitude": "36.3710197",
            "address": "Bixby Creek Bridge, Notleys Landing, Monterey County, California, 93923, United States of America",
            "locType": "primary"
        },
        "ocean avenue": {
            "longitude": "-122.4736116",
            "blogLinks": [
                "https://www.seemonterey.com/things-to-do/attractions/scenic-drives/"
            ],
            "closest_to": "berkeley",
            "latitude": "37.7320759",
            "address": "Ocean Ave, Ocean Avenue, Saint Francis Wood, SF, California, 94132, United States of America",
            "locType": "tram_stop"
        },
        "china town": {
            "longitude": "-122.407568",
            "blogLinks": [
                "https://www.berkeleyparentsnetwork.org/recommend/housing/la"
            ],
            "closest_to": "berkeley",
            "latitude": "37.7963119",
            "address": "China Town, Duncombe Alley, Chinatown, SF, California, 94133, United States of America",
            "locType": "marketplace"
        },
        "palo alto": {
            "longitude": "-122.1634471",
            "blogLinks": [
                "http://gocalifornia.about.com/od/caplaceslist/"
            ],
            "closest_to": "long beach",
            "latitude": "37.442156",
            "address": "Palo Alto, Santa Clara County, California, United States of America",
            "locType": "city"
        },
        "arroyo seco canyon": {
            "longitude": "-122.0534977",
            "blogLinks": [
                "http://ucmp.berkeley.edu/blog/archives/category/fieldnotes"
            ],
            "closest_to": "long beach",
            "latitude": "36.9636435",
            "address": "Arroyo Seco Canyon, Western Drive/Nobel, Westside, Santa Cruz, Santa Cruz County, California, 95017:95060, United States of America",
            "locType": "track"
        },
        "el segundo": {
            "longitude": "-118.3829549",
            "blogLinks": [
                "https://www.berkeleyparentsnetwork.org/recommend/housing/la"
            ],
            "closest_to": "long beach",
            "latitude": "33.9122175",
            "address": "El Segundo, Los Angeles County, California, United States of America",
            "locType": "city"
        },
        "johannesburg": {
            "longitude": "-117.643287330498",
            "blogLinks": [
                "http://ucmp.berkeley.edu/blog/archives/category/fieldnotes"
            ],
            "closest_to": "long beach",
            "latitude": "35.3732015",
            "address": "Johannesburg, Johannesburg Avenue, Kern County, California, 93528, United States of America",
            "locType": "administrative"
        },
        "bixby mountain": {
            "longitude": "-121.8407869",
            "blogLinks": [
                "https://www.seemonterey.com/things-to-do/attractions/scenic-drives/"
            ],
            "closest_to": "long beach",
            "latitude": "36.354962",
            "address": "Bixby Mountain, Monterey County, California, United States of America",
            "locType": "peak"
        },
        "pinnacles national park": {
            "longitude": "-121.171140689253",
            "blogLinks": [
                "https://www.seemonterey.com/things-to-do/attractions/scenic-drives/"
            ],
            "closest_to": "long beach",
            "latitude": "36.4862515",
            "address": "Pinnacles National Park, Pinnacles Road, San Benito County, California, United States of America",
            "locType": "national_park"
        },
        "pacific coast": {
            "longitude": "-118.063517668143",
            "blogLinks": [
                "http://www.mygola.com/road-trip-vancouver-to-san-francisco/q4996"
            ],
            "closest_to": "long beach",
            "latitude": "33.8047323",
            "address": "Pacific Coast, Florista Street, Los Alamitos, Orange County, California, 90720, United States of America",
            "locType": "yes"
        },
        "anza-borrego desert state park": {
            "longitude": "-116.330414288395",
            "blogLinks": [
                "http://ucmp.berkeley.edu/blog/archives/category/fieldnotes"
            ],
            "closest_to": "long beach",
            "latitude": "33.2528053",
            "address": "Anza-Borrego Desert State Park, Palm Canyon Drive, Borrego, San Diego County, California, 92004, United States of America",
            "locType": "protected_area"
        },
        "kettleman hills": {
            "longitude": "-120.012854097997",
            "blogLinks": [
                "http://ucmp.berkeley.edu/blog/archives/category/fieldnotes"
            ],
            "closest_to": "long beach",
            "latitude": "35.9628221",
            "address": "Kettleman Hills Landfill, Kings County, California, United States of America",
            "locType": "landfill"
        },
        "europe": {
            "longitude": "-121.9980641",
            "blogLinks": [
                "http://ucmp.berkeley.edu/blog/archives/category/fieldnotes"
            ],
            "closest_to": "long beach",
            "latitude": "37.3491727",
            "address": "Europe Court, Santa Clara, Santa Clara County, California, 95051, United States of America",
            "locType": "residential"
        },
        "america": {
            "longitude": "-119.8948706",
            "blogLinks": [
                "https://www.seemonterey.com/things-to-do/attractions/scenic-drives/",
                "http://www.mygola.com/road-trip-vancouver-to-san-francisco/q4996"
            ],
            "closest_to": "long beach",
            "latitude": "36.2573198",
            "address": "America, Kings County, California, 93246, United States of America",
            "locType": "residential"
        },
        "southwest": {
            "longitude": "-121.5324607",
            "blogLinks": [
                "https://www.berkeleyparentsnetwork.org/advice/school/visitingcolleges"
            ],
            "closest_to": "berkeley",
            "latitude": "40.4370184",
            "address": "Southwest, Lassen Peak Highway, Tehama County, California, United States of America",
            "locType": "camp_site"
        },
        "bixby bridge": {
            "longitude": "-121.9017572",
            "blogLinks": [
                "https://www.seemonterey.com/things-to-do/attractions/scenic-drives/"
            ],
            "closest_to": "long beach",
            "latitude": "36.3710197",
            "address": "Bixby Creek Bridge, Notleys Landing, Monterey County, California, 93923, United States of America",
            "locType": "primary"
        },
        "carmel-by-the-sea": {
            "longitude": "-121.9232878",
            "blogLinks": [
                "http://www.hopper.com/articles/291/five-great-stops-between-los-angeles-and-san-francisco-on-the-pacific-coast-highway",
                "http://travelblog.viator.com/road-trip-san-francisco-los-angeles/",
                "https://www.seemonterey.com/things-to-do/attractions/scenic-drives/"
            ],
            "closest_to": "long beach",
            "latitude": "36.5552387",
            "address": "Carmel-by-the-Sea, Monterey County, California, United States of America",
            "locType": "city"
        },
        "pasadena": {
            "longitude": "-118.1444778",
            "blogLinks": [
                "https://www.berkeleyparentsnetwork.org/recommend/housing/la"
            ],
            "closest_to": "long beach",
            "latitude": "34.1476452",
            "address": "Pasadena, Los Angeles County, California, United States of America",
            "locType": "city"
        },
        "mecca": {
            "longitude": "-116.0745416",
            "blogLinks": [
                "http://ucmp.berkeley.edu/blog/archives/category/fieldnotes"
            ],
            "closest_to": "long beach",
            "latitude": "33.5701568",
            "address": "Mecca, Riverside County, California, United States of America",
            "locType": "administrative"
        },
        "central coast": {
            "longitude": "-119.1665989",
            "blogLinks": [
                "http://travelblog.viator.com/road-trip-san-francisco-los-angeles/"
            ],
            "closest_to": "long beach",
            "latitude": "35.3611193",
            "address": "Central Coast Street, Bakersfield, Kern County, California, 93314, United States of America",
            "locType": "residential"
        },
        "santa cruz beach boardwalk": {
            "longitude": "-122.016027247326",
            "blogLinks": [
                "http://travelblog.viator.com/road-trip-san-francisco-los-angeles/"
            ],
            "closest_to": "long beach",
            "latitude": "36.96446855",
            "address": "Santa Cruz Beach Boardwalk, Boardwalk, Beach & Boardwalk District (Commercial), Seabright, Santa Cruz, Santa Cruz County, California, 1982, United States of America",
            "locType": "attraction"
        },
        "pebble beach": {
            "longitude": "-121.9466112",
            "blogLinks": [
                "https://www.seemonterey.com/things-to-do/attractions/scenic-drives/"
            ],
            "closest_to": "long beach",
            "latitude": "36.5664874",
            "address": "Pebble Beach, Monterey County, California, United States of America",
            "locType": "hamlet"
        },
        "southern pacific": {
            "longitude": "-118.9223619",
            "blogLinks": [
                "http://www.bestplaces.net/city/california/berkeley"
            ],
            "closest_to": "long beach",
            "latitude": "34.391601",
            "address": "Southern Pacific, Fillmore, Ventura County, California, 93015, United States of America",
            "locType": "residential"
        },
        "jose creek": {
            "longitude": "-119.3512107",
            "blogLinks": [
                "http://ucmp.berkeley.edu/blog/archives/category/fieldnotes"
            ],
            "closest_to": "long beach",
            "latitude": "37.0683866",
            "address": "Jose Creek, Fresno County, California, United States of America",
            "locType": "stream"
        },
        "pretoria": {
            "longitude": "-121.8427804",
            "blogLinks": [
                "http://ucmp.berkeley.edu/blog/archives/category/fieldnotes"
            ],
            "closest_to": "long beach",
            "latitude": "37.3886467",
            "address": "Pretoria Court, Berryessa, San Jos\u00e9, Santa Clara County, California, 95127, United States of America",
            "locType": "residential"
        }
    }
}