{
    "riverside": {
        "boundingbox": [
            "33.8724207",
            "34.0192691",
            "-117.5237611",
            "-117.2741721"
        ],
        "lon": "-117.3961622",
        "class": "place",
        "licence": "Data \u00a9 OpenStreetMap contributors, ODbL 1.0. http://www.openstreetmap.org/copyright",
        "importance": 0.72980766319189,
        "icon": "https://nominatim.openstreetmap.org/images/mapicons/poi_place_city.p.20.png",
        "lat": "33.9533546",
        "osm_id": "98628503",
        "type": "city",
        "osm_type": "way",
        "place_id": "85715402",
        "display_name": "Riverside, Riverside County, California, United States of America"
    },
    "beverly hills": {
        "boundingbox": [
            "34.05269",
            "34.112456",
            "-118.4270731",
            "-118.3715357"
        ],
        "lon": "-118.4003562",
        "class": "place",
        "licence": "Data \u00a9 OpenStreetMap contributors, ODbL 1.0. http://www.openstreetmap.org/copyright",
        "importance": 0.65,
        "icon": "https://nominatim.openstreetmap.org/images/mapicons/poi_place_city.p.20.png",
        "lat": "34.0736204",
        "osm_id": "3503615",
        "type": "city",
        "osm_type": "relation",
        "place_id": "159602133",
        "display_name": "Beverly Hills, Los Angeles County, California, United States of America"
    },
    "mentions": {
        "mount palomar ca": {
            "longitude": "-117.270809764613",
            "blogLinks": [
                "http://www.california-blog.com/"
            ],
            "closest_to": "riverside",
            "latitude": "33.1278146",
            "address": "California Bank & Trust, 2501, Palomar Airport Road, Carlsbad, San Diego County, California, 92011, United States of America",
            "locType": "bank"
        },
        "mount san gorgonio ca": {
            "longitude": "-116.8766731",
            "blogLinks": [
                "http://www.california-blog.com/"
            ],
            "closest_to": "riverside",
            "latitude": "33.9121294",
            "address": "San Gorgonio Avenue, Banning, Riverside County, California, 92220, United States of America",
            "locType": "secondary"
        },
        "los angeles": {
            "longitude": "-118.2439408",
            "blogLinks": [
                "https://www.audleytravel.com/usa/california/places-to-go/los-angeles",
                "http://www.visitwesthollywood.com/blog/weho-without-wheels-getting-around-west-hollywood-and-la-without-your-car",
                "http://www.bravotv.com/the-real-housewives-of-beverly-hills/blogs",
                "https://www.virtualtourist.com/travel/North_America/United_States_of_America/California/Beverly_Hills-751100/Things_To_Do-Beverly_Hills-TG-C-1.html",
                "http://www.catsafterme.com/blog/archives/15232"
            ],
            "closest_to": "riverside",
            "latitude": "34.0543942",
            "address": "LA, Los Angeles County, California, United States of America",
            "locType": "city"
        },
        "wallingford": {
            "longitude": "-118.4345484",
            "blogLinks": [
                "http://www.sothebysrealty.com/extraordinary-living-blog"
            ],
            "closest_to": "beverly hills",
            "latitude": "34.1211891",
            "address": "Wallingford Drive, Beverly Glen, Sherman Oaks, LA, Los Angeles County, California, 90210, United States of America",
            "locType": "residential"
        },
        "highland ave.": {
            "longitude": "-117.1953088",
            "blogLinks": [
                "http://www.visitwesthollywood.com/blog/weho-without-wheels-getting-around-west-hollywood-and-la-without-your-car"
            ],
            "closest_to": "riverside",
            "latitude": "34.135757",
            "address": "Highland Avenue, San Bernardino, San Bernardino County, California, 92346, United States of America",
            "locType": "primary"
        },
        "park ave.": {
            "longitude": "-117.3248975",
            "blogLinks": [
                "http://www.visitwesthollywood.com/blog/weho-without-wheels-getting-around-west-hollywood-and-la-without-your-car"
            ],
            "closest_to": "riverside",
            "latitude": "34.5120975",
            "address": "Park Avenue, Victorville, San Bernardino County, California, 92392, United States of America",
            "locType": "residential"
        },
        "malibu": {
            "longitude": "-116.5023561",
            "blogLinks": [
                "http://www.visitwesthollywood.com/blog/weho-without-wheels-getting-around-west-hollywood-and-la-without-your-car"
            ],
            "closest_to": "riverside",
            "latitude": "33.7932142",
            "address": "Malibu, Palm Springs, Riverside County, California, 92264, United States of America",
            "locType": "residential"
        },
        "hillhurst ave.": {
            "longitude": "-118.2874232",
            "blogLinks": [
                "http://www.visitwesthollywood.com/blog/weho-without-wheels-getting-around-west-hollywood-and-la-without-your-car"
            ],
            "closest_to": "riverside",
            "latitude": "34.1079483",
            "address": "Hillhurst Avenue, Los Feliz, Little Armenia, LA, Los Angeles County, California, 90027, United States of America",
            "locType": "secondary"
        },
        "culver city": {
            "longitude": "-118.3964664",
            "blogLinks": [
                "http://www.visitwesthollywood.com/blog/weho-without-wheels-getting-around-west-hollywood-and-la-without-your-car",
                "http://www.catsafterme.com/blog/archives/15232"
            ],
            "closest_to": "riverside",
            "latitude": "34.0211224",
            "address": "Culver City, Los Angeles County, California, United States of America",
            "locType": "administrative"
        },
        "altadena": {
            "longitude": "-118.1352328",
            "blogLinks": [
                "http://www.visitwesthollywood.com/blog/weho-without-wheels-getting-around-west-hollywood-and-la-without-your-car"
            ],
            "closest_to": "riverside",
            "latitude": "34.1863161",
            "address": "Altadena, Los Angeles County, California, United States of America",
            "locType": "town"
        },
        "palos verdes peninsula ca": {
            "longitude": "-118.372196730215",
            "blogLinks": [
                "http://www.california-blog.com/"
            ],
            "closest_to": "riverside",
            "latitude": "33.77984925",
            "address": "Palos Verdes Peninsula High School, Hawthorne Boulevard, Rolling Hills Estates, Los Angeles County, California, 90274, United States of America",
            "locType": "school"
        },
        "hollywood sign": {
            "longitude": "-118.3216522",
            "blogLinks": [
                "http://www.visitwesthollywood.com/blog/weho-without-wheels-getting-around-west-hollywood-and-la-without-your-car"
            ],
            "closest_to": "riverside",
            "latitude": "34.1340991",
            "address": "Hollywood Sign, Mount Lee Drive, Hollywood Hills, LA, Los Angeles County, California, 90068, United States of America",
            "locType": "attraction"
        },
        "glendale blvd": {
            "longitude": "-118.2598068",
            "blogLinks": [
                "http://www.visitwesthollywood.com/blog/weho-without-wheels-getting-around-west-hollywood-and-la-without-your-car"
            ],
            "closest_to": "riverside",
            "latitude": "34.085747",
            "address": "Glendale Boulevard, Silver Lake, Angelino Heights, LA, Los Angeles County, California, 90026, United States of America",
            "locType": "primary"
        },
        "cahuenga ridge": {
            "longitude": "-118.3258335",
            "blogLinks": [
                "http://www.visitwesthollywood.com/blog/weho-without-wheels-getting-around-west-hollywood-and-la-without-your-car"
            ],
            "closest_to": "riverside",
            "latitude": "34.1369912",
            "address": "Cahuenga Peak, LA, Los Angeles County, California, United States of America",
            "locType": "peak"
        },
        "mount san jacinto ca": {
            "longitude": "-116.9586349",
            "blogLinks": [
                "http://www.california-blog.com/"
            ],
            "closest_to": "riverside",
            "latitude": "33.7839084",
            "address": "San Jacinto, Riverside County, California, United States of America",
            "locType": "city"
        },
        "fubar": {
            "longitude": "-118.364595699428",
            "blogLinks": [
                "http://www.visitwesthollywood.com/blog/weho-without-wheels-getting-around-west-hollywood-and-la-without-your-car"
            ],
            "closest_to": "riverside",
            "latitude": "34.09060195",
            "address": "Fubar, 7994, Santa Monica Boulevard, West Hollywood, Los Angeles County, California, 90046, United States of America",
            "locType": "bar"
        },
        "santa monica boulevard": {
            "longitude": "-118.317943",
            "blogLinks": [
                "http://www.visitwesthollywood.com/blog/weho-without-wheels-getting-around-west-hollywood-and-la-without-your-car"
            ],
            "closest_to": "riverside",
            "latitude": "34.0907545",
            "address": "Santa Monica Boulevard, Little Armenia, LA, Los Angeles County, California, Ca 90038, United States of America",
            "locType": "primary"
        },
        "santa monica beach": {
            "longitude": "-119.2203179",
            "blogLinks": [
                "https://www.audleytravel.com/usa/california/places-to-go/los-angeles"
            ],
            "closest_to": "beverly hills",
            "latitude": "34.159111",
            "address": "Santa Monica Drive, Channel Islands Beach, Ventura County, California, 93035, United States of America",
            "locType": "residential"
        },
        "west hollywood": {
            "longitude": "-118.3617442",
            "blogLinks": [
                "https://www.audleytravel.com/usa/california/places-to-go/los-angeles",
                "http://www.visitwesthollywood.com/blog/weho-without-wheels-getting-around-west-hollywood-and-la-without-your-car",
                "http://www.sothebysrealty.com/extraordinary-living-blog"
            ],
            "closest_to": "riverside",
            "latitude": "34.0900091",
            "address": "West Hollywood, Los Angeles County, California, United States of America",
            "locType": "city"
        },
        "flemington": {
            "longitude": "-117.3419873",
            "blogLinks": [
                "http://www.sothebysrealty.com/extraordinary-living-blog"
            ],
            "closest_to": "riverside",
            "latitude": "33.9230097",
            "address": "Flemington Road, Riverside, Riverside County, California, 92506, United States of America",
            "locType": "residential"
        },
        "pico blvd": {
            "longitude": "-118.3859303",
            "blogLinks": [
                "http://www.visitwesthollywood.com/blog/weho-without-wheels-getting-around-west-hollywood-and-la-without-your-car"
            ],
            "closest_to": "riverside",
            "latitude": "34.0551848",
            "address": "Pico Boulevard, South Carthay, The Village Green, LA, Los Angeles County, California, 90035, United States of America",
            "locType": "primary"
        },
        "ionia": {
            "longitude": "-117.9364213",
            "blogLinks": [
                "http://www.safewise.com/blog/50-safest-cities-michigan/"
            ],
            "closest_to": "riverside",
            "latitude": "33.8499889",
            "address": "West Ionia Place, West Anaheim, Anaheim, Orange County, California, 92801, United States of America",
            "locType": "residential"
        },
        "los angeles union station": {
            "longitude": "-118.2342858",
            "blogLinks": [
                "http://www.visitwesthollywood.com/blog/weho-without-wheels-getting-around-west-hollywood-and-la-without-your-car"
            ],
            "closest_to": "riverside",
            "latitude": "34.0558624",
            "address": "Los Angeles Union Station, LA Union Station Underground Walkway, Naud Junction, Little Tokyo Historic District, LA, Los Angeles County, California, 90012, United States of America",
            "locType": "station"
        },
        "riverside": {
            "longitude": "-117.3961622",
            "blogLinks": [
                "https://www.ridebooker.com/transfers/riverside-ca/beverly-hills-ca/taxi",
                "https://www.ridebooker.com/transfers/beverly-hills-ca/riverside-ca/van",
                "https://www.ridebooker.com/transfers/riverside-ca/beverly-hills-ca/47-pax-bus",
                "http://www.catsafterme.com/blog/archives/15232",
                "https://www.ridebooker.com/transfers/riverside-ca/beverly-hills-ca/van"
            ],
            "closest_to": "riverside",
            "latitude": "33.9533546",
            "address": "Riverside, Riverside County, California, United States of America",
            "locType": "city"
        },
        "canada": {
            "longitude": "-117.7641381",
            "blogLinks": [
                "http://www.california-blog.com/",
                "http://www.safewise.com/blog/50-safest-cities-michigan/"
            ],
            "closest_to": "riverside",
            "latitude": "33.7298842",
            "address": "La Canada, Lower Peters Canyon, Irvine, Orange County, California, 92602, United States of America",
            "locType": "residential"
        },
        "fountain ave.": {
            "longitude": "-118.2872121",
            "blogLinks": [
                "http://www.visitwesthollywood.com/blog/weho-without-wheels-getting-around-west-hollywood-and-la-without-your-car"
            ],
            "closest_to": "riverside",
            "latitude": "34.0957125",
            "address": "Fountain Avenue, Silver Lake, Little Armenia, LA, Los Angeles County, California, 90027-5517, United States of America",
            "locType": "tertiary"
        },
        "santa monica blvd": {
            "longitude": "-118.317943",
            "blogLinks": [
                "http://www.visitwesthollywood.com/blog/weho-without-wheels-getting-around-west-hollywood-and-la-without-your-car"
            ],
            "closest_to": "riverside",
            "latitude": "34.0907545",
            "address": "Santa Monica Boulevard, Little Armenia, LA, Los Angeles County, California, Ca 90038, United States of America",
            "locType": "primary"
        },
        "culver city city hall": {
            "longitude": "-118.391691",
            "blogLinks": [
                "http://www.catsafterme.com/blog/archives/15232"
            ],
            "closest_to": "riverside",
            "latitude": "33.9810963",
            "address": "California Highway Patrol, 6300, Bristol Parkway, Fox Hills, Culver City, Los Angeles County, California, 90230, United States of America",
            "locType": "police"
        },
        "sunset blvd": {
            "longitude": "-118.2554183",
            "blogLinks": [
                "http://www.visitwesthollywood.com/blog/weho-without-wheels-getting-around-west-hollywood-and-la-without-your-car"
            ],
            "closest_to": "riverside",
            "latitude": "34.0759222",
            "address": "Sunset Boulevard, Echo Park, Angelino Heights, LA, Los Angeles County, California, 90026, United States of America",
            "locType": "primary"
        },
        "beverly blvd": {
            "longitude": "-118.3386375",
            "blogLinks": [
                "http://www.visitwesthollywood.com/blog/weho-without-wheels-getting-around-west-hollywood-and-la-without-your-car"
            ],
            "closest_to": "riverside",
            "latitude": "34.0761808",
            "address": "Beverly Boulevard, Hancock Park, Hollywood, LA, Los Angeles County, California, 90036, United States of America",
            "locType": "secondary"
        },
        "san vicente blvd": {
            "longitude": "-118.3762803",
            "blogLinks": [
                "http://www.visitwesthollywood.com/blog/weho-without-wheels-getting-around-west-hollywood-and-la-without-your-car"
            ],
            "closest_to": "riverside",
            "latitude": "34.071212",
            "address": "San Vicente Boulevard, Carthay Circle, LA, Los Angeles County, California, 90048, United States of America",
            "locType": "primary"
        },
        "new york": {
            "longitude": "-117.8984509",
            "blogLinks": [
                "http://www.sothebysrealty.com/extraordinary-living-blog"
            ],
            "closest_to": "riverside",
            "latitude": "34.0143928",
            "address": "New York, West Covina, Los Angeles County, California, 91792, United States of America",
            "locType": "service"
        },
        "cahuenga": {
            "longitude": "-118.3258335",
            "blogLinks": [
                "http://www.visitwesthollywood.com/blog/weho-without-wheels-getting-around-west-hollywood-and-la-without-your-car"
            ],
            "closest_to": "riverside",
            "latitude": "34.1369912",
            "address": "Cahuenga Peak, LA, Los Angeles County, California, United States of America",
            "locType": "peak"
        },
        "san bernardino": {
            "longitude": "-117.2897651",
            "blogLinks": [
                "http://www.catsafterme.com/blog/archives/15232"
            ],
            "closest_to": "riverside",
            "latitude": "34.1083449",
            "address": "San Bernardino, San Bernardino County, California, United States of America",
            "locType": "city"
        },
        "sunset boulevard": {
            "longitude": "-118.2554183",
            "blogLinks": [
                "http://www.visitwesthollywood.com/blog/weho-without-wheels-getting-around-west-hollywood-and-la-without-your-car"
            ],
            "closest_to": "riverside",
            "latitude": "34.0759222",
            "address": "Sunset Boulevard, Echo Park, Angelino Heights, LA, Los Angeles County, California, 90026, United States of America",
            "locType": "primary"
        },
        "sunset blvd.": {
            "longitude": "-118.2554183",
            "blogLinks": [
                "http://www.visitwesthollywood.com/blog/weho-without-wheels-getting-around-west-hollywood-and-la-without-your-car"
            ],
            "closest_to": "riverside",
            "latitude": "34.0759222",
            "address": "Sunset Boulevard, Echo Park, Angelino Heights, LA, Los Angeles County, California, 90026, United States of America",
            "locType": "primary"
        },
        "lake superior": {
            "longitude": "-118.223376194672",
            "blogLinks": [
                "http://www.safewise.com/blog/50-safest-cities-michigan/"
            ],
            "closest_to": "riverside",
            "latitude": "33.89746655",
            "address": "Superior, East Palmer Street, Compton, Los Angeles County, California, 90220, United States of America",
            "locType": "supermarket"
        },
        "disneyland": {
            "longitude": "-117.91971186569",
            "blogLinks": [
                "http://www.catsafterme.com/blog/archives/15232"
            ],
            "closest_to": "riverside",
            "latitude": "33.8136367",
            "address": "DL, 1313, South Harbor Boulevard, Anaheim Resort District, Anaheim, Orange County, California, 92805, United States of America",
            "locType": "theme_park"
        },
        "venice beach": {
            "longitude": "-118.4739815",
            "blogLinks": [
                "http://www.visitwesthollywood.com/blog/weho-without-wheels-getting-around-west-hollywood-and-la-without-your-car"
            ],
            "closest_to": "beverly hills",
            "latitude": "33.9862012",
            "address": "Venice Beach, Venice Beach Bike Path, Venice, LA, Los Angeles County, California, 90405, United States of America",
            "locType": "police"
        },
        "elysian park ave.": {
            "longitude": "-118.2488955",
            "blogLinks": [
                "http://www.visitwesthollywood.com/blog/weho-without-wheels-getting-around-west-hollywood-and-la-without-your-car"
            ],
            "closest_to": "riverside",
            "latitude": "34.0724485",
            "address": "Vin Scully Avenue, Echo Park, Angelino Heights, LA, Los Angeles County, California, 90012, United States of America",
            "locType": "tertiary"
        },
        "santa monica blvd.": {
            "longitude": "-118.317943",
            "blogLinks": [
                "http://www.visitwesthollywood.com/blog/weho-without-wheels-getting-around-west-hollywood-and-la-without-your-car"
            ],
            "closest_to": "riverside",
            "latitude": "34.0907545",
            "address": "Santa Monica Boulevard, Little Armenia, LA, Los Angeles County, California, Ca 90038, United States of America",
            "locType": "primary"
        },
        "vermont": {
            "longitude": "-117.7907651",
            "blogLinks": [
                "http://www.visitwesthollywood.com/blog/weho-without-wheels-getting-around-west-hollywood-and-la-without-your-car"
            ],
            "closest_to": "riverside",
            "latitude": "33.712381",
            "address": "Vermont, Walnut, Irvine, Orange County, California, 92606, United States of America",
            "locType": "residential"
        },
        "mentone": {
            "longitude": "-117.109606374724",
            "blogLinks": [
                "http://www.catsafterme.com/blog/archives/15232"
            ],
            "closest_to": "riverside",
            "latitude": "34.05884",
            "address": "Mentone, Reservoir Canal Road, Crafton, San Bernardino County, California, 92374, United States of America",
            "locType": "administrative"
        },
        "santa monica": {
            "longitude": "-118.4869738",
            "blogLinks": [
                "http://www.visitwesthollywood.com/blog/weho-without-wheels-getting-around-west-hollywood-and-la-without-your-car"
            ],
            "closest_to": "beverly hills",
            "latitude": "34.0195598",
            "address": "Santa Monica, Los Angeles County, California, United States of America",
            "locType": "city"
        },
        "fullerton": {
            "longitude": "-117.9294164",
            "blogLinks": [
                "http://www.visitwesthollywood.com/blog/weho-without-wheels-getting-around-west-hollywood-and-la-without-your-car"
            ],
            "closest_to": "riverside",
            "latitude": "33.8708215",
            "address": "Fullerton, Orange County, California, United States of America",
            "locType": "city"
        },
        "marina del rey": {
            "longitude": "-118.4508017",
            "blogLinks": [
                "http://www.visitwesthollywood.com/blog/weho-without-wheels-getting-around-west-hollywood-and-la-without-your-car"
            ],
            "closest_to": "beverly hills",
            "latitude": "33.9774017",
            "address": "Marina del Rey, Ocean Park, Los Angeles County, California, United States of America",
            "locType": "suburb"
        },
        "livonia": {
            "longitude": "-118.387167",
            "blogLinks": [
                "http://www.safewise.com/blog/50-safest-cities-michigan/"
            ],
            "closest_to": "riverside",
            "latitude": "34.0450329",
            "address": "Livonia Avenue, South Carthay, Palms, LA, Los Angeles County, California, 90034, United States of America",
            "locType": "residential"
        },
        "newport beach ca": {
            "longitude": "-117.92944",
            "blogLinks": [
                "http://www.california-blog.com/"
            ],
            "closest_to": "riverside",
            "latitude": "33.6170092",
            "address": "Newport Beach, Orange County, California, United States of America",
            "locType": "city"
        },
        "san vicente ave.": {
            "longitude": "-118.1168856",
            "blogLinks": [
                "http://www.visitwesthollywood.com/blog/weho-without-wheels-getting-around-west-hollywood-and-la-without-your-car"
            ],
            "closest_to": "riverside",
            "latitude": "33.8058542",
            "address": "San Vicente Avenue, Los Altos, Long Beach, Los Angeles County, California, 90815, United States of America",
            "locType": "residential"
        },
        "west harrison": {
            "longitude": "-117.7139524",
            "blogLinks": [
                "http://www.sothebysrealty.com/extraordinary-living-blog"
            ],
            "closest_to": "riverside",
            "latitude": "33.7012222",
            "address": "Harrison, Lambert Ranch, Portola Springs, Irvine, Orange County, California, 92618, United States of America",
            "locType": "residential"
        },
        "dodger stadium": {
            "longitude": "-118.238969292435",
            "blogLinks": [
                "http://www.visitwesthollywood.com/blog/weho-without-wheels-getting-around-west-hollywood-and-la-without-your-car"
            ],
            "closest_to": "riverside",
            "latitude": "34.0736255",
            "address": "Dodger Stadium, 1000, Vin Scully Avenue, New Chinatown, Angelino Heights, LA, Los Angeles County, California, 90012, United States of America",
            "locType": "stadium"
        },
        "vermont ave.": {
            "longitude": "-118.2914818",
            "blogLinks": [
                "http://www.visitwesthollywood.com/blog/weho-without-wheels-getting-around-west-hollywood-and-la-without-your-car"
            ],
            "closest_to": "riverside",
            "latitude": "33.9890027",
            "address": "Vermont Avenue, Wildasin, Florence, LA, Los Angeles County, California, 90044, United States of America",
            "locType": "secondary"
        },
        "wyandot": {
            "longitude": "-117.2147156",
            "blogLinks": [
                "http://www.safewise.com/blog/50-safest-cities-michigan/"
            ],
            "closest_to": "riverside",
            "latitude": "34.5353692",
            "address": "Wyandot Road, Apple Valley, San Bernardino County, California, 92307, United States of America",
            "locType": "residential"
        },
        "los angeles hilton": {
            "longitude": "-118.4577045",
            "blogLinks": [
                "http://www.catsafterme.com/blog/archives/15232"
            ],
            "closest_to": "beverly hills",
            "latitude": "33.9839192",
            "address": "Hilton Garden Inn Los Angeles Marina Del Rey, Palawan Way, Marina del Rey, Ocean Park, Los Angeles County, California, 90292, United States of America",
            "locType": "hotel"
        },
        "grand ave.": {
            "longitude": "-116.4257794",
            "blogLinks": [
                "http://www.visitwesthollywood.com/blog/weho-without-wheels-getting-around-west-hollywood-and-la-without-your-car"
            ],
            "closest_to": "riverside",
            "latitude": "34.10718",
            "address": "Grand Avenue, Yucca Valley, San Bernardino County, California, 92284, United States of America",
            "locType": "residential"
        },
        "beverly hills": {
            "longitude": "-118.4003562",
            "blogLinks": [
                "https://www.virtualtourist.com/travel/North_America/United_States_of_America/California/Beverly_Hills-751100/Things_To_Do-Beverly_Hills-TG-C-1.html",
                "https://www.ridebooker.com/transfers/riverside-ca/beverly-hills-ca/taxi",
                "https://www.ridebooker.com/transfers/riverside-ca/beverly-hills-ca/47-pax-bus",
                "http://www.visitwesthollywood.com/blog/weho-without-wheels-getting-around-west-hollywood-and-la-without-your-car",
                "http://www.bravotv.com/the-real-housewives-of-beverly-hills/blogs",
                "http://www.safewise.com/blog/50-safest-cities-michigan/",
                "https://www.ridebooker.com/transfers/riverside-ca/beverly-hills-ca/van",
                "http://www.bravotv.com/the-real-housewives-of-beverly-hills/season-6/blogs/kyle-richards/kyle-richards-it-felt-false",
                "https://www.ridebooker.com/transfers/beverly-hills-ca/riverside-ca/van",
                "http://www.catsafterme.com/blog/archives/15232"
            ],
            "closest_to": "riverside",
            "latitude": "34.0736204",
            "address": "Beverly Hills, Los Angeles County, California, United States of America",
            "locType": "city"
        },
        "woodward avenue": {
            "longitude": "-118.3070256",
            "blogLinks": [
                "http://www.safewise.com/blog/50-safest-cities-michigan/"
            ],
            "closest_to": "riverside",
            "latitude": "34.2596522",
            "address": "Woodward Avenue, Sunland, LA, Los Angeles County, California, 91040, United States of America",
            "locType": "tertiary"
        },
        "los angeles county museum of art": {
            "longitude": "-118.357997654056",
            "blogLinks": [
                "https://www.audleytravel.com/usa/california/places-to-go/los-angeles"
            ],
            "closest_to": "riverside",
            "latitude": "34.0634357",
            "address": "Los Angeles County Museum of Art, Wilshire Boulevard, Park La Brea, The Village Green, LA, Los Angeles County, California, 90036, United States of America",
            "locType": "museum"
        },
        "venice": {
            "longitude": "-118.4668874",
            "blogLinks": [
                "http://www.visitwesthollywood.com/blog/weho-without-wheels-getting-around-west-hollywood-and-la-without-your-car"
            ],
            "closest_to": "beverly hills",
            "latitude": "33.995044",
            "address": "Venice, LA, Los Angeles County, California, United States of America",
            "locType": "suburb"
        },
        "culver": {
            "longitude": "-118.3964664",
            "blogLinks": [
                "http://www.catsafterme.com/blog/archives/15232"
            ],
            "closest_to": "riverside",
            "latitude": "34.0211224",
            "address": "Culver City, Los Angeles County, California, United States of America",
            "locType": "administrative"
        },
        "mount lee": {
            "longitude": "-118.3219735",
            "blogLinks": [
                "http://www.visitwesthollywood.com/blog/weho-without-wheels-getting-around-west-hollywood-and-la-without-your-car"
            ],
            "closest_to": "riverside",
            "latitude": "34.1345796",
            "address": "Mount Lee, LA, Los Angeles County, California, United States of America",
            "locType": "peak"
        },
        "ontario": {
            "longitude": "-117.6484303",
            "blogLinks": [
                "http://www.california-blog.com/"
            ],
            "closest_to": "riverside",
            "latitude": "34.065846",
            "address": "Ontario, San Bernardino County, California, United States of America",
            "locType": "city"
        },
        "dearborn": {
            "longitude": "-117.6403266",
            "blogLinks": [
                "http://www.safewise.com/blog/50-safest-cities-michigan/"
            ],
            "closest_to": "riverside",
            "latitude": "33.645527",
            "address": "Dearborn, Mission Viejo, Orange County, California, 92688, United States of America",
            "locType": "residential"
        },
        "brandywine": {
            "longitude": "-117.7724806",
            "blogLinks": [
                "http://www.sothebysrealty.com/extraordinary-living-blog"
            ],
            "closest_to": "riverside",
            "latitude": "33.7155224",
            "address": "Brandywine, Northwood, Irvine, Orange County, California, 92620, United States of America",
            "locType": "residential"
        },
        "disneyland park": {
            "longitude": "-117.91971186569",
            "blogLinks": [
                "http://www.visitwesthollywood.com/blog/weho-without-wheels-getting-around-west-hollywood-and-la-without-your-car"
            ],
            "closest_to": "riverside",
            "latitude": "33.8136367",
            "address": "Disneyland Park, Attraction Exit, Anaheim Resort District, Anaheim, Orange County, California, 217, United States of America",
            "locType": "theme_park"
        },
        "great lake": {
            "longitude": "-118.34198065",
            "blogLinks": [
                "http://www.safewise.com/blog/50-safest-cities-michigan/"
            ],
            "closest_to": "riverside",
            "latitude": "33.95822585",
            "address": "The Forum, 3900, West Manchester Boulevard, Inglewood, Los Angeles County, California, 90305, United States of America",
            "locType": "yes"
        },
        "silver lake": {
            "longitude": "-118.2693734",
            "blogLinks": [
                "http://www.visitwesthollywood.com/blog/weho-without-wheels-getting-around-west-hollywood-and-la-without-your-car"
            ],
            "closest_to": "riverside",
            "latitude": "34.0896518",
            "address": "Silver Lake, Angelino Heights, LA, Los Angeles County, California, 90026, United States of America",
            "locType": "neighbourhood"
        },
        "santa monica mountains": {
            "longitude": "-118.789983284662",
            "blogLinks": [
                "http://www.visitwesthollywood.com/blog/weho-without-wheels-getting-around-west-hollywood-and-la-without-your-car"
            ],
            "closest_to": "beverly hills",
            "latitude": "34.11008435",
            "address": "Santa Monica Mountains National Recreation Area, Simes Lane, Seminole Hot Springs, Los Angeles County, California, 91301, United States of America",
            "locType": "protected_area"
        },
        "lake hollywood dr.": {
            "longitude": "-118.3292953",
            "blogLinks": [
                "http://www.visitwesthollywood.com/blog/weho-without-wheels-getting-around-west-hollywood-and-la-without-your-car"
            ],
            "closest_to": "riverside",
            "latitude": "34.1291192",
            "address": "Lake Hollywood Drive, Hollywood Hills, LA, Los Angeles County, California, 90068, United States of America",
            "locType": "residential"
        },
        "la brea ave.": {
            "longitude": "-118.3519077",
            "blogLinks": [
                "http://www.visitwesthollywood.com/blog/weho-without-wheels-getting-around-west-hollywood-and-la-without-your-car"
            ],
            "closest_to": "riverside",
            "latitude": "34.0305331",
            "address": "La Brea Avenue, The Village Green, LA, Los Angeles County, California, 90016, United States of America",
            "locType": "primary"
        },
        "hollywood": {
            "longitude": "-118.3299898",
            "blogLinks": [
                "http://www.visitwesthollywood.com/blog/weho-without-wheels-getting-around-west-hollywood-and-la-without-your-car",
                "http://www.catsafterme.com/blog/archives/15232"
            ],
            "closest_to": "riverside",
            "latitude": "34.1028268",
            "address": "Hollywood, LA, Los Angeles County, California, United States of America",
            "locType": "suburb"
        },
        "burbank": {
            "longitude": "-118.3258553",
            "blogLinks": [
                "http://www.visitwesthollywood.com/blog/weho-without-wheels-getting-around-west-hollywood-and-la-without-your-car",
                "http://www.catsafterme.com/blog/archives/15232"
            ],
            "closest_to": "riverside",
            "latitude": "34.1816482",
            "address": "Burbank, Los Angeles County, California, United States of America",
            "locType": "city"
        },
        "jefferson avenue": {
            "longitude": "-117.3589431",
            "blogLinks": [
                "http://www.safewise.com/blog/50-safest-cities-michigan/"
            ],
            "closest_to": "riverside",
            "latitude": "34.0886856",
            "address": "Jefferson Avenue, San Bernardino, San Bernardino County, California, 92376, United States of America",
            "locType": "residential"
        },
        "palm springs air museum ca": {
            "longitude": "-116.504677958796",
            "blogLinks": [
                "http://www.california-blog.com/"
            ],
            "closest_to": "riverside",
            "latitude": "33.83250375",
            "address": "Palm Springs Air Museum, 745, North Gene Autry Trail, Palm Springs, Riverside County, California, 92262, United States of America",
            "locType": "museum"
        },
        "los feliz blvd": {
            "longitude": "-118.2647736",
            "blogLinks": [
                "http://www.visitwesthollywood.com/blog/weho-without-wheels-getting-around-west-hollywood-and-la-without-your-car"
            ],
            "closest_to": "riverside",
            "latitude": "34.1254569",
            "address": "Los Feliz Boulevard, Atwater, LA, Los Angeles County, California, 91204, United States of America",
            "locType": "primary"
        },
        "culver boulevard": {
            "longitude": "-118.4303324",
            "blogLinks": [
                "http://www.catsafterme.com/blog/archives/15232"
            ],
            "closest_to": "beverly hills",
            "latitude": "33.9792972",
            "address": "Culver Boulevard, Del Rey, Playa Vista, LA, Los Angeles County, California, 90094, United States of America",
            "locType": "secondary"
        },
        "marquette": {
            "longitude": "-117.648034",
            "blogLinks": [
                "http://www.safewise.com/blog/50-safest-cities-michigan/"
            ],
            "closest_to": "riverside",
            "latitude": "33.581748",
            "address": "Marquette, Mission Viejo, Orange County, California, 92692, United States of America",
            "locType": "residential"
        },
        "north hollywood": {
            "longitude": "-118.374037",
            "blogLinks": [
                "http://www.visitwesthollywood.com/blog/weho-without-wheels-getting-around-west-hollywood-and-la-without-your-car"
            ],
            "closest_to": "riverside",
            "latitude": "34.1729044",
            "address": "North Hollywood, LA, Los Angeles County, California, United States of America",
            "locType": "suburb"
        },
        "monrovia": {
            "longitude": "-118.0014516",
            "blogLinks": [
                "http://www.california-blog.com/"
            ],
            "closest_to": "riverside",
            "latitude": "34.1483499",
            "address": "Monrovia, Los Angeles County, California, United States of America",
            "locType": "city"
        },
        "universal city": {
            "longitude": "-118.3584363",
            "blogLinks": [
                "http://www.visitwesthollywood.com/blog/weho-without-wheels-getting-around-west-hollywood-and-la-without-your-car"
            ],
            "closest_to": "riverside",
            "latitude": "34.1412926",
            "address": "Universal City, Hollywood Hills, LA, Los Angeles County, California, 91602, United States of America",
            "locType": "neighbourhood"
        },
        "detroit river": {
            "longitude": "-117.555162",
            "blogLinks": [
                "http://www.sothebysrealty.com/extraordinary-living-blog",
                "http://www.safewise.com/blog/50-safest-cities-michigan/"
            ],
            "closest_to": "riverside",
            "latitude": "33.9420551",
            "address": "Detroit Street, Norco, Riverside County, California, 92860, United States of America",
            "locType": "residential"
        },
        "primera ave.": {
            "longitude": "-118.3438069",
            "blogLinks": [
                "http://www.visitwesthollywood.com/blog/weho-without-wheels-getting-around-west-hollywood-and-la-without-your-car"
            ],
            "closest_to": "riverside",
            "latitude": "34.1312143",
            "address": "Primera Avenue, Universal City, Hollywood Hills, LA, Los Angeles County, California, 90068, United States of America",
            "locType": "residential"
        },
        "ojai valley": {
            "longitude": "-119.2428889",
            "blogLinks": [
                "http://www.california-blog.com/"
            ],
            "closest_to": "beverly hills",
            "latitude": "34.4480495",
            "address": "Ojai, Ventura County, California, United States of America",
            "locType": "city"
        },
        "moreno valley ca": {
            "longitude": "-117.2305943",
            "blogLinks": [
                "http://www.california-blog.com/"
            ],
            "closest_to": "riverside",
            "latitude": "33.937517",
            "address": "Moreno Valley, Riverside County, California, United States of America",
            "locType": "city"
        },
        "cahuenga blvd.": {
            "longitude": "-118.3615338",
            "blogLinks": [
                "http://www.visitwesthollywood.com/blog/weho-without-wheels-getting-around-west-hollywood-and-la-without-your-car"
            ],
            "closest_to": "riverside",
            "latitude": "34.1594703",
            "address": "Cahuenga Boulevard, La Paco, North Hollywood, LA, Los Angeles County, California, 91602, United States of America",
            "locType": "secondary"
        },
        "dearborn heights": {
            "longitude": "-118.3230648",
            "blogLinks": [
                "http://www.safewise.com/blog/50-safest-cities-michigan/"
            ],
            "closest_to": "riverside",
            "latitude": "34.1147205",
            "address": "Dearborn Drive, Whitley Heights, LA, Los Angeles County, California, 90068, United States of America",
            "locType": "residential"
        },
        "ionia county": {
            "longitude": "-117.9364213",
            "blogLinks": [
                "http://www.safewise.com/blog/50-safest-cities-michigan/"
            ],
            "closest_to": "riverside",
            "latitude": "33.8499889",
            "address": "West Ionia Place, West Anaheim, Anaheim, Orange County, California, 92801, United States of America",
            "locType": "residential"
        },
        "metro": {
            "longitude": "-118.4710141",
            "blogLinks": [
                "http://www.visitwesthollywood.com/blog/weho-without-wheels-getting-around-west-hollywood-and-la-without-your-car"
            ],
            "closest_to": "beverly hills",
            "latitude": "33.9880063",
            "address": "Metro, Windward Circle, Venice, LA, Los Angeles County, California, 90291, United States of America",
            "locType": "bus_station"
        },
        "bel air": {
            "longitude": "-118.4479801",
            "blogLinks": [
                "http://www.visitwesthollywood.com/blog/weho-without-wheels-getting-around-west-hollywood-and-la-without-your-car"
            ],
            "closest_to": "beverly hills",
            "latitude": "34.0827278",
            "address": "Bel Air, Westwood, LA, Los Angeles County, California, 90095, United States of America",
            "locType": "neighbourhood"
        },
        "mount lee rd.": {
            "longitude": "-118.3219735",
            "blogLinks": [
                "http://www.visitwesthollywood.com/blog/weho-without-wheels-getting-around-west-hollywood-and-la-without-your-car"
            ],
            "closest_to": "riverside",
            "latitude": "34.1345796",
            "address": "Mount Lee, LA, Los Angeles County, California, United States of America",
            "locType": "peak"
        },
        "virgil ave.": {
            "longitude": "-118.2868854",
            "blogLinks": [
                "http://www.visitwesthollywood.com/blog/weho-without-wheels-getting-around-west-hollywood-and-la-without-your-car"
            ],
            "closest_to": "riverside",
            "latitude": "34.0863926",
            "address": "Virgil Avenue, Silver Lake, Little Armenia, LA, Los Angeles County, California, 90029-2910, United States of America",
            "locType": "secondary"
        },
        "botanical gardens": {
            "longitude": "-118.114044107557",
            "blogLinks": [
                "http://www.visitwesthollywood.com/blog/weho-without-wheels-getting-around-west-hollywood-and-la-without-your-car"
            ],
            "closest_to": "riverside",
            "latitude": "34.1310559",
            "address": "Botanical Gardens, Orlando Road, San Pasqual, San Marino, Los Angeles County, California, 91125, United States of America",
            "locType": "park"
        },
        "la plata river": {
            "longitude": "-116.4963536",
            "blogLinks": [
                "http://www.sothebysrealty.com/extraordinary-living-blog"
            ],
            "closest_to": "riverside",
            "latitude": "33.7971963",
            "address": "Via la Plata, Palm Springs, Riverside County, California, 92264, United States of America",
            "locType": "residential"
        },
        "culver hotel": {
            "longitude": "-118.394129",
            "blogLinks": [
                "http://www.catsafterme.com/blog/archives/15232"
            ],
            "closest_to": "riverside",
            "latitude": "34.0238571",
            "address": "Culver Hotel, Culver Boulevard, Culver City, Los Angeles County, California, 90293, United States of America",
            "locType": "hotel"
        },
        "hollywood blvd": {
            "longitude": "-118.32684",
            "blogLinks": [
                "http://www.visitwesthollywood.com/blog/weho-without-wheels-getting-around-west-hollywood-and-la-without-your-car"
            ],
            "closest_to": "riverside",
            "latitude": "34.1016312",
            "address": "Hollywood Boulevard, Hollywood, LA, Los Angeles County, California, 90028, United States of America",
            "locType": "secondary"
        },
        "main street": {
            "longitude": "-117.59857297034",
            "blogLinks": [
                "http://www.catsafterme.com/blog/archives/15232"
            ],
            "closest_to": "riverside",
            "latitude": "34.10780565",
            "address": "Main Street, Alta Loma, Rancho Cucamonga, San Bernardino County, California, 91730, United States of America",
            "locType": "residential"
        },
        "mount baldy ca": {
            "longitude": "-117.6600552",
            "blogLinks": [
                "http://www.california-blog.com/"
            ],
            "closest_to": "riverside",
            "latitude": "34.2361168",
            "address": "Mount Baldy, Los Angeles County, California, United States of America",
            "locType": "hamlet"
        },
        "riverside national cemetery": {
            "longitude": "-117.270726607134",
            "blogLinks": [
                "http://www.catsafterme.com/blog/archives/15232",
                "http://www.california-blog.com/"
            ],
            "closest_to": "riverside",
            "latitude": "33.87692125",
            "address": "Riverside National Cemetery, 22495, Alessandro, Riverside County, California, 92518, United States of America",
            "locType": "cemetery"
        },
        "morongo valley": {
            "longitude": "-116.596723958419",
            "blogLinks": [
                "http://www.california-blog.com/"
            ],
            "closest_to": "riverside",
            "latitude": "34.0537585",
            "address": "Morongo Valley, Vista Drive, Morongo Valley, San Bernardino County, California, 92256, United States of America",
            "locType": "administrative"
        },
        "macarthur harbor": {
            "longitude": "-117.918204544652",
            "blogLinks": [
                "http://www.visitwesthollywood.com/blog/weho-without-wheels-getting-around-west-hollywood-and-la-without-your-car"
            ],
            "closest_to": "riverside",
            "latitude": "33.70112535",
            "address": "Kaiser Permanente Harbor-MacArthur Medical Offices, 3401, Macarthur Boulevard, Santa Ana, Orange County, California, 92704, United States of America",
            "locType": "doctors"
        },
        "metro red line": {
            "longitude": "-118.2317418",
            "blogLinks": [
                "http://www.visitwesthollywood.com/blog/weho-without-wheels-getting-around-west-hollywood-and-la-without-your-car"
            ],
            "closest_to": "riverside",
            "latitude": "34.0439641",
            "address": "Red Line, Santa Fe Avenue, Arts District, Little Tokyo Historic District, LA, Los Angeles County, California, 90013, United States of America",
            "locType": "subway"
        },
        "rochester": {
            "longitude": "-117.5475514",
            "blogLinks": [
                "http://www.safewise.com/blog/50-safest-cities-michigan/"
            ],
            "closest_to": "riverside",
            "latitude": "34.0916774",
            "address": "Rochester, San Bernardino County, California, United States of America",
            "locType": "hamlet"
        }
    }
}