{
    "santa barbara": {
        "type": "city",
        "class": "place",
        "lat": "34.4221319",
        "lon": "-119.7026672",
        "licence": "Data \u00a9 OpenStreetMap contributors, ODbL 1.0. http://www.openstreetmap.org/copyright",
        "osm_type": "way",
        "importance": 0.84553400574646,
        "boundingbox": [
            "34.336029",
            "34.463922",
            "-119.8597817",
            "-119.6399339"
        ],
        "icon": "https://nominatim.openstreetmap.org/images/mapicons/poi_place_city.p.20.png",
        "osm_id": "33113642",
        "display_name": "Santa Barbara, Santa Barbara County, California, United States of America",
        "place_id": "71537873"
    },
    "beverly hills": {
        "class": "place",
        "licence": "Data \u00a9 OpenStreetMap contributors, ODbL 1.0. http://www.openstreetmap.org/copyright",
        "lon": "-118.4003562",
        "lat": "34.0736204",
        "boundingbox": [
            "34.05269",
            "34.112456",
            "-118.4270731",
            "-118.3715357"
        ],
        "importance": 0.65,
        "osm_type": "relation",
        "icon": "https://nominatim.openstreetmap.org/images/mapicons/poi_place_city.p.20.png",
        "osm_id": "3503615",
        "display_name": "Beverly Hills, Los Angeles County, California, United States of America",
        "type": "city",
        "place_id": "159602133"
    },
    "mentions": {
        "bedford ave": {
            "closest_to": "beverly hills",
            "locType": "residential",
            "address": "Bedford Avenue, Fox Hills, Ladera Heights, Los Angeles County, California, 90056, United States of America",
            "latitude": "33.9923668",
            "longitude": "-118.3750809",
            "blogLinks": [
                "http://wikitravel.org/en/Beverly_Hills"
            ]
        },
        "calabasas": {
            "closest_to": "santa barbara",
            "locType": "administrative",
            "address": "Calabasas, Los Angeles County, California, United States of America",
            "latitude": "34.1446643",
            "longitude": "-118.6440972",
            "blogLinks": [
                "http://wikitravel.org/en/Beverly_Hills",
                "http://www.distancesfrom.com/us/distance-from-Santa-Barbara-to-Beverly-Hills-via-Calabasas/DistanceHistory/12103825.aspx"
            ]
        },
        "santa barbara": {
            "closest_to": "santa barbara",
            "locType": "city",
            "address": "Santa Barbara, Santa Barbara County, California, United States of America",
            "latitude": "34.4221319",
            "longitude": "-119.7026672",
            "blogLinks": [
                "http://www.distancesfrom.com/us/travel-from-Santa-Barbara-to-Beverly-Hills-CA/TravelFromHistory/2217330.aspx",
                "http://www.distancesfrom.com/us/flight-distance-from-Santa-Barbara-to-Beverly-Hills-CA/FlightHistory/2217330.aspx",
                "http://www.usatourist.com/english/destinations/california/california-driving-tour.html",
                "http://www.distancesfrom.com/us/distance-from-Santa-Barbara-to-Beverly-Hills-via-Calabasas/DistanceHistory/12103825.aspx"
            ]
        },
        "malibu creek state park": {
            "closest_to": "santa barbara",
            "locType": "nature_reserve",
            "address": "Malibu Creek State Park, Las Virgenes Road, Calabasas, Los Angeles County, California, 91302, United States of America",
            "latitude": "34.0996554",
            "longitude": "-118.7120156",
            "blogLinks": [
                "http://gocalifornia.about.com/od/calamenu/ss/Driving-Californias-Malibu-Coast.htm"
            ]
        },
        "beverly hills": {
            "closest_to": "beverly hills",
            "locType": "city",
            "address": "Beverly Hills, Los Angeles County, California, United States of America",
            "latitude": "34.0736204",
            "longitude": "-118.4003562",
            "blogLinks": [
                "http://www.distancesfrom.com/us/travel-from-Santa-Barbara-to-Beverly-Hills-CA/TravelFromHistory/2217330.aspx",
                "http://www.tvfoodmaps.com/s1/CA",
                "http://gocalifornia.about.com/od/calamenu/ss/Driving-Californias-Malibu-Coast.htm",
                "http://wikitravel.org/en/Beverly_Hills",
                "http://www.bestplaces.net/zip-code/california/beverly_hills/90210",
                "http://www.usatourist.com/english/destinations/california/california-driving-tour.html",
                "http://lovebeverlyhills.com/",
                "http://www.distancesfrom.com/us/flight-distance-from-Santa-Barbara-to-Beverly-Hills-CA/FlightHistory/2217330.aspx",
                "http://www.distancesfrom.com/us/distance-from-Santa-Barbara-to-Beverly-Hills-via-Calabasas/DistanceHistory/12103825.aspx",
                "http://www.distancesfrom.com/us/travel-from-beverly-hills-to-Santa-barbara/TravelFromHistory/11355793.aspx"
            ]
        },
        "crescent beverly hills": {
            "closest_to": "beverly hills",
            "locType": "city",
            "address": "Beverly Hills, Los Angeles County, California, United States of America",
            "latitude": "34.0736204",
            "longitude": "-118.4003562",
            "blogLinks": [
                "http://wikitravel.org/en/Beverly_Hills"
            ]
        },
        "sedona": {
            "closest_to": "beverly hills",
            "locType": "residential",
            "address": "Sedona, Foothill Ranch, Lake Forest, Orange County, California, 92610, United States of America",
            "latitude": "33.6916439",
            "longitude": "-117.6689202",
            "blogLinks": [
                "http://www.usatourist.com/english/destinations/california/california-driving-tour.html"
            ]
        },
        "silver lake": {
            "closest_to": "beverly hills",
            "locType": "neighbourhood",
            "address": "Silver Lake, Angelino Heights, LA, Los Angeles County, California, 90026, United States of America",
            "latitude": "34.0896518",
            "longitude": "-118.2693734",
            "blogLinks": [
                "http://wikitravel.org/en/Beverly_Hills"
            ]
        },
        "los angeles international": {
            "closest_to": "beverly hills",
            "locType": "aerodrome",
            "address": "Los Angeles International Airport, Gate 41, Westchester, Playa del Rey, LA, Los Angeles County, California, 90245, United States of America",
            "latitude": "33.94211345",
            "longitude": "-118.407057290249",
            "blogLinks": [
                "http://www.bestplaces.net/zip-code/california/beverly_hills/90210"
            ]
        },
        "downtown los angeles": {
            "closest_to": "beverly hills",
            "locType": "station",
            "address": "Downtown Burbank, Front Street, Burbank, Los Angeles County, California, 91502, United States of America",
            "latitude": "34.1789188",
            "longitude": "-118.312628",
            "blogLinks": [
                "http://wikitravel.org/en/Beverly_Hills"
            ]
        },
        "santa monica boulevard": {
            "closest_to": "beverly hills",
            "locType": "primary",
            "address": "Santa Monica Boulevard, Little Armenia, LA, Los Angeles County, California, Ca 90038, United States of America",
            "latitude": "34.0907545",
            "longitude": "-118.317943",
            "blogLinks": [
                "http://wikitravel.org/en/Beverly_Hills"
            ]
        },
        "bakersfield": {
            "closest_to": "santa barbara",
            "locType": "city",
            "address": "Bakersfield, Kern County, California, United States of America",
            "latitude": "35.3738712",
            "longitude": "-119.0194638",
            "blogLinks": [
                "https://www.tripadvisor.com/Attractions-g32070-Activities-Beverly_Hills_California.html"
            ]
        },
        "dayton way": {
            "closest_to": "beverly hills",
            "locType": "residential",
            "address": "Dayton Way, Beverly Hills, Los Angeles County, California, 90210, United States of America",
            "latitude": "34.0707992",
            "longitude": "-118.3922445",
            "blogLinks": [
                "http://wikitravel.org/en/Beverly_Hills"
            ]
        },
        "pacific coast": {
            "closest_to": "beverly hills",
            "locType": "yes",
            "address": "Pacific Coast, Florista Street, Los Alamitos, Orange County, California, 90720, United States of America",
            "latitude": "33.8047323",
            "longitude": "-118.063517668143",
            "blogLinks": [
                "http://www.usatourist.com/english/destinations/california/california-driving-tour.html",
                "http://gocalifornia.about.com/od/calamenu/ss/Driving-Californias-Malibu-Coast.htm"
            ]
        },
        "santa monica blvd": {
            "closest_to": "beverly hills",
            "locType": "primary",
            "address": "Santa Monica Boulevard, Little Armenia, LA, Los Angeles County, California, Ca 90038, United States of America",
            "latitude": "34.0907545",
            "longitude": "-118.317943",
            "blogLinks": [
                "http://wikitravel.org/en/Beverly_Hills"
            ]
        },
        "topanga canyon blvd.": {
            "closest_to": "santa barbara",
            "locType": "primary",
            "address": "Topanga Canyon Boulevard, Canoga Park, LA, Los Angeles County, California, 91303, United States of America",
            "latitude": "34.2091793",
            "longitude": "-118.6059598",
            "blogLinks": [
                "http://gocalifornia.about.com/od/calamenu/ss/Driving-Californias-Malibu-Coast.htm"
            ]
        },
        "barneys new york": {
            "closest_to": "beverly hills",
            "locType": "clothes",
            "address": "Barneys New York, Bow Street, The Grove, Hollywood, LA, Los Angeles County, California, 90036, United States of America",
            "latitude": "34.07267335",
            "longitude": "-118.35831912009",
            "blogLinks": [
                "http://wikitravel.org/en/Beverly_Hills"
            ]
        },
        "north beverly drive": {
            "closest_to": "santa barbara",
            "locType": "residential",
            "address": "North Beverly Drive, Westwood, LA, Los Angeles County, California, 90210, United States of America",
            "latitude": "34.1064692",
            "longitude": "-118.4179156",
            "blogLinks": [
                "http://wikitravel.org/en/Beverly_Hills"
            ]
        },
        "new york": {
            "closest_to": "beverly hills",
            "locType": "service",
            "address": "New York, West Covina, Los Angeles County, California, 91792, United States of America",
            "latitude": "34.0143928",
            "longitude": "-117.8984509",
            "blogLinks": [
                "http://wikitravel.org/en/Beverly_Hills"
            ]
        },
        "sunset blvd": {
            "closest_to": "beverly hills",
            "locType": "primary",
            "address": "Sunset Boulevard, Echo Park, Angelino Heights, LA, Los Angeles County, California, 90026, United States of America",
            "latitude": "34.0759222",
            "longitude": "-118.2554183",
            "blogLinks": [
                "http://wikitravel.org/en/Beverly_Hills"
            ]
        },
        "beverly hills route": {
            "closest_to": "beverly hills",
            "locType": "city",
            "address": "Beverly Hills, Los Angeles County, California, United States of America",
            "latitude": "34.0736204",
            "longitude": "-118.4003562",
            "blogLinks": [
                "http://www.distancesfrom.com/us/distance-from-Santa-Barbara-to-Beverly-Hills-via-Calabasas/DistanceHistory/12103825.aspx"
            ]
        },
        "beverly drive": {
            "closest_to": "beverly hills",
            "locType": "residential",
            "address": "Beverly Drive, San Bernardino, San Bernardino County, California, 92405, United States of America",
            "latitude": "34.1520028",
            "longitude": "-117.3043842",
            "blogLinks": [
                "http://wikitravel.org/en/Beverly_Hills"
            ]
        },
        "lasky drive": {
            "closest_to": "santa barbara",
            "locType": "residential",
            "address": "Lasky Drive, Beverly Hills, Los Angeles County, California, 90212, United States of America",
            "latitude": "34.064355",
            "longitude": "-118.4100204",
            "blogLinks": [
                "http://wikitravel.org/en/Beverly_Hills"
            ]
        },
        "w. channel islands blvd": {
            "closest_to": "santa barbara",
            "locType": "secondary",
            "address": "West Channel Islands Boulevard, Oxnard, Ventura County, California, 93035, United States of America",
            "latitude": "34.1757846",
            "longitude": "-119.2225172",
            "blogLinks": [
                "http://gocalifornia.about.com/od/calamenu/ss/Driving-Californias-Malibu-Coast.htm"
            ]
        },
        "beverly dr": {
            "closest_to": "beverly hills",
            "locType": "residential",
            "address": "Beverly Drive, San Bernardino, San Bernardino County, California, 92405, United States of America",
            "latitude": "34.1520028",
            "longitude": "-117.3043842",
            "blogLinks": [
                "http://wikitravel.org/en/Beverly_Hills"
            ]
        },
        "l'ermitage beverly hills": {
            "closest_to": "beverly hills",
            "locType": "hotel",
            "address": "Viceroy L'Ermitage Beverly Hills, Burton Way, Beverly Hills, Los Angeles County, California, 90211, United States of America",
            "latitude": "34.072644",
            "longitude": "-118.395423862227",
            "blogLinks": [
                "http://wikitravel.org/en/Beverly_Hills"
            ]
        },
        "pasadena": {
            "closest_to": "beverly hills",
            "locType": "city",
            "address": "Pasadena, Los Angeles County, California, United States of America",
            "latitude": "34.1476452",
            "longitude": "-118.1444778",
            "blogLinks": [
                "http://www.bestplaces.net/zip-code/california/beverly_hills/90210"
            ]
        },
        "san fernando valley": {
            "closest_to": "santa barbara",
            "locType": "administrative",
            "address": "San Fernando, Los Angeles County, California, United States of America",
            "latitude": "34.2819461",
            "longitude": "-118.4389718",
            "blogLinks": [
                "http://www.bestplaces.net/zip-code/california/beverly_hills/90210"
            ]
        },
        "greystone mansion": {
            "closest_to": "santa barbara",
            "locType": "yes",
            "address": "Greystone Mansion, Loma Vista Drive, Beverly Hills, Los Angeles County, California, 90210, United States of America",
            "latitude": "34.09207775",
            "longitude": "-118.401588683659",
            "blogLinks": [
                "http://wikitravel.org/en/Beverly_Hills"
            ]
        },
        "los angeles county museum of art": {
            "closest_to": "beverly hills",
            "locType": "museum",
            "address": "Los Angeles County Museum of Art, Wilshire Boulevard, Park La Brea, The Village Green, LA, Los Angeles County, California, 90036, United States of America",
            "latitude": "34.0634357",
            "longitude": "-118.357997654056",
            "blogLinks": [
                "https://www.audleytravel.com/usa/california/places-to-go/los-angeles"
            ]
        },
        "ventura": {
            "closest_to": "santa barbara",
            "locType": "administrative",
            "address": "Ventura County, California, United States of America",
            "latitude": "34.4458248",
            "longitude": "-119.0779358",
            "blogLinks": [
                "http://gocalifornia.about.com/od/calamenu/ss/Driving-Californias-Malibu-Coast.htm"
            ]
        },
        "long beach": {
            "closest_to": "beverly hills",
            "locType": "city",
            "address": "Long Beach, Los Angeles County, California, United States of America",
            "latitude": "33.78538945",
            "longitude": "-118.158049215311",
            "blogLinks": [
                "http://www.bestplaces.net/zip-code/california/beverly_hills/90210"
            ]
        },
        "x93long beach": {
            "closest_to": "santa barbara",
            "locType": "service",
            "address": "Beach, Pismo Beach Senior Mobile Home Park, Pismo Beach, San Luis Obispo County, California, 93449, United States of America",
            "latitude": "35.13738",
            "longitude": "-120.6345489",
            "blogLinks": [
                "http://www.bestplaces.net/zip-code/california/beverly_hills/90210"
            ]
        },
        "glendale": {
            "closest_to": "beverly hills",
            "locType": "city",
            "address": "Glendale, Los Angeles County, California, United States of America",
            "latitude": "34.1423455",
            "longitude": "-118.248367",
            "blogLinks": [
                "http://www.bestplaces.net/zip-code/california/beverly_hills/90210"
            ]
        },
        "alley": {
            "closest_to": "santa barbara",
            "locType": "residential",
            "address": "Alley, LA, Los Angeles County, California, 91604, United States of America",
            "latitude": "34.1129829",
            "longitude": "-118.3862394",
            "blogLinks": [
                "http://wikitravel.org/en/Beverly_Hills"
            ]
        },
        "santa monica": {
            "closest_to": "santa barbara",
            "locType": "city",
            "address": "Santa Monica, Los Angeles County, California, United States of America",
            "latitude": "34.0195598",
            "longitude": "-118.4869738",
            "blogLinks": [
                "http://wikitravel.org/en/Beverly_Hills",
                "http://www.bestplaces.net/zip-code/california/beverly_hills/90210",
                "http://gocalifornia.about.com/od/calamenu/ss/Driving-Californias-Malibu-Coast.htm"
            ]
        },
        "santa monica mountains": {
            "closest_to": "santa barbara",
            "locType": "protected_area",
            "address": "Santa Monica Mountains National Recreation Area, Simes Lane, Seminole Hot Springs, Los Angeles County, California, 91301, United States of America",
            "latitude": "34.11008435",
            "longitude": "-118.789983284662",
            "blogLinks": [
                "http://gocalifornia.about.com/od/calamenu/ss/Driving-Californias-Malibu-Coast.htm"
            ]
        },
        "pacific coast highway": {
            "closest_to": "beverly hills",
            "locType": "primary",
            "address": "Pacific Coast Highway, Huntington Beach, Orange County, California, 92648, United States of America",
            "latitude": "33.6595127",
            "longitude": "-118.0051687",
            "blogLinks": [
                "http://gocalifornia.about.com/od/calamenu/ss/Driving-Californias-Malibu-Coast.htm"
            ]
        },
        "burton way": {
            "closest_to": "beverly hills",
            "locType": "primary",
            "address": "Burton Way, Carthay Circle, LA, Los Angeles County, California, 90211, United States of America",
            "latitude": "34.0723564",
            "longitude": "-118.3799566",
            "blogLinks": [
                "http://wikitravel.org/en/Beverly_Hills"
            ]
        },
        "channel islands harbor": {
            "closest_to": "santa barbara",
            "locType": "dock",
            "address": "Channel Islands Harbor, Ventura County, California, United States of America",
            "latitude": "34.1641716",
            "longitude": "-119.2242751",
            "blogLinks": [
                "http://gocalifornia.about.com/od/calamenu/ss/Driving-Californias-Malibu-Coast.htm"
            ]
        },
        "los angeles": {
            "closest_to": "beverly hills",
            "locType": "city",
            "address": "LA, Los Angeles County, California, United States of America",
            "latitude": "34.0543942",
            "longitude": "-118.2439408",
            "blogLinks": [
                "http://lovebeverlyhills.com/",
                "https://www.audleytravel.com/usa/california/places-to-go/los-angeles",
                "http://www.bestplaces.net/zip-code/california/beverly_hills/90210",
                "http://wikitravel.org/en/Beverly_Hills",
                "http://www.usatourist.com/english/destinations/california/california-driving-tour.html"
            ]
        },
        "wilshire boulevard": {
            "closest_to": "beverly hills",
            "locType": "primary",
            "address": "Wilshire Boulevard, Koreatown, Saint James Park, LA, Los Angeles County, California, 90005, United States of America",
            "latitude": "34.0617231",
            "longitude": "-118.3036614",
            "blogLinks": [
                "http://wikitravel.org/en/Beverly_Hills"
            ]
        },
        "burbank": {
            "closest_to": "beverly hills",
            "locType": "city",
            "address": "Burbank, Los Angeles County, California, United States of America",
            "latitude": "34.1816482",
            "longitude": "-118.3258553",
            "blogLinks": [
                "http://www.bestplaces.net/zip-code/california/beverly_hills/90210"
            ]
        },
        "grand canyon": {
            "closest_to": "beverly hills",
            "locType": "residential",
            "address": "Grand Canyon, Downtown Brea, Brea, Orange County, California, 92821, United States of America",
            "latitude": "33.9332326",
            "longitude": "-117.8915409",
            "blogLinks": [
                "http://www.usatourist.com/english/destinations/california/california-driving-tour.html"
            ]
        },
        "oxnard": {
            "closest_to": "santa barbara",
            "locType": "city",
            "address": "Oxnard, Ventura County, California, United States of America",
            "latitude": "34.1976308",
            "longitude": "-119.1803817",
            "blogLinks": [
                "http://www.distancesfrom.com/us/flight-distance-from-Santa-Barbara-to-Beverly-Hills-CA/FlightHistory/2217330.aspx",
                "http://gocalifornia.about.com/od/calamenu/ss/Driving-Californias-Malibu-Coast.htm"
            ]
        },
        "manhattan": {
            "closest_to": "beverly hills",
            "locType": "forest",
            "address": "Manhattan, Anaheim Resort District, Anaheim, Orange County, California, 217, United States of America",
            "latitude": "33.8109789",
            "longitude": "-117.919744373725",
            "blogLinks": [
                "http://wikitravel.org/en/Beverly_Hills"
            ]
        },
        "wilshire blvd": {
            "closest_to": "beverly hills",
            "locType": "primary",
            "address": "Wilshire Boulevard, Koreatown, Saint James Park, LA, Los Angeles County, California, 90005, United States of America",
            "latitude": "34.0617231",
            "longitude": "-118.3036614",
            "blogLinks": [
                "http://wikitravel.org/en/Beverly_Hills"
            ]
        },
        "koreatown": {
            "closest_to": "beverly hills",
            "locType": "neighbourhood",
            "address": "Koreatown, Saint James Park, LA, Los Angeles County, California, 90010, United States of America",
            "latitude": "34.0580134",
            "longitude": "-118.3008094",
            "blogLinks": [
                "http://wikitravel.org/en/Beverly_Hills"
            ]
        },
        "santa monica beach": {
            "closest_to": "santa barbara",
            "locType": "residential",
            "address": "Santa Monica Drive, Channel Islands Beach, Ventura County, California, 93035, United States of America",
            "latitude": "34.159111",
            "longitude": "-119.2203179",
            "blogLinks": [
                "https://www.audleytravel.com/usa/california/places-to-go/los-angeles"
            ]
        },
        "harbor blvd": {
            "closest_to": "beverly hills",
            "locType": "primary",
            "address": "Harbor Boulevard, Anaheim Resort District, Anaheim, Orange County, California, 217, United States of America",
            "latitude": "33.8172821",
            "longitude": "-117.9152933",
            "blogLinks": [
                "http://gocalifornia.about.com/od/calamenu/ss/Driving-Californias-Malibu-Coast.htm"
            ]
        },
        "beverly center": {
            "closest_to": "beverly hills",
            "locType": "mall",
            "address": "Beverly Center, La Cienega Boulevard, Carthay Circle, LA, Los Angeles County, California, 90048, United States of America",
            "latitude": "34.0749916",
            "longitude": "-118.377272502463",
            "blogLinks": [
                "http://wikitravel.org/en/Beverly_Hills"
            ]
        },
        "topanga canyon boulevard": {
            "closest_to": "santa barbara",
            "locType": "primary",
            "address": "Topanga Canyon Boulevard, Canoga Park, LA, Los Angeles County, California, 91303, United States of America",
            "latitude": "34.2091793",
            "longitude": "-118.6059598",
            "blogLinks": [
                "http://gocalifornia.about.com/od/calamenu/ss/Driving-Californias-Malibu-Coast.htm"
            ]
        },
        "southern california": {
            "closest_to": "beverly hills",
            "locType": "university",
            "address": "University of Southern California, Watt Way, Saint James Park, LA, Los Angeles County, California, 90089, United States of America",
            "latitude": "34.0224149",
            "longitude": "-118.286343973446",
            "blogLinks": [
                "http://wikitravel.org/en/Beverly_Hills",
                "http://www.bestplaces.net/zip-code/california/beverly_hills/90210",
                "http://www.usatourist.com/english/destinations/california/california-driving-tour.html"
            ]
        },
        "maple drive": {
            "closest_to": "beverly hills",
            "locType": "residential",
            "address": "Maple Drive, Whitley Heights, LA, Los Angeles County, California, 90046, United States of America",
            "latitude": "34.1047571",
            "longitude": "-118.3725124",
            "blogLinks": [
                "http://wikitravel.org/en/Beverly_Hills"
            ]
        },
        "south beverly drive": {
            "closest_to": "beverly hills",
            "locType": "secondary",
            "address": "South Beverly Drive, Palms, LA, Los Angeles County, California, 90212, United States of America",
            "latitude": "34.0556082",
            "longitude": "-118.3956632",
            "blogLinks": [
                "http://wikitravel.org/en/Beverly_Hills"
            ]
        },
        "arizona": {
            "closest_to": "beverly hills",
            "locType": "track",
            "address": "Arizona, San Bernardino County, California, 92371, United States of America",
            "latitude": "34.4631398",
            "longitude": "-117.5060679",
            "blogLinks": [
                "http://www.usatourist.com/english/destinations/california/california-driving-tour.html"
            ]
        },
        "century city": {
            "closest_to": "santa barbara",
            "locType": "neighbourhood",
            "address": "Century City, Westwood, LA, Los Angeles County, California, 90067, United States of America",
            "latitude": "34.0555654",
            "longitude": "-118.4178564",
            "blogLinks": [
                "http://wikitravel.org/en/Beverly_Hills"
            ]
        },
        "little santa monica blvd": {
            "closest_to": "beverly hills",
            "locType": "primary",
            "address": "Santa Monica Boulevard, Little Armenia, LA, Los Angeles County, California, Ca 90038, United States of America",
            "latitude": "34.0907545",
            "longitude": "-118.317943",
            "blogLinks": [
                "http://wikitravel.org/en/Beverly_Hills"
            ]
        },
        "west hollywood": {
            "closest_to": "beverly hills",
            "locType": "city",
            "address": "West Hollywood, Los Angeles County, California, United States of America",
            "latitude": "34.0900091",
            "longitude": "-118.3617442",
            "blogLinks": [
                "https://www.audleytravel.com/usa/california/places-to-go/los-angeles",
                "http://wikitravel.org/en/Beverly_Hills"
            ]
        },
        "malibu canyon road": {
            "closest_to": "santa barbara",
            "locType": "primary",
            "address": "Malibu Canyon Road, Malibu Beach, Los Angeles County, California, 90265, United States of America",
            "latitude": "34.0396213",
            "longitude": "-118.700589",
            "blogLinks": [
                "http://gocalifornia.about.com/od/calamenu/ss/Driving-Californias-Malibu-Coast.htm"
            ]
        },
        "san marino": {
            "closest_to": "beverly hills",
            "locType": "town",
            "address": "San Marino, Los Angeles County, California, United States of America",
            "latitude": "34.1215947",
            "longitude": "-118.1057393",
            "blogLinks": [
                "http://www.bestplaces.net/zip-code/california/beverly_hills/90210"
            ]
        },
        "beverly hills hilton": {
            "closest_to": "santa barbara",
            "locType": "hotel",
            "address": "The Beverly Hilton, Wilshire Boulevard, Beverly Hills, Los Angeles County, California, 90067, United States of America",
            "latitude": "34.0663684",
            "longitude": "-118.4127551",
            "blogLinks": [
                "http://wikitravel.org/en/Beverly_Hills"
            ]
        },
        "hollywood": {
            "closest_to": "beverly hills",
            "locType": "suburb",
            "address": "Hollywood, LA, Los Angeles County, California, United States of America",
            "latitude": "34.1028268",
            "longitude": "-118.3299898",
            "blogLinks": [
                "http://wikitravel.org/en/Beverly_Hills",
                "http://www.usatourist.com/english/destinations/california/california-driving-tour.html",
                "http://gocalifornia.about.com/od/calamenu/ss/Driving-Californias-Malibu-Coast.htm"
            ]
        },
        "solvang": {
            "closest_to": "santa barbara",
            "locType": "city",
            "address": "Solvang, Santa Barbara County, California, United States of America",
            "latitude": "34.5958572",
            "longitude": "-120.1390893",
            "blogLinks": [
                "http://www.usatourist.com/english/destinations/california/california-driving-tour.html"
            ]
        },
        "canon drive": {
            "closest_to": "beverly hills",
            "locType": "residential",
            "address": "Canon Drive, Pasadena, Los Angeles County, California, 91125, United States of America",
            "latitude": "34.128407",
            "longitude": "-118.1336029",
            "blogLinks": [
                "http://wikitravel.org/en/Beverly_Hills"
            ]
        },
        "los angeles county": {
            "closest_to": "beverly hills",
            "locType": "administrative",
            "address": "Los Angeles County, California, United States of America",
            "latitude": "34.3155072",
            "longitude": "-118.2096813",
            "blogLinks": [
                "http://wikitravel.org/en/Beverly_Hills"
            ]
        },
        "san bernardino": {
            "closest_to": "beverly hills",
            "locType": "city",
            "address": "San Bernardino, San Bernardino County, California, United States of America",
            "latitude": "34.1083449",
            "longitude": "-117.2897651",
            "blogLinks": [
                "http://www.bestplaces.net/zip-code/california/beverly_hills/90210"
            ]
        },
        "beverly hilton": {
            "closest_to": "santa barbara",
            "locType": "hotel",
            "address": "The Beverly Hilton, Wilshire Boulevard, Beverly Hills, Los Angeles County, California, 90067, United States of America",
            "latitude": "34.0663684",
            "longitude": "-118.4127551",
            "blogLinks": [
                "http://wikitravel.org/en/Beverly_Hills"
            ]
        }
    }
}