{
    "beverly hills": {
        "boundingbox": [
            "34.05269",
            "34.112456",
            "-118.4270731",
            "-118.3715357"
        ],
        "lon": "-118.4003562",
        "class": "place",
        "licence": "Data \u00a9 OpenStreetMap contributors, ODbL 1.0. http://www.openstreetmap.org/copyright",
        "importance": 0.65,
        "icon": "https://nominatim.openstreetmap.org/images/mapicons/poi_place_city.p.20.png",
        "lat": "34.0736204",
        "osm_id": "3503615",
        "type": "city",
        "osm_type": "relation",
        "place_id": "159602133",
        "display_name": "Beverly Hills, Los Angeles County, California, United States of America"
    },
    "carlsbad": {
        "boundingbox": [
            "33.0601812",
            "33.1824213",
            "-117.3588312",
            "-117.2162645"
        ],
        "lon": "-117.3505938",
        "class": "place",
        "licence": "Data \u00a9 OpenStreetMap contributors, ODbL 1.0. http://www.openstreetmap.org/copyright",
        "importance": 0.66828891079931,
        "icon": "https://nominatim.openstreetmap.org/images/mapicons/poi_place_city.p.20.png",
        "lat": "33.1580933",
        "osm_id": "2305279",
        "type": "city",
        "osm_type": "relation",
        "place_id": "159570669",
        "display_name": "Carlsbad, San Diego County, California, United States of America"
    },
    "mentions": {
        "idyllwild": {
            "longitude": "-116.7189074",
            "blogLinks": [
                "http://www.timeanddate.com/worldclock/distances.html?n=137"
            ],
            "closest_to": "carlsbad",
            "latitude": "33.7400209",
            "address": "Idyllwild, Riverside County, California, United States of America",
            "locType": "village"
        },
        "mount palomar ca": {
            "longitude": "-117.270809764613",
            "blogLinks": [
                "http://www.california-blog.com/"
            ],
            "closest_to": "carlsbad",
            "latitude": "33.1278146",
            "address": "California Bank & Trust, 2501, Palomar Airport Road, Carlsbad, San Diego County, California, 92011, United States of America",
            "locType": "bank"
        },
        "mount san gorgonio ca": {
            "longitude": "-116.8766731",
            "blogLinks": [
                "http://www.california-blog.com/"
            ],
            "closest_to": "carlsbad",
            "latitude": "33.9121294",
            "address": "San Gorgonio Avenue, Banning, Riverside County, California, 92220, United States of America",
            "locType": "secondary"
        },
        "kumeyaay": {
            "longitude": "-116.1858258",
            "blogLinks": [
                "http://wikitravel.org/en/San_Diego"
            ],
            "closest_to": "carlsbad",
            "latitude": "32.6464696",
            "address": "Kumeyaay Highway, Titus, San Diego County, California, 91934, United States of America",
            "locType": "motorway"
        },
        "el capitan theatre": {
            "longitude": "-118.339818715971",
            "blogLinks": [
                "https://www.tripoto.com/travel-guide/los-angeles/places-to-visit"
            ],
            "closest_to": "carlsbad",
            "latitude": "34.1011884",
            "address": "El Capitan Theatre, 6838, Hollywood Boulevard, Whitley Heights, LA, Los Angeles County, California, 90028, United States of America",
            "locType": "cinema"
        },
        "genesee avenue": {
            "longitude": "-118.3685811",
            "blogLinks": [
                "http://wikitravel.org/en/San_Diego"
            ],
            "closest_to": "carlsbad",
            "latitude": "34.0376458",
            "address": "Genesee Avenue, South Carthay, The Village Green, LA, Los Angeles County, California, 90016, United States of America",
            "locType": "residential"
        },
        "la jolla": {
            "longitude": "-117.2742085",
            "blogLinks": [
                "https://www.tripadvisor.com/ShowTopic-g28926-i29-k7384025-Sights_between_Los_Angeles_and_San_Diego-California.html",
                "http://www.sandiego.org/articles/tours-sightseeing/highway-101-california.aspx",
                "http://wikitravel.org/en/San_Diego"
            ],
            "closest_to": "carlsbad",
            "latitude": "32.8472711",
            "address": "La Jolla, San Diego, San Diego County, California, United States of America",
            "locType": "suburb"
        },
        "santa monica boulevard los angeles": {
            "longitude": "-118.317943",
            "blogLinks": [
                "http://backpackerverse.com/haunted-places-to-visit-in-los-angeles/"
            ],
            "closest_to": "carlsbad",
            "latitude": "34.0907545",
            "address": "Santa Monica Boulevard, Little Armenia, LA, Los Angeles County, California, Ca 90038, United States of America",
            "locType": "primary"
        },
        "beverly wilshire": {
            "longitude": "-118.4127551",
            "blogLinks": [
                "http://gocalifornia.about.com/cs/losangeles/a/rodeo.htm"
            ],
            "closest_to": "beverly hills",
            "latitude": "34.0663684",
            "address": "The Beverly Hilton, Wilshire Boulevard, Beverly Hills, Los Angeles County, California, 90067, United States of America",
            "locType": "hotel"
        },
        "san ysidro": {
            "longitude": "-117.0430812",
            "blogLinks": [
                "http://wikitravel.org/en/San_Diego"
            ],
            "closest_to": "carlsbad",
            "latitude": "32.5520013",
            "address": "San Ysidro, San Diego, San Diego County, California, United States of America",
            "locType": "suburb"
        },
        "california desert": {
            "longitude": "-116.317684",
            "blogLinks": [
                "http://wikitravel.org/en/San_Diego"
            ],
            "closest_to": "carlsbad",
            "latitude": "33.7348741",
            "address": "California Drive, Palm Desert, Riverside County, California, 92211, United States of America",
            "locType": "residential"
        },
        "braddock drive culver city": {
            "longitude": "-118.4002731",
            "blogLinks": [
                "http://backpackerverse.com/haunted-places-to-visit-in-los-angeles/"
            ],
            "closest_to": "carlsbad",
            "latitude": "34.0115332",
            "address": "Braddock Drive, Culver City, Los Angeles County, California, 90232, United States of America",
            "locType": "residential"
        },
        "mount san jacinto ca": {
            "longitude": "-116.9586349",
            "blogLinks": [
                "http://www.california-blog.com/"
            ],
            "closest_to": "carlsbad",
            "latitude": "33.7839084",
            "address": "San Jacinto, Riverside County, California, United States of America",
            "locType": "city"
        },
        "san diego airport": {
            "longitude": "-117.270809764613",
            "blogLinks": [
                "http://wikitravel.org/en/San_Diego"
            ],
            "closest_to": "carlsbad",
            "latitude": "33.1278146",
            "address": "California Bank & Trust, 2501, Palomar Airport Road, Carlsbad, San Diego County, California, 92011, United States of America",
            "locType": "bank"
        },
        "esmeralda": {
            "longitude": "-118.1939061",
            "blogLinks": [
                "http://wikitravel.org/en/San_Diego"
            ],
            "closest_to": "carlsbad",
            "latitude": "34.0829329",
            "address": "Esmeralda Street, Rose Hill, Highland Park, LA, Los Angeles County, California, 90032, United States of America",
            "locType": "residential"
        },
        "montgomery field": {
            "longitude": "-117.140320448768",
            "blogLinks": [
                "http://wikitravel.org/en/San_Diego"
            ],
            "closest_to": "carlsbad",
            "latitude": "32.8149052",
            "address": "Montgomery Field, John J Montgomery Drive, Mission Valley, San Diego, San Diego County, California, 92123, United States of America",
            "locType": "aerodrome"
        },
        "hollywood blvd": {
            "longitude": "-118.32684",
            "blogLinks": [
                "http://backpackerverse.com/haunted-places-to-visit-in-los-angeles/"
            ],
            "closest_to": "carlsbad",
            "latitude": "34.1016312",
            "address": "Hollywood Boulevard, Hollywood, LA, Los Angeles County, California, 90028, United States of America",
            "locType": "secondary"
        },
        "mediterranean": {
            "longitude": "-116.3534838",
            "blogLinks": [
                "http://wikitravel.org/en/San_Diego"
            ],
            "closest_to": "carlsbad",
            "latitude": "33.7439509",
            "address": "Mediterranean, Palm Desert, Riverside County, California, 92211, United States of America",
            "locType": "residential"
        },
        "n. torrey pines rd": {
            "longitude": "-117.2608353",
            "blogLinks": [
                "http://wikitravel.org/en/San_Diego"
            ],
            "closest_to": "carlsbad",
            "latitude": "32.9358252",
            "address": "North Torrey Pines Road, Del Mar, San Diego, San Diego County, California, 92014, United States of America",
            "locType": "primary"
        },
        "los angeles international airport": {
            "longitude": "-118.407057290249",
            "blogLinks": [
                "https://www.latourist.com/"
            ],
            "closest_to": "carlsbad",
            "latitude": "33.94211345",
            "address": "Los Angeles International Airport, Gate 41, Westchester, Playa del Rey, LA, Los Angeles County, California, 90245, United States of America",
            "locType": "aerodrome"
        },
        "highway 101": {
            "longitude": "-117.2731974",
            "blogLinks": [
                "http://www.sandiego.org/articles/tours-sightseeing/highway-101-california.aspx"
            ],
            "closest_to": "carlsbad",
            "latitude": "32.9967358",
            "address": "Highway 101, Solana Beach, San Diego County, California, 92075, United States of America",
            "locType": "primary"
        },
        "tokyo": {
            "longitude": "-118.2328066",
            "blogLinks": [
                "https://www.latourist.com/",
                "http://wikitravel.org/en/San_Diego",
                "https://www.tripoto.com/travel-guide/los-angeles/places-to-visit"
            ],
            "closest_to": "carlsbad",
            "latitude": "34.0431787",
            "address": "Southern California Institute of Architecture, 960, East 3rd Street, Arts District, Little Tokyo Historic District, LA, Los Angeles County, California, 90013, United States of America",
            "locType": "school"
        },
        "qualcomm stadium": {
            "longitude": "-117.1196206",
            "blogLinks": [
                "http://wikitravel.org/en/San_Diego"
            ],
            "closest_to": "carlsbad",
            "latitude": "32.7810139",
            "address": "Qualcomm Stadium, Qualcomm Way, Mission Valley, San Diego, San Diego County, California, 92123, United States of America",
            "locType": "station"
        },
        "beverly hills route": {
            "longitude": "-118.4003562",
            "blogLinks": [
                "http://www.distancesfrom.com/us/travel-from-Carlsbad-to-Beverly-Hills/TravelFromHistory/12436115.aspx",
                "http://www.distancesfrom.com/directions-from-Carlsbad-to-Beverly-Hills/DirectionHistory/26040384.aspx"
            ],
            "closest_to": "beverly hills",
            "latitude": "34.0736204",
            "address": "Beverly Hills, Los Angeles County, California, United States of America",
            "locType": "city"
        },
        "seaworld san diego": {
            "longitude": "-117.226626367006",
            "blogLinks": [
                "https://disneyland.disney.go.com/destinations/southern-california/"
            ],
            "closest_to": "carlsbad",
            "latitude": "32.7659778",
            "address": "SeaWorld San Diego, 500, Sea World Drive, Old Town, San Diego, San Diego County, California, 92109, United States of America",
            "locType": "theme_park"
        },
        "highland": {
            "longitude": "-117.2086512",
            "blogLinks": [
                "https://www.latourist.com/"
            ],
            "closest_to": "carlsbad",
            "latitude": "34.1283442",
            "address": "Highland, San Bernardino County, California, United States of America",
            "locType": "city"
        },
        "canada": {
            "longitude": "-117.7641381",
            "blogLinks": [
                "http://wikitravel.org/en/San_Diego"
            ],
            "closest_to": "carlsbad",
            "latitude": "33.7298842",
            "address": "La Canada, Lower Peters Canyon, Irvine, Orange County, California, 92602, United States of America",
            "locType": "residential"
        },
        "oregon": {
            "longitude": "-117.7911567",
            "blogLinks": [
                "http://wikitravel.org/en/San_Diego"
            ],
            "closest_to": "carlsbad",
            "latitude": "33.7123207",
            "address": "Oregon, Walnut, Irvine, Orange County, California, 92606, United States of America",
            "locType": "residential"
        },
        "hollywood bowl": {
            "longitude": "-118.339277261641",
            "blogLinks": [
                "https://www.latourist.com/"
            ],
            "closest_to": "carlsbad",
            "latitude": "34.1121836",
            "address": "Hollywood Bowl, Los Tilos Road, Whitley Heights, LA, Los Angeles County, California, 90068, United States of America",
            "locType": "theatre"
        },
        "anaheim gardenwalk": {
            "longitude": "-117.912075297326",
            "blogLinks": [
                "https://disneyland.disney.go.com/destinations/southern-california/"
            ],
            "closest_to": "carlsbad",
            "latitude": "33.80517385",
            "address": "Anaheim GardenWalk, Disney Way, Anaheim Resort District, Anaheim, Orange County, California, 217, United States of America",
            "locType": "mall"
        },
        "france": {
            "longitude": "-118.5935353",
            "blogLinks": [
                "http://wikitravel.org/en/San_Diego"
            ],
            "closest_to": "beverly hills",
            "latitude": "34.2013715",
            "address": "France, Sherman Way, Canoga Park, LA, Los Angeles County, California, 91307, United States of America",
            "locType": "cafe"
        },
        "new york": {
            "longitude": "-117.8984509",
            "blogLinks": [
                "http://backpackerverse.com/haunted-places-to-visit-in-los-angeles/"
            ],
            "closest_to": "carlsbad",
            "latitude": "34.0143928",
            "address": "New York, West Covina, Los Angeles County, California, 91792, United States of America",
            "locType": "service"
        },
        "hollywood": {
            "longitude": "-118.3299898",
            "blogLinks": [
                "https://www.latourist.com/",
                "https://disneyland.disney.go.com/destinations/southern-california/",
                "http://backpackerverse.com/haunted-places-to-visit-in-los-angeles/",
                "https://www.tripoto.com/travel-guide/los-angeles/places-to-visit",
                "http://gocalifornia.about.com/cs/losangeles/a/rodeo.htm",
                "http://www.sandiego.org/articles/tours-sightseeing/highway-101-california.aspx"
            ],
            "closest_to": "carlsbad",
            "latitude": "34.1028268",
            "address": "Hollywood, LA, Los Angeles County, California, United States of America",
            "locType": "suburb"
        },
        "san diego county": {
            "longitude": "-116.7706276",
            "blogLinks": [
                "http://www.sandiego.org/articles/tours-sightseeing/highway-101-california.aspx",
                "http://wikitravel.org/en/San_Diego"
            ],
            "closest_to": "carlsbad",
            "latitude": "32.9637838",
            "address": "San Diego County, California, United States of America",
            "locType": "administrative"
        },
        "illinois": {
            "longitude": "-118.1758901",
            "blogLinks": [
                "http://wikitravel.org/en/San_Diego"
            ],
            "closest_to": "beverly hills",
            "latitude": "34.4646044",
            "address": "Illinois, Paris, Los Angeles County, California, 93510, United States of America",
            "locType": "residential"
        },
        "mission san luis rey": {
            "longitude": "-117.3235506",
            "blogLinks": [
                "http://www.sandiego.org/articles/tours-sightseeing/highway-101-california.aspx"
            ],
            "closest_to": "carlsbad",
            "latitude": "33.22648",
            "address": "San Luis Rey Mission Expressway, Oceanside, San Diego County, California, 92057, United States of America",
            "locType": "trunk"
        },
        "rodeo drive": {
            "longitude": "-117.2609329",
            "blogLinks": [
                "https://www.tripoto.com/travel-guide/los-angeles/places-to-visit",
                "http://gocalifornia.about.com/cs/losangeles/a/rodeo.htm"
            ],
            "closest_to": "carlsbad",
            "latitude": "32.824444",
            "address": "Rodeo Drive, La Jolla, San Diego, San Diego County, California, 92037, United States of America",
            "locType": "residential"
        },
        "temecula wine country": {
            "longitude": "-117.0334856",
            "blogLinks": [
                "http://wikitravel.org/en/San_Diego"
            ],
            "closest_to": "carlsbad",
            "latitude": "33.5334975",
            "address": "Temecula Valley Wine Country, Valle de los Caballos, Riverside County, California, United States of America",
            "locType": "suburb"
        },
        "santa monica place": {
            "longitude": "-118.493745188273",
            "blogLinks": [
                "https://www.latourist.com/"
            ],
            "closest_to": "beverly hills",
            "latitude": "34.01361875",
            "address": "Santa Monica Place, Colorado Avenue, Santa Monica, Los Angeles County, California, 90404, United States of America",
            "locType": "mall"
        },
        "phoenix": {
            "longitude": "-117.7764481",
            "blogLinks": [
                "http://wikitravel.org/en/San_Diego"
            ],
            "closest_to": "carlsbad",
            "latitude": "33.6988015",
            "address": "Phoenix, Heritage Park Apartments, El Camino Real, Irvine, Orange County, California, 92604, United States of America",
            "locType": "residential"
        },
        "hollywood pacific": {
            "longitude": "-118.3306652",
            "blogLinks": [
                "http://backpackerverse.com/haunted-places-to-visit-in-los-angeles/"
            ],
            "closest_to": "carlsbad",
            "latitude": "34.1020397",
            "address": "Hollywood Pacific Theatre, North Wilcox Avenue, Hollywood, LA, Los Angeles County, California, 90028, United States of America",
            "locType": "theatre"
        },
        "lindbergh field": {
            "longitude": "-117.193463366077",
            "blogLinks": [
                "http://wikitravel.org/en/San_Diego"
            ],
            "closest_to": "carlsbad",
            "latitude": "32.73336075",
            "address": "San Diego International Airport, Air Lane, Old Town, San Diego, San Diego County, California, 92101, United States of America",
            "locType": "aerodrome"
        },
        "college avenue": {
            "longitude": "-118.411823",
            "blogLinks": [
                "http://wikitravel.org/en/San_Diego"
            ],
            "closest_to": "carlsbad",
            "latitude": "34.0158908",
            "address": "College Avenue, Palms, LA, Los Angeles County, California, 90232, United States of America",
            "locType": "residential"
        },
        "viejas arena": {
            "longitude": "-117.074548235413",
            "blogLinks": [
                "http://wikitravel.org/en/San_Diego"
            ],
            "closest_to": "carlsbad",
            "latitude": "32.77380925",
            "address": "Viejas Arena, Aztec Walk, San Diego, San Diego County, California, 92182, United States of America",
            "locType": "sports_centre"
        },
        "scottsdale": {
            "longitude": "-118.262579480198",
            "blogLinks": [
                "http://wikitravel.org/en/San_Diego"
            ],
            "closest_to": "carlsbad",
            "latitude": "33.81271835",
            "address": "Scottsdale Townhouse Association Maintenance Storage Area, Keystone, Carson, Los Angeles County, California, 90745, United States of America",
            "locType": "residential"
        },
        "museum of contemporary art san diego - la jolla": {
            "longitude": "-117.2779949",
            "blogLinks": [
                "http://www.sandiego.org/articles/tours-sightseeing/highway-101-california.aspx"
            ],
            "closest_to": "carlsbad",
            "latitude": "32.8445548",
            "address": "Museum of Contemporary Art San Diego, 700, Prospect Street, La Jolla, San Diego, San Diego County, California, 92037-4291, United States of America",
            "locType": "museum"
        },
        "harbor drive": {
            "longitude": "-117.2654027",
            "blogLinks": [
                "http://wikitravel.org/en/San_Diego"
            ],
            "closest_to": "beverly hills",
            "latitude": "34.5013497",
            "address": "Harbor Drive, San Bernardino County, California, 92392, United States of America",
            "locType": "residential"
        },
        "west la": {
            "longitude": "-118.4108078",
            "blogLinks": [
                "https://www.latourist.com/"
            ],
            "closest_to": "carlsbad",
            "latitude": "33.9492548",
            "address": "W, Service road S, Westchester, Playa del Rey, LA, Los Angeles County, California, 90245, United States of America",
            "locType": "taxiway"
        },
        "santa fe depot": {
            "longitude": "-117.1698167",
            "blogLinks": [
                "http://wikitravel.org/en/San_Diego"
            ],
            "closest_to": "carlsbad",
            "latitude": "32.7167353",
            "address": "Santa Fe Depot, Martin Luther King Promenade, Hillcrest, San Diego, San Diego County, California, 92101, United States of America",
            "locType": "station"
        },
        "newport beach ca": {
            "longitude": "-117.92944",
            "blogLinks": [
                "http://www.california-blog.com/"
            ],
            "closest_to": "carlsbad",
            "latitude": "33.6170092",
            "address": "Newport Beach, Orange County, California, United States of America",
            "locType": "city"
        },
        "lethbridge": {
            "longitude": "-117.1296619",
            "blogLinks": [
                "http://wikitravel.org/en/San_Diego"
            ],
            "closest_to": "carlsbad",
            "latitude": "32.971272",
            "address": "Lethbridge Way, San Diego, San Diego County, California, 92129, United States of America",
            "locType": "residential"
        },
        "old town transit center": {
            "longitude": "-117.1994928",
            "blogLinks": [
                "http://wikitravel.org/en/San_Diego"
            ],
            "closest_to": "carlsbad",
            "latitude": "32.7548849",
            "address": "Old Town Transit Center, Congress Street, Old Town, San Diego, San Diego County, California, 92110, United States of America",
            "locType": "station"
        },
        "santa ana": {
            "longitude": "-117.8732212",
            "blogLinks": [
                "http://wikitravel.org/en/San_Diego"
            ],
            "closest_to": "carlsbad",
            "latitude": "33.7494951",
            "address": "Santa Ana, Orange County, California, United States of America",
            "locType": "city"
        },
        "ocean beach": {
            "longitude": "-117.249321",
            "blogLinks": [
                "http://wikitravel.org/en/San_Diego"
            ],
            "closest_to": "carlsbad",
            "latitude": "32.7477784",
            "address": "Ocean Beach, San Diego, San Diego County, California, United States of America",
            "locType": "region"
        },
        "disneyland park": {
            "longitude": "-117.91971186569",
            "blogLinks": [
                "https://disneyland.disney.go.com/destinations/southern-california/"
            ],
            "closest_to": "carlsbad",
            "latitude": "33.8136367",
            "address": "Disneyland Park, Attraction Exit, Anaheim Resort District, Anaheim, Orange County, California, 217, United States of America",
            "locType": "theme_park"
        },
        "ontario": {
            "longitude": "-117.6484303",
            "blogLinks": [
                "http://www.california-blog.com/"
            ],
            "closest_to": "carlsbad",
            "latitude": "34.065846",
            "address": "Ontario, San Bernardino County, California, United States of America",
            "locType": "city"
        },
        "palomar airport road": {
            "longitude": "-117.2418974",
            "blogLinks": [
                "http://wikitravel.org/en/San_Diego"
            ],
            "closest_to": "carlsbad",
            "latitude": "33.1291437",
            "address": "Palomar Airport Road, Carlsbad, San Diego County, California, 92009, United States of America",
            "locType": "primary"
        },
        "solana beach": {
            "longitude": "-117.2691315",
            "blogLinks": [
                "http://www.sandiego.org/articles/tours-sightseeing/highway-101-california.aspx",
                "http://wikitravel.org/en/San_Diego"
            ],
            "closest_to": "carlsbad",
            "latitude": "32.9905597",
            "address": "Solana Beach, San Diego County, California, United States of America",
            "locType": "city"
        },
        "melrose avenue": {
            "longitude": "-117.2145993",
            "blogLinks": [
                "https://www.audleytravel.com/usa/california/places-to-go/los-angeles?audcmp=16-505%20USA%20-%20Region%20-%20California%20and%20Nevada&audadg=USA%20-%20California%20and%20Nevada%20-%20Place%20-%20Los%20Angeles%20-%20Broad&auddev=Desktop%20and%20Tablet"
            ],
            "closest_to": "carlsbad",
            "latitude": "33.1005138",
            "address": "Melrose Avenue, San Elijo Hills, San Marcos, San Diego County, California, 92069, United States of America",
            "locType": "secondary"
        },
        "chula vista": {
            "longitude": "-117.0841954",
            "blogLinks": [
                "http://wikitravel.org/en/San_Diego"
            ],
            "closest_to": "carlsbad",
            "latitude": "32.6400541",
            "address": "Chula Vista, San Diego County, California, United States of America",
            "locType": "city"
        },
        "tucson": {
            "longitude": "-117.5934281",
            "blogLinks": [
                "http://wikitravel.org/en/San_Diego"
            ],
            "closest_to": "carlsbad",
            "latitude": "33.5678303",
            "address": "Tucson, Coto de Caza, Orange County, California, 92690, United States of America",
            "locType": "residential"
        },
        "petco park": {
            "longitude": "-117.156886653262",
            "blogLinks": [
                "http://wikitravel.org/en/San_Diego"
            ],
            "closest_to": "carlsbad",
            "latitude": "32.70717575",
            "address": "Petco Park, 100, Park Boulevard, Hillcrest, San Diego, San Diego County, California, 92101, United States of America",
            "locType": "stadium"
        },
        "third street promenade": {
            "longitude": "-118.496879184169",
            "blogLinks": [
                "https://www.latourist.com/"
            ],
            "closest_to": "beverly hills",
            "latitude": "34.01632465",
            "address": "Third Street Promenade, Santa Monica, Los Angeles County, California, 90401, United States of America",
            "locType": "pedestrian"
        },
        "california science centre": {
            "longitude": "-118.286286870567",
            "blogLinks": [
                "https://www.tripoto.com/travel-guide/los-angeles/places-to-visit"
            ],
            "closest_to": "carlsbad",
            "latitude": "34.0159757",
            "address": "California Science Center, 700, Exposition Park Drive, Jefferson, LA, Los Angeles County, California, 90037, United States of America",
            "locType": "museum"
        },
        "little italy": {
            "longitude": "-117.1682719",
            "blogLinks": [
                "http://wikitravel.org/en/San_Diego"
            ],
            "closest_to": "carlsbad",
            "latitude": "32.7234579",
            "address": "Little Italy, San Diego County, California, United States of America",
            "locType": "hamlet"
        },
        "arizona": {
            "longitude": "-117.5060679",
            "blogLinks": [
                "http://wikitravel.org/en/San_Diego"
            ],
            "closest_to": "beverly hills",
            "latitude": "34.4631398",
            "address": "Arizona, San Bernardino County, California, 92371, United States of America",
            "locType": "track"
        },
        "laurel street": {
            "longitude": "-117.1594735",
            "blogLinks": [
                "http://wikitravel.org/en/San_Diego"
            ],
            "closest_to": "carlsbad",
            "latitude": "32.7313904",
            "address": "Laurel Street, Hillcrest, San Diego, San Diego County, California, 92101, United States of America",
            "locType": "secondary"
        },
        "dana point": {
            "longitude": "-117.6981074",
            "blogLinks": [
                "http://wikitravel.org/en/San_Diego"
            ],
            "closest_to": "carlsbad",
            "latitude": "33.4669721",
            "address": "Dana Point, Orange County, California, United States of America",
            "locType": "city"
        },
        "' ocean beach": {
            "longitude": "-117.249321",
            "blogLinks": [
                "http://wikitravel.org/en/San_Diego"
            ],
            "closest_to": "carlsbad",
            "latitude": "32.7477784",
            "address": "Ocean Beach, San Diego, San Diego County, California, United States of America",
            "locType": "region"
        },
        "oceanside": {
            "longitude": "-117.3794833",
            "blogLinks": [
                "https://www.tripadvisor.com/ShowTopic-g28926-i29-k7384025-Sights_between_Los_Angeles_and_San_Diego-California.html",
                "http://www.sandiego.org/articles/tours-sightseeing/highway-101-california.aspx",
                "http://wikitravel.org/en/San_Diego"
            ],
            "closest_to": "carlsbad",
            "latitude": "33.1958696",
            "address": "Oceanside, San Diego County, California, United States of America",
            "locType": "city"
        },
        "old town-mission valley": {
            "longitude": "-117.2028231",
            "blogLinks": [
                "http://wikitravel.org/en/San_Diego"
            ],
            "closest_to": "carlsbad",
            "latitude": "32.7566177",
            "address": "Old Town, San Diego, San Diego County, California, United States of America",
            "locType": "suburb"
        },
        "ojai valley": {
            "longitude": "-119.2428889",
            "blogLinks": [
                "http://www.california-blog.com/"
            ],
            "closest_to": "beverly hills",
            "latitude": "34.4480495",
            "address": "Ojai, Ventura County, California, United States of America",
            "locType": "city"
        },
        "la mesa": {
            "longitude": "-117.0230838",
            "blogLinks": [
                "http://wikitravel.org/en/San_Diego"
            ],
            "closest_to": "carlsbad",
            "latitude": "32.7678288",
            "address": "La Mesa, San Diego County, California, United States of America",
            "locType": "city"
        },
        "california resort": {
            "longitude": "-117.919940244086",
            "blogLinks": [
                "http://www.sandiego.org/articles/tours-sightseeing/highway-101-california.aspx"
            ],
            "closest_to": "carlsbad",
            "latitude": "33.80638705",
            "address": "DCA, 1620, South Disneyland Drive, Anaheim Resort District, Anaheim, Orange County, California, 92802, United States of America",
            "locType": "theme_park"
        },
        "alberta": {
            "longitude": "-117.7344716",
            "blogLinks": [
                "http://wikitravel.org/en/San_Diego"
            ],
            "closest_to": "carlsbad",
            "latitude": "33.5736346",
            "address": "Alberta, Aliso Viejo, Orange County, California, 92656, United States of America",
            "locType": "residential"
        },
        "los angeles.visitors": {
            "longitude": "-118.434120956422",
            "blogLinks": [
                "http://backpackerverse.com/haunted-places-to-visit-in-los-angeles/"
            ],
            "closest_to": "beverly hills",
            "latitude": "34.05386245",
            "address": "Los Angeles Temple Visitor's Center, North Temple Way, Westwood, LA, Los Angeles County, California, 90024, United States of America",
            "locType": "yes"
        },
        "encinitas": {
            "longitude": "-117.2919817",
            "blogLinks": [
                "http://www.sandiego.org/articles/tours-sightseeing/highway-101-california.aspx",
                "http://wikitravel.org/en/San_Diego"
            ],
            "closest_to": "carlsbad",
            "latitude": "33.0369867",
            "address": "Encinitas, San Diego County, California, United States of America",
            "locType": "city"
        },
        "palm springs air museum ca": {
            "longitude": "-116.504677958796",
            "blogLinks": [
                "http://www.california-blog.com/"
            ],
            "closest_to": "carlsbad",
            "latitude": "33.83250375",
            "address": "Palm Springs Air Museum, 745, North Gene Autry Trail, Palm Springs, Riverside County, California, 92262, United States of America",
            "locType": "museum"
        },
        "los angeles memorial coliseum": {
            "longitude": "-118.288028548483",
            "blogLinks": [
                "https://www.latourist.com/"
            ],
            "closest_to": "carlsbad",
            "latitude": "34.0139923",
            "address": "Los Angeles Memorial Coliseum, Exposition Park Drive, Jefferson, LA, Los Angeles County, California, 90037, United States of America",
            "locType": "stadium"
        },
        "black 's beach": {
            "longitude": "-115.9938426",
            "blogLinks": [
                "http://wikitravel.org/en/San_Diego"
            ],
            "closest_to": "carlsbad",
            "latitude": "33.3358674",
            "address": "Black Sea Avenue, Salton Sea Beach, Imperial County, California, United States of America",
            "locType": "residential"
        },
        "wilshire": {
            "longitude": "-117.9034923",
            "blogLinks": [
                "http://gocalifornia.about.com/cs/losangeles/a/rodeo.htm"
            ],
            "closest_to": "carlsbad",
            "latitude": "33.7805094",
            "address": "Wilshire, Garden Grove, Orange County, California, 92868, United States of America",
            "locType": "service"
        },
        "southern california": {
            "longitude": "-118.286343973446",
            "blogLinks": [
                "https://www.tripadvisor.com/ShowTopic-g28926-i29-k7384025-Sights_between_Los_Angeles_and_San_Diego-California.html",
                "https://www.latourist.com/",
                "http://www.sandiego.org/articles/tours-sightseeing/highway-101-california.aspx",
                "https://disneyland.disney.go.com/destinations/southern-california/",
                "http://wikitravel.org/en/San_Diego"
            ],
            "closest_to": "carlsbad",
            "latitude": "34.0224149",
            "address": "University of Southern California, Watt Way, Saint James Park, LA, Los Angeles County, California, 90089, United States of America",
            "locType": "university"
        },
        "cuyamaca rancho state park": {
            "longitude": "-116.591579345466",
            "blogLinks": [
                "http://wikitravel.org/en/San_Diego"
            ],
            "closest_to": "carlsbad",
            "latitude": "32.86396725",
            "address": "Cuyamaca Rancho State Park, Highway 79, Guatay, San Diego County, California, 92036, United States of America",
            "locType": "park"
        },
        "monrovia": {
            "longitude": "-118.0014516",
            "blogLinks": [
                "http://www.california-blog.com/"
            ],
            "closest_to": "carlsbad",
            "latitude": "34.1483499",
            "address": "Monrovia, Los Angeles County, California, United States of America",
            "locType": "city"
        },
        "gaslamp district": {
            "longitude": "-117.162483",
            "blogLinks": [
                "https://disneyland.disney.go.com/destinations/southern-california/"
            ],
            "closest_to": "carlsbad",
            "latitude": "32.72181505",
            "address": "California Western School of Law, Cedar Street, Hillcrest, San Diego, San Diego County, California, 92101, United States of America",
            "locType": "university"
        },
        "lanai": {
            "longitude": "-118.4922841",
            "blogLinks": [
                "http://www.sandiego.org/articles/tours-sightseeing/highway-101-california.aspx"
            ],
            "closest_to": "beverly hills",
            "latitude": "34.1480559",
            "address": "Lanai Road, Encino, LA, Los Angeles County, California, 91436, United States of America",
            "locType": "residential"
        },
        "staples center": {
            "longitude": "-118.267052502794",
            "blogLinks": [
                "https://www.latourist.com/"
            ],
            "closest_to": "carlsbad",
            "latitude": "34.0430046",
            "address": "Staples Center, Figueroa Street, South Park, Saint James Park, LA, Los Angeles County, California, 90015, United States of America",
            "locType": "stadium"
        },
        "disneyland resort": {
            "longitude": "-117.921900616601",
            "blogLinks": [
                "https://disneyland.disney.go.com/destinations/southern-california/"
            ],
            "closest_to": "carlsbad",
            "latitude": "33.81193845",
            "address": "DLR, Mill View Lane, Anaheim Resort District, Anaheim, Orange County, California, 217, United States of America",
            "locType": "administrative"
        },
        "moreno valley ca": {
            "longitude": "-117.2305943",
            "blogLinks": [
                "http://www.california-blog.com/"
            ],
            "closest_to": "carlsbad",
            "latitude": "33.937517",
            "address": "Moreno Valley, Riverside County, California, United States of America",
            "locType": "city"
        },
        "washington boulevard": {
            "longitude": "-118.3475097",
            "blogLinks": [
                "https://www.latourist.com/"
            ],
            "closest_to": "carlsbad",
            "latitude": "34.0403773",
            "address": "Washington Boulevard, The Village Green, LA, Los Angeles County, California, 90016-1417, United States of America",
            "locType": "primary"
        },
        "muscle beach": {
            "longitude": "-118.4725820875",
            "blogLinks": [
                "https://disneyland.disney.go.com/destinations/southern-california/"
            ],
            "closest_to": "carlsbad",
            "latitude": "33.985446",
            "address": "Muscle Beach, Ocean Front Walk, Venice, LA, Los Angeles County, California, 90292, United States of America",
            "locType": "sports_centre"
        },
        "north park": {
            "longitude": "-117.1305876",
            "blogLinks": [
                "http://wikitravel.org/en/San_Diego"
            ],
            "closest_to": "carlsbad",
            "latitude": "32.7408842",
            "address": "North Park, San Diego, San Diego County, California, 92104, United States of America",
            "locType": "neighbourhood"
        },
        "west broadway": {
            "longitude": "-117.167374",
            "blogLinks": [
                "http://wikitravel.org/en/San_Diego"
            ],
            "closest_to": "carlsbad",
            "latitude": "32.7157697",
            "address": "West Broadway, Hillcrest, San Diego, San Diego County, California, 92101, United States of America",
            "locType": "secondary"
        },
        "escondido": {
            "longitude": "-117.0814848",
            "blogLinks": [
                "http://wikitravel.org/en/San_Diego"
            ],
            "closest_to": "carlsbad",
            "latitude": "33.1216751",
            "address": "Escondido, San Diego County, California, United States of America",
            "locType": "city"
        },
        "hollywood hills": {
            "longitude": "-118.3355473",
            "blogLinks": [
                "https://disneyland.disney.go.com/destinations/southern-california/"
            ],
            "closest_to": "beverly hills",
            "latitude": "34.1311792",
            "address": "Hollywood Hills, LA, Los Angeles County, California, United States of America",
            "locType": "suburb"
        },
        "san onofre": {
            "longitude": "-117.5736036",
            "blogLinks": [
                "https://www.tripadvisor.com/ShowTopic-g28926-i29-k7384025-Sights_between_Los_Angeles_and_San_Diego-California.html"
            ],
            "closest_to": "carlsbad",
            "latitude": "33.3803575",
            "address": "San Onofre, San Diego County, California, United States of America",
            "locType": "hamlet"
        },
        "imperial beach": {
            "longitude": "-117.1130848",
            "blogLinks": [
                "http://wikitravel.org/en/San_Diego"
            ],
            "closest_to": "carlsbad",
            "latitude": "32.5839444",
            "address": "Imperial Beach, San Diego County, California, United States of America",
            "locType": "city"
        },
        "point loma": {
            "longitude": "-117.717867",
            "blogLinks": [
                "http://wikitravel.org/en/San_Diego"
            ],
            "closest_to": "carlsbad",
            "latitude": "33.5466403",
            "address": "Point Loma, Laguna Niguel, Orange County, California, 92677, United States of America",
            "locType": "residential"
        },
        "anaheim": {
            "longitude": "-117.9117319",
            "blogLinks": [
                "https://www.latourist.com/",
                "http://wikitravel.org/en/San_Diego"
            ],
            "closest_to": "carlsbad",
            "latitude": "33.8347516",
            "address": "Anaheim, Orange County, California, United States of America",
            "locType": "city"
        },
        "camp pendleton": {
            "longitude": "-117.4000394",
            "blogLinks": [
                "https://www.tripadvisor.com/ShowTopic-g28926-i29-k7384025-Sights_between_Los_Angeles_and_San_Diego-California.html",
                "http://wikitravel.org/en/San_Diego"
            ],
            "closest_to": "carlsbad",
            "latitude": "33.2167022",
            "address": "Camp Pendleton Boat Basin, San Diego County, California, United States of America",
            "locType": "dock"
        },
        "riverside national cemetery": {
            "longitude": "-117.270726607134",
            "blogLinks": [
                "http://www.california-blog.com/"
            ],
            "closest_to": "carlsbad",
            "latitude": "33.87692125",
            "address": "Riverside National Cemetery, 22495, Alessandro, Riverside County, California, 92518, United States of America",
            "locType": "cemetery"
        },
        "lemon grove": {
            "longitude": "-117.0314171",
            "blogLinks": [
                "http://wikitravel.org/en/San_Diego"
            ],
            "closest_to": "carlsbad",
            "latitude": "32.7425516",
            "address": "Lemon Grove, San Diego County, California, United States of America",
            "locType": "city"
        },
        "pacific beach": {
            "longitude": "-117.2403182",
            "blogLinks": [
                "http://wikitravel.org/en/San_Diego"
            ],
            "closest_to": "carlsbad",
            "latitude": "32.7978268",
            "address": "Pacific Beach, San Diego, San Diego County, California, United States of America",
            "locType": "suburb"
        },
        "san clemente": {
            "longitude": "-117.6124178",
            "blogLinks": [
                "http://wikitravel.org/en/San_Diego"
            ],
            "closest_to": "carlsbad",
            "latitude": "33.4270275",
            "address": "San Clemente, Orange County, California, United States of America",
            "locType": "city"
        },
        "old town": {
            "longitude": "-118.4954422",
            "blogLinks": [
                "http://wikitravel.org/en/San_Diego"
            ],
            "closest_to": "beverly hills",
            "latitude": "35.142943",
            "address": "Old Town, Golden Hills, Kern County, California, United States of America",
            "locType": "locality"
        },
        "historic highway 101": {
            "longitude": "-117.7608795",
            "blogLinks": [
                "http://www.sandiego.org/articles/tours-sightseeing/highway-101-california.aspx"
            ],
            "closest_to": "carlsbad",
            "latitude": "33.7388166",
            "address": "Historic, Orchard Hills, Irvine, Orange County, California, 92602, United States of America",
            "locType": "residential"
        },
        "metro red line": {
            "longitude": "-118.2317418",
            "blogLinks": [
                "https://www.latourist.com/"
            ],
            "closest_to": "carlsbad",
            "latitude": "34.0439641",
            "address": "Red Line, Santa Fe Avenue, Arts District, Little Tokyo Historic District, LA, Los Angeles County, California, 90013, United States of America",
            "locType": "subway"
        },
        "old town san diego": {
            "longitude": "-117.1969792",
            "blogLinks": [
                "http://www.california-blog.com/"
            ],
            "closest_to": "carlsbad",
            "latitude": "32.7542167",
            "address": "Old Town San Diego, San Diego County, California, United States of America",
            "locType": "hamlet"
        },
        "laguna beach": {
            "longitude": "-117.7834146",
            "blogLinks": [
                "https://www.tripadvisor.com/ShowTopic-g28926-i29-k7384025-Sights_between_Los_Angeles_and_San_Diego-California.html",
                "https://disneyland.disney.go.com/destinations/southern-california/"
            ],
            "closest_to": "carlsbad",
            "latitude": "33.5420888",
            "address": "Laguna Beach, Orange County, California, United States of America",
            "locType": "city"
        },
        "tecate": {
            "longitude": "-116.273657068655",
            "blogLinks": [
                "http://wikitravel.org/en/San_Diego"
            ],
            "closest_to": "carlsbad",
            "latitude": "32.43593355",
            "address": "Tecate, Baja California, M\u00e9xico",
            "locType": "administrative"
        },
        "long beach": {
            "longitude": "-118.158049215311",
            "blogLinks": [
                "https://www.tripadvisor.com/ShowTopic-g28926-i29-k7384025-Sights_between_Los_Angeles_and_San_Diego-California.html",
                "https://www.tripoto.com/travel-guide/los-angeles/places-to-visit"
            ],
            "closest_to": "carlsbad",
            "latitude": "33.78538945",
            "address": "Long Beach, Los Angeles County, California, United States of America",
            "locType": "city"
        },
        "los angeles": {
            "longitude": "-118.2439408",
            "blogLinks": [
                "https://www.latourist.com/",
                "https://www.audleytravel.com/usa/california/places-to-go/los-angeles?audcmp=16-505%20USA%20-%20Region%20-%20California%20and%20Nevada&audadg=USA%20-%20California%20and%20Nevada%20-%20Place%20-%20Los%20Angeles%20-%20Broad&auddev=Desktop%20and%20Tablet",
                "https://disneyland.disney.go.com/destinations/southern-california/",
                "http://backpackerverse.com/haunted-places-to-visit-in-los-angeles/",
                "http://wikitravel.org/en/San_Diego",
                "https://www.tripoto.com/travel-guide/los-angeles/places-to-visit",
                "http://www.timeanddate.com/worldclock/distances.html?n=137",
                "https://www.distancecalculator.net/from-carlsbad-to-beverly-hills",
                "http://www.tvfoodmaps.com/s1/CA"
            ],
            "closest_to": "carlsbad",
            "latitude": "34.0543942",
            "address": "LA, Los Angeles County, California, United States of America",
            "locType": "city"
        },
        "fairfax ave. los angeles": {
            "longitude": "-118.3614091",
            "blogLinks": [
                "http://backpackerverse.com/haunted-places-to-visit-in-los-angeles/"
            ],
            "closest_to": "carlsbad",
            "latitude": "34.071524",
            "address": "Fairfax Avenue, Park La Brea, Hollywood, LA, Los Angeles County, California, 90036, United States of America",
            "locType": "primary"
        },
        "disneyland": {
            "longitude": "-117.91971186569",
            "blogLinks": [
                "https://www.latourist.com/"
            ],
            "closest_to": "carlsbad",
            "latitude": "33.8136367",
            "address": "DL, 1313, South Harbor Boulevard, Anaheim Resort District, Anaheim, Orange County, California, 92805, United States of America",
            "locType": "theme_park"
        },
        "hillcrest": {
            "longitude": "-117.1609795",
            "blogLinks": [
                "http://wikitravel.org/en/San_Diego"
            ],
            "closest_to": "carlsbad",
            "latitude": "32.7483621",
            "address": "Hillcrest, San Diego, San Diego County, California, United States of America",
            "locType": "suburb"
        },
        "kettner blvd": {
            "longitude": "-117.1698529",
            "blogLinks": [
                "http://wikitravel.org/en/San_Diego"
            ],
            "closest_to": "carlsbad",
            "latitude": "32.725143",
            "address": "Kettner Boulevard, Hillcrest, San Diego, San Diego County, California, 92101, United States of America",
            "locType": "secondary"
        },
        "san ysidro blvd": {
            "longitude": "-117.0430812",
            "blogLinks": [
                "http://wikitravel.org/en/San_Diego"
            ],
            "closest_to": "carlsbad",
            "latitude": "32.5520013",
            "address": "San Ysidro, San Diego, San Diego County, California, United States of America",
            "locType": "suburb"
        },
        "coast highway": {
            "longitude": "-117.368699",
            "blogLinks": [
                "http://www.sandiego.org/articles/tours-sightseeing/highway-101-california.aspx"
            ],
            "closest_to": "carlsbad",
            "latitude": "33.1818019",
            "address": "Coast Highway, 1304 1/2, South Tremont Street, Oceanside, San Diego County, California, 92054, United States of America",
            "locType": "station"
        },
        "mission trails regional park": {
            "longitude": "-117.0366957",
            "blogLinks": [
                "http://wikitravel.org/en/San_Diego"
            ],
            "closest_to": "carlsbad",
            "latitude": "32.7958834",
            "address": "Mission Trails Regional Park, Lake Shore Drive, San Diego, San Diego County, California, 91942:92119, United States of America",
            "locType": "park"
        },
        "palos verdes peninsula ca": {
            "longitude": "-118.372196730215",
            "blogLinks": [
                "http://www.california-blog.com/"
            ],
            "closest_to": "carlsbad",
            "latitude": "33.77984925",
            "address": "Palos Verdes Peninsula High School, Hawthorne Boulevard, Rolling Hills Estates, Los Angeles County, California, 90274, United States of America",
            "locType": "school"
        },
        "sassafras street": {
            "longitude": "-117.1792479",
            "blogLinks": [
                "http://wikitravel.org/en/San_Diego"
            ],
            "closest_to": "carlsbad",
            "latitude": "32.7353092",
            "address": "Sassafras Street, Hillcrest, San Diego, San Diego County, California, 92103, United States of America",
            "locType": "secondary"
        },
        "kettner blvd.": {
            "longitude": "-117.1698529",
            "blogLinks": [
                "http://wikitravel.org/en/San_Diego"
            ],
            "closest_to": "carlsbad",
            "latitude": "32.725143",
            "address": "Kettner Boulevard, Hillcrest, San Diego, San Diego County, California, 92101, United States of America",
            "locType": "secondary"
        },
        "mission beach-pacific beach": {
            "longitude": "-117.2527558",
            "blogLinks": [
                "http://wikitravel.org/en/San_Diego"
            ],
            "closest_to": "carlsbad",
            "latitude": "32.7846357",
            "address": "The Mission, 3795, Mission Boulevard, Pacific Beach, San Diego, San Diego County, California, 92109, United States of America",
            "locType": "cafe"
        },
        "ballast point": {
            "longitude": "-118.5054834",
            "blogLinks": [
                "http://wikitravel.org/en/San_Diego"
            ],
            "closest_to": "carlsbad",
            "latitude": "33.4306128",
            "address": "Ballast Point, Two Harbors, Los Angeles County, California, United States of America",
            "locType": "locality"
        },
        "el cajon": {
            "longitude": "-116.9625268",
            "blogLinks": [
                "http://wikitravel.org/en/San_Diego"
            ],
            "closest_to": "carlsbad",
            "latitude": "32.7947731",
            "address": "El Cajon, San Diego County, California, United States of America",
            "locType": "city"
        },
        "santa monica pier": {
            "longitude": "-118.4960541",
            "blogLinks": [
                "https://www.latourist.com/"
            ],
            "closest_to": "beverly hills",
            "latitude": "34.0104809",
            "address": "Santa Monica Pier, Santa Monica, Los Angeles County, California, CA 90401, United States of America",
            "locType": "service"
        },
        "santa monica boulevard": {
            "longitude": "-118.317943",
            "blogLinks": [
                "http://www.distancesfrom.com/flight-distance-from-Carlsbad-to-Beverly-Hills/FlightHistory/26040384.aspx",
                "http://gocalifornia.about.com/cs/losangeles/a/rodeo.htm"
            ],
            "closest_to": "carlsbad",
            "latitude": "34.0907545",
            "address": "Santa Monica Boulevard, Little Armenia, LA, Los Angeles County, California, Ca 90038, United States of America",
            "locType": "primary"
        },
        "westchester place los angeles": {
            "longitude": "-118.316511",
            "blogLinks": [
                "http://backpackerverse.com/haunted-places-to-visit-in-los-angeles/"
            ],
            "closest_to": "carlsbad",
            "latitude": "34.0524894",
            "address": "Westchester Place, Country Club Park, Cienega, LA, Los Angeles County, California, 90019, United States of America",
            "locType": "residential"
        },
        "latin america": {
            "longitude": "-117.243474813578",
            "blogLinks": [
                "http://wikitravel.org/en/San_Diego"
            ],
            "closest_to": "carlsbad",
            "latitude": "32.88513545",
            "address": "Latin America Hall, North Torrey Pines Road, La Jolla, San Diego, San Diego County, California, 92037, United States of America",
            "locType": "yes"
        },
        "legoland california": {
            "longitude": "-117.311664211922",
            "blogLinks": [
                "http://wikitravel.org/en/San_Diego"
            ],
            "closest_to": "carlsbad",
            "latitude": "33.1278683",
            "address": "Legoland California, 1, LEGOLAND drive, Carlsbad, San Diego County, California, 92008, United States of America",
            "locType": "theme_park"
        },
        "west hollywood": {
            "longitude": "-118.3617442",
            "blogLinks": [
                "https://www.audleytravel.com/usa/california/places-to-go/los-angeles?audcmp=16-505%20USA%20-%20Region%20-%20California%20and%20Nevada&audadg=USA%20-%20California%20and%20Nevada%20-%20Place%20-%20Los%20Angeles%20-%20Broad&auddev=Desktop%20and%20Tablet"
            ],
            "closest_to": "carlsbad",
            "latitude": "34.0900091",
            "address": "West Hollywood, Los Angeles County, California, United States of America",
            "locType": "city"
        },
        "baja mexico": {
            "longitude": "-116.9866449",
            "blogLinks": [
                "http://wikitravel.org/en/San_Diego"
            ],
            "closest_to": "carlsbad",
            "latitude": "32.499412",
            "address": "Instituto Mexico de Baja California, Avenida Las Palmas, Tijuana, Baja California, 22106, M\u00e9xico",
            "locType": "school"
        },
        "del mar fairgrounds": {
            "longitude": "-117.261735377207",
            "blogLinks": [
                "http://www.sandiego.org/articles/tours-sightseeing/highway-101-california.aspx"
            ],
            "closest_to": "carlsbad",
            "latitude": "32.97578065",
            "address": "Del Mar Fairgrounds, 2260, Jimmy Durante Boulevard, Del Mar, San Diego County, California, 92014, United States of America",
            "locType": "pitch"
        },
        "san diego international airport": {
            "longitude": "-117.193463366077",
            "blogLinks": [
                "http://wikitravel.org/en/San_Diego"
            ],
            "closest_to": "carlsbad",
            "latitude": "32.73336075",
            "address": "San Diego International Airport, Air Lane, Old Town, San Diego, San Diego County, California, 92101, United States of America",
            "locType": "aerodrome"
        },
        "huntington beach": {
            "longitude": "-118.0000165",
            "blogLinks": [
                "https://www.tripadvisor.com/ShowTopic-g28926-i29-k7384025-Sights_between_Los_Angeles_and_San_Diego-California.html"
            ],
            "closest_to": "carlsbad",
            "latitude": "33.6783336",
            "address": "Huntington Beach, Orange County, California, United States of America",
            "locType": "city"
        },
        "northern san diego county": {
            "longitude": "-117.1545973",
            "blogLinks": [
                "http://wikitravel.org/en/San_Diego"
            ],
            "closest_to": "carlsbad",
            "latitude": "32.7349196",
            "address": "Northern Frontier, San Diego, San Diego County, California, United States of America",
            "locType": "locality"
        },
        "los angeles.the": {
            "longitude": "-118.2439408",
            "blogLinks": [
                "http://backpackerverse.com/haunted-places-to-visit-in-los-angeles/"
            ],
            "closest_to": "carlsbad",
            "latitude": "34.0543942",
            "address": "LA, Los Angeles County, California, United States of America",
            "locType": "city"
        },
        "newport center": {
            "longitude": "-117.8753277",
            "blogLinks": [
                "https://disneyland.disney.go.com/destinations/southern-california/"
            ],
            "closest_to": "carlsbad",
            "latitude": "33.6161794",
            "address": "Newport Center, Newport Beach, Orange County, California, United States of America",
            "locType": "suburb"
        },
        "angelino heights": {
            "longitude": "-118.2547964",
            "blogLinks": [
                "http://backpackerverse.com/haunted-places-to-visit-in-los-angeles/"
            ],
            "closest_to": "carlsbad",
            "latitude": "34.0702889",
            "address": "Angelino Heights, LA, Los Angeles County, California, United States of America",
            "locType": "suburb"
        },
        "palomar mountain": {
            "longitude": "-116.8786358",
            "blogLinks": [
                "http://wikitravel.org/en/San_Diego"
            ],
            "closest_to": "carlsbad",
            "latitude": "33.3228128",
            "address": "Palomar Mountain, San Diego County, California, United States of America",
            "locType": "hamlet"
        },
        "la international airport": {
            "longitude": "-118.407057290249",
            "blogLinks": [
                "https://www.latourist.com/"
            ],
            "closest_to": "carlsbad",
            "latitude": "33.94211345",
            "address": "Los Angeles International Airport, Gate 41, Westchester, Playa del Rey, LA, Los Angeles County, California, 90245, United States of America",
            "locType": "aerodrome"
        },
        "san bernardino": {
            "longitude": "-117.2897651",
            "blogLinks": [
                "http://wikitravel.org/en/San_Diego"
            ],
            "closest_to": "carlsbad",
            "latitude": "34.1083449",
            "address": "San Bernardino, San Bernardino County, California, United States of America",
            "locType": "city"
        },
        "downtown los angeles": {
            "longitude": "-118.312628",
            "blogLinks": [
                "https://www.latourist.com/",
                "https://www.tripoto.com/travel-guide/los-angeles/places-to-visit"
            ],
            "closest_to": "beverly hills",
            "latitude": "34.1789188",
            "address": "Downtown Burbank, Front Street, Burbank, Los Angeles County, California, 91502, United States of America",
            "locType": "station"
        },
        "water park": {
            "longitude": "-117.429414124427",
            "blogLinks": [
                "http://www.sandiego.org/articles/tours-sightseeing/highway-101-california.aspx"
            ],
            "closest_to": "carlsbad",
            "latitude": "33.9044755",
            "address": "water park, Gibson Street, Riverside, Riverside County, California, 92503, United States of America",
            "locType": "water"
        },
        "balboa park | balboa park-hillcrest": {
            "longitude": "-117.146580648446",
            "blogLinks": [
                "http://wikitravel.org/en/San_Diego"
            ],
            "closest_to": "carlsbad",
            "latitude": "32.7310521",
            "address": "Balboa Park, Plaza de Balboa, North Park, Hillcrest, San Diego, San Diego County, California, 92101, United States of America",
            "locType": "park"
        },
        "naval air station": {
            "longitude": "-117.2043364",
            "blogLinks": [
                "http://wikitravel.org/en/San_Diego"
            ],
            "closest_to": "carlsbad",
            "latitude": "32.701613",
            "address": "Naval Air Station North Island, F West Road, Coronado, San Diego County, California, 92135, United States of America",
            "locType": "military"
        },
        "santa monica beach": {
            "longitude": "-119.2203179",
            "blogLinks": [
                "https://www.audleytravel.com/usa/california/places-to-go/los-angeles?audcmp=16-505%20USA%20-%20Region%20-%20California%20and%20Nevada&audadg=USA%20-%20California%20and%20Nevada%20-%20Place%20-%20Los%20Angeles%20-%20Broad&auddev=Desktop%20and%20Tablet"
            ],
            "closest_to": "beverly hills",
            "latitude": "34.159111",
            "address": "Santa Monica Drive, Channel Islands Beach, Ventura County, California, 93035, United States of America",
            "locType": "residential"
        },
        "balboa island": {
            "longitude": "-117.8920818",
            "blogLinks": [
                "https://www.tripadvisor.com/ShowTopic-g28926-i29-k7384025-Sights_between_Los_Angeles_and_San_Diego-California.html"
            ],
            "closest_to": "carlsbad",
            "latitude": "33.6064778",
            "address": "Balboa Island, Newport Beach, Orange County, California, United States of America",
            "locType": "suburb"
        },
        "orange county": {
            "longitude": "-117.870493",
            "blogLinks": [
                "https://www.tripadvisor.com/ShowTopic-g28926-i29-k7384025-Sights_between_Los_Angeles_and_San_Diego-California.html",
                "https://www.latourist.com/",
                "https://disneyland.disney.go.com/destinations/southern-california/",
                "http://wikitravel.org/en/San_Diego"
            ],
            "closest_to": "carlsbad",
            "latitude": "33.7500378",
            "address": "Orange County, California, United States of America",
            "locType": "administrative"
        },
        "west coast": {
            "longitude": "-118.4051087",
            "blogLinks": [
                "http://www.sandiego.org/articles/tours-sightseeing/highway-101-california.aspx"
            ],
            "closest_to": "carlsbad",
            "latitude": "34.0222263",
            "address": "West Coast, Motor Avenue, Palms, LA, Los Angeles County, California, 90034-5702, United States of America",
            "locType": "plumber"
        },
        "san diego botanic garden": {
            "longitude": "-117.281085005264",
            "blogLinks": [
                "http://www.sandiego.org/articles/tours-sightseeing/highway-101-california.aspx"
            ],
            "closest_to": "carlsbad",
            "latitude": "33.053482",
            "address": "San Diego Botanic Garden, Pacific View Lane, Encinitas, San Diego County, California, 92024, United States of America",
            "locType": "garden"
        },
        "linda vista road": {
            "longitude": "-117.1553189",
            "blogLinks": [
                "http://wikitravel.org/en/San_Diego"
            ],
            "closest_to": "carlsbad",
            "latitude": "32.805611",
            "address": "Linda Vista Road, Mission Valley, San Diego, San Diego County, California, 92111, United States of America",
            "locType": "secondary"
        },
        "legoland": {
            "longitude": "-117.3171628",
            "blogLinks": [
                "https://www.latourist.com/"
            ],
            "closest_to": "carlsbad",
            "latitude": "33.1334161",
            "address": "Legoland Drive, Carlsbad, San Diego County, California, 92009, United States of America",
            "locType": "tertiary"
        },
        "south coast plaza": {
            "longitude": "-117.889168433903",
            "blogLinks": [
                "https://www.tripadvisor.com/ShowTopic-g28926-i29-k7384025-Sights_between_Los_Angeles_and_San_Diego-California.html"
            ],
            "closest_to": "carlsbad",
            "latitude": "33.6907283",
            "address": "South Coast Plaza, Bear Street, Costa Mesa, Orange County, California, 92704, United States of America",
            "locType": "mall"
        },
        "mission beach": {
            "longitude": "-117.2525056",
            "blogLinks": [
                "http://wikitravel.org/en/San_Diego"
            ],
            "closest_to": "carlsbad",
            "latitude": "32.7827144",
            "address": "Mission Beach, San Diego County, California, United States of America",
            "locType": "hamlet"
        },
        "town-mission valley": {
            "longitude": "-117.194891467408",
            "blogLinks": [
                "http://wikitravel.org/en/San_Diego"
            ],
            "closest_to": "carlsbad",
            "latitude": "32.7537731",
            "address": "Old Town San Diego State Historic Park, Twiggs Street, Old Town, San Diego, San Diego County, California, 92110, United States of America",
            "locType": "park"
        },
        "gaslamp": {
            "longitude": "-118.116345466191",
            "blogLinks": [
                "http://wikitravel.org/en/San_Diego"
            ],
            "closest_to": "carlsbad",
            "latitude": "33.76711105",
            "address": "Gaslamp, Loynes Drive, Marina Pacifica, Naples, Long Beach, Los Angeles County, California, 90803, United States of America",
            "locType": "hotel"
        },
        "gaslamp quarter": {
            "longitude": "-117.1597028",
            "blogLinks": [
                "https://disneyland.disney.go.com/destinations/southern-california/",
                "http://wikitravel.org/en/San_Diego"
            ],
            "closest_to": "carlsbad",
            "latitude": "32.7109444",
            "address": "Gaslamp Quarter, San Diego County, California, United States of America",
            "locType": "hamlet"
        },
        "beverly hills": {
            "longitude": "-118.4003562",
            "blogLinks": [
                "http://www.distancesfrom.com/flight-distance-from-Carlsbad-to-Beverly-Hills/FlightHistory/26040384.aspx",
                "http://www.distancesfrom.com/us/distance-from-Carlsbad-to-Beverly-Hills/DistanceHistory/12436115.aspx",
                "http://www.distancesfrom.com/us/map-from-Carlsbad-to-Beverly-Hills/MapHistory/12436115.aspx",
                "http://www.distancesfrom.com/how-far-is-Beverly-Hills-from-Carlsbad/HowFarHistory/26040384.aspx",
                "https://www.latourist.com/",
                "http://www.california-blog.com/",
                "http://www.distancesfrom.com/distance-from-Carlsbad-to-Beverly-Hills/DistanceHistory/26040384.aspx",
                "http://www.distancesfrom.com/us/travel-from-Carlsbad-to-Beverly-Hills/TravelFromHistory/12436115.aspx",
                "https://www.tripadvisor.com/Attractions-g32070-Activities-Beverly_Hills_California.html",
                "https://disneyland.disney.go.com/destinations/southern-california/",
                "http://backpackerverse.com/haunted-places-to-visit-in-los-angeles/",
                "http://gocalifornia.about.com/cs/losangeles/a/rodeo.htm",
                "http://www.distancesfrom.com/us/distance%20from%20Beverly%20Hills%20to%20Legoland%20Dr%20Carlsbad/DistanceHistory/26286434.aspx",
                "https://www.tripoto.com/travel-guide/los-angeles/places-to-visit",
                "https://www.distancecalculator.net/from-carlsbad-to-beverly-hills",
                "http://www.distancesfrom.com/directions-from-Carlsbad-to-Beverly-Hills/DirectionHistory/26040384.aspx"
            ],
            "closest_to": "beverly hills",
            "latitude": "34.0736204",
            "address": "Beverly Hills, Los Angeles County, California, United States of America",
            "locType": "city"
        },
        "hollywood sign": {
            "longitude": "-118.3216522",
            "blogLinks": [
                "https://www.latourist.com/"
            ],
            "closest_to": "beverly hills",
            "latitude": "34.1340991",
            "address": "Hollywood Sign, Mount Lee Drive, Hollywood Hills, LA, Los Angeles County, California, 90068, United States of America",
            "locType": "attraction"
        },
        "los angeles county museum of art": {
            "longitude": "-118.357997654056",
            "blogLinks": [
                "https://www.audleytravel.com/usa/california/places-to-go/los-angeles?audcmp=16-505%20USA%20-%20Region%20-%20California%20and%20Nevada&audadg=USA%20-%20California%20and%20Nevada%20-%20Place%20-%20Los%20Angeles%20-%20Broad&auddev=Desktop%20and%20Tablet"
            ],
            "closest_to": "carlsbad",
            "latitude": "34.0634357",
            "address": "Los Angeles County Museum of Art, Wilshire Boulevard, Park La Brea, The Village Green, LA, Los Angeles County, California, 90036, United States of America",
            "locType": "museum"
        },
        "pacific coast highway": {
            "longitude": "-118.0051687",
            "blogLinks": [
                "http://wikitravel.org/en/San_Diego"
            ],
            "closest_to": "carlsbad",
            "latitude": "33.6595127",
            "address": "Pacific Coast Highway, Huntington Beach, Orange County, California, 92648, United States of America",
            "locType": "primary"
        },
        "hollywood pacific theatre": {
            "longitude": "-118.3306652",
            "blogLinks": [
                "http://backpackerverse.com/haunted-places-to-visit-in-los-angeles/"
            ],
            "closest_to": "carlsbad",
            "latitude": "34.1020397",
            "address": "Hollywood Pacific Theatre, North Wilcox Avenue, Hollywood, LA, Los Angeles County, California, 90028, United States of America",
            "locType": "theatre"
        },
        "carlsbad california": {
            "longitude": "-117.3505938",
            "blogLinks": [
                "http://www.sandiego.org/articles/tours-sightseeing/highway-101-california.aspx"
            ],
            "closest_to": "carlsbad",
            "latitude": "33.1580933",
            "address": "Carlsbad, San Diego County, California, United States of America",
            "locType": "city"
        },
        "la jolla cove": {
            "longitude": "-117.273024234204",
            "blogLinks": [
                "http://wikitravel.org/en/San_Diego"
            ],
            "closest_to": "carlsbad",
            "latitude": "32.85051835",
            "address": "La Jolla Cove, Coast Boulevard, La Jolla, San Diego, San Diego County, California, 92037, United States of America",
            "locType": "beach"
        },
        "carroll avenue los angeles": {
            "longitude": "-118.2550378",
            "blogLinks": [
                "http://backpackerverse.com/haunted-places-to-visit-in-los-angeles/"
            ],
            "closest_to": "carlsbad",
            "latitude": "34.0696986",
            "address": "Carroll Avenue, Echo Park, Angelino Heights, LA, Los Angeles County, California, 90026, United States of America",
            "locType": "residential"
        },
        "dayton way": {
            "longitude": "-118.3922445",
            "blogLinks": [
                "http://gocalifornia.about.com/cs/losangeles/a/rodeo.htm"
            ],
            "closest_to": "carlsbad",
            "latitude": "34.0707992",
            "address": "Dayton Way, Beverly Hills, Los Angeles County, California, 90210, United States of America",
            "locType": "residential"
        },
        "newport beach": {
            "longitude": "-117.92944",
            "blogLinks": [
                "https://www.tripadvisor.com/ShowTopic-g28926-i29-k7384025-Sights_between_Los_Angeles_and_San_Diego-California.html",
                "https://disneyland.disney.go.com/destinations/southern-california/"
            ],
            "closest_to": "carlsbad",
            "latitude": "33.6170092",
            "address": "Newport Beach, Orange County, California, United States of America",
            "locType": "city"
        },
        "la jolla shores": {
            "longitude": "-117.2536478",
            "blogLinks": [
                "http://wikitravel.org/en/San_Diego"
            ],
            "closest_to": "carlsbad",
            "latitude": "32.8556028",
            "address": "La Jolla Shores, San Diego County, California, United States of America",
            "locType": "hamlet"
        },
        "mission valley": {
            "longitude": "-117.1520977",
            "blogLinks": [
                "http://wikitravel.org/en/San_Diego"
            ],
            "closest_to": "carlsbad",
            "latitude": "32.7768074",
            "address": "Mission Valley, San Diego, San Diego County, California, United States of America",
            "locType": "suburb"
        },
        "venice beach": {
            "longitude": "-118.4739815",
            "blogLinks": [
                "https://www.latourist.com/",
                "https://www.tripoto.com/travel-guide/los-angeles/places-to-visit"
            ],
            "closest_to": "carlsbad",
            "latitude": "33.9862012",
            "address": "Venice Beach, Venice Beach Bike Path, Venice, LA, Los Angeles County, California, 90405, United States of America",
            "locType": "police"
        },
        "balboa park-hillcrest": {
            "longitude": "-117.146580648446",
            "blogLinks": [
                "http://wikitravel.org/en/San_Diego"
            ],
            "closest_to": "carlsbad",
            "latitude": "32.7310521",
            "address": "Balboa Park, Plaza de Balboa, North Park, Hillcrest, San Diego, San Diego County, California, 92101, United States of America",
            "locType": "park"
        },
        "clairemont mesa": {
            "longitude": "-117.215436",
            "blogLinks": [
                "http://wikitravel.org/en/San_Diego"
            ],
            "closest_to": "carlsbad",
            "latitude": "32.8302448",
            "address": "Clairemont Mesa Boulevard, Pacific Beach, San Diego, San Diego County, California, 92117, United States of America",
            "locType": "secondary"
        },
        "san diego": {
            "longitude": "-117.1627713",
            "blogLinks": [
                "https://www.tripadvisor.com/ShowTopic-g28926-i29-k7384025-Sights_between_Los_Angeles_and_San_Diego-California.html",
                "https://www.latourist.com/",
                "https://disneyland.disney.go.com/destinations/southern-california/",
                "http://wikitravel.org/en/San_Diego",
                "https://www.tripoto.com/travel-guide/los-angeles/places-to-visit",
                "http://www.sandiego.org/articles/tours-sightseeing/highway-101-california.aspx"
            ],
            "closest_to": "carlsbad",
            "latitude": "32.7174209",
            "address": "San Diego, San Diego County, California, United States of America",
            "locType": "city"
        },
        "torrey pines state beach": {
            "longitude": "-117.259044437013",
            "blogLinks": [
                "http://wikitravel.org/en/San_Diego"
            ],
            "closest_to": "carlsbad",
            "latitude": "32.91754945",
            "address": "Torrey Pines State Beach, Yucca Point Trail, Del Mar, San Diego, San Diego County, California, 92121, United States of America",
            "locType": "beach"
        },
        "carlsbad": {
            "longitude": "-117.3505938",
            "blogLinks": [
                "http://www.distancesfrom.com/flight-distance-from-Carlsbad-to-Beverly-Hills/FlightHistory/26040384.aspx",
                "http://www.distancesfrom.com/us/map-from-Carlsbad-to-Beverly-Hills/MapHistory/12436115.aspx",
                "http://www.distancesfrom.com/us/distance-from-Carlsbad-to-Beverly-Hills/DistanceHistory/12436115.aspx",
                "http://www.distancesfrom.com/how-far-is-Beverly-Hills-from-Carlsbad/HowFarHistory/26040384.aspx",
                "http://www.distancesfrom.com/distance-from-Carlsbad-to-Beverly-Hills/DistanceHistory/26040384.aspx",
                "http://www.distancesfrom.com/us/travel-from-Carlsbad-to-Beverly-Hills/TravelFromHistory/12436115.aspx",
                "http://www.distancesfrom.com/us/distance%20from%20Beverly%20Hills%20to%20Legoland%20Dr%20Carlsbad/DistanceHistory/26286434.aspx",
                "http://wikitravel.org/en/San_Diego",
                "http://www.sandiego.org/articles/tours-sightseeing/highway-101-california.aspx",
                "https://www.distancecalculator.net/from-carlsbad-to-beverly-hills",
                "http://www.distancesfrom.com/directions-from-Carlsbad-to-Beverly-Hills/DirectionHistory/26040384.aspx"
            ],
            "closest_to": "carlsbad",
            "latitude": "33.1580933",
            "address": "Carlsbad, San Diego County, California, United States of America",
            "locType": "city"
        },
        "burbank": {
            "longitude": "-118.3258553",
            "blogLinks": [
                "https://www.tripoto.com/travel-guide/los-angeles/places-to-visit"
            ],
            "closest_to": "beverly hills",
            "latitude": "34.1816482",
            "address": "Burbank, Los Angeles County, California, United States of America",
            "locType": "city"
        },
        "vine street": {
            "longitude": "-117.373584",
            "blogLinks": [
                "https://disneyland.disney.go.com/destinations/southern-california/"
            ],
            "closest_to": "carlsbad",
            "latitude": "33.9719539",
            "address": "Vine Street, Riverside, Riverside County, California, 92507, United States of America",
            "locType": "residential"
        },
        "san diego zoo safari park": {
            "longitude": "-116.995039439834",
            "blogLinks": [
                "https://disneyland.disney.go.com/destinations/southern-california/",
                "http://wikitravel.org/en/San_Diego"
            ],
            "closest_to": "carlsbad",
            "latitude": "33.096694",
            "address": "San Diego Zoo Safari Park, 15500, San Pasqual Valley Road, San Diego, San Diego County, California, 92025, United States of America",
            "locType": "zoo"
        },
        "wonderland ave. los angeles": {
            "longitude": "-118.3878149",
            "blogLinks": [
                "http://backpackerverse.com/haunted-places-to-visit-in-los-angeles/"
            ],
            "closest_to": "beverly hills",
            "latitude": "34.1091434",
            "address": "Wonderland Avenue, LA, Los Angeles County, California, 90046, United States of America",
            "locType": "residential"
        },
        "canyon crest drive": {
            "longitude": "-117.3300787",
            "blogLinks": [
                "http://wikitravel.org/en/San_Diego"
            ],
            "closest_to": "carlsbad",
            "latitude": "33.9575498",
            "address": "Canyon Crest Drive, Riverside, Riverside County, California, 92521, United States of America",
            "locType": "primary"
        },
        "hollywood boulevard": {
            "longitude": "-118.32684",
            "blogLinks": [
                "https://www.tripoto.com/travel-guide/los-angeles/places-to-visit",
                "https://www.latourist.com/",
                "https://disneyland.disney.go.com/destinations/southern-california/",
                "http://gocalifornia.about.com/cs/losangeles/a/rodeo.htm"
            ],
            "closest_to": "carlsbad",
            "latitude": "34.1016312",
            "address": "Hollywood Boulevard, Hollywood, LA, Los Angeles County, California, 90028, United States of America",
            "locType": "secondary"
        },
        "marina del rey": {
            "longitude": "-118.4508017",
            "blogLinks": [
                "https://www.latourist.com/"
            ],
            "closest_to": "carlsbad",
            "latitude": "33.9774017",
            "address": "Marina del Rey, Ocean Park, Los Angeles County, California, United States of America",
            "locType": "suburb"
        },
        "santee": {
            "longitude": "-116.9739166",
            "blogLinks": [
                "http://wikitravel.org/en/San_Diego"
            ],
            "closest_to": "carlsbad",
            "latitude": "32.8383828",
            "address": "Santee, San Diego County, California, United States of America",
            "locType": "city"
        },
        "poway": {
            "longitude": "-117.0358645",
            "blogLinks": [
                "http://wikitravel.org/en/San_Diego"
            ],
            "closest_to": "carlsbad",
            "latitude": "32.9628234",
            "address": "Poway, San Diego County, California, United States of America",
            "locType": "city"
        },
        "tijuana": {
            "longitude": "-116.9641656",
            "blogLinks": [
                "http://wikitravel.org/en/San_Diego"
            ],
            "closest_to": "carlsbad",
            "latitude": "32.5008626",
            "address": "Tijuana, Baja California, M\u00e9xico",
            "locType": "city"
        },
        "burton w. chace park": {
            "longitude": "-118.194963709773",
            "blogLinks": [
                "https://www.latourist.com/"
            ],
            "closest_to": "carlsbad",
            "latitude": "33.85453775",
            "address": "Burton W. Chace Park, Market Street, North Long Beach, Long Beach, Los Angeles County, California, 90805, United States of America",
            "locType": "park"
        },
        "magic mountain": {
            "longitude": "-119.2563693",
            "blogLinks": [
                "https://www.latourist.com/"
            ],
            "closest_to": "beverly hills",
            "latitude": "34.4724515",
            "address": "Magic Mountain, Ventura County, California, United States of America",
            "locType": "peak"
        },
        "morena blvd": {
            "longitude": "-117.2209089",
            "blogLinks": [
                "http://wikitravel.org/en/San_Diego"
            ],
            "closest_to": "carlsbad",
            "latitude": "32.816795",
            "address": "Morena Boulevard, Pacific Beach, San Diego, San Diego County, California, 92110, United States of America",
            "locType": "secondary"
        },
        "harold way los angeles": {
            "longitude": "-118.316573",
            "blogLinks": [
                "http://backpackerverse.com/haunted-places-to-visit-in-los-angeles/"
            ],
            "closest_to": "carlsbad",
            "latitude": "34.0992867",
            "address": "Harold Way, Little Armenia, LA, Los Angeles County, California, 90028-5420, United States of America",
            "locType": "residential"
        },
        "san diego bay": {
            "longitude": "-117.1341977",
            "blogLinks": [
                "http://wikitravel.org/en/San_Diego"
            ],
            "closest_to": "carlsbad",
            "latitude": "32.6500534",
            "address": "San Diego Bay, Leyte Road, Crown Island, Coronado, San Diego County, California, 92118, United States of America",
            "locType": "bay"
        },
        "shelter island": {
            "longitude": "-117.2300318",
            "blogLinks": [
                "http://wikitravel.org/en/San_Diego"
            ],
            "closest_to": "carlsbad",
            "latitude": "32.7113133",
            "address": "Shelter Island, San Diego, San Diego County, California, United States of America",
            "locType": "island"
        },
        "seal beach": {
            "longitude": "-118.1046355",
            "blogLinks": [
                "http://www.sandiego.org/articles/tours-sightseeing/highway-101-california.aspx"
            ],
            "closest_to": "carlsbad",
            "latitude": "33.741176",
            "address": "Seal Beach, Orange County, California, United States of America",
            "locType": "city"
        },
        "mcclellan-palomar airport": {
            "longitude": "-117.281400045984",
            "blogLinks": [
                "http://wikitravel.org/en/San_Diego"
            ],
            "closest_to": "carlsbad",
            "latitude": "33.12754605",
            "address": "McClellan-Palomar Airport, Aircraft Road, Carlsbad, San Diego County, California, 92011, United States of America",
            "locType": "aerodrome"
        },
        "costa mesa": {
            "longitude": "-117.9033169",
            "blogLinks": [
                "https://www.tripadvisor.com/ShowTopic-g28926-i29-k7384025-Sights_between_Los_Angeles_and_San_Diego-California.html"
            ],
            "closest_to": "carlsbad",
            "latitude": "33.6633386",
            "address": "Costa Mesa, Orange County, California, United States of America",
            "locType": "city"
        },
        "olvera street": {
            "longitude": "-118.2373201",
            "blogLinks": [
                "https://www.latourist.com/"
            ],
            "closest_to": "carlsbad",
            "latitude": "34.0581578",
            "address": "Olvera Street, Naud Junction, Little Tokyo Historic District, LA, Los Angeles County, California, 90012, United States of America",
            "locType": "pedestrian"
        },
        "st. didacus": {
            "longitude": "-118.4445275",
            "blogLinks": [
                "http://wikitravel.org/en/San_Diego"
            ],
            "closest_to": "beverly hills",
            "latitude": "34.3061118",
            "address": "Saint Didacus School, Fellows Avenue, Sylmar, LA, Los Angeles County, California, 91342, United States of America",
            "locType": "school"
        },
        "fairbanks ranch": {
            "longitude": "-117.7880668",
            "blogLinks": [
                "http://www.sandiego.org/articles/tours-sightseeing/highway-101-california.aspx"
            ],
            "closest_to": "carlsbad",
            "latitude": "33.7438604",
            "address": "Fairbanks Drive, Tustin Ranch, Tustin, Orange County, California, 92782, United States of America",
            "locType": "residential"
        },
        "mount baldy ca": {
            "longitude": "-117.6600552",
            "blogLinks": [
                "http://www.california-blog.com/"
            ],
            "closest_to": "carlsbad",
            "latitude": "34.2361168",
            "address": "Mount Baldy, Los Angeles County, California, United States of America",
            "locType": "hamlet"
        },
        "india": {
            "longitude": "-117.173543004762",
            "blogLinks": [
                "http://wikitravel.org/en/San_Diego"
            ],
            "closest_to": "carlsbad",
            "latitude": "32.72025735",
            "address": "Star of India, North Harbor Drive, Hillcrest, San Diego, San Diego County, California, 92106, United States of America",
            "locType": "attraction"
        },
        "wilshire boulevard": {
            "longitude": "-118.3036614",
            "blogLinks": [
                "http://gocalifornia.about.com/cs/losangeles/a/rodeo.htm"
            ],
            "closest_to": "carlsbad",
            "latitude": "34.0617231",
            "address": "Wilshire Boulevard, Koreatown, Saint James Park, LA, Los Angeles County, California, 90005, United States of America",
            "locType": "primary"
        },
        "morongo valley": {
            "longitude": "-116.596723958419",
            "blogLinks": [
                "http://www.california-blog.com/"
            ],
            "closest_to": "carlsbad",
            "latitude": "34.0537585",
            "address": "Morongo Valley, Vista Drive, Morongo Valley, San Bernardino County, California, 92256, United States of America",
            "locType": "administrative"
        },
        "torrey pines": {
            "longitude": "-117.5806448",
            "blogLinks": [
                "http://wikitravel.org/en/San_Diego"
            ],
            "closest_to": "carlsbad",
            "latitude": "33.6004207",
            "address": "Torrey Pines, Coto de Caza, Orange County, California, 92679, United States of America",
            "locType": "residential"
        },
        "sunset boulevard": {
            "longitude": "-118.2554183",
            "blogLinks": [
                "https://www.tripoto.com/travel-guide/los-angeles/places-to-visit",
                "http://gocalifornia.about.com/cs/losangeles/a/rodeo.htm"
            ],
            "closest_to": "carlsbad",
            "latitude": "34.0759222",
            "address": "Sunset Boulevard, Echo Park, Angelino Heights, LA, Los Angeles County, California, 90026, United States of America",
            "locType": "primary"
        },
        "inland san diego county": {
            "longitude": "-117.0913462",
            "blogLinks": [
                "http://wikitravel.org/en/San_Diego"
            ],
            "closest_to": "carlsbad",
            "latitude": "33.119939",
            "address": "Inland Rail Trail, Escondido, San Diego County, California, 92025, United States of America",
            "locType": "cycleway"
        },
        "peninsula": {
            "longitude": "-117.830566223937",
            "blogLinks": [
                "https://www.tripoto.com/travel-guide/los-angeles/places-to-visit"
            ],
            "closest_to": "carlsbad",
            "latitude": "33.5987849",
            "address": "Peninsula, Corona del Mar, Newport Beach, Orange County, California, 92657, United States of America",
            "locType": "residential"
        },
        "carlsbad village": {
            "longitude": "-117.322507",
            "blogLinks": [
                "http://www.sandiego.org/articles/tours-sightseeing/highway-101-california.aspx"
            ],
            "closest_to": "carlsbad",
            "latitude": "33.1717184",
            "address": "Carlsbad Village Drive, Carlsbad, San Diego County, California, 92008, United States of America",
            "locType": "secondary"
        },
        "national city": {
            "longitude": "-117.0991966",
            "blogLinks": [
                "http://wikitravel.org/en/San_Diego"
            ],
            "closest_to": "carlsbad",
            "latitude": "32.6781085",
            "address": "National City, San Diego County, California, United States of America",
            "locType": "city"
        },
        "newport harbor": {
            "longitude": "-117.9245022",
            "blogLinks": [
                "https://www.tripadvisor.com/ShowTopic-g28926-i29-k7384025-Sights_between_Los_Angeles_and_San_Diego-California.html"
            ],
            "closest_to": "carlsbad",
            "latitude": "33.6083549",
            "address": "Newport Harbor Nautical Museum, 18th Street, Balboa Island, Newport Beach, Orange County, California, 92663, United States of America",
            "locType": "museum"
        }
    }
}