{
    "oakland": {
        "boundingbox": [
            "37.632226",
            "37.885368",
            "-122.3558809",
            "-122.1146719"
        ],
        "lon": "-122.2713562",
        "class": "place",
        "licence": "Data \u00a9 OpenStreetMap contributors, ODbL 1.0. http://www.openstreetmap.org/copyright",
        "importance": 0.80539006393216,
        "icon": "https://nominatim.openstreetmap.org/images/mapicons/poi_place_city.p.20.png",
        "lat": "37.8044557",
        "osm_id": "2833530",
        "type": "city",
        "osm_type": "relation",
        "place_id": "159417720",
        "display_name": "Oakland, Alameda County, California, United States of America"
    },
    "big bear lake": {
        "boundingbox": [
            "34.2375569",
            "34.2689983",
            "-116.9775303",
            "-116.8663043"
        ],
        "importance": 0.80624782713774,
        "class": "natural",
        "osm_id": "4045674",
        "type": "water",
        "lon": "-116.932209587315",
        "osm_type": "relation",
        "place_id": "159717820",
        "lat": "34.253293",
        "licence": "Data \u00a9 OpenStreetMap contributors, ODbL 1.0. http://www.openstreetmap.org/copyright",
        "display_name": "Big Bear Lake, Lagunita Lane, Big Bear Lake, San Bernardino County, California, 92315, United States of America"
    },
    "mentions": {
        "arcata": {
            "longitude": "-124.0828395",
            "blogLinks": [
                "https://www.yelp.com/topic/san-francisco-driving-from-sf-to-portland-what-to-see-along-the-way"
            ],
            "closest_to": "oakland",
            "latitude": "40.8665166",
            "address": "Arcata, Humboldt County, California, United States of America",
            "locType": "city"
        },
        "hollywood": {
            "longitude": "-118.3299898",
            "blogLinks": [
                "http://www.travbuddy.com/California-travel-guide-p85"
            ],
            "closest_to": "oakland",
            "latitude": "34.1028268",
            "address": "Hollywood, LA, Los Angeles County, California, United States of America",
            "locType": "suburb"
        },
        "fawnskin": {
            "longitude": "-116.9425341",
            "blogLinks": [
                "https://www.expedia.com/Big-Bear-Lake-Hotels.d6919.Travel-Guide-Hotels",
                "http://www.bigbearlake.net/about-big-bear/facts"
            ],
            "closest_to": "oakland",
            "latitude": "34.2680621",
            "address": "Fawnskin, San Bernardino County, California, United States of America",
            "locType": "hamlet"
        },
        "holcomb valley campground": {
            "longitude": "-116.895994630574",
            "blogLinks": [
                "http://www.bigbearlake.net/about-big-bear/facts"
            ],
            "closest_to": "oakland",
            "latitude": "34.3025052",
            "address": "Holcomb Valley Campground, 3N16E, Minnelusa, San Bernardino County, California, 92314, United States of America",
            "locType": "camp_site"
        },
        "nevada": {
            "longitude": "-120.8089842",
            "blogLinks": [
                "http://www.10best.com/interests/travel-features/road-trip-10-must-see-spots-from-salt-lake-city-to-san-diego/"
            ],
            "closest_to": "oakland",
            "latitude": "39.3540335",
            "address": "Nevada County, California, United States of America",
            "locType": "administrative"
        },
        "la": {
            "longitude": "-118.7559973",
            "blogLinks": [
                "http://www.travbuddy.com/California-travel-guide-p85",
                "https://www.tripadvisor.com/Attraction_Review-g32074-d105409-Reviews-Big_Bear_Lake-Big_Bear_Region_California.html"
            ],
            "closest_to": "oakland",
            "latitude": "36.7014631",
            "address": "California, United States of America",
            "locType": "administrative"
        },
        "hilton garden inn san bernardino": {
            "longitude": "-117.55450015",
            "blogLinks": [
                "https://www.expedia.com/Big-Bear-Lake-Hotels.d6919.Travel-Guide-Hotels"
            ],
            "closest_to": "oakland",
            "latitude": "34.0790286",
            "address": "Hilton Garden Inn, 11481, Mission Vista Drive, Rancho Cucamonga, San Bernardino County, California, 91730, United States of America",
            "locType": "hotel"
        },
        "san juan capistrano": {
            "longitude": "-117.6625508",
            "blogLinks": [
                "http://www.travbuddy.com/California-popular-cities-p85"
            ],
            "closest_to": "big bear lake",
            "latitude": "33.5016932",
            "address": "San Juan Capistrano, Orange County, California, United States of America",
            "locType": "city"
        },
        "pacific ocean": {
            "longitude": "-121.678715787326",
            "blogLinks": [
                "http://www.travbuddy.com/California-travel-guide-p85",
                "http://www.travbuddy.com/California-popular-cities-p85"
            ],
            "closest_to": "oakland",
            "latitude": "36.16305775",
            "address": "Pacific Ocean, Cabrillo Highway, Monterey County, California, 93920, United States of America",
            "locType": "cliff"
        },
        "long beach": {
            "longitude": "-118.158049215311",
            "blogLinks": [
                "http://www.travbuddy.com/California-travel-guide-p85",
                "http://www.travbuddy.com/California-popular-cities-p85"
            ],
            "closest_to": "oakland",
            "latitude": "33.78538945",
            "address": "Long Beach, Los Angeles County, California, United States of America",
            "locType": "city"
        },
        "east boat ramp": {
            "longitude": "-122.3984157",
            "blogLinks": [
                "http://www.bigbearvacations.com/experience/things-to-do"
            ],
            "closest_to": "oakland",
            "latitude": "40.593972",
            "address": "Boat ramp, Sacramento River Trail, Redding, Shasta County, California, 96001, United States of America",
            "locType": "slipway"
        },
        "klamath": {
            "longitude": "-124.015565064009",
            "blogLinks": [
                "https://www.yelp.com/topic/san-francisco-driving-from-sf-to-portland-what-to-see-along-the-way"
            ],
            "closest_to": "oakland",
            "latitude": "41.533995",
            "address": "Klamath, Klamath Glen Road, Klamath Glen, Del Norte County, California, 95548, United States of America",
            "locType": "administrative"
        },
        "d.c.": {
            "longitude": "-119.728121480654",
            "blogLinks": [
                "http://www.visitdeepcreek.com/"
            ],
            "closest_to": "oakland",
            "latitude": "36.82841715",
            "address": "CL, Clovis, Fresno County, California, 93612, United States of America",
            "locType": "basin"
        },
        "eagle point": {
            "longitude": "-117.6934056",
            "blogLinks": [
                "https://www.yelp.com/biz/destination-big-bear-big-bear-lake"
            ],
            "closest_to": "oakland",
            "latitude": "36.3407726",
            "address": "Eagle Point, Inyo County, California, United States of America",
            "locType": "peak"
        },
        "bay": {
            "longitude": "-117.7729354",
            "blogLinks": [
                "https://www.visitoakland.org/explore/101-things-to-do/"
            ],
            "closest_to": "oakland",
            "latitude": "33.6899249",
            "address": "Bay, Meadows Mobile Home Park, El Camino Real, Irvine, Orange County, California, 92406, United States of America",
            "locType": "service"
        },
        "hermosa beach": {
            "longitude": "-118.3959099",
            "blogLinks": [
                "http://www.travbuddy.com/California-popular-cities-p85"
            ],
            "closest_to": "oakland",
            "latitude": "33.86428",
            "address": "Hermosa Beach, Los Angeles County, California, United States of America",
            "locType": "city"
        },
        "big bear": {
            "longitude": "-116.932209587315",
            "blogLinks": [
                "http://www.bigbear.com/things-to-do/",
                "http://www.bigbearvacations.com/experience/things-to-do"
            ],
            "closest_to": "big bear lake",
            "latitude": "34.253293",
            "address": "Big Bear Lake, Lagunita Lane, Big Bear Lake, San Bernardino County, California, 92315, United States of America",
            "locType": "water"
        },
        "canada": {
            "longitude": "-117.7641381",
            "blogLinks": [
                "http://www.10best.com/interests/travel-features/road-trip-10-must-see-spots-from-salt-lake-city-to-san-diego/",
                "http://bestwesterncalifornia.com/"
            ],
            "closest_to": "oakland",
            "latitude": "33.7298842",
            "address": "La Canada, Lower Peters Canyon, Irvine, Orange County, California, 92602, United States of America",
            "locType": "residential"
        },
        "inland center mall": {
            "longitude": "-117.297473820788",
            "blogLinks": [
                "https://www.expedia.com/Big-Bear-Lake-Hotels.d6919.Travel-Guide-Hotels"
            ],
            "closest_to": "oakland",
            "latitude": "34.08506055",
            "address": "Inland Center, West Central Avenue, Inland Center, San Bernardino, San Bernardino County, California, 92408, United States of America",
            "locType": "mall"
        },
        "oregon": {
            "longitude": "-117.7911567",
            "blogLinks": [
                "https://www.yelp.com/topic/san-francisco-driving-from-sf-to-portland-what-to-see-along-the-way"
            ],
            "closest_to": "oakland",
            "latitude": "33.7123207",
            "address": "Oregon, Walnut, Irvine, Orange County, California, 92606, United States of America",
            "locType": "residential"
        },
        "virgin river": {
            "longitude": "-123.3510334",
            "blogLinks": [
                "http://www.10best.com/interests/travel-features/road-trip-10-must-see-spots-from-salt-lake-city-to-san-diego/"
            ],
            "closest_to": "oakland",
            "latitude": "41.0290028",
            "address": "Virgin Creek, Trinity County, California, United States of America",
            "locType": "stream"
        },
        "pahvant valley": {
            "longitude": "-117.3546299",
            "blogLinks": [
                "http://www.10best.com/interests/travel-features/road-trip-10-must-see-spots-from-salt-lake-city-to-san-diego/"
            ],
            "closest_to": "big bear lake",
            "latitude": "33.207317",
            "address": "Pahvant Street, Oceanside, San Diego County, California, 92054, United States of America",
            "locType": "residential"
        },
        "silver dry lake": {
            "longitude": "-116.110943804023",
            "blogLinks": [
                "http://www.10best.com/interests/travel-features/road-trip-10-must-see-spots-from-salt-lake-city-to-san-diego/"
            ],
            "closest_to": "oakland",
            "latitude": "35.33791495",
            "address": "Silver Lake (Dry), Death Valley Road, San Bernardino County, California, 92309, United States of America",
            "locType": "mud"
        },
        "sacramento": {
            "longitude": "-121.4943995",
            "blogLinks": [
                "http://www.travbuddy.com/California-travel-guide-p85",
                "http://bestwesterncalifornia.com/"
            ],
            "closest_to": "oakland",
            "latitude": "38.5815719",
            "address": "Sacramento, Sacramento County, California, United States of America",
            "locType": "city"
        },
        "sandusky county": {
            "longitude": "-120.8679252",
            "blogLinks": [
                "http://www.travbuddy.com/California-popular-cities-p85"
            ],
            "closest_to": "oakland",
            "latitude": "39.4898877",
            "address": "Sandusky Creek, Sierra County, California, United States of America",
            "locType": "stream"
        },
        "boulder bay park": {
            "longitude": "-116.949195007263",
            "blogLinks": [
                "https://www.tripadvisor.com/Attraction_Review-g32074-d105409-Reviews-Big_Bear_Lake-Big_Bear_Region_California.html",
                "http://www.bigbearvacations.com/experience/things-to-do"
            ],
            "closest_to": "oakland",
            "latitude": "34.23859285",
            "address": "Boulder Bay Park, Big Bear Boulevard, Big Bear Lake, San Bernardino County, California, 92315, United States of America",
            "locType": "park"
        },
        "big bear city": {
            "longitude": "-116.848597753191",
            "blogLinks": [
                "http://www.bigbearlake.net/about-big-bear/facts"
            ],
            "closest_to": "big bear lake",
            "latitude": "34.267886",
            "address": "Big Bear City, Anita Avenue, Big Bear City, San Bernardino County, California, 92314, United States of America",
            "locType": "administrative"
        },
        "lake": {
            "longitude": "-122.7776555",
            "blogLinks": [
                "http://www.bigbearlake.net/about-big-bear/facts",
                "http://gocalifornia.about.com/od/cabigbear/a/big-bear.htm"
            ],
            "closest_to": "oakland",
            "latitude": "39.0505411",
            "address": "Lake County, California, United States of America",
            "locType": "administrative"
        },
        "calistoga": {
            "longitude": "-122.583325948608",
            "blogLinks": [
                "http://www.travbuddy.com/California-popular-cities-p85"
            ],
            "closest_to": "oakland",
            "latitude": "38.582615",
            "address": "Calistoga, Napa County, California, United States of America",
            "locType": "city"
        },
        "bellagio": {
            "longitude": "-117.7012358",
            "blogLinks": [
                "http://www.10best.com/interests/travel-features/road-trip-10-must-see-spots-from-salt-lake-city-to-san-diego/"
            ],
            "closest_to": "big bear lake",
            "latitude": "33.5203333",
            "address": "Bellagio, Laguna Niguel, Orange County, California, 92677, United States of America",
            "locType": "residential"
        },
        "mall of victor valley": {
            "longitude": "-117.347349",
            "blogLinks": [
                "https://www.expedia.com/Big-Bear-Lake-Hotels.d6919.Travel-Guide-Hotels"
            ],
            "closest_to": "oakland",
            "latitude": "34.4736697",
            "address": "The Mall of Victor Valley, Amargosa Road, Victorville, San Bernardino County, California, 92392, United States of America",
            "locType": "mall"
        },
        "malibu": {
            "longitude": "-116.5023561",
            "blogLinks": [
                "http://www.travbuddy.com/California-travel-guide-p85"
            ],
            "closest_to": "big bear lake",
            "latitude": "33.7932142",
            "address": "Malibu, Palm Springs, Riverside County, California, 92264, United States of America",
            "locType": "residential"
        },
        "muddy river": {
            "longitude": "-119.2417891",
            "blogLinks": [
                "http://www.10best.com/interests/travel-features/road-trip-10-must-see-spots-from-salt-lake-city-to-san-diego/"
            ],
            "closest_to": "oakland",
            "latitude": "35.016524",
            "address": "Muddy Creek, Kern County, California, United States of America",
            "locType": "stream"
        },
        "meadow park": {
            "longitude": "-120.659276454814",
            "blogLinks": [
                "https://www.expedia.com/Big-Bear-Lake-Hotels.d6919.Travel-Guide-Hotels"
            ],
            "closest_to": "oakland",
            "latitude": "35.26814845",
            "address": "Meadow Park, Woodbridge Street, San Luis Obispo, San Luis Obispo County, California, 93401, United States of America",
            "locType": "park"
        },
        "mount shasta": {
            "longitude": "-122.3105665",
            "blogLinks": [
                "http://bestwesterncalifornia.com/"
            ],
            "closest_to": "oakland",
            "latitude": "41.3098746",
            "address": "Mount Shasta, Siskiyou County, California, United States of America",
            "locType": "city"
        },
        "santa cruz": {
            "longitude": "-122.0260569",
            "blogLinks": [
                "http://www.travbuddy.com/California-travel-guide-p85",
                "http://www.travbuddy.com/California-popular-cities-p85"
            ],
            "closest_to": "oakland",
            "latitude": "36.9735903",
            "address": "Santa Cruz, Santa Cruz County, California, United States of America",
            "locType": "city"
        },
        "mallard bay": {
            "longitude": "-117.0563279",
            "blogLinks": [
                "https://www.expedia.com/Big-Bear-Lake-Hotels.d6919.Travel-Guide-Hotels"
            ],
            "closest_to": "big bear lake",
            "latitude": "32.729572",
            "address": "Mallard Street, Encanto, San Diego, San Diego County, California, 92114, United States of America",
            "locType": "residential"
        },
        "santa monica": {
            "longitude": "-118.4869738",
            "blogLinks": [
                "http://www.travbuddy.com/California-popular-cities-p85"
            ],
            "closest_to": "oakland",
            "latitude": "34.0195598",
            "address": "Santa Monica, Los Angeles County, California, United States of America",
            "locType": "city"
        },
        "playa del rey": {
            "longitude": "-118.4367495",
            "blogLinks": [
                "http://www.travbuddy.com/California-popular-cities-p85"
            ],
            "closest_to": "oakland",
            "latitude": "33.9550828",
            "address": "Playa del Rey, LA, Los Angeles County, California, United States of America",
            "locType": "suburb"
        },
        "bay area": {
            "longitude": "-122.3558472",
            "blogLinks": [
                "https://www.yelp.com/topic/san-francisco-driving-from-sf-to-portland-what-to-see-along-the-way"
            ],
            "closest_to": "oakland",
            "latitude": "37.7884969",
            "address": "San Francisco Bay Area, SF, California, United States of America",
            "locType": "region"
        },
        "luckie park": {
            "longitude": "-116.0380661",
            "blogLinks": [
                "https://www.expedia.com/Big-Bear-Lake-Hotels.d6919.Travel-Guide-Hotels"
            ],
            "closest_to": "big bear lake",
            "latitude": "35.1485944",
            "address": "Luckie Park, Mojave Road, San Bernardino County, California, United States of America",
            "locType": "park"
        },
        "wolf creek resort": {
            "longitude": "-117.916002460128",
            "blogLinks": [
                "https://www.expedia.com/Big-Bear-Lake-Hotels.d6919.Travel-Guide-Hotels"
            ],
            "closest_to": "oakland",
            "latitude": "33.7789302",
            "address": "Great Wolf Lodge, Harbor Boulevard, Garden Grove, Orange County, California, 92840, United States of America",
            "locType": "hotel"
        },
        "utah lake": {
            "longitude": "-122.6250909",
            "blogLinks": [
                "http://www.10best.com/interests/travel-features/road-trip-10-must-see-spots-from-salt-lake-city-to-san-diego/"
            ],
            "closest_to": "oakland",
            "latitude": "38.943548",
            "address": "Utah Street, Clearlake, Lake County, California, 95422, United States of America",
            "locType": "residential"
        },
        "san francisco bay area": {
            "longitude": "-122.3558472",
            "blogLinks": [
                "http://www.travbuddy.com/California-popular-cities-p85"
            ],
            "closest_to": "oakland",
            "latitude": "37.7884969",
            "address": "San Francisco Bay Area, SF, California, United States of America",
            "locType": "region"
        },
        "monterey bay": {
            "longitude": "-121.9010667",
            "blogLinks": [
                "http://www.travbuddy.com/California-travel-guide-p85",
                "http://www.travbuddy.com/California-popular-cities-p85"
            ],
            "closest_to": "oakland",
            "latitude": "36.7999557",
            "address": "Monterey Bay, Monterey County, California, United States of America",
            "locType": "bay"
        },
        "mentone": {
            "longitude": "-117.109606374724",
            "blogLinks": [
                "http://www.bigbearlake.net/about-big-bear/facts"
            ],
            "closest_to": "big bear lake",
            "latitude": "34.05884",
            "address": "Mentone, Reservoir Canal Road, Crafton, San Bernardino County, California, 92374, United States of America",
            "locType": "administrative"
        },
        "san diego county": {
            "longitude": "-116.7706276",
            "blogLinks": [
                "http://www.travbuddy.com/California-popular-cities-p85"
            ],
            "closest_to": "big bear lake",
            "latitude": "32.9637838",
            "address": "San Diego County, California, United States of America",
            "locType": "administrative"
        },
        "moonridge": {
            "longitude": "-116.8555852",
            "blogLinks": [
                "http://www.bigbearlake.net/about-big-bear/facts",
                "http://gocalifornia.about.com/od/cabigbear/a/big-bear.htm"
            ],
            "closest_to": "big bear lake",
            "latitude": "34.2352857",
            "address": "Moonridge, San Bernardino County, California, United States of America",
            "locType": "hamlet"
        },
        "tillamook": {
            "longitude": "-117.0726319",
            "blogLinks": [
                "https://www.yelp.com/topic/san-francisco-driving-from-sf-to-portland-what-to-see-along-the-way"
            ],
            "closest_to": "big bear lake",
            "latitude": "32.728329",
            "address": "Tillamook Bay Drive, San Diego, San Diego County, California, 92114, United States of America",
            "locType": "residential"
        },
        "silicon valley": {
            "longitude": "-122.0597491",
            "blogLinks": [
                "http://www.travbuddy.com/California-travel-guide-p85",
                "http://www.travbuddy.com/California-popular-cities-p85"
            ],
            "closest_to": "oakland",
            "latitude": "37.4105333",
            "address": "Carnegie Mellon Silicon Valley, South Akron Road, Santa Clara County, California, 94035-0016, United States of America",
            "locType": "school"
        },
        "barstow": {
            "longitude": "-117.0172076",
            "blogLinks": [
                "http://www.travbuddy.com/California-travel-guide-p85",
                "http://www.travbuddy.com/California-popular-cities-p85"
            ],
            "closest_to": "oakland",
            "latitude": "34.8957684",
            "address": "Barstow, San Bernardino County, California, United States of America",
            "locType": "administrative"
        },
        "arizona": {
            "longitude": "-117.5060679",
            "blogLinks": [
                "http://www.10best.com/interests/travel-features/road-trip-10-must-see-spots-from-salt-lake-city-to-san-diego/"
            ],
            "closest_to": "oakland",
            "latitude": "34.4631398",
            "address": "Arizona, San Bernardino County, California, 92371, United States of America",
            "locType": "track"
        },
        "united states": {
            "longitude": "-118.7559973",
            "blogLinks": [
                "http://bestwesterncalifornia.com/",
                "http://www.travbuddy.com/California-popular-cities-p85",
                "https://www.tripadvisor.com/",
                "http://www.bigbearvacations.com/experience/things-to-do"
            ],
            "closest_to": "oakland",
            "latitude": "36.7014631",
            "address": "California, United States of America",
            "locType": "administrative"
        },
        "huntington beach": {
            "longitude": "-118.0000165",
            "blogLinks": [
                "http://www.travbuddy.com/California-popular-cities-p85"
            ],
            "closest_to": "oakland",
            "latitude": "33.6783336",
            "address": "Huntington Beach, Orange County, California, United States of America",
            "locType": "city"
        },
        "vegas": {
            "longitude": "-115.144667930325",
            "blogLinks": [
                "http://www.10best.com/interests/travel-features/road-trip-10-must-see-spots-from-salt-lake-city-to-san-diego/"
            ],
            "closest_to": "big bear lake",
            "latitude": "36.17310935",
            "address": "California Hotel, Sky Walk(Connection from Main Street to California, Cultural Corridor, Vegas Heights, Las Vegas, Clark County, Nevada, 89101, United States of America",
            "locType": "hotel"
        },
        "mojave desert": {
            "longitude": "-115.548963686646",
            "blogLinks": [
                "http://www.10best.com/interests/travel-features/road-trip-10-must-see-spots-from-salt-lake-city-to-san-diego/"
            ],
            "closest_to": "big bear lake",
            "latitude": "35.1456319",
            "address": "Mojave Desert, Utility Road, San Bernardino County, California, United States of America",
            "locType": "desert"
        },
        "lucerne": {
            "longitude": "-122.7963805",
            "blogLinks": [
                "http://www.bigbearlake.net/about-big-bear/facts"
            ],
            "closest_to": "oakland",
            "latitude": "39.0901709",
            "address": "Lucerne, Lake County, California, United States of America",
            "locType": "hamlet"
        },
        "south bay": {
            "longitude": "-122.4927499",
            "blogLinks": [
                "http://www.travbuddy.com/California-popular-cities-p85"
            ],
            "closest_to": "oakland",
            "latitude": "37.794096",
            "address": "South Bay, Sea Cliff Avenue, Seacliff, SF, California, 94121, United States of America",
            "locType": "bay"
        },
        "victorville": {
            "longitude": "-117.2911564",
            "blogLinks": [
                "https://www.expedia.com/Big-Bear-Lake-Hotels.d6919.Travel-Guide-Hotels"
            ],
            "closest_to": "oakland",
            "latitude": "34.5361067",
            "address": "Victorville, San Bernardino County, California, United States of America",
            "locType": "city"
        },
        "west plains": {
            "longitude": "-120.3243479",
            "blogLinks": [
                "http://www.tripleblaze.com/best/?s=2"
            ],
            "closest_to": "oakland",
            "latitude": "37.2329983",
            "address": "Plainsburg, Merced County, California, United States of America",
            "locType": "hamlet"
        },
        "portland": {
            "longitude": "-117.3105194",
            "blogLinks": [
                "https://www.yelp.com/topic/san-francisco-driving-from-sf-to-portland-what-to-see-along-the-way",
                "http://www.bigbearlake.net/summer/photos-of-the-lake"
            ],
            "closest_to": "big bear lake",
            "latitude": "33.8979116",
            "address": "Portland, Riverside, Riverside County, California, 92508, United States of America",
            "locType": "residential"
        },
        "california-nevada": {
            "longitude": "-115.144667930325",
            "blogLinks": [
                "http://www.travbuddy.com/California-travel-guide-p85",
                "http://www.travbuddy.com/California-popular-cities-p85"
            ],
            "closest_to": "big bear lake",
            "latitude": "36.17310935",
            "address": "California Hotel, Sky Walk(Connection from Main Street to California, Cultural Corridor, Vegas Heights, Las Vegas, Clark County, Nevada, 89101, United States of America",
            "locType": "hotel"
        },
        "southern california": {
            "longitude": "-118.286343973446",
            "blogLinks": [
                "https://www.expedia.com/Big-Bear-Lake-Hotels.d6919.Travel-Guide-Hotels",
                "http://gocalifornia.about.com/od/cabigbear/a/big-bear.htm",
                "https://www.yelp.com/biz/destination-big-bear-big-bear-lake",
                "http://www.10best.com/interests/travel-features/road-trip-10-must-see-spots-from-salt-lake-city-to-san-diego/",
                "http://bestwesterncalifornia.com/",
                "https://www.visitoakland.org/explore/101-things-to-do/",
                "http://www.travbuddy.com/California-popular-cities-p85",
                "http://www.bigbearvacations.com/experience/things-to-do"
            ],
            "closest_to": "oakland",
            "latitude": "34.0224149",
            "address": "University of Southern California, Watt Way, Saint James Park, LA, Los Angeles County, California, 90089, United States of America",
            "locType": "university"
        },
        "cumberland": {
            "longitude": "-117.7382391",
            "blogLinks": [
                "http://www.visitdeepcreek.com/"
            ],
            "closest_to": "big bear lake",
            "latitude": "33.5657411",
            "address": "Cumberland, Aliso Viejo, Orange County, California, 92656, United States of America",
            "locType": "residential"
        },
        "las angeles": {
            "longitude": "-118.0668337",
            "blogLinks": [
                "http://www.travbuddy.com/California-travel-guide-p85",
                "http://www.travbuddy.com/California-popular-cities-p85"
            ],
            "closest_to": "oakland",
            "latitude": "33.9995929",
            "address": "California, Obregon Street, West Whittier, Rosemead, Los Angeles County, California, 90606, United States of America",
            "locType": "abandoned"
        },
        "lake merritt": {
            "longitude": "-122.2656718",
            "blogLinks": [
                "https://www.visitoakland.org/explore/101-things-to-do/"
            ],
            "closest_to": "oakland",
            "latitude": "37.7974554",
            "address": "Lake Merritt, 9th Street, Chinatown, Oakland, Alameda County, California, 94607, United States of America",
            "locType": "station"
        },
        "oakhurst": {
            "longitude": "-119.657244022836",
            "blogLinks": [
                "http://www.travbuddy.com/California-popular-cities-p85"
            ],
            "closest_to": "oakland",
            "latitude": "37.333178",
            "address": "Oakhurst, Junction Drive, Oakhurst, Madera County, California, 93644, United States of America",
            "locType": "administrative"
        },
        "san francisco": {
            "longitude": "-122.4192362",
            "blogLinks": [
                "http://www.travbuddy.com/California-travel-guide-p85",
                "https://www.yelp.com/topic/san-francisco-driving-from-sf-to-portland-what-to-see-along-the-way",
                "https://www.visitoakland.org/explore/101-things-to-do/",
                "http://www.travbuddy.com/California-popular-cities-p85"
            ],
            "closest_to": "oakland",
            "latitude": "37.7792808",
            "address": "SF, California, United States of America",
            "locType": "city"
        },
        "lake shasta": {
            "longitude": "-121.9979193",
            "blogLinks": [
                "https://www.yelp.com/topic/san-francisco-driving-from-sf-to-portland-what-to-see-along-the-way"
            ],
            "closest_to": "oakland",
            "latitude": "40.7965121",
            "address": "Shasta County, California, United States of America",
            "locType": "administrative"
        },
        "muscle beach": {
            "longitude": "-118.4725820875",
            "blogLinks": [
                "http://www.travbuddy.com/California-popular-cities-p85"
            ],
            "closest_to": "oakland",
            "latitude": "33.985446",
            "address": "Muscle Beach, Ocean Front Walk, Venice, LA, Los Angeles County, California, 90292, United States of America",
            "locType": "sports_centre"
        },
        "london square": {
            "longitude": "-120.638273085773",
            "blogLinks": [
                "https://www.visitoakland.org/explore/101-things-to-do/"
            ],
            "closest_to": "oakland",
            "latitude": "35.13394805",
            "address": "The Square, Pismo Beach, San Luis Obispo County, California, 93449, United States of America",
            "locType": "recreation_ground"
        },
        "san francisco bay": {
            "longitude": "-122.2802469",
            "blogLinks": [
                "http://www.travbuddy.com/California-travel-guide-p85",
                "http://www.travbuddy.com/California-popular-cities-p85"
            ],
            "closest_to": "oakland",
            "latitude": "37.708264",
            "address": "San Francisco Bay, Ferry Landing, Alameda, Alameda County, California, 94502, United States of America",
            "locType": "bay"
        },
        "humboldt county": {
            "longitude": "-123.8997733",
            "blogLinks": [
                "http://www.travbuddy.com/California-travel-guide-p85",
                "http://www.travbuddy.com/California-popular-cities-p85"
            ],
            "closest_to": "oakland",
            "latitude": "40.5997415",
            "address": "Humboldt County, California, United States of America",
            "locType": "administrative"
        },
        "magic mountain": {
            "longitude": "-119.2563693",
            "blogLinks": [
                "https://www.expedia.com/Big-Bear-Lake-Hotels.d6919.Travel-Guide-Hotels"
            ],
            "closest_to": "oakland",
            "latitude": "34.4724515",
            "address": "Magic Mountain, Ventura County, California, United States of America",
            "locType": "peak"
        },
        "' the virgin river": {
            "longitude": "-123.3510334",
            "blogLinks": [
                "http://www.10best.com/interests/travel-features/road-trip-10-must-see-spots-from-salt-lake-city-to-san-diego/"
            ],
            "closest_to": "oakland",
            "latitude": "41.0290028",
            "address": "Virgin Creek, Trinity County, California, United States of America",
            "locType": "stream"
        },
        "deep creek lake": {
            "longitude": "-119.2669923",
            "blogLinks": [
                "http://www.visitdeepcreek.com/"
            ],
            "closest_to": "oakland",
            "latitude": "36.9509942",
            "address": "Deep Creek, Fresno County, California, United States of America",
            "locType": "stream"
        },
        "sandpoint": {
            "longitude": "-117.3290497",
            "blogLinks": [
                "http://www.tripleblaze.com/best/?s=2"
            ],
            "closest_to": "oakland",
            "latitude": "33.9193161",
            "address": "Sandpoint Lane, Riverside, Riverside County, California, 92506, United States of America",
            "locType": "residential"
        },
        "san francisco bay area of california": {
            "longitude": "-122.3558472",
            "blogLinks": [
                "http://www.travbuddy.com/California-popular-cities-p85"
            ],
            "closest_to": "oakland",
            "latitude": "37.7884969",
            "address": "San Francisco Bay Area, SF, California, United States of America",
            "locType": "region"
        },
        "manhattan beach": {
            "longitude": "-118.4000146",
            "blogLinks": [
                "http://www.travbuddy.com/California-popular-cities-p85"
            ],
            "closest_to": "oakland",
            "latitude": "33.8950839",
            "address": "Manhattan Beach, Los Angeles County, California, United States of America",
            "locType": "city"
        },
        "lincoln city": {
            "longitude": "-118.4710273",
            "blogLinks": [
                "https://www.yelp.com/topic/san-francisco-driving-from-sf-to-portland-what-to-see-along-the-way"
            ],
            "closest_to": "oakland",
            "latitude": "34.2209765",
            "address": "Galpin Lincoln, 15500, Roscoe Boulevard, Raymer, Sepulveda, LA, Los Angeles County, California, 91406, United States of America",
            "locType": "car"
        },
        "provo river": {
            "longitude": "-120.206299",
            "blogLinks": [
                "http://www.10best.com/interests/travel-features/road-trip-10-must-see-spots-from-salt-lake-city-to-san-diego/"
            ],
            "closest_to": "oakland",
            "latitude": "38.0118678",
            "address": "Mount Provo, Tuolumne County, California, United States of America",
            "locType": "peak"
        },
        "baldwin lake": {
            "longitude": "-116.7982897",
            "blogLinks": [
                "http://www.bigbearlake.net/about-big-bear/facts"
            ],
            "closest_to": "big bear lake",
            "latitude": "34.2793278",
            "address": "Baldwin Lake, San Bernardino County, California, United States of America",
            "locType": "hamlet"
        },
        "st. george": {
            "longitude": "-122.5091229",
            "blogLinks": [
                "http://www.10best.com/interests/travel-features/road-trip-10-must-see-spots-from-salt-lake-city-to-san-diego/"
            ],
            "closest_to": "oakland",
            "latitude": "37.946821",
            "address": "George, Sir Francis Drake Boulevard East, Larkspur, Marin County, California, 94904, United States of America",
            "locType": "yes"
        },
        "calico": {
            "longitude": "-119.206496",
            "blogLinks": [
                "http://www.travbuddy.com/California-travel-guide-p85",
                "http://www.travbuddy.com/California-popular-cities-p85"
            ],
            "closest_to": "oakland",
            "latitude": "35.6327332",
            "address": "Calico, Kern County, California, United States of America",
            "locType": "locality"
        },
        "yosemite national park": {
            "longitude": "-119.516587698025",
            "blogLinks": [
                "http://www.travbuddy.com/California-travel-guide-p85"
            ],
            "closest_to": "oakland",
            "latitude": "37.84054795",
            "address": "Yosemite National Park, Mt. Hoffmann Trail, Mariposa County, California, United States of America",
            "locType": "national_park"
        },
        "anaheim": {
            "longitude": "-117.9117319",
            "blogLinks": [
                "http://bestwesterncalifornia.com/"
            ],
            "closest_to": "oakland",
            "latitude": "33.8347516",
            "address": "Anaheim, Orange County, California, United States of America",
            "locType": "city"
        },
        "carmel": {
            "longitude": "-121.353308848273",
            "blogLinks": [
                "http://www.travbuddy.com/California-travel-guide-p85",
                "http://www.travbuddy.com/California-popular-cities-p85"
            ],
            "closest_to": "oakland",
            "latitude": "38.75511285",
            "address": "Carmel, Roseville, Placer County, California, 95747, United States of America",
            "locType": "residential"
        },
        "mendocino": {
            "longitude": "-123.4126398",
            "blogLinks": [
                "https://www.yelp.com/topic/san-francisco-driving-from-sf-to-portland-what-to-see-along-the-way"
            ],
            "closest_to": "oakland",
            "latitude": "39.3176491",
            "address": "Mendocino County, California, United States of America",
            "locType": "administrative"
        },
        "sunset strip": {
            "longitude": "-116.1940439",
            "blogLinks": [
                "http://www.travbuddy.com/California-popular-cities-p85"
            ],
            "closest_to": "big bear lake",
            "latitude": "33.7224763",
            "address": "Sunset Strip, Happy Wanderer, Indio, Riverside County, California, 92201, United States of America",
            "locType": "living_street"
        },
        "middle harbor shoreline park": {
            "longitude": "-122.324170272195",
            "blogLinks": [
                "https://www.visitoakland.org/explore/101-things-to-do/"
            ],
            "closest_to": "oakland",
            "latitude": "37.80319995",
            "address": "Middle Harbor Shoreline Park, Middle Harbor Road, Oakland, Alameda County, California, 94625, United States of America",
            "locType": "park"
        },
        "xa0oakland hills": {
            "longitude": "-117.732371978438",
            "blogLinks": [
                "https://www.visitoakland.org/explore/101-things-to-do/"
            ],
            "closest_to": "oakland",
            "latitude": "33.8818158",
            "address": "The Hills, Yorba Linda, Orange County, California, 92887, United States of America",
            "locType": "residential"
        },
        "redding": {
            "longitude": "-122.3916753",
            "blogLinks": [
                "https://www.yelp.com/topic/san-francisco-driving-from-sf-to-portland-what-to-see-along-the-way"
            ],
            "closest_to": "oakland",
            "latitude": "40.5863563",
            "address": "Redding, Shasta County, California, United States of America",
            "locType": "city"
        },
        "san jose": {
            "longitude": "-121.8905832",
            "blogLinks": [
                "http://www.travbuddy.com/California-travel-guide-p85",
                "https://www.visitoakland.org/explore/101-things-to-do/",
                "http://www.travbuddy.com/California-popular-cities-p85"
            ],
            "closest_to": "oakland",
            "latitude": "37.3361905",
            "address": "San Jos\u00e9, Santa Clara County, California, United States of America",
            "locType": "city"
        },
        "chinatown": {
            "longitude": "-122.2702385",
            "blogLinks": [
                "https://www.visitoakland.org/explore/101-things-to-do/"
            ],
            "closest_to": "oakland",
            "latitude": "37.7999301",
            "address": "Chinatown, Oakland, Alameda County, California, ca, United States of America",
            "locType": "neighbourhood"
        },
        "monterey": {
            "longitude": "-121.866792846206",
            "blogLinks": [
                "http://www.travbuddy.com/California-travel-guide-p85",
                "http://www.travbuddy.com/California-popular-cities-p85"
            ],
            "closest_to": "oakland",
            "latitude": "36.5844165",
            "address": "Monterey, Monterey County, California, United States of America",
            "locType": "city"
        },
        "karina": {
            "longitude": "-121.9193821",
            "blogLinks": [
                "https://www.yelp.com/biz/destination-big-bear-big-bear-lake"
            ],
            "closest_to": "oakland",
            "latitude": "37.3747565",
            "address": "Karina Court (Southbound), North 1st Street, Japantown, San Jos\u00e9, Santa Clara County, California, 95131, United States of America",
            "locType": "tram_stop"
        },
        "lassen lodge": {
            "longitude": "-121.596768349672",
            "blogLinks": [
                "https://www.yelp.com/biz/destination-big-bear-big-bear-lake"
            ],
            "closest_to": "oakland",
            "latitude": "40.34799695",
            "address": "Lassen Mineral Lodge, 38388, CA 36, Mineral, Tehama County, California, 96063, United States of America",
            "locType": "hotel"
        },
        "morgantown": {
            "longitude": "-117.2093158",
            "blogLinks": [
                "http://www.visitdeepcreek.com/"
            ],
            "closest_to": "big bear lake",
            "latitude": "33.7023559",
            "address": "Morgantown Way, Sun City, Menifee, Sun City, Riverside County, California, 92586, United States of America",
            "locType": "residential"
        },
        "los angeles harbor": {
            "longitude": "-118.2675706",
            "blogLinks": [
                "http://www.bigbearvacations.com/experience/things-to-do"
            ],
            "closest_to": "oakland",
            "latitude": "33.7097418",
            "address": "Los Angeles Harbor, Miner Street, San Pedro, LA, Los Angeles County, California, 90731, United States of America",
            "locType": "bay"
        },
        "los angeles": {
            "longitude": "-118.2439408",
            "blogLinks": [
                "http://www.travbuddy.com/California-travel-guide-p85",
                "http://gocalifornia.about.com/od/cabigbear/a/big-bear.htm",
                "https://www.yelp.com/biz/destination-big-bear-big-bear-lake",
                "http://www.10best.com/interests/travel-features/road-trip-10-must-see-spots-from-salt-lake-city-to-san-diego/",
                "http://www.travbuddy.com/California-popular-cities-p85",
                "http://www.bigbearlake.net/about-big-bear/facts"
            ],
            "closest_to": "oakland",
            "latitude": "34.0543942",
            "address": "LA, Los Angeles County, California, United States of America",
            "locType": "city"
        },
        "' northland": {
            "longitude": "-117.2404329",
            "blogLinks": [
                "https://www.tripadvisor.com/"
            ],
            "closest_to": "big bear lake",
            "latitude": "32.835396",
            "address": "Caminito Northland, La Jolla, San Diego, San Diego County, California, 92037, United States of America",
            "locType": "residential"
        },
        "santa cruz mountains.the": {
            "longitude": "-122.0712855",
            "blogLinks": [
                "http://www.travbuddy.com/California-popular-cities-p85"
            ],
            "closest_to": "oakland",
            "latitude": "37.2188403",
            "address": "Santa Cruz Mountains, Santa Clara County, California, United States of America",
            "locType": "mountain_range"
        },
        "las vegas": {
            "longitude": "-115.144667930325",
            "blogLinks": [
                "http://www.10best.com/interests/travel-features/road-trip-10-must-see-spots-from-salt-lake-city-to-san-diego/"
            ],
            "closest_to": "big bear lake",
            "latitude": "36.17310935",
            "address": "California Hotel, Sky Walk(Connection from Main Street to California, Cultural Corridor, Vegas Heights, Las Vegas, Clark County, Nevada, 89101, United States of America",
            "locType": "hotel"
        },
        "indiana": {
            "longitude": "-118.1922122",
            "blogLinks": [
                "http://www.visitdeepcreek.com/"
            ],
            "closest_to": "oakland",
            "latitude": "34.0342567",
            "address": "Indiana, South Indiana Street, Boyle Heights, LA, Los Angeles County, California, 90023, United States of America",
            "locType": "station"
        },
        "mount lassen": {
            "longitude": "-121.5049199",
            "blogLinks": [
                "https://www.yelp.com/topic/san-francisco-driving-from-sf-to-portland-what-to-see-along-the-way"
            ],
            "closest_to": "oakland",
            "latitude": "40.4881308",
            "address": "Lassen Peak, Shasta County, California, United States of America",
            "locType": "peak"
        },
        "nottingham": {
            "longitude": "-118.3355358",
            "blogLinks": [
                "http://www.bigbearlake.net/about-big-bear/facts"
            ],
            "closest_to": "oakland",
            "latitude": "33.9587429",
            "address": "Nottingham, Inglewood, Los Angeles County, California, 90305, United States of America",
            "locType": "service"
        },
        "santa clara county": {
            "longitude": "-121.6846348",
            "blogLinks": [
                "http://www.travbuddy.com/California-popular-cities-p85"
            ],
            "closest_to": "oakland",
            "latitude": "37.2333253",
            "address": "Santa Clara County, California, United States of America",
            "locType": "administrative"
        },
        "pine knot campground": {
            "longitude": "-116.8859014",
            "blogLinks": [
                "http://www.bigbearlake.net/about-big-bear/facts"
            ],
            "closest_to": "big bear lake",
            "latitude": "34.2356976",
            "address": "Pine Knot Campground, Pineknot Campground Road South, Moonridge, San Bernardino County, California, 92314, United States of America",
            "locType": "camp_site"
        },
        "san luis obispo county": {
            "longitude": "-120.3757162",
            "blogLinks": [
                "http://www.travbuddy.com/California-travel-guide-p85",
                "http://www.travbuddy.com/California-popular-cities-p85"
            ],
            "closest_to": "oakland",
            "latitude": "35.3540209",
            "address": "San Luis Obispo County, California, United States of America",
            "locType": "administrative"
        },
        "south lake tahoe": {
            "longitude": "-119.987846390157",
            "blogLinks": [
                "http://www.travbuddy.com/California-travel-guide-p85",
                "http://www.travbuddy.com/California-popular-cities-p85"
            ],
            "closest_to": "oakland",
            "latitude": "38.929125",
            "address": "South Lake Tahoe, El Dorado County, California, United States of America",
            "locType": "city"
        },
        "east bay": {
            "longitude": "-121.0270079",
            "blogLinks": [
                "https://www.visitoakland.org/explore/101-things-to-do/"
            ],
            "closest_to": "oakland",
            "latitude": "38.156964",
            "address": "East Bay, San Joaquin County, California, United States of America",
            "locType": "track"
        },
        "oakland hills": {
            "longitude": "-116.386065",
            "blogLinks": [
                "https://www.visitoakland.org/explore/101-things-to-do/"
            ],
            "closest_to": "big bear lake",
            "latitude": "33.8145007",
            "address": "Oakland Hills Street, Thousand Palms, Cathedral City, Riverside County, California, 92276, United States of America",
            "locType": "residential"
        },
        "west hollywood": {
            "longitude": "-118.3617442",
            "blogLinks": [
                "http://www.travbuddy.com/California-popular-cities-p85"
            ],
            "closest_to": "oakland",
            "latitude": "34.0900091",
            "address": "West Hollywood, Los Angeles County, California, United States of America",
            "locType": "city"
        },
        "utah": {
            "longitude": "-118.6125359",
            "blogLinks": [
                "http://www.10best.com/interests/travel-features/road-trip-10-must-see-spots-from-salt-lake-city-to-san-diego/"
            ],
            "closest_to": "oakland",
            "latitude": "37.413408",
            "address": "Utah, Rovana, Inyo County, California, United States of America",
            "locType": "residential"
        },
        "golden state": {
            "longitude": "-121.9619226",
            "blogLinks": [
                "http://bestwesterncalifornia.com/"
            ],
            "closest_to": "oakland",
            "latitude": "39.6712719",
            "address": "Golden State Island, Butte County, California, United States of America",
            "locType": "island"
        },
        "china island": {
            "longitude": "-120.1646242",
            "blogLinks": [
                "http://www.bigbearlake.net/about-big-bear/facts"
            ],
            "closest_to": "oakland",
            "latitude": "33.9182749",
            "address": "China Camp, Santa Rosa Island, California, United States of America",
            "locType": "locality"
        },
        "ashland": {
            "longitude": "-122.113853",
            "blogLinks": [
                "https://www.yelp.com/topic/san-francisco-driving-from-sf-to-portland-what-to-see-along-the-way"
            ],
            "closest_to": "oakland",
            "latitude": "37.6946528",
            "address": "Ashland, Alameda County, California, United States of America",
            "locType": "village"
        },
        "san simeon": {
            "longitude": "-121.1907532",
            "blogLinks": [
                "http://www.travbuddy.com/California-travel-guide-p85",
                "http://www.travbuddy.com/California-popular-cities-p85"
            ],
            "closest_to": "oakland",
            "latitude": "35.6438587",
            "address": "San Simeon, San Luis Obispo County, California, United States of America",
            "locType": "hamlet"
        },
        "lake tahoe": {
            "longitude": "-120.050511752934",
            "blogLinks": [
                "http://www.travbuddy.com/California-travel-guide-p85",
                "http://bestwesterncalifornia.com/"
            ],
            "closest_to": "oakland",
            "latitude": "39.0888982",
            "address": "Lake Tahoe, Placer County, California, United States of America",
            "locType": "water"
        },
        "north shore": {
            "longitude": "-117.1842077",
            "blogLinks": [
                "http://www.bigbearlake.net/about-big-bear/facts",
                "http://www.bigbearvacations.com/experience/things-to-do"
            ],
            "closest_to": "oakland",
            "latitude": "34.2680613",
            "address": "North Shore, San Bernardino County, California, United States of America",
            "locType": "hamlet"
        },
        "san bernardino": {
            "longitude": "-117.2897651",
            "blogLinks": [
                "https://www.expedia.com/Big-Bear-Lake-Hotels.d6919.Travel-Guide-Hotels",
                "http://www.bigbearlake.net/about-big-bear/facts",
                "http://gocalifornia.about.com/od/cabigbear/a/big-bear.htm",
                "http://www.10best.com/interests/travel-features/road-trip-10-must-see-spots-from-salt-lake-city-to-san-diego/",
                "http://www.bigbearlake.net/summer/photos-of-the-lake"
            ],
            "closest_to": "oakland",
            "latitude": "34.1083449",
            "address": "San Bernardino, San Bernardino County, California, United States of America",
            "locType": "city"
        },
        "shasta": {
            "longitude": "-121.9979193",
            "blogLinks": [
                "https://www.yelp.com/topic/san-francisco-driving-from-sf-to-portland-what-to-see-along-the-way"
            ],
            "closest_to": "oakland",
            "latitude": "40.7965121",
            "address": "Shasta County, California, United States of America",
            "locType": "administrative"
        },
        "northern california": {
            "longitude": "-117.1545973",
            "blogLinks": [
                "https://www.yelp.com/topic/san-francisco-driving-from-sf-to-portland-what-to-see-along-the-way"
            ],
            "closest_to": "big bear lake",
            "latitude": "32.7349196",
            "address": "Northern Frontier, San Diego, San Diego County, California, United States of America",
            "locType": "locality"
        },
        "san diego": {
            "longitude": "-117.1627713",
            "blogLinks": [
                "http://www.travbuddy.com/California-travel-guide-p85",
                "http://www.travbuddy.com/California-popular-cities-p85",
                "http://www.10best.com/interests/travel-features/road-trip-10-must-see-spots-from-salt-lake-city-to-san-diego/",
                "http://bestwesterncalifornia.com/"
            ],
            "closest_to": "big bear lake",
            "latitude": "32.7174209",
            "address": "San Diego, San Diego County, California, United States of America",
            "locType": "city"
        },
        "los angeles county": {
            "longitude": "-118.2096813",
            "blogLinks": [
                "http://www.travbuddy.com/California-travel-guide-p85",
                "http://www.travbuddy.com/California-popular-cities-p85"
            ],
            "closest_to": "oakland",
            "latitude": "34.3155072",
            "address": "Los Angeles County, California, United States of America",
            "locType": "administrative"
        },
        "stanfield cutoff": {
            "longitude": "-116.8845335",
            "blogLinks": [
                "http://www.bigbearvacations.com/experience/things-to-do"
            ],
            "closest_to": "big bear lake",
            "latitude": "34.2601412",
            "address": "Stanfield Cutoff, Minnelusa, San Bernardino County, California, 92314, United States of America",
            "locType": "tertiary"
        },
        "orange county": {
            "longitude": "-117.870493",
            "blogLinks": [
                "http://www.travbuddy.com/California-travel-guide-p85",
                "http://www.travbuddy.com/California-popular-cities-p85"
            ],
            "closest_to": "oakland",
            "latitude": "33.7500378",
            "address": "Orange County, California, United States of America",
            "locType": "administrative"
        },
        "pacific": {
            "longitude": "-120.507146",
            "blogLinks": [
                "http://www.travbuddy.com/California-travel-guide-p85",
                "http://www.travbuddy.com/California-popular-cities-p85"
            ],
            "closest_to": "oakland",
            "latitude": "38.7601815",
            "address": "Pacific, El Dorado County, California, United States of America",
            "locType": "hamlet"
        },
        "madison bear garden": {
            "longitude": "-121.8426174",
            "blogLinks": [
                "https://www.yelp.com/topic/san-francisco-driving-from-sf-to-portland-what-to-see-along-the-way"
            ],
            "closest_to": "oakland",
            "latitude": "39.7290957",
            "address": "Madison Bear Garden, West 2nd Street, Chico, Butte County, California, 95928, United States of America",
            "locType": "restaurant"
        },
        "belgium": {
            "longitude": "-121.785498",
            "blogLinks": [
                "https://www.visitoakland.org/explore/101-things-to-do/"
            ],
            "closest_to": "oakland",
            "latitude": "39.7276351",
            "address": "Belgium Avenue, Chico, Butte County, California, 95928, United States of America",
            "locType": "residential"
        },
        "south coast plaza": {
            "longitude": "-117.889168433903",
            "blogLinks": [
                "http://www.travbuddy.com/California-popular-cities-p85"
            ],
            "closest_to": "oakland",
            "latitude": "33.6907283",
            "address": "South Coast Plaza, Bear Street, Costa Mesa, Orange County, California, 92704, United States of America",
            "locType": "mall"
        },
        "big bear snow play": {
            "longitude": "-116.86709685",
            "blogLinks": [
                "http://gocalifornia.about.com/od/cabigbear/a/big-bear.htm"
            ],
            "closest_to": "big bear lake",
            "latitude": "34.25837955",
            "address": "Big Bear Snow Play, Big Bear Lake, San Bernardino County, California, 92314, United States of America",
            "locType": "winter_sports"
        },
        "big bear lake": {
            "longitude": "-116.932209587315",
            "blogLinks": [
                "http://www.travbuddy.com/California-travel-guide-p85",
                "http://www.bigbear.com/things-to-do/",
                "http://www.bigbearvacations.com/experience/things-to-do",
                "https://www.tripadvisor.com/Attraction_Review-g32074-d105409-Reviews-Big_Bear_Lake-Big_Bear_Region_California.html",
                "https://www.expedia.com/Big-Bear-Lake-Hotels.d6919.Travel-Guide-Hotels",
                "http://gocalifornia.about.com/od/cabigbear/a/big-bear.htm",
                "https://www.yelp.com/biz/destination-big-bear-big-bear-lake",
                "http://www.10best.com/interests/travel-features/road-trip-10-must-see-spots-from-salt-lake-city-to-san-diego/",
                "http://www.travbuddy.com/California-popular-cities-p85",
                "http://www.bigbearlake.net/about-big-bear/facts",
                "http://www.bigbearlake.net/summer/photos-of-the-lake"
            ],
            "closest_to": "big bear lake",
            "latitude": "34.253293",
            "address": "Big Bear Lake, Lagunita Lane, Big Bear Lake, San Bernardino County, California, 92315, United States of America",
            "locType": "water"
        },
        "san bernardino national forest": {
            "longitude": "-116.968502795539",
            "blogLinks": [
                "http://www.bigbearlake.net/about-big-bear/facts"
            ],
            "closest_to": "big bear lake",
            "latitude": "34.18055525",
            "address": "San Bernardino National Forest, Clark's Grade, Pinezanita, San Bernardino County, California, 92305, United States of America",
            "locType": "national_park"
        },
        "eureka": {
            "longitude": "-124.1636728",
            "blogLinks": [
                "http://www.travbuddy.com/California-travel-guide-p85",
                "http://www.travbuddy.com/California-popular-cities-p85"
            ],
            "closest_to": "oakland",
            "latitude": "40.8020712",
            "address": "Eureka, Humboldt County, California, United States of America",
            "locType": "city"
        },
        "yreka": {
            "longitude": "-122.6377654",
            "blogLinks": [
                "https://www.yelp.com/topic/san-francisco-driving-from-sf-to-portland-what-to-see-along-the-way"
            ],
            "closest_to": "oakland",
            "latitude": "41.7326157",
            "address": "Yreka, Siskiyou County, California, United States of America",
            "locType": "city"
        },
        "beverly hills": {
            "longitude": "-118.4003562",
            "blogLinks": [
                "http://www.travbuddy.com/California-travel-guide-p85",
                "http://www.bigbearlake.net/about-big-bear/facts",
                "http://www.travbuddy.com/California-popular-cities-p85"
            ],
            "closest_to": "oakland",
            "latitude": "34.0736204",
            "address": "Beverly Hills, Los Angeles County, California, United States of America",
            "locType": "city"
        },
        "mohave county": {
            "longitude": "-114.0512969",
            "blogLinks": [
                "http://www.10best.com/interests/travel-features/road-trip-10-must-see-spots-from-salt-lake-city-to-san-diego/"
            ],
            "closest_to": "big bear lake",
            "latitude": "35.1781607",
            "address": "California Avenue, Kingman, Mohave County, Arizona, 86401, United States of America",
            "locType": "track"
        },
        "venice": {
            "longitude": "-118.4668874",
            "blogLinks": [
                "http://www.travbuddy.com/California-popular-cities-p85"
            ],
            "closest_to": "oakland",
            "latitude": "33.995044",
            "address": "Venice, LA, Los Angeles County, California, United States of America",
            "locType": "suburb"
        },
        "pacific coast highway": {
            "longitude": "-118.0051687",
            "blogLinks": [
                "http://www.travbuddy.com/California-travel-guide-p85"
            ],
            "closest_to": "oakland",
            "latitude": "33.6595127",
            "address": "Pacific Coast Highway, Huntington Beach, Orange County, California, 92648, United States of America",
            "locType": "primary"
        },
        "new parkway": {
            "longitude": "-120.796793600865",
            "blogLinks": [
                "https://www.visitoakland.org/explore/101-things-to-do/"
            ],
            "closest_to": "oakland",
            "latitude": "38.1592644",
            "address": "New Hogan Lake, New Hogan Parkway, Valley Springs, Calaveras County, California, 95252, United States of America",
            "locType": "water"
        },
        "berkeley": {
            "longitude": "-122.2728638",
            "blogLinks": [
                "http://www.travbuddy.com/California-travel-guide-p85",
                "http://www.travbuddy.com/California-popular-cities-p85"
            ],
            "closest_to": "oakland",
            "latitude": "37.8708393",
            "address": "Berkeley, Alameda County, California, United States of America",
            "locType": "city"
        },
        "newport beach": {
            "longitude": "-117.92944",
            "blogLinks": [
                "http://www.travbuddy.com/California-travel-guide-p85",
                "http://www.travbuddy.com/California-popular-cities-p85",
                "http://www.bigbearvacations.com/experience/things-to-do"
            ],
            "closest_to": "oakland",
            "latitude": "33.6170092",
            "address": "Newport Beach, Orange County, California, United States of America",
            "locType": "city"
        },
        "ca": {
            "longitude": "-122.232613735941",
            "blogLinks": [
                "https://www.yelp.com/topic/san-francisco-driving-from-sf-to-portland-what-to-see-along-the-way"
            ],
            "closest_to": "oakland",
            "latitude": "37.8242285466918",
            "address": "Piedmont, Alameda County, California, ca, United States of America",
            "locType": "postcode"
        },
        "running springs": {
            "longitude": "-117.124877511921",
            "blogLinks": [
                "http://www.bigbearlake.net/about-big-bear/facts"
            ],
            "closest_to": "oakland",
            "latitude": "34.2124412",
            "address": "Running Springs, Mountain Oak Drive, Fredalba, San Bernardino County, California, 92314, United States of America",
            "locType": "administrative"
        },
        "veterans memorial highway": {
            "longitude": "-114.8493202",
            "blogLinks": [
                "http://www.10best.com/interests/travel-features/road-trip-10-must-see-spots-from-salt-lake-city-to-san-diego/"
            ],
            "closest_to": "big bear lake",
            "latitude": "35.1758907",
            "address": "Veterans Memorial Highway, San Bernardino County, California, United States of America",
            "locType": "trunk"
        },
        "garrett county": {
            "longitude": "-123.8778991",
            "blogLinks": [
                "http://www.visitdeepcreek.com/"
            ],
            "closest_to": "oakland",
            "latitude": "41.0823937",
            "address": "Garrett Creek, Humboldt County, California, United States of America",
            "locType": "stream"
        },
        "lakeview": {
            "longitude": "-119.109551",
            "blogLinks": [
                "http://www.tripleblaze.com/best/?s=2"
            ],
            "closest_to": "oakland",
            "latitude": "35.094689",
            "address": "Lakeview, Kern County, California, United States of America",
            "locType": "hamlet"
        },
        "mammoth lakes california": {
            "longitude": "-118.9668508",
            "blogLinks": [
                "http://www.travbuddy.com/California-travel-guide-p85"
            ],
            "closest_to": "oakland",
            "latitude": "37.6432525",
            "address": "Mammoth Lakes, Mono County, California, United States of America",
            "locType": "administrative"
        },
        "carlsbad": {
            "longitude": "-117.3505938",
            "blogLinks": [
                "http://www.travbuddy.com/California-travel-guide-p85",
                "http://www.travbuddy.com/California-popular-cities-p85"
            ],
            "closest_to": "big bear lake",
            "latitude": "33.1580933",
            "address": "Carlsbad, San Diego County, California, United States of America",
            "locType": "city"
        },
        "burbank": {
            "longitude": "-118.3258553",
            "blogLinks": [
                "http://www.travbuddy.com/California-travel-guide-p85",
                "http://www.travbuddy.com/California-popular-cities-p85"
            ],
            "closest_to": "oakland",
            "latitude": "34.1816482",
            "address": "Burbank, Los Angeles County, California, United States of America",
            "locType": "city"
        },
        "arrowhead lake": {
            "longitude": "-118.41172724833",
            "blogLinks": [
                "https://www.tripadvisor.com/Attraction_Review-g32074-d105409-Reviews-Big_Bear_Lake-Big_Bear_Region_California.html"
            ],
            "closest_to": "oakland",
            "latitude": "36.8273793",
            "address": "Arrowhead Lake, John Muir Trail, Fresno County, California, United States of America",
            "locType": "water"
        },
        "redlands": {
            "longitude": "-117.248983896912",
            "blogLinks": [
                "http://www.bigbearlake.net/about-big-bear/facts",
                "https://www.tripadvisor.com/Attraction_Review-g32074-d105409-Reviews-Big_Bear_Lake-Big_Bear_Region_California.html",
                "http://bestwesterncalifornia.com/"
            ],
            "closest_to": "oakland",
            "latitude": "34.069909",
            "address": "Redlands, San Bernardino County, California, United States of America",
            "locType": "city"
        },
        "halloran springs": {
            "longitude": "-115.890563",
            "blogLinks": [
                "http://www.10best.com/interests/travel-features/road-trip-10-must-see-spots-from-salt-lake-city-to-san-diego/"
            ],
            "closest_to": "big bear lake",
            "latitude": "35.372481",
            "address": "Halloran Springs, San Bernardino County, California, United States of America",
            "locType": "hamlet"
        },
        "san bernardino county": {
            "longitude": "-116.0833143",
            "blogLinks": [
                "http://www.10best.com/interests/travel-features/road-trip-10-must-see-spots-from-salt-lake-city-to-san-diego/"
            ],
            "closest_to": "big bear lake",
            "latitude": "34.8253019",
            "address": "San Bernardino County, California, United States of America",
            "locType": "administrative"
        },
        "el dorado county": {
            "longitude": "-120.5276128",
            "blogLinks": [
                "http://www.travbuddy.com/California-travel-guide-p85",
                "http://www.travbuddy.com/California-popular-cities-p85"
            ],
            "closest_to": "oakland",
            "latitude": "38.7574137",
            "address": "El Dorado County, California, United States of America",
            "locType": "administrative"
        },
        "oakland": {
            "longitude": "-122.2713562",
            "blogLinks": [
                "http://www.travbuddy.com/California-travel-guide-p85",
                "https://www.visitoakland.org/explore/101-things-to-do/",
                "http://www.travbuddy.com/California-popular-cities-p85"
            ],
            "closest_to": "oakland",
            "latitude": "37.8044557",
            "address": "Oakland, Alameda County, California, United States of America",
            "locType": "city"
        },
        "solano county": {
            "longitude": "-121.9163554",
            "blogLinks": [
                "http://www.travbuddy.com/California-popular-cities-p85"
            ],
            "closest_to": "oakland",
            "latitude": "38.2218938",
            "address": "Solano County, California, United States of America",
            "locType": "administrative"
        },
        "north shore drive": {
            "longitude": "-117.5868906",
            "blogLinks": [
                "http://www.bigbearvacations.com/experience/things-to-do"
            ],
            "closest_to": "oakland",
            "latitude": "34.0146349",
            "address": "North Shore Drive, Ontario, San Bernardino County, California, 91761, United States of America",
            "locType": "residential"
        },
        "montana": {
            "longitude": "-118.6129969",
            "blogLinks": [
                "http://www.tripleblaze.com/best/?s=2"
            ],
            "closest_to": "oakland",
            "latitude": "37.413991",
            "address": "Montana, Rovana, Inyo County, California, United States of America",
            "locType": "residential"
        },
        "club bombay": {
            "longitude": "-116.9117397",
            "blogLinks": [
                "http://www.bigbearlake.net/about-big-bear/facts"
            ],
            "closest_to": "big bear lake",
            "latitude": "34.2404169",
            "address": "Club Bombay, 672, Pine Knot Avenue, The Village, Big Bear Lake, San Bernardino County, California, 92315, United States of America",
            "locType": "nightclub"
        },
        "temescal alley": {
            "longitude": "-122.262023",
            "blogLinks": [
                "https://www.visitoakland.org/explore/101-things-to-do/"
            ],
            "closest_to": "oakland",
            "latitude": "37.8362317",
            "address": "Temescal Alley, Temescal, Oakland, Alameda County, California, 94609, United States of America",
            "locType": "service"
        },
        "vacaville": {
            "longitude": "-121.9877443",
            "blogLinks": [
                "https://www.yelp.com/topic/san-francisco-driving-from-sf-to-portland-what-to-see-along-the-way"
            ],
            "closest_to": "oakland",
            "latitude": "38.3565773",
            "address": "Vacaville, Solano County, California, United States of America",
            "locType": "city"
        },
        "us": {
            "longitude": "-118.7559973",
            "blogLinks": [
                "http://www.travbuddy.com/California-travel-guide-p85",
                "https://www.expedia.com/Big-Bear-Lake-Hotels.d6919.Travel-Guide-Hotels",
                "http://www.travbuddy.com/California-popular-cities-p85"
            ],
            "closest_to": "oakland",
            "latitude": "36.7014631",
            "address": "California, United States of America",
            "locType": "administrative"
        },
        "bear mountain resort": {
            "longitude": "-117.923182382511",
            "blogLinks": [
                "http://www.bigbearlake.net/about-big-bear/facts"
            ],
            "closest_to": "oakland",
            "latitude": "33.8127021",
            "address": "The Many Adventures of Winnie the Pooh, West Service Road, Anaheim Resort District, Anaheim, Orange County, California, 217, United States of America",
            "locType": "attraction"
        },
        "half moon bay state beach": {
            "longitude": "-122.449789014662",
            "blogLinks": [
                "http://www.tripleblaze.com/best/?s=2"
            ],
            "closest_to": "oakland",
            "latitude": "37.47903115",
            "address": "Half Moon Bay State Beach, Venice Boulevard, Half Moon Bay, San Mateo County, California, 94019, United States of America",
            "locType": "beach"
        },
        "america": {
            "longitude": "-119.8948706",
            "blogLinks": [
                "http://www.travbuddy.com/California-travel-guide-p85"
            ],
            "closest_to": "oakland",
            "latitude": "36.2573198",
            "address": "America, Kings County, California, 93246, United States of America",
            "locType": "residential"
        },
        "baltimore": {
            "longitude": "-120.5402091",
            "blogLinks": [
                "http://www.visitdeepcreek.com/"
            ],
            "closest_to": "oakland",
            "latitude": "39.3876798",
            "address": "Baltimore Town, Nevada County, California, United States of America",
            "locType": "hamlet"
        },
        "hesperia": {
            "longitude": "-117.3008783",
            "blogLinks": [
                "http://www.bigbearlake.net/about-big-bear/facts"
            ],
            "closest_to": "oakland",
            "latitude": "34.4263886",
            "address": "Hesperia, San Bernardino County, California, United States of America",
            "locType": "city"
        },
        "vallejo": {
            "longitude": "-122.2566366",
            "blogLinks": [
                "http://www.travbuddy.com/California-popular-cities-p85"
            ],
            "closest_to": "oakland",
            "latitude": "38.1040864",
            "address": "Vallejo, Solano County, California, United States of America",
            "locType": "city"
        },
        "west boat ramp": {
            "longitude": "-122.3984157",
            "blogLinks": [
                "http://www.bigbearvacations.com/experience/things-to-do"
            ],
            "closest_to": "oakland",
            "latitude": "40.593972",
            "address": "Boat ramp, Sacramento River Trail, Redding, Shasta County, California, 96001, United States of America",
            "locType": "slipway"
        },
        "hanna flat campground": {
            "longitude": "-116.974572815296",
            "blogLinks": [
                "http://www.bigbearlake.net/about-big-bear/facts"
            ],
            "closest_to": "oakland",
            "latitude": "34.28743915",
            "address": "Hanna Flat Campground, Hanna Flat Trail, Fawnskin, San Bernardino County, California, 92333, United States of America",
            "locType": "camp_site"
        },
        "pittsburgh": {
            "longitude": "-121.1002348",
            "blogLinks": [
                "http://www.visitdeepcreek.com/"
            ],
            "closest_to": "oakland",
            "latitude": "39.5151683",
            "address": "Pittsburgh Hill, Yuba County, California, United States of America",
            "locType": "peak"
        },
        "palm springs": {
            "longitude": "-116.5403029",
            "blogLinks": [
                "http://gocalifornia.about.com/od/cabigbear/a/big-bear.htm"
            ],
            "closest_to": "big bear lake",
            "latitude": "33.8246269",
            "address": "Palm Springs, Riverside County, California, United States of America",
            "locType": "city"
        }
    }
}