{
    "stockton": {
        "type": "city",
        "osm_id": "112382",
        "class": "place",
        "importance": 0.7132631887217,
        "lat": "37.9577016",
        "lon": "-121.2907795",
        "boundingbox": [
            "37.887747",
            "38.0583",
            "-121.4197359",
            "-121.1840371"
        ],
        "display_name": "Stockton, San Joaquin County, California, United States of America",
        "licence": "Data \u00a9 OpenStreetMap contributors, ODbL 1.0. http://www.openstreetmap.org/copyright",
        "icon": "https://nominatim.openstreetmap.org/images/mapicons/poi_place_city.p.20.png",
        "place_id": "157785814",
        "osm_type": "relation"
    },
    "mentions": {
        "sierra lodge": {
            "latitude": "37.6492472",
            "closest_to": "stockton",
            "address": "Sierra Lodge, 3540, Main Street, Mammoth Lakes, Mono County, California, 93546, United States of America",
            "locType": "hotel",
            "blogLinks": [
                "https://www.tripadvisor.com/Attraction_Review-g32074-d105409-Reviews-Big_Bear_Lake-Big_Bear_Region_California.html"
            ],
            "longitude": "-118.9747351"
        },
        "mallard bay": {
            "latitude": "32.729572",
            "closest_to": "big bear lake",
            "address": "Mallard Street, Encanto, San Diego, San Diego County, California, 92114, United States of America",
            "locType": "residential",
            "blogLinks": [
                "https://www.expedia.com/Big-Bear-Lake-Hotels.d6919.Travel-Guide-Hotels"
            ],
            "longitude": "-117.0563279"
        },
        "big bear lake": {
            "latitude": "34.253293",
            "closest_to": "stockton",
            "address": "Big Bear Lake, Lagunita Lane, Big Bear Lake, San Bernardino County, California, 92315, United States of America",
            "locType": "water",
            "blogLinks": [
                "http://www.bigbearlake.net/summer/photos-of-the-lake",
                "http://www.tripleblaze.com/best/?c=8",
                "https://www.tripadvisor.com/Attraction_Review-g32074-d105409-Reviews-Big_Bear_Lake-Big_Bear_Region_California.html",
                "http://losangeles.cbslocal.com/top-lists/best-places-to-rent-a-cabin-in-the-woods-in-southern-california/",
                "https://www.expedia.com/Big-Bear-Lake-Hotels.d6919.Travel-Guide-Hotels",
                "https://www.yelp.com/biz/big-bear-lake-village-big-bear-lake",
                "https://www.bigbearvacations.com/",
                "http://www.snowsummit.com/",
                "http://www.bigbearlake.net/about-big-bear/facts",
                "http://stocktonlake.com/",
                "http://www.bigbearvacations.com/experience/things-to-do"
            ],
            "longitude": "-116.932209587315"
        },
        "ketchikan": {
            "latitude": "38.8234592",
            "closest_to": "stockton",
            "address": "Ketchikan Drive, Rocklin, Placer County, California, 95765, United States of America",
            "locType": "residential",
            "blogLinks": [
                "http://www.alaska.org/things-to-do/bear-watching"
            ],
            "longitude": "-121.2478656"
        },
        "hudson creek": {
            "latitude": "40.9235713",
            "closest_to": "stockton",
            "address": "Hudson Creek, Trinity County, California, United States of America",
            "locType": "stream",
            "blogLinks": [
                "http://www.alaska.org/things-to-do/bear-watching"
            ],
            "longitude": "-123.6023732"
        },
        "irvine": {
            "latitude": "33.6856969",
            "closest_to": "stockton",
            "address": "Irvine, Orange County, California, United States of America",
            "locType": "city",
            "blogLinks": [
                "http://www.livability.com/ca"
            ],
            "longitude": "-117.8259818"
        },
        "mentone": {
            "latitude": "34.05884",
            "closest_to": "big bear lake",
            "address": "Mentone, Reservoir Canal Road, Crafton, San Bernardino County, California, 92374, United States of America",
            "locType": "administrative",
            "blogLinks": [
                "http://www.bigbearlake.net/about-big-bear/facts"
            ],
            "longitude": "-117.109606374724"
        },
        "wrangell": {
            "latitude": "34.4433337",
            "closest_to": "stockton",
            "address": "Wrangell Lane, Sand Canyon, Santa Clarita, Los Angeles County, California, 91387, United States of America",
            "locType": "residential",
            "blogLinks": [
                "http://www.alaska.org/things-to-do/bear-watching"
            ],
            "longitude": "-118.3817396"
        },
        "bear lake": {
            "latitude": "32.852283",
            "closest_to": "big bear lake",
            "address": "Bear Lake, Riverview, Johnstown, San Diego County, California, 92021, United States of America",
            "locType": "residential",
            "blogLinks": [
                "http://www.bearlake.org/",
                "http://www.alaska.org/things-to-do/bear-watching",
                "https://www.tripadvisor.com/ShowUserReviews-g56993-d107686-r118035783-Bear_Lake-Garden_City_Utah.html"
            ],
            "longitude": "-116.8849329"
        },
        "hilton garden inn san bernardino": {
            "latitude": "34.0790286",
            "closest_to": "stockton",
            "address": "Hilton Garden Inn, 11481, Mission Vista Drive, Rancho Cucamonga, San Bernardino County, California, 91730, United States of America",
            "locType": "hotel",
            "blogLinks": [
                "https://www.expedia.com/Big-Bear-Lake-Hotels.d6919.Travel-Guide-Hotels"
            ],
            "longitude": "-117.55450015"
        },
        "huntington beach": {
            "latitude": "33.6783336",
            "closest_to": "stockton",
            "address": "Huntington Beach, Orange County, California, United States of America",
            "locType": "city",
            "blogLinks": [
                "http://www.familyvacationcritic.com/california-family-vacations/rfv/"
            ],
            "longitude": "-118.0000165"
        },
        "us": {
            "latitude": "36.7014631",
            "closest_to": "stockton",
            "address": "California, United States of America",
            "locType": "administrative",
            "blogLinks": [
                "https://www.expedia.com/Big-Bear-Lake-Hotels.d6919.Travel-Guide-Hotels",
                "http://www.alaska.org/things-to-do/bear-watching"
            ],
            "longitude": "-118.7559973"
        },
        "los angeles harbor": {
            "latitude": "33.7097418",
            "closest_to": "stockton",
            "address": "Los Angeles Harbor, Miner Street, San Pedro, LA, Los Angeles County, California, 90731, United States of America",
            "locType": "bay",
            "blogLinks": [
                "http://www.bigbearvacations.com/experience/things-to-do"
            ],
            "longitude": "-118.2675706"
        },
        "bimini": {
            "latitude": "34.0723505",
            "closest_to": "stockton",
            "address": "Bimini Place, Koreatown, Angelino Heights, LA, Los Angeles County, California, 90004, United States of America",
            "locType": "residential",
            "blogLinks": [
                "http://bearlakefun.com/boat-watercraft-rentals/",
                "http://www.bigbearvacations.com/experience/things-to-do"
            ],
            "longitude": "-118.2905159"
        },
        "yellowstone": {
            "latitude": "34.0671665",
            "closest_to": "stockton",
            "address": "Yellowstone Street, University Hills, Boyle Heights, LA, Los Angeles County, California, 90032-3813, United States of America",
            "locType": "residential",
            "blogLinks": [
                "https://www.tripadvisor.com/ShowUserReviews-g56993-d107686-r118035783-Bear_Lake-Garden_City_Utah.html"
            ],
            "longitude": "-118.1827535"
        },
        "utah": {
            "latitude": "37.413408",
            "closest_to": "stockton",
            "address": "Utah, Rovana, Inyo County, California, United States of America",
            "locType": "residential",
            "blogLinks": [
                "https://www.tripadvisor.com/ShowUserReviews-g56993-d107686-r118035783-Bear_Lake-Garden_City_Utah.html"
            ],
            "longitude": "-118.6125359"
        },
        "inland center mall": {
            "latitude": "34.08506055",
            "closest_to": "stockton",
            "address": "Inland Center, West Central Avenue, Inland Center, San Bernardino, San Bernardino County, California, 92408, United States of America",
            "locType": "mall",
            "blogLinks": [
                "https://www.expedia.com/Big-Bear-Lake-Hotels.d6919.Travel-Guide-Hotels"
            ],
            "longitude": "-117.297473820788"
        },
        "holcomb valley campground": {
            "latitude": "34.3025052",
            "closest_to": "stockton",
            "address": "Holcomb Valley Campground, 3N16E, Minnelusa, San Bernardino County, California, 92314, United States of America",
            "locType": "camp_site",
            "blogLinks": [
                "http://www.bigbearlake.net/about-big-bear/facts"
            ],
            "longitude": "-116.895994630574"
        },
        "north shore drive": {
            "latitude": "34.0146349",
            "closest_to": "stockton",
            "address": "North Shore Drive, Ontario, San Bernardino County, California, 91761, United States of America",
            "locType": "residential",
            "blogLinks": [
                "http://www.bigbearvacations.com/experience/things-to-do"
            ],
            "longitude": "-117.5868906"
        },
        "pacific coast": {
            "latitude": "33.8047323",
            "closest_to": "stockton",
            "address": "Pacific Coast, Florista Street, Los Alamitos, Orange County, California, 90720, United States of America",
            "locType": "yes",
            "blogLinks": [
                "http://www.livability.com/ca"
            ],
            "longitude": "-118.063517668143"
        },
        "golden state": {
            "latitude": "39.6712719",
            "closest_to": "stockton",
            "address": "Golden State Island, Butte County, California, United States of America",
            "locType": "island",
            "blogLinks": [
                "http://www.familyvacationcritic.com/california-family-vacations/rfv/"
            ],
            "longitude": "-121.9619226"
        },
        "national forest": {
            "latitude": "37.77262635",
            "closest_to": "stockton",
            "address": "Inyo National Forest, 1517, Mono County, California, United States of America",
            "locType": "national_park",
            "blogLinks": [
                "http://losangeles.cbslocal.com/top-lists/best-places-to-rent-a-cabin-in-the-woods-in-southern-california/"
            ],
            "longitude": "-118.827549399277"
        },
        "west boat ramp": {
            "latitude": "40.593972",
            "closest_to": "stockton",
            "address": "Boat ramp, Sacramento River Trail, Redding, Shasta County, California, 96001, United States of America",
            "locType": "slipway",
            "blogLinks": [
                "http://www.bigbearvacations.com/experience/things-to-do"
            ],
            "longitude": "-122.3984157"
        },
        "southern california": {
            "latitude": "34.0224149",
            "closest_to": "stockton",
            "address": "University of Southern California, Watt Way, Saint James Park, LA, Los Angeles County, California, 90089, United States of America",
            "locType": "university",
            "blogLinks": [
                "http://www.familyvacationcritic.com/california-family-vacations/rfv/",
                "http://losangeles.cbslocal.com/top-lists/best-places-to-rent-a-cabin-in-the-woods-in-southern-california/",
                "https://www.expedia.com/Big-Bear-Lake-Hotels.d6919.Travel-Guide-Hotels",
                "https://www.yelp.com/biz/big-bear-lake-village-big-bear-lake",
                "http://www.snowsummit.com/",
                "http://www.bigbearvacations.com/experience/things-to-do"
            ],
            "longitude": "-118.286343973446"
        },
        "big bear": {
            "latitude": "34.253293",
            "closest_to": "stockton",
            "address": "Big Bear Lake, Lagunita Lane, Big Bear Lake, San Bernardino County, California, 92315, United States of America",
            "locType": "water",
            "blogLinks": [
                "http://www.bigbearvacations.com/experience/things-to-do"
            ],
            "longitude": "-116.932209587315"
        },
        "newport beach": {
            "latitude": "33.6170092",
            "closest_to": "big bear lake",
            "address": "Newport Beach, Orange County, California, United States of America",
            "locType": "city",
            "blogLinks": [
                "http://www.familyvacationcritic.com/california-family-vacations/rfv/",
                "http://www.bigbearvacations.com/experience/things-to-do"
            ],
            "longitude": "-117.92944"
        },
        "colorado": {
            "latitude": "33.71351445",
            "closest_to": "stockton",
            "address": "Colorado, Walnut, Irvine, Orange County, California, 92606, United States of America",
            "locType": "residential",
            "blogLinks": [
                "https://www.yelp.com/biz/big-bear-lake-village-big-bear-lake"
            ],
            "longitude": "-117.791165718199"
        },
        "santa clara": {
            "latitude": "37.3541132",
            "closest_to": "stockton",
            "address": "Santa Clara, Santa Clara County, California, United States of America",
            "locType": "city",
            "blogLinks": [
                "http://www.livability.com/ca"
            ],
            "longitude": "-121.9551743"
        },
        "santa barbara": {
            "latitude": "34.4221319",
            "closest_to": "stockton",
            "address": "Santa Barbara, Santa Barbara County, California, United States of America",
            "locType": "city",
            "blogLinks": [
                "http://www.livability.com/ca"
            ],
            "longitude": "-119.7026672"
        },
        "chilnualna falls": {
            "latitude": "37.5486657",
            "closest_to": "stockton",
            "address": "North Chilnualna Falls Road, North Wawona, Mariposa County, California, 95389, United States of America",
            "locType": "residential",
            "blogLinks": [
                "http://www.tripleblaze.com/best/?c=8"
            ],
            "longitude": "-119.633114"
        },
        "stockton lake": {
            "latitude": "37.9577016",
            "closest_to": "stockton",
            "address": "Stockton, San Joaquin County, California, United States of America",
            "locType": "city",
            "blogLinks": [
                "http://www.bigbearlake.net/about-big-bear/facts",
                "http://stocktonlake.com/"
            ],
            "longitude": "-121.2907795"
        },
        "san jose": {
            "latitude": "37.3361905",
            "closest_to": "stockton",
            "address": "San Jos\u00e9, Santa Clara County, California, United States of America",
            "locType": "city",
            "blogLinks": [
                "http://www.livability.com/ca"
            ],
            "longitude": "-121.8905832"
        },
        "running springs": {
            "latitude": "34.2124412",
            "closest_to": "stockton",
            "address": "Running Springs, Mountain Oak Drive, Fredalba, San Bernardino County, California, 92314, United States of America",
            "locType": "administrative",
            "blogLinks": [
                "http://www.bigbearlake.net/about-big-bear/facts"
            ],
            "longitude": "-117.124877511921"
        },
        "anchorage": {
            "latitude": "39.4260018",
            "closest_to": "stockton",
            "address": "Noyo Anchorage, Mendocino County, California, United States of America",
            "locType": "dock",
            "blogLinks": [
                "http://www.alaska.org/things-to-do/bear-watching"
            ],
            "longitude": "-123.8008487"
        },
        "kodiak": {
            "latitude": "34.433653",
            "closest_to": "stockton",
            "address": "Kodiak Avenue, Santa Barbara County, California, 93111, United States of America",
            "locType": "residential",
            "blogLinks": [
                "http://www.alaska.org/things-to-do/bear-watching"
            ],
            "longitude": "-119.7918719"
        },
        "pine knot campground": {
            "latitude": "34.2356976",
            "closest_to": "big bear lake",
            "address": "Pine Knot Campground, Pineknot Campground Road South, Moonridge, San Bernardino County, California, 92314, United States of America",
            "locType": "camp_site",
            "blogLinks": [
                "http://www.bigbearlake.net/about-big-bear/facts"
            ],
            "longitude": "-116.8859014"
        },
        "park road": {
            "latitude": "35.448704",
            "closest_to": "stockton",
            "address": "Park Road, Kern County, California, United States of America",
            "locType": "residential",
            "blogLinks": [
                "http://www.alaska.org/things-to-do/bear-watching"
            ],
            "longitude": "-118.9072439"
        },
        "aliso creek": {
            "latitude": "33.602558",
            "closest_to": "big bear lake",
            "address": "Aliso Creek, Laguna Woods, Orange County, California, United States of America",
            "locType": "stream",
            "blogLinks": [
                "http://www.tripleblaze.com/best/?c=8"
            ],
            "longitude": "-117.7034805"
        },
        "stanfield cutoff": {
            "latitude": "34.2601412",
            "closest_to": "big bear lake",
            "address": "Stanfield Cutoff, Minnelusa, San Bernardino County, California, 92314, United States of America",
            "locType": "tertiary",
            "blogLinks": [
                "http://www.bigbearvacations.com/experience/things-to-do"
            ],
            "longitude": "-116.8845335"
        },
        "boulder bay park": {
            "latitude": "34.23859285",
            "closest_to": "big bear lake",
            "address": "Boulder Bay Park, Big Bear Boulevard, Big Bear Lake, San Bernardino County, California, 92315, United States of America",
            "locType": "park",
            "blogLinks": [
                "https://www.tripadvisor.com/Attraction_Review-g32074-d105409-Reviews-Big_Bear_Lake-Big_Bear_Region_California.html",
                "http://www.bigbearvacations.com/experience/things-to-do"
            ],
            "longitude": "-116.949195007263"
        },
        "alaska": {
            "latitude": "33.7147833",
            "closest_to": "stockton",
            "address": "Alaska, Walnut, Irvine, Orange County, California, 92606, United States of America",
            "locType": "residential",
            "blogLinks": [
                "http://www.alaska.org/things-to-do/bear-watching"
            ],
            "longitude": "-117.7917164"
        },
        "admiralty island": {
            "latitude": "32.628273",
            "closest_to": "big bear lake",
            "address": "Admiralty Cross, Crown Island, Coronado, San Diego County, California, 92118, United States of America",
            "locType": "residential",
            "blogLinks": [
                "http://www.alaska.org/things-to-do/bear-watching"
            ],
            "longitude": "-117.1349789"
        },
        "creek": {
            "latitude": "39.3751013",
            "closest_to": "stockton",
            "address": "Creek, Mendocino County, California, United States of America",
            "locType": "stream",
            "blogLinks": [
                "http://www.tripleblaze.com/best/?c=8"
            ],
            "longitude": "-123.0482197"
        },
        "redlands": {
            "latitude": "34.069909",
            "closest_to": "stockton",
            "address": "Redlands, San Bernardino County, California, United States of America",
            "locType": "city",
            "blogLinks": [
                "http://www.bigbearlake.net/about-big-bear/facts",
                "http://bearlakefun.com/boat-watercraft-rentals/",
                "https://www.tripadvisor.com/ShowUserReviews-g56993-d107686-r118035783-Bear_Lake-Garden_City_Utah.html"
            ],
            "longitude": "-117.248983896912"
        },
        "luckie park": {
            "latitude": "35.1485944",
            "closest_to": "stockton",
            "address": "Luckie Park, Mojave Road, San Bernardino County, California, United States of America",
            "locType": "park",
            "blogLinks": [
                "https://www.expedia.com/Big-Bear-Lake-Hotels.d6919.Travel-Guide-Hotels"
            ],
            "longitude": "-116.0380661"
        },
        "arctic creek": {
            "latitude": "34.946928",
            "closest_to": "stockton",
            "address": "Arctic Court, San Bernardino County, California, United States of America",
            "locType": "residential",
            "blogLinks": [
                "http://www.alaska.org/things-to-do/bear-watching"
            ],
            "longitude": "-117.5151319"
        },
        "berkeley": {
            "latitude": "37.8708393",
            "closest_to": "stockton",
            "address": "Berkeley, Alameda County, California, United States of America",
            "locType": "city",
            "blogLinks": [
                "http://www.livability.com/ca"
            ],
            "longitude": "-122.2728638"
        },
        "bear lake valley": {
            "latitude": "38.4732722",
            "closest_to": "stockton",
            "address": "Bear Lake, Lake Road, Bear Valley, Alpine County, California, 95223, United States of America",
            "locType": "water",
            "blogLinks": [
                "http://www.bearlake.org/"
            ],
            "longitude": "-120.045570283034"
        },
        "vermont": {
            "latitude": "33.712381",
            "closest_to": "stockton",
            "address": "Vermont, Walnut, Irvine, Orange County, California, 92606, United States of America",
            "locType": "residential",
            "blogLinks": [
                "https://www.yelp.com/biz/big-bear-lake-village-big-bear-lake"
            ],
            "longitude": "-117.7907651"
        },
        "san bernardino": {
            "latitude": "34.1083449",
            "closest_to": "stockton",
            "address": "San Bernardino, San Bernardino County, California, United States of America",
            "locType": "city",
            "blogLinks": [
                "https://www.expedia.com/Big-Bear-Lake-Hotels.d6919.Travel-Guide-Hotels",
                "http://www.bigbearlake.net/about-big-bear/facts",
                "http://www.bigbearlake.net/summer/photos-of-the-lake"
            ],
            "longitude": "-117.2897651"
        },
        "victorville": {
            "latitude": "34.5361067",
            "closest_to": "stockton",
            "address": "Victorville, San Bernardino County, California, United States of America",
            "locType": "city",
            "blogLinks": [
                "https://www.expedia.com/Big-Bear-Lake-Hotels.d6919.Travel-Guide-Hotels"
            ],
            "longitude": "-117.2911564"
        },
        "mammoth lakes": {
            "latitude": "37.6432525",
            "closest_to": "stockton",
            "address": "Mammoth Lakes, Mono County, California, United States of America",
            "locType": "administrative",
            "blogLinks": [
                "http://www.familyvacationcritic.com/california-family-vacations/rfv/"
            ],
            "longitude": "-118.9668508"
        },
        "mojave desert": {
            "latitude": "35.1456319",
            "closest_to": "big bear lake",
            "address": "Mojave Desert, Utility Road, San Bernardino County, California, United States of America",
            "locType": "desert",
            "blogLinks": [
                "http://www.livability.com/ca"
            ],
            "longitude": "-115.548963686646"
        },
        "mcneil river": {
            "latitude": "36.6920149",
            "closest_to": "stockton",
            "address": "McNeil No. 240, Fresno, Fresno County, California, United States of America",
            "locType": "ditch",
            "blogLinks": [
                "http://www.alaska.org/things-to-do/bear-watching"
            ],
            "longitude": "-119.8806621"
        },
        "baldwin lake": {
            "latitude": "34.2793278",
            "closest_to": "big bear lake",
            "address": "Baldwin Lake, San Bernardino County, California, United States of America",
            "locType": "hamlet",
            "blogLinks": [
                "http://www.bigbearlake.net/about-big-bear/facts"
            ],
            "longitude": "-116.7982897"
        },
        "east boat ramp": {
            "latitude": "40.593972",
            "closest_to": "stockton",
            "address": "Boat ramp, Sacramento River Trail, Redding, Shasta County, California, 96001, United States of America",
            "locType": "slipway",
            "blogLinks": [
                "http://www.bigbearvacations.com/experience/things-to-do"
            ],
            "longitude": "-122.3984157"
        },
        "pacific crest trail": {
            "latitude": "38.69418",
            "closest_to": "stockton",
            "address": "Pacific Crest Trail, Pleasant Valley, El Dorado County, California, 95667, United States of America",
            "locType": "residential",
            "blogLinks": [
                "http://www.tripleblaze.com/best/?c=8"
            ],
            "longitude": "-120.6375709"
        },
        "fawnskin park": {
            "latitude": "34.2680621",
            "closest_to": "stockton",
            "address": "Fawnskin, San Bernardino County, California, United States of America",
            "locType": "hamlet",
            "blogLinks": [
                "https://www.yelp.com/biz/big-bear-lake-village-big-bear-lake"
            ],
            "longitude": "-116.9425341"
        },
        "simi valley": {
            "latitude": "34.2694474",
            "closest_to": "stockton",
            "address": "Simi Valley, Ventura County, California, United States of America",
            "locType": "city",
            "blogLinks": [
                "http://www.familyvacationcritic.com/california-family-vacations/rfv/"
            ],
            "longitude": "-118.7814819"
        },
        "nottingham": {
            "latitude": "33.9587429",
            "closest_to": "stockton",
            "address": "Nottingham, Inglewood, Los Angeles County, California, 90305, United States of America",
            "locType": "service",
            "blogLinks": [
                "http://www.bigbearlake.net/about-big-bear/facts"
            ],
            "longitude": "-118.3355358"
        },
        "club bombay": {
            "latitude": "34.2404169",
            "closest_to": "big bear lake",
            "address": "Club Bombay, 672, Pine Knot Avenue, The Village, Big Bear Lake, San Bernardino County, California, 92315, United States of America",
            "locType": "nightclub",
            "blogLinks": [
                "http://www.bigbearlake.net/about-big-bear/facts"
            ],
            "longitude": "-116.9117397"
        },
        "arrowhead lake": {
            "latitude": "36.8273793",
            "closest_to": "stockton",
            "address": "Arrowhead Lake, John Muir Trail, Fresno County, California, United States of America",
            "locType": "water",
            "blogLinks": [
                "https://www.tripadvisor.com/Attraction_Review-g32074-d105409-Reviews-Big_Bear_Lake-Big_Bear_Region_California.html"
            ],
            "longitude": "-118.41172724833"
        },
        "balboa fun zone": {
            "latitude": "33.60326875",
            "closest_to": "big bear lake",
            "address": "Balboa Fun Zone, Palm Street, Balboa Island, Newport Beach, Orange County, California, 92661, United States of America",
            "locType": "theme_park",
            "blogLinks": [
                "http://www.familyvacationcritic.com/california-family-vacations/rfv/"
            ],
            "longitude": "-117.900140496999"
        },
        "la": {
            "latitude": "36.7014631",
            "closest_to": "stockton",
            "address": "California, United States of America",
            "locType": "administrative",
            "blogLinks": [
                "https://www.yelp.com/biz/big-bear-lake-village-big-bear-lake",
                "https://www.tripadvisor.com/Attraction_Review-g32074-d105409-Reviews-Big_Bear_Lake-Big_Bear_Region_California.html"
            ],
            "longitude": "-118.7559973"
        },
        "whittier hills whittier": {
            "latitude": "33.9397495",
            "closest_to": "stockton",
            "address": "Whittwood Branch Whittier Public Library, Starbuck Street, Friendly Hills, Whittier, Los Angeles County, California, 90603, United States of America",
            "locType": "library",
            "blogLinks": [
                "http://www.tripleblaze.com/best/?c=8"
            ],
            "longitude": "-117.993545449378"
        },
        "igloo creek": {
            "latitude": "34.705553",
            "closest_to": "stockton",
            "address": "Igloo Street, Santa Barbara County, California, 93437, United States of America",
            "locType": "residential",
            "blogLinks": [
                "http://www.alaska.org/things-to-do/bear-watching"
            ],
            "longitude": "-120.5342149"
        },
        "king salmon": {
            "latitude": "40.7392928",
            "closest_to": "stockton",
            "address": "King Salmon, Humboldt County, California, United States of America",
            "locType": "hamlet",
            "blogLinks": [
                "http://www.alaska.org/things-to-do/bear-watching"
            ],
            "longitude": "-124.2186721"
        },
        "kodiak island": {
            "latitude": "38.5385573",
            "closest_to": "stockton",
            "address": "Kodiak Island Place, West Sacramento, Yolo County, California, 95691, United States of America",
            "locType": "residential",
            "blogLinks": [
                "http://www.alaska.org/things-to-do/bear-watching"
            ],
            "longitude": "-121.5691542"
        },
        "mall of victor valley": {
            "latitude": "34.4736697",
            "closest_to": "stockton",
            "address": "The Mall of Victor Valley, Amargosa Road, Victorville, San Bernardino County, California, 92392, United States of America",
            "locType": "mall",
            "blogLinks": [
                "https://www.expedia.com/Big-Bear-Lake-Hotels.d6919.Travel-Guide-Hotels"
            ],
            "longitude": "-117.347349"
        },
        "legoland california": {
            "latitude": "33.1278683",
            "closest_to": "big bear lake",
            "address": "Legoland California, 1, LEGOLAND drive, Carlsbad, San Diego County, California, 92008, United States of America",
            "locType": "theme_park",
            "blogLinks": [
                "http://www.familyvacationcritic.com/california-family-vacations/rfv/"
            ],
            "longitude": "-117.311664211922"
        },
        "ojai": {
            "latitude": "34.4480495",
            "closest_to": "stockton",
            "address": "Ojai, Ventura County, California, United States of America",
            "locType": "city",
            "blogLinks": [
                "http://www.familyvacationcritic.com/california-family-vacations/rfv/"
            ],
            "longitude": "-119.2428889"
        },
        "wrightwood": {
            "latitude": "34.3583535",
            "closest_to": "stockton",
            "address": "Wrightwood, Ross Street, Wrightwood, San Bernardino County, California, 92397, United States of America",
            "locType": "administrative",
            "blogLinks": [
                "http://losangeles.cbslocal.com/top-lists/best-places-to-rent-a-cabin-in-the-woods-in-southern-california/"
            ],
            "longitude": "-117.627599739034"
        },
        "turkey": {
            "latitude": "39.042003",
            "closest_to": "stockton",
            "address": "Turkey Hill Road, Michigan Bluff, Placer County, California, United States of America",
            "locType": "residential",
            "blogLinks": [
                "http://stocktonlake.com/"
            ],
            "longitude": "-120.7327399"
        },
        "orange county": {
            "latitude": "33.7500378",
            "closest_to": "stockton",
            "address": "Orange County, California, United States of America",
            "locType": "administrative",
            "blogLinks": [
                "https://www.yelp.com/biz/big-bear-lake-village-big-bear-lake"
            ],
            "longitude": "-117.870493"
        },
        "los angeles": {
            "latitude": "34.0543942",
            "closest_to": "stockton",
            "address": "LA, Los Angeles County, California, United States of America",
            "locType": "city",
            "blogLinks": [
                "http://www.bigbearlake.net/about-big-bear/facts",
                "https://www.yelp.com/biz/big-bear-lake-village-big-bear-lake",
                "http://losangeles.cbslocal.com/top-lists/best-places-to-rent-a-cabin-in-the-woods-in-southern-california/",
                "https://www.bigbearvacations.com/"
            ],
            "longitude": "-118.2439408"
        },
        "surf city usa": {
            "latitude": "37.8588436",
            "closest_to": "stockton",
            "address": "Surf City, Tuolumne County, California, United States of America",
            "locType": "rapids",
            "blogLinks": [
                "http://www.familyvacationcritic.com/california-family-vacations/rfv/"
            ],
            "longitude": "-120.6349548"
        },
        "st lake city": {
            "latitude": "39.3585058",
            "closest_to": "stockton",
            "address": "Lake City, Nevada County, California, United States of America",
            "locType": "hamlet",
            "blogLinks": [
                "https://www.tripadvisor.com/ShowUserReviews-g56993-d107686-r118035783-Bear_Lake-Garden_City_Utah.html"
            ],
            "longitude": "-120.9416142"
        },
        "sitka": {
            "latitude": "38.592572",
            "closest_to": "stockton",
            "address": "Sitka Street, Sacramento, Sacramento County, California, 95838, United States of America",
            "locType": "residential",
            "blogLinks": [
                "http://www.alaska.org/things-to-do/bear-watching"
            ],
            "longitude": "-121.4833299"
        },
        "magic mountain": {
            "latitude": "34.4724515",
            "closest_to": "stockton",
            "address": "Magic Mountain, Ventura County, California, United States of America",
            "locType": "peak",
            "blogLinks": [
                "https://www.expedia.com/Big-Bear-Lake-Hotels.d6919.Travel-Guide-Hotels"
            ],
            "longitude": "-119.2563693"
        },
        "hesperia": {
            "latitude": "34.4263886",
            "closest_to": "stockton",
            "address": "Hesperia, San Bernardino County, California, United States of America",
            "locType": "city",
            "blogLinks": [
                "http://www.bigbearlake.net/about-big-bear/facts"
            ],
            "longitude": "-117.3008783"
        },
        "lucerne": {
            "latitude": "39.0901709",
            "closest_to": "stockton",
            "address": "Lucerne, Lake County, California, United States of America",
            "locType": "hamlet",
            "blogLinks": [
                "http://www.bigbearlake.net/about-big-bear/facts"
            ],
            "longitude": "-122.7963805"
        },
        "california delta": {
            "latitude": "38.2014877",
            "closest_to": "stockton",
            "address": "Snug Harbor, Solano County, California, United States of America",
            "locType": "hamlet",
            "blogLinks": [
                "https://576716.r.bat.bing.com/?ld=d3CVQ78y0BJeTnigumwLYFgjVUCUzEBwskMSf3B0k2FfB_hQf_Uk08A0CvLiuHQpJCYKAlcucecYRpbXn4UEmwV1AVK3C5Mk6e4PiZs5YriPZ_DgpaAlrcNN2GRMBGvQnDN4jT3mOaNwAPocLdWeEGO8iqa61_uT7BxagR6HwYAt-cbEpf&u=www.visitstockton.org"
            ],
            "longitude": "-121.6126406"
        },
        "san diego": {
            "latitude": "32.7174209",
            "closest_to": "big bear lake",
            "address": "San Diego, San Diego County, California, United States of America",
            "locType": "city",
            "blogLinks": [
                "http://www.tripleblaze.com/best/?c=8"
            ],
            "longitude": "-117.1627713"
        },
        "america": {
            "latitude": "36.2573198",
            "closest_to": "stockton",
            "address": "America, Kings County, California, 93246, United States of America",
            "locType": "residential",
            "blogLinks": [
                "https://www.expedia.com/Big-Bear-Lake-Hotels.d6919.Travel-Guide-Hotels",
                "http://www.livability.com/ca",
                "http://www.bigbearlake.net/summer/photos-of-the-lake"
            ],
            "longitude": "-119.8948706"
        },
        "moonridge": {
            "latitude": "34.2352857",
            "closest_to": "big bear lake",
            "address": "Moonridge, San Bernardino County, California, United States of America",
            "locType": "hamlet",
            "blogLinks": [
                "http://www.bigbearlake.net/about-big-bear/facts"
            ],
            "longitude": "-116.8555852"
        },
        "hanna flat campground": {
            "latitude": "34.28743915",
            "closest_to": "stockton",
            "address": "Hanna Flat Campground, Hanna Flat Trail, Fawnskin, San Bernardino County, California, 92333, United States of America",
            "locType": "camp_site",
            "blogLinks": [
                "http://www.bigbearlake.net/about-big-bear/facts"
            ],
            "longitude": "-116.974572815296"
        },
        "lake": {
            "latitude": "39.0505411",
            "closest_to": "stockton",
            "address": "Lake County, California, United States of America",
            "locType": "administrative",
            "blogLinks": [
                "http://www.bigbearlake.net/about-big-bear/facts",
                "https://www.tripadvisor.com/ShowUserReviews-g56993-d107686-r118035783-Bear_Lake-Garden_City_Utah.html"
            ],
            "longitude": "-122.7776555"
        },
        "eaton canyon park": {
            "latitude": "34.18216575",
            "closest_to": "stockton",
            "address": "Eaton Canyon Park, Canyon View Lane, Pasadena, Los Angeles County, California, 91107, United States of America",
            "locType": "park",
            "blogLinks": [
                "http://www.tripleblaze.com/best/?c=8"
            ],
            "longitude": "-118.095556461784"
        },
        "china island": {
            "latitude": "33.9182749",
            "closest_to": "stockton",
            "address": "China Camp, Santa Rosa Island, California, United States of America",
            "locType": "locality",
            "blogLinks": [
                "http://www.bigbearlake.net/about-big-bear/facts"
            ],
            "longitude": "-120.1646242"
        },
        "portage": {
            "latitude": "38.6727707",
            "closest_to": "stockton",
            "address": "Portage Way, Sacramento, Sacramento County, California, 95835, United States of America",
            "locType": "residential",
            "blogLinks": [
                "http://www.alaska.org/things-to-do/bear-watching"
            ],
            "longitude": "-121.5293616"
        },
        "idaho": {
            "latitude": "37.413354",
            "closest_to": "stockton",
            "address": "Idaho, Rovana, Inyo County, California, United States of America",
            "locType": "residential",
            "blogLinks": [
                "https://www.tripadvisor.com/ShowUserReviews-g56993-d107686-r118035783-Bear_Lake-Garden_City_Utah.html",
                "https://www.bigbearvacations.com/"
            ],
            "longitude": "-118.6119669"
        },
        "himalayan": {
            "latitude": "34.420101",
            "closest_to": "stockton",
            "address": "Himalayan Court, Mint Canyon, Canyon Country, Santa Clarita, Los Angeles County, California, 91351, United States of America",
            "locType": "residential",
            "blogLinks": [
                "https://www.yelp.com/biz/big-bear-lake-village-big-bear-lake"
            ],
            "longitude": "-118.4581274"
        },
        "lake arrowhead village": {
            "latitude": "34.25158015",
            "closest_to": "stockton",
            "address": "Lake Arrowhead Village, Lake Arrowhead, San Bernardino County, California, 92352, United States of America",
            "locType": "retail",
            "blogLinks": [
                "http://losangeles.cbslocal.com/top-lists/best-places-to-rent-a-cabin-in-the-woods-in-southern-california/"
            ],
            "longitude": "-117.189172517683"
        },
        "oxnard": {
            "latitude": "34.1976308",
            "closest_to": "stockton",
            "address": "Oxnard, Ventura County, California, United States of America",
            "locType": "city",
            "blogLinks": [
                "http://www.familyvacationcritic.com/california-family-vacations/rfv/"
            ],
            "longitude": "-119.1803817"
        },
        "fawnskin": {
            "latitude": "34.2680621",
            "closest_to": "stockton",
            "address": "Fawnskin, San Bernardino County, California, United States of America",
            "locType": "hamlet",
            "blogLinks": [
                "https://www.expedia.com/Big-Bear-Lake-Hotels.d6919.Travel-Guide-Hotels",
                "http://www.bigbearlake.net/about-big-bear/facts"
            ],
            "longitude": "-116.9425341"
        },
        "san francisco": {
            "latitude": "37.7792808",
            "closest_to": "stockton",
            "address": "SF, California, United States of America",
            "locType": "city",
            "blogLinks": [
                "http://www.livability.com/ca"
            ],
            "longitude": "-122.4192362"
        },
        "fox river": {
            "latitude": "39.7552532",
            "closest_to": "stockton",
            "address": "Fox Creek, Butte County, California, United States of America",
            "locType": "stream",
            "blogLinks": [
                "http://www.alaska.org/things-to-do/bear-watching"
            ],
            "longitude": "-121.3534802"
        },
        "idyllwild": {
            "latitude": "33.7400209",
            "closest_to": "big bear lake",
            "address": "Idyllwild, Riverside County, California, United States of America",
            "locType": "village",
            "blogLinks": [
                "http://losangeles.cbslocal.com/top-lists/best-places-to-rent-a-cabin-in-the-woods-in-southern-california/"
            ],
            "longitude": "-116.7189074"
        },
        "cache valley": {
            "latitude": "35.2135774",
            "closest_to": "stockton",
            "address": "Cache Creek, California City, Kern County, California, United States of America",
            "locType": "stream",
            "blogLinks": [
                "https://www.tripadvisor.com/ShowUserReviews-g56993-d107686-r118035783-Bear_Lake-Garden_City_Utah.html"
            ],
            "longitude": "-117.9537797"
        },
        "united states": {
            "latitude": "36.7014631",
            "closest_to": "stockton",
            "address": "California, United States of America",
            "locType": "administrative",
            "blogLinks": [
                "https://www.tripadvisor.com/Attraction_Review-g32074-d105409-Reviews-Big_Bear_Lake-Big_Bear_Region_California.html",
                "http://stocktonlake.com/"
            ],
            "longitude": "-118.7559973"
        },
        "pasadena": {
            "latitude": "34.1476452",
            "closest_to": "stockton",
            "address": "Pasadena, Los Angeles County, California, United States of America",
            "locType": "city",
            "blogLinks": [
                "http://www.tripleblaze.com/best/?c=8"
            ],
            "longitude": "-118.1444778"
        },
        "sequoia national park": {
            "latitude": "36.49584065",
            "closest_to": "stockton",
            "address": "Sequoia National Park, Black Rock Pass Trail, Mineral King, Tulare County, California, United States of America",
            "locType": "national_park",
            "blogLinks": [
                "http://www.familyvacationcritic.com/california-family-vacations/rfv/"
            ],
            "longitude": "-118.559919284386"
        },
        "cape horn": {
            "latitude": "39.1354565",
            "closest_to": "stockton",
            "address": "Cape Horn, Mendocino County, California, United States of America",
            "locType": "hamlet",
            "blogLinks": [
                "http://www.alaska.org/things-to-do/bear-watching"
            ],
            "longitude": "-123.6352912"
        },
        "donner lake rim": {
            "latitude": "39.349315",
            "closest_to": "stockton",
            "address": "Donner Lake Rim Trail, Donner, Nevada County, California, 95724, United States of America",
            "locType": "footway",
            "blogLinks": [
                "http://www.tripleblaze.com/best/?c=8"
            ],
            "longitude": "-120.3406539"
        },
        "tube park": {
            "latitude": "37.808959",
            "closest_to": "stockton",
            "address": "Transbay Tube (Bay Area Rapid Transit), 7th Street, Oakland, Alameda County, California, 94625, United States of America",
            "locType": "subway",
            "blogLinks": [
                "http://www.snowsummit.com/"
            ],
            "longitude": "-122.3409798"
        },
        "radford avenue studio city": {
            "latitude": "34.1447608",
            "closest_to": "stockton",
            "address": "Radford Avenue, Studio City, Valley Village, LA, Los Angeles County, California, 91604, United States of America",
            "locType": "residential",
            "blogLinks": [
                "http://losangeles.cbslocal.com/top-lists/best-places-to-rent-a-cabin-in-the-woods-in-southern-california/"
            ],
            "longitude": "-118.3925972"
        },
        "mediterranean": {
            "latitude": "33.7439509",
            "closest_to": "big bear lake",
            "address": "Mediterranean, Palm Desert, Riverside County, California, 92211, United States of America",
            "locType": "residential",
            "blogLinks": [
                "http://www.livability.com/ca"
            ],
            "longitude": "-116.3534838"
        },
        "wilshire blvd": {
            "latitude": "34.0617231",
            "closest_to": "stockton",
            "address": "Wilshire Boulevard, Koreatown, Saint James Park, LA, Los Angeles County, California, 90005, United States of America",
            "locType": "primary",
            "blogLinks": [
                "http://losangeles.cbslocal.com/top-lists/best-places-to-rent-a-cabin-in-the-woods-in-southern-california/"
            ],
            "longitude": "-118.3036614"
        },
        "beverly hills": {
            "latitude": "34.0736204",
            "closest_to": "stockton",
            "address": "Beverly Hills, Los Angeles County, California, United States of America",
            "locType": "city",
            "blogLinks": [
                "http://www.bigbearlake.net/about-big-bear/facts"
            ],
            "longitude": "-118.4003562"
        },
        "malibu": {
            "latitude": "33.7932142",
            "closest_to": "big bear lake",
            "address": "Malibu, Palm Springs, Riverside County, California, 92264, United States of America",
            "locType": "residential",
            "blogLinks": [
                "http://www.tripleblaze.com/best/?c=8"
            ],
            "longitude": "-116.5023561"
        },
        "bear mountain resort": {
            "latitude": "33.8127021",
            "closest_to": "stockton",
            "address": "The Many Adventures of Winnie the Pooh, West Service Road, Anaheim Resort District, Anaheim, Orange County, California, 217, United States of America",
            "locType": "attraction",
            "blogLinks": [
                "http://www.bigbearlake.net/about-big-bear/facts"
            ],
            "longitude": "-117.923182382511"
        },
        "north shore": {
            "latitude": "34.2680613",
            "closest_to": "stockton",
            "address": "North Shore, San Bernardino County, California, United States of America",
            "locType": "hamlet",
            "blogLinks": [
                "http://www.bigbearlake.net/about-big-bear/facts",
                "http://www.bigbearvacations.com/experience/things-to-do"
            ],
            "longitude": "-117.1842077"
        },
        "wolf creek resort": {
            "latitude": "33.7789302",
            "closest_to": "stockton",
            "address": "Great Wolf Lodge, Harbor Boulevard, Garden Grove, Orange County, California, 92840, United States of America",
            "locType": "hotel",
            "blogLinks": [
                "https://www.expedia.com/Big-Bear-Lake-Hotels.d6919.Travel-Guide-Hotels"
            ],
            "longitude": "-117.916002460128"
        },
        "big bear city": {
            "latitude": "34.267886",
            "closest_to": "big bear lake",
            "address": "Big Bear City, Anita Avenue, Big Bear City, San Bernardino County, California, 92314, United States of America",
            "locType": "administrative",
            "blogLinks": [
                "http://www.bigbearlake.net/about-big-bear/facts"
            ],
            "longitude": "-116.848597753191"
        },
        "wolverine creek": {
            "latitude": "37.656639",
            "closest_to": "stockton",
            "address": "Wolverine Court, Modesto, Stanislaus County, California, 95355, United States of America",
            "locType": "residential",
            "blogLinks": [
                "http://www.alaska.org/things-to-do/bear-watching"
            ],
            "longitude": "-120.9686729"
        },
        "africa": {
            "latitude": "37.8212626",
            "closest_to": "stockton",
            "address": "Africa Street, Lower Bottoms, Oakland, Alameda County, California, 94626, United States of America",
            "locType": "residential",
            "blogLinks": [
                "http://www.familyvacationcritic.com/california-family-vacations/rfv/"
            ],
            "longitude": "-122.3064005"
        },
        "meadow park": {
            "latitude": "35.26814845",
            "closest_to": "stockton",
            "address": "Meadow Park, Woodbridge Street, San Luis Obispo, San Luis Obispo County, California, 93401, United States of America",
            "locType": "park",
            "blogLinks": [
                "https://www.expedia.com/Big-Bear-Lake-Hotels.d6919.Travel-Guide-Hotels"
            ],
            "longitude": "-120.659276454814"
        },
        "palm springs": {
            "latitude": "33.8246269",
            "closest_to": "big bear lake",
            "address": "Palm Springs, Riverside County, California, United States of America",
            "locType": "city",
            "blogLinks": [
                "http://www.familyvacationcritic.com/california-family-vacations/rfv/"
            ],
            "longitude": "-116.5403029"
        },
        "san bernardino national forest": {
            "latitude": "34.18055525",
            "closest_to": "big bear lake",
            "address": "San Bernardino National Forest, Clark's Grade, Pinezanita, San Bernardino County, California, 92305, United States of America",
            "locType": "national_park",
            "blogLinks": [
                "http://www.bigbearlake.net/about-big-bear/facts"
            ],
            "longitude": "-116.968502795539"
        },
        "juneau": {
            "latitude": "34.1564182",
            "closest_to": "stockton",
            "address": "Juneau Place, Tarzana, LA, Los Angeles County, California, 91364, United States of America",
            "locType": "residential",
            "blogLinks": [
                "http://www.alaska.org/things-to-do/bear-watching"
            ],
            "longitude": "-118.5774242"
        },
        "stockton": {
            "latitude": "37.9577016",
            "closest_to": "stockton",
            "address": "Stockton, San Joaquin County, California, United States of America",
            "locType": "city",
            "blogLinks": [
                "https://576716.r.bat.bing.com/?ld=d3CVQ78y0BJeTnigumwLYFgjVUCUzEBwskMSf3B0k2FfB_hQf_Uk08A0CvLiuHQpJCYKAlcucecYRpbXn4UEmwV1AVK3C5Mk6e4PiZs5YriPZ_DgpaAlrcNN2GRMBGvQnDN4jT3mOaNwAPocLdWeEGO8iqa61_uT7BxagR6HwYAt-cbEpf&u=www.visitstockton.org"
            ],
            "longitude": "-121.2907795"
        },
        "hidden creek": {
            "latitude": "37.0336153",
            "closest_to": "stockton",
            "address": "Hidden Creek, Merced County, California, United States of America",
            "locType": "stream",
            "blogLinks": [
                "http://www.alaska.org/things-to-do/bear-watching"
            ],
            "longitude": "-121.1845631"
        }
    },
    "big bear lake": {
        "type": "water",
        "osm_id": "4045674",
        "class": "natural",
        "importance": 0.80624782713774,
        "lat": "34.253293",
        "licence": "Data \u00a9 OpenStreetMap contributors, ODbL 1.0. http://www.openstreetmap.org/copyright",
        "place_id": "159717820",
        "lon": "-116.932209587315",
        "boundingbox": [
            "34.2375569",
            "34.2689983",
            "-116.9775303",
            "-116.8663043"
        ],
        "display_name": "Big Bear Lake, Lagunita Lane, Big Bear Lake, San Bernardino County, California, 92315, United States of America",
        "osm_type": "relation"
    }
}