{
    "pasadena": {
        "type": "city",
        "osm_id": "3529725",
        "class": "place",
        "importance": 0.7778961552687,
        "lat": "34.1476452",
        "lon": "-118.1444778",
        "boundingbox": [
            "34.1172023",
            "34.251905",
            "-118.1981389",
            "-118.0654789"
        ],
        "display_name": "Pasadena, Los Angeles County, California, United States of America",
        "licence": "Data \u00a9 OpenStreetMap contributors, ODbL 1.0. http://www.openstreetmap.org/copyright",
        "icon": "https://nominatim.openstreetmap.org/images/mapicons/poi_place_city.p.20.png",
        "place_id": "159486921",
        "osm_type": "relation"
    },
    "mentions": {
        "pacific coast highway": {
            "latitude": "33.6595127",
            "closest_to": "pasadena",
            "address": "Pacific Coast Highway, Huntington Beach, Orange County, California, 92648, United States of America",
            "locType": "primary",
            "blogLinks": [
                "https://www.yelp.com/biz/pacific-coast-highway-carmel",
                "http://www.california-blog.com/"
            ],
            "longitude": "-118.0051687"
        },
        "furnace creek": {
            "latitude": "36.461604",
            "closest_to": "pasadena",
            "address": "Furnace Creek, Inyo County, California, United States of America",
            "locType": "village",
            "blogLinks": [
                "https://www.yelp.com/biz/death-valley-national-park-death-valley-3"
            ],
            "longitude": "-116.8662032"
        },
        "hawaii": {
            "latitude": "36.8347819",
            "closest_to": "pasadena",
            "address": "Hawaii, Fresno County, California, 93650, United States of America",
            "locType": "service",
            "blogLinks": [
                "https://www.yelp.com/biz/pacific-coast-highway-carmel"
            ],
            "longitude": "-119.7966952"
        },
        "palos verdes peninsula ca": {
            "latitude": "33.77984925",
            "closest_to": "pasadena",
            "address": "Palos Verdes Peninsula High School, Hawthorne Boulevard, Rolling Hills Estates, Los Angeles County, California, 90274, United States of America",
            "locType": "school",
            "blogLinks": [
                "http://www.california-blog.com/"
            ],
            "longitude": "-118.372196730215"
        },
        "national park": {
            "latitude": "37.7488554",
            "closest_to": "pasadena",
            "address": "Yosemite, Village Drive, Yosemite Village, Yosemite Valley, Mariposa County, California, United States of America",
            "locType": "attraction",
            "blogLinks": [
                "https://www.yelp.com/biz/death-valley-national-park-death-valley-3"
            ],
            "longitude": "-119.5893389"
        },
        "old town pasadena": {
            "latitude": "34.1863161",
            "closest_to": "pasadena",
            "address": "Altadena, Los Angeles County, California, United States of America",
            "locType": "town",
            "blogLinks": [
                "http://www.rent.com/california/south-pasadena-houses/1931-fremont-avenue-4-lv25539238"
            ],
            "longitude": "-118.1352328"
        },
        "yreka": {
            "latitude": "41.7326157",
            "closest_to": "fremont",
            "address": "Yreka, Siskiyou County, California, United States of America",
            "locType": "city",
            "blogLinks": [
                "https://www.yelp.com/biz/pacific-coast-highway-carmel"
            ],
            "longitude": "-122.6377654"
        },
        "vancouver": {
            "latitude": "34.824773",
            "closest_to": "pasadena",
            "address": "Vancouver, San Bernardino County, California, United States of America",
            "locType": "residential",
            "blogLinks": [
                "https://www.yelp.com/biz/pacific-coast-highway-carmel"
            ],
            "longitude": "-117.4634669"
        },
        "pismo beach": {
            "latitude": "35.1427533",
            "closest_to": "pasadena",
            "address": "Pismo Beach, San Luis Obispo County, California, United States of America",
            "locType": "city",
            "blogLinks": [
                "https://www.yelp.com/biz/pacific-coast-highway-carmel"
            ],
            "longitude": "-120.6412826"
        },
        "huntington beach": {
            "latitude": "33.6783336",
            "closest_to": "pasadena",
            "address": "Huntington Beach, Orange County, California, United States of America",
            "locType": "city",
            "blogLinks": [
                "https://www.yelp.com/biz/pacific-coast-highway-carmel"
            ],
            "longitude": "-118.0000165"
        },
        "santa cruz": {
            "latitude": "36.9735903",
            "closest_to": "pasadena",
            "address": "Santa Cruz, Santa Cruz County, California, United States of America",
            "locType": "city",
            "blogLinks": [
                "https://www.yelp.com/biz/pacific-coast-highway-carmel"
            ],
            "longitude": "-122.0260569"
        },
        "long beach": {
            "latitude": "33.78538945",
            "closest_to": "pasadena",
            "address": "Long Beach, Los Angeles County, California, United States of America",
            "locType": "city",
            "blogLinks": [
                "https://www.yelp.com/biz/pacific-coast-highway-carmel"
            ],
            "longitude": "-118.158049215311"
        },
        "mission bay ca": {
            "latitude": "37.7707742",
            "closest_to": "fremont",
            "address": "Mission Bay, SF, California, 94158, United States of America",
            "locType": "neighbourhood",
            "blogLinks": [
                "http://www.california-blog.com/"
            ],
            "longitude": "-122.3911711"
        },
        "us": {
            "latitude": "36.7014631",
            "closest_to": "pasadena",
            "address": "California, United States of America",
            "locType": "administrative",
            "blogLinks": [
                "https://www.yelp.com/biz/pacific-coast-highway-carmel",
                "http://distancecalculator.globefeed.com/US_Distance_Calculator.asp?state=CA",
                "http://www.rent.com/california/south-pasadena-houses/1931-fremont-avenue-4-lv25539238"
            ],
            "longitude": "-118.7559973"
        },
        "bixby bridge": {
            "latitude": "36.3710197",
            "closest_to": "pasadena",
            "address": "Bixby Creek Bridge, Notleys Landing, Monterey County, California, 93923, United States of America",
            "locType": "primary",
            "blogLinks": [
                "https://www.yelp.com/biz/pacific-coast-highway-carmel"
            ],
            "longitude": "-121.9017572"
        },
        "moreno valley ca": {
            "latitude": "33.937517",
            "closest_to": "pasadena",
            "address": "Moreno Valley, Riverside County, California, United States of America",
            "locType": "city",
            "blogLinks": [
                "http://www.california-blog.com/"
            ],
            "longitude": "-117.2305943"
        },
        "grand canyon": {
            "latitude": "33.9332326",
            "closest_to": "pasadena",
            "address": "Grand Canyon, Downtown Brea, Brea, Orange County, California, 92821, United States of America",
            "locType": "residential",
            "blogLinks": [
                "https://www.yelp.com/biz/death-valley-national-park-death-valley-3"
            ],
            "longitude": "-117.8915409"
        },
        "utah": {
            "latitude": "37.413408",
            "closest_to": "pasadena",
            "address": "Utah, Rovana, Inyo County, California, United States of America",
            "locType": "residential",
            "blogLinks": [
                "https://www.yelp.com/biz/death-valley-national-park-death-valley-3"
            ],
            "longitude": "-118.6125359"
        },
        "santa monica": {
            "latitude": "34.0195598",
            "closest_to": "pasadena",
            "address": "Santa Monica, Los Angeles County, California, United States of America",
            "locType": "city",
            "blogLinks": [
                "https://www.yelp.com/biz/pacific-coast-highway-carmel"
            ],
            "longitude": "-118.4869738"
        },
        "pacific coast": {
            "latitude": "33.8047323",
            "closest_to": "pasadena",
            "address": "Pacific Coast, Florista Street, Los Alamitos, Orange County, California, 90720, United States of America",
            "locType": "yes",
            "blogLinks": [
                "https://www.yelp.com/biz/pacific-coast-highway-carmel"
            ],
            "longitude": "-118.063517668143"
        },
        "seattle": {
            "latitude": "41.9641881",
            "closest_to": "fremont",
            "address": "Seattle, Dorris, Siskiyou County, California, 96023, United States of America",
            "locType": "residential",
            "blogLinks": [
                "http://fremont.com/",
                "https://www.yelp.com/biz/death-valley-national-park-death-valley-3"
            ],
            "longitude": "-121.9226289"
        },
        "yellowstone": {
            "latitude": "34.0671665",
            "closest_to": "pasadena",
            "address": "Yellowstone Street, University Hills, Boyle Heights, LA, Los Angeles County, California, 90032-3813, United States of America",
            "locType": "residential",
            "blogLinks": [
                "https://www.yelp.com/biz/death-valley-national-park-death-valley-3"
            ],
            "longitude": "-118.1827535"
        },
        "la jolla": {
            "latitude": "32.8472711",
            "closest_to": "pasadena",
            "address": "La Jolla, San Diego, San Diego County, California, United States of America",
            "locType": "suburb",
            "blogLinks": [
                "https://www.yelp.com/biz/pacific-coast-highway-carmel"
            ],
            "longitude": "-117.2742085"
        },
        "oregon": {
            "latitude": "33.7123207",
            "closest_to": "pasadena",
            "address": "Oregon, Walnut, Irvine, Orange County, California, 92606, United States of America",
            "locType": "residential",
            "blogLinks": [
                "https://www.yelp.com/biz/pacific-coast-highway-carmel"
            ],
            "longitude": "-117.7911567"
        },
        "death valley national park": {
            "latitude": "36.4914385",
            "closest_to": "pasadena",
            "address": "Death Valley National Park, Lucky Wash Road, Skidoo, Inyo County, California, United States of America",
            "locType": "national_park",
            "blogLinks": [
                "https://www.yelp.com/biz/death-valley-national-park-death-valley-3"
            ],
            "longitude": "-117.102293507719"
        },
        "encinitas": {
            "latitude": "33.0369867",
            "closest_to": "pasadena",
            "address": "Encinitas, San Diego County, California, United States of America",
            "locType": "city",
            "blogLinks": [
                "https://www.yelp.com/biz/pacific-coast-highway-carmel"
            ],
            "longitude": "-117.2919817"
        },
        "southern california": {
            "latitude": "34.0224149",
            "closest_to": "pasadena",
            "address": "University of Southern California, Watt Way, Saint James Park, LA, Los Angeles County, California, 90089, United States of America",
            "locType": "university",
            "blogLinks": [
                "https://www.yelp.com/biz/pacific-coast-highway-carmel"
            ],
            "longitude": "-118.286343973446"
        },
        "mono lake ca": {
            "latitude": "38.0077189",
            "closest_to": "pasadena",
            "address": "Mono Lake, Mono County, California, United States of America",
            "locType": "water",
            "blogLinks": [
                "http://www.california-blog.com/"
            ],
            "longitude": "-118.967033937845"
        },
        "newport beach": {
            "latitude": "33.6170092",
            "closest_to": "pasadena",
            "address": "Newport Beach, Orange County, California, United States of America",
            "locType": "city",
            "blogLinks": [
                "https://www.yelp.com/biz/pacific-coast-highway-carmel"
            ],
            "longitude": "-117.92944"
        },
        "old town san diego": {
            "latitude": "32.7542167",
            "closest_to": "pasadena",
            "address": "Old Town San Diego, San Diego County, California, United States of America",
            "locType": "hamlet",
            "blogLinks": [
                "http://www.california-blog.com/"
            ],
            "longitude": "-117.1969792"
        },
        "santa barbara": {
            "latitude": "34.4221319",
            "closest_to": "pasadena",
            "address": "Santa Barbara, Santa Barbara County, California, United States of America",
            "locType": "city",
            "blogLinks": [
                "https://www.yelp.com/biz/pacific-coast-highway-carmel"
            ],
            "longitude": "-119.7026672"
        },
        "sea level": {
            "latitude": "36.9727926",
            "closest_to": "pasadena",
            "address": "Sea Level, Stockton Avenue, Capitola, Santa Cruz County, California, 95010, United States of America",
            "locType": "clothes",
            "blogLinks": [
                "https://www.yelp.com/biz/death-valley-national-park-death-valley-3"
            ],
            "longitude": "-121.9522014"
        },
        "chilnualna falls": {
            "latitude": "37.5486657",
            "closest_to": "pasadena",
            "address": "North Chilnualna Falls Road, North Wawona, Mariposa County, California, 95389, United States of America",
            "locType": "residential",
            "blogLinks": [
                "http://www.tripleblaze.com/best/?c=8"
            ],
            "longitude": "-119.633114"
        },
        "san luis obispo": {
            "latitude": "35.2827525",
            "closest_to": "pasadena",
            "address": "San Luis Obispo, San Luis Obispo County, California, United States of America",
            "locType": "city",
            "blogLinks": [
                "https://www.yelp.com/biz/pacific-coast-highway-carmel"
            ],
            "longitude": "-120.6596155"
        },
        "owens valley": {
            "latitude": "36.61562975",
            "closest_to": "pasadena",
            "address": "Owens Valley, Lone Pine, Inyo County, California, 93545, United States of America",
            "locType": "desert",
            "blogLinks": [
                "https://www.yelp.com/biz/death-valley-national-park-death-valley-3"
            ],
            "longitude": "-118.109577818995"
        },
        "' death valley": {
            "latitude": "36.42404725",
            "closest_to": "pasadena",
            "address": "Death Valley, Timbisha, Inyo County, California, 92328, United States of America",
            "locType": "desert",
            "blogLinks": [
                "https://www.yelp.com/biz/death-valley-national-park-death-valley-3"
            ],
            "longitude": "-116.914043572057"
        },
        "monterrey": {
            "latitude": "32.5492861",
            "closest_to": "pasadena",
            "address": "Monterrey, Mexicali, Baja California, M\u00e9xico",
            "locType": "village",
            "blogLinks": [
                "https://www.yelp.com/biz/pacific-coast-highway-carmel"
            ],
            "longitude": "-115.0704122"
        },
        "las vegas": {
            "latitude": "36.17310935",
            "closest_to": "pasadena",
            "address": "California Hotel, Sky Walk(Connection from Main Street to California, Cultural Corridor, Vegas Heights, Las Vegas, Clark County, Nevada, 89101, United States of America",
            "locType": "hotel",
            "blogLinks": [
                "http://www.timeanddate.com/worldclock/distances.html?n=127",
                "https://www.distancecalculator.net/from-pasadena-2-to-fremont",
                "https://www.yelp.com/biz/pacific-coast-highway-carmel",
                "https://www.yelp.com/biz/death-valley-national-park-death-valley-3"
            ],
            "longitude": "-115.144667930325"
        },
        "aliso creek": {
            "latitude": "33.602558",
            "closest_to": "pasadena",
            "address": "Aliso Creek, Laguna Woods, Orange County, California, United States of America",
            "locType": "stream",
            "blogLinks": [
                "http://www.tripleblaze.com/best/?c=8"
            ],
            "longitude": "-117.7034805"
        },
        "mount baldy ca": {
            "latitude": "34.2361168",
            "closest_to": "pasadena",
            "address": "Mount Baldy, Los Angeles County, California, United States of America",
            "locType": "hamlet",
            "blogLinks": [
                "http://www.california-blog.com/"
            ],
            "longitude": "-117.6600552"
        },
        "san clemente": {
            "latitude": "33.4270275",
            "closest_to": "pasadena",
            "address": "San Clemente, Orange County, California, United States of America",
            "locType": "city",
            "blogLinks": [
                "https://www.yelp.com/biz/pacific-coast-highway-carmel"
            ],
            "longitude": "-117.6124178"
        },
        "mount palomar ca": {
            "latitude": "33.1278146",
            "closest_to": "pasadena",
            "address": "California Bank & Trust, 2501, Palomar Airport Road, Carlsbad, San Diego County, California, 92011, United States of America",
            "locType": "bank",
            "blogLinks": [
                "http://www.california-blog.com/"
            ],
            "longitude": "-117.270809764613"
        },
        "balboa island": {
            "latitude": "33.6064778",
            "closest_to": "pasadena",
            "address": "Balboa Island, Newport Beach, Orange County, California, United States of America",
            "locType": "suburb",
            "blogLinks": [
                "https://www.yelp.com/biz/pacific-coast-highway-carmel"
            ],
            "longitude": "-117.8920818"
        },
        "half moon bay": {
            "latitude": "37.4635519",
            "closest_to": "fremont",
            "address": "Half Moon Bay, San Mateo County, California, United States of America",
            "locType": "city",
            "blogLinks": [
                "https://www.yelp.com/biz/pacific-coast-highway-carmel"
            ],
            "longitude": "-122.4285861"
        },
        "napa": {
            "latitude": "38.2971367",
            "closest_to": "fremont",
            "address": "Napa, Napa County, California, United States of America",
            "locType": "city",
            "blogLinks": [
                "https://www.yelp.com/biz/pacific-coast-highway-carmel"
            ],
            "longitude": "-122.2855292"
        },
        "creek": {
            "latitude": "39.3751013",
            "closest_to": "fremont",
            "address": "Creek, Mendocino County, California, United States of America",
            "locType": "stream",
            "blogLinks": [
                "http://www.tripleblaze.com/best/?c=8"
            ],
            "longitude": "-123.0482197"
        },
        "badwater basin": {
            "latitude": "36.2302592",
            "closest_to": "pasadena",
            "address": "Badwater Basin, Badwater Road, Inyo County, California, United States of America",
            "locType": "water",
            "blogLinks": [
                "https://www.yelp.com/biz/death-valley-national-park-death-valley-3"
            ],
            "longitude": "-116.767444033304"
        },
        "riverside national cemetery": {
            "latitude": "33.87692125",
            "closest_to": "pasadena",
            "address": "Riverside National Cemetery, 22495, Alessandro, Riverside County, California, 92518, United States of America",
            "locType": "cemetery",
            "blogLinks": [
                "http://www.california-blog.com/"
            ],
            "longitude": "-117.270726607134"
        },
        "santa clarita": {
            "latitude": "34.3916641",
            "closest_to": "pasadena",
            "address": "Santa Clarita, Los Angeles County, California, United States of America",
            "locType": "city",
            "blogLinks": [
                "https://www.yelp.com/biz/death-valley-national-park-death-valley-3"
            ],
            "longitude": "-118.5425859"
        },
        "morongo valley": {
            "latitude": "34.0537585",
            "closest_to": "pasadena",
            "address": "Morongo Valley, Vista Drive, Morongo Valley, San Bernardino County, California, 92256, United States of America",
            "locType": "administrative",
            "blogLinks": [
                "http://www.california-blog.com/"
            ],
            "longitude": "-116.596723958419"
        },
        "morro rock ca": {
            "latitude": "35.369669",
            "closest_to": "pasadena",
            "address": "Morro Rock, Morro Bay, San Luis Obispo County, California, United States of America",
            "locType": "peak",
            "blogLinks": [
                "http://www.california-blog.com/"
            ],
            "longitude": "-120.8676993"
        },
        "solana beach": {
            "latitude": "32.9905597",
            "closest_to": "pasadena",
            "address": "Solana Beach, San Diego County, California, United States of America",
            "locType": "city",
            "blogLinks": [
                "https://www.yelp.com/biz/pacific-coast-highway-carmel"
            ],
            "longitude": "-117.2691315"
        },
        "tillamook": {
            "latitude": "32.728329",
            "closest_to": "pasadena",
            "address": "Tillamook Bay Drive, San Diego, San Diego County, California, 92114, United States of America",
            "locType": "residential",
            "blogLinks": [
                "https://www.yelp.com/biz/pacific-coast-highway-carmel"
            ],
            "longitude": "-117.0726319"
        },
        "morro bay ca": {
            "latitude": "35.3658075",
            "closest_to": "pasadena",
            "address": "Morro Bay, San Luis Obispo County, California, United States of America",
            "locType": "city",
            "blogLinks": [
                "http://www.california-blog.com/"
            ],
            "longitude": "-120.8499012"
        },
        "monterey peninsula ca": {
            "latitude": "36.5878734",
            "closest_to": "pasadena",
            "address": "Monterey Regional Airport, Airport Road, Seaside, Del Monte Heights, Monterey County, California, 93940, United States of America",
            "locType": "aerodrome",
            "blogLinks": [
                "http://www.california-blog.com/"
            ],
            "longitude": "-121.843618374407"
        },
        "lone cypress": {
            "latitude": "36.5687376",
            "closest_to": "pasadena",
            "address": "The Lone Cypress, 17 Mile Drive, Del Monte Forest, Monterey County, California, 93953, United States of America",
            "locType": "tree",
            "blogLinks": [
                "https://www.yelp.com/biz/pacific-coast-highway-carmel"
            ],
            "longitude": "-121.9652341"
        },
        "redondo beach": {
            "latitude": "33.8455911",
            "closest_to": "pasadena",
            "address": "Redondo Beach, Los Angeles County, California, United States of America",
            "locType": "city",
            "blogLinks": [
                "https://www.yelp.com/biz/pacific-coast-highway-carmel"
            ],
            "longitude": "-118.3886765"
        },
        "sky park": {
            "latitude": "37.05149985",
            "closest_to": "pasadena",
            "address": "Sky Park, Skypark Drive, Scotts Valley, Santa Cruz County, California, 95066-4024, United States of America",
            "locType": "park",
            "blogLinks": [
                "https://www.yelp.com/biz/death-valley-national-park-death-valley-3"
            ],
            "longitude": "-122.031911577232"
        },
        "pacific crest trail": {
            "latitude": "38.69418",
            "closest_to": "fremont",
            "address": "Pacific Crest Trail, Pleasant Valley, El Dorado County, California, 95667, United States of America",
            "locType": "residential",
            "blogLinks": [
                "http://www.tripleblaze.com/best/?c=8"
            ],
            "longitude": "-120.6375709"
        },
        "furnace creek resort": {
            "latitude": "36.45632275",
            "closest_to": "pasadena",
            "address": "Furnace Creek Resort, Furnace Creek Ranch Resort, Furnace Creek, Inyo County, California, United States of America",
            "locType": "yes",
            "blogLinks": [
                "https://www.yelp.com/biz/death-valley-national-park-death-valley-3"
            ],
            "longitude": "-116.865886021076"
        },
        "mount san gorgonio ca": {
            "latitude": "33.9121294",
            "closest_to": "pasadena",
            "address": "San Gorgonio Avenue, Banning, Riverside County, California, 92220, United States of America",
            "locType": "secondary",
            "blogLinks": [
                "http://www.california-blog.com/"
            ],
            "longitude": "-116.8766731"
        },
        "monrovia": {
            "latitude": "34.1483499",
            "closest_to": "pasadena",
            "address": "Monrovia, Los Angeles County, California, United States of America",
            "locType": "city",
            "blogLinks": [
                "http://www.california-blog.com/"
            ],
            "longitude": "-118.0014516"
        },
        "newport beach ca": {
            "latitude": "33.6170092",
            "closest_to": "pasadena",
            "address": "Newport Beach, Orange County, California, United States of America",
            "locType": "city",
            "blogLinks": [
                "http://www.california-blog.com/"
            ],
            "longitude": "-117.92944"
        },
        "la": {
            "latitude": "36.7014631",
            "closest_to": "pasadena",
            "address": "California, United States of America",
            "locType": "administrative",
            "blogLinks": [
                "https://www.yelp.com/biz/pacific-coast-highway-carmel"
            ],
            "longitude": "-118.7559973"
        },
        "santa monica beach": {
            "latitude": "34.159111",
            "closest_to": "pasadena",
            "address": "Santa Monica Drive, Channel Islands Beach, Ventura County, California, 93035, United States of America",
            "locType": "residential",
            "blogLinks": [
                "https://www.yelp.com/biz/pacific-coast-highway-carmel"
            ],
            "longitude": "-119.2203179"
        },
        "whittier hills whittier": {
            "latitude": "33.9397495",
            "closest_to": "pasadena",
            "address": "Whittwood Branch Whittier Public Library, Starbuck Street, Friendly Hills, Whittier, Los Angeles County, California, 90603, United States of America",
            "locType": "library",
            "blogLinks": [
                "http://www.tripleblaze.com/best/?c=8"
            ],
            "longitude": "-117.993545449378"
        },
        "south pasadena": {
            "latitude": "34.1133062",
            "closest_to": "pasadena",
            "address": "South Pasadena, Los Angeles County, California, United States of America",
            "locType": "administrative",
            "blogLinks": [
                "http://www.rent.com/california/south-pasadena-houses/1931-fremont-avenue-4-lv25539238"
            ],
            "longitude": "-118.147829"
        },
        "palm springs air museum ca": {
            "latitude": "33.83250375",
            "closest_to": "pasadena",
            "address": "Palm Springs Air Museum, 745, North Gene Autry Trail, Palm Springs, Riverside County, California, 92262, United States of America",
            "locType": "museum",
            "blogLinks": [
                "http://www.california-blog.com/"
            ],
            "longitude": "-116.504677958796"
        },
        "badwater": {
            "latitude": "36.2296742",
            "closest_to": "pasadena",
            "address": "Badwater, Inyo County, California, United States of America",
            "locType": "locality",
            "blogLinks": [
                "https://www.yelp.com/biz/death-valley-national-park-death-valley-3"
            ],
            "longitude": "-116.7669938"
        },
        "death valley": {
            "latitude": "36.42404725",
            "closest_to": "pasadena",
            "address": "Death Valley, Timbisha, Inyo County, California, 92328, United States of America",
            "locType": "desert",
            "blogLinks": [
                "https://www.yelp.com/biz/death-valley-national-park-death-valley-3"
            ],
            "longitude": "-116.914043572057"
        },
        "mount san jacinto ca": {
            "latitude": "33.7839084",
            "closest_to": "pasadena",
            "address": "San Jacinto, Riverside County, California, United States of America",
            "locType": "city",
            "blogLinks": [
                "http://www.california-blog.com/"
            ],
            "longitude": "-116.9586349"
        },
        "furnace creek inn": {
            "latitude": "36.4505742",
            "closest_to": "pasadena",
            "address": "Furnace Creek Inn and Ranch Resort, Highway 190, Furnace Creek, Inyo County, California, United States of America",
            "locType": "hotel",
            "blogLinks": [
                "https://www.yelp.com/biz/death-valley-national-park-death-valley-3"
            ],
            "longitude": "-116.852367316651"
        },
        "pebble beach ca": {
            "latitude": "36.5664874",
            "closest_to": "pasadena",
            "address": "Pebble Beach, Monterey County, California, United States of America",
            "locType": "hamlet",
            "blogLinks": [
                "http://www.california-blog.com/"
            ],
            "longitude": "-121.9466112"
        },
        "ocean beach": {
            "latitude": "32.7477784",
            "closest_to": "pasadena",
            "address": "Ocean Beach, San Diego, San Diego County, California, United States of America",
            "locType": "region",
            "blogLinks": [
                "https://www.yelp.com/biz/pacific-coast-highway-carmel"
            ],
            "longitude": "-117.249321"
        },
        "ojai valley": {
            "latitude": "34.4480495",
            "closest_to": "pasadena",
            "address": "Ojai, Ventura County, California, United States of America",
            "locType": "city",
            "blogLinks": [
                "http://www.california-blog.com/"
            ],
            "longitude": "-119.2428889"
        },
        "oceanside": {
            "latitude": "33.1958696",
            "closest_to": "pasadena",
            "address": "Oceanside, San Diego County, California, United States of America",
            "locType": "city",
            "blogLinks": [
                "https://www.yelp.com/biz/pacific-coast-highway-carmel"
            ],
            "longitude": "-117.3794833"
        },
        "tijuana": {
            "latitude": "32.5008626",
            "closest_to": "pasadena",
            "address": "Tijuana, Baja California, M\u00e9xico",
            "locType": "city",
            "blogLinks": [
                "https://www.yelp.com/biz/pacific-coast-highway-carmel"
            ],
            "longitude": "-116.9641656"
        },
        "canada": {
            "latitude": "33.7298842",
            "closest_to": "pasadena",
            "address": "La Canada, Lower Peters Canyon, Irvine, Orange County, California, 92602, United States of America",
            "locType": "residential",
            "blogLinks": [
                "https://www.yelp.com/biz/pacific-coast-highway-carmel"
            ],
            "longitude": "-117.7641381"
        },
        "santa maria": {
            "latitude": "34.9531295",
            "closest_to": "pasadena",
            "address": "Santa Maria, Santa Barbara County, California, United States of America",
            "locType": "city",
            "blogLinks": [
                "https://www.yelp.com/biz/pacific-coast-highway-carmel"
            ],
            "longitude": "-120.4358576"
        },
        "fremont": {
            "latitude": "37.5482697",
            "closest_to": "pasadena",
            "address": "Fremont, Alameda County, California, United States of America",
            "locType": "city",
            "blogLinks": [
                "https://www.distancecalculator.net/from-pasadena-2-to-fremont",
                "http://fremont.com/",
                "http://distancecalculator.globefeed.com/US_Distance_Calculator.asp?state=CA",
                "http://www.roadsideamerica.com/location/ne"
            ],
            "longitude": "-121.9885718"
        },
        "orange county": {
            "latitude": "33.7500378",
            "closest_to": "pasadena",
            "address": "Orange County, California, United States of America",
            "locType": "administrative",
            "blogLinks": [
                "https://www.yelp.com/biz/pacific-coast-highway-carmel"
            ],
            "longitude": "-117.870493"
        },
        "old encinitas": {
            "latitude": "33.0369867",
            "closest_to": "pasadena",
            "address": "Encinitas, San Diego County, California, United States of America",
            "locType": "city",
            "blogLinks": [
                "https://www.yelp.com/biz/pacific-coast-highway-carmel"
            ],
            "longitude": "-117.2919817"
        },
        "monterey": {
            "latitude": "36.5844165",
            "closest_to": "pasadena",
            "address": "Monterey, Monterey County, California, United States of America",
            "locType": "city",
            "blogLinks": [
                "https://www.yelp.com/biz/pacific-coast-highway-carmel",
                "https://www.tripadvisor.com/Attractions-g32859-Activities-Pasadena_California.html"
            ],
            "longitude": "-121.866792846206"
        },
        "north lake ca": {
            "latitude": "37.76958295",
            "closest_to": "fremont",
            "address": "North Lake, Chain of Lakes Drive East, Sunset District, SF, California, 94122, United States of America",
            "locType": "water",
            "blogLinks": [
                "http://www.california-blog.com/"
            ],
            "longitude": "-122.501983281136"
        },
        "sahara": {
            "latitude": "33.8840955",
            "closest_to": "pasadena",
            "address": "Sahara, Palm Springs, Riverside County, California, 92282, United States of America",
            "locType": "service",
            "blogLinks": [
                "https://www.yelp.com/biz/death-valley-national-park-death-valley-3"
            ],
            "longitude": "-116.6072588"
        },
        "laguna beach": {
            "latitude": "33.5420888",
            "closest_to": "pasadena",
            "address": "Laguna Beach, Orange County, California, United States of America",
            "locType": "city",
            "blogLinks": [
                "https://www.yelp.com/biz/pacific-coast-highway-carmel"
            ],
            "longitude": "-117.7834146"
        },
        "jupiter": {
            "latitude": "38.122421",
            "closest_to": "pasadena",
            "address": "Jupiter, Tuolumne County, California, United States of America",
            "locType": "hamlet",
            "blogLinks": [
                "https://www.yelp.com/biz/death-valley-national-park-death-valley-3"
            ],
            "longitude": "-120.2826922"
        },
        "san diego": {
            "latitude": "32.7174209",
            "closest_to": "pasadena",
            "address": "San Diego, San Diego County, California, United States of America",
            "locType": "city",
            "blogLinks": [
                "https://www.yelp.com/biz/pacific-coast-highway-carmel",
                "http://www.tripleblaze.com/best/?c=8",
                "https://www.yelp.com/biz/death-valley-national-park-death-valley-3"
            ],
            "longitude": "-117.1627713"
        },
        "cambria": {
            "latitude": "35.5641381",
            "closest_to": "pasadena",
            "address": "Cambria, San Luis Obispo County, California, United States of America",
            "locType": "administrative",
            "blogLinks": [
                "https://www.yelp.com/biz/pacific-coast-highway-carmel"
            ],
            "longitude": "-121.0807467"
        },
        "golden canyon": {
            "latitude": "34.2743666",
            "closest_to": "pasadena",
            "address": "Golden Canyon Circle, Chatsworth, LA, Los Angeles County, California, 91311, United States of America",
            "locType": "living_street",
            "blogLinks": [
                "https://www.yelp.com/biz/death-valley-national-park-death-valley-3"
            ],
            "longitude": "-118.613919"
        },
        "carlsbad": {
            "latitude": "33.1580933",
            "closest_to": "pasadena",
            "address": "Carlsbad, San Diego County, California, United States of America",
            "locType": "city",
            "blogLinks": [
                "https://www.yelp.com/biz/pacific-coast-highway-carmel"
            ],
            "longitude": "-117.3505938"
        },
        "whistler": {
            "latitude": "34.3090058",
            "closest_to": "pasadena",
            "address": "Whistler Avenue, LA, Los Angeles County, California, 91344, United States of America",
            "locType": "residential",
            "blogLinks": [
                "https://www.yelp.com/biz/pacific-coast-highway-carmel"
            ],
            "longitude": "-118.5053852"
        },
        "lake": {
            "latitude": "39.0505411",
            "closest_to": "fremont",
            "address": "Lake County, California, United States of America",
            "locType": "administrative",
            "blogLinks": [
                "http://www.rent.com/california/south-pasadena-houses/1931-fremont-avenue-4-lv25539238"
            ],
            "longitude": "-122.7776555"
        },
        "eaton canyon park": {
            "latitude": "34.18216575",
            "closest_to": "pasadena",
            "address": "Eaton Canyon Park, Canyon View Lane, Pasadena, Los Angeles County, California, 91107, United States of America",
            "locType": "park",
            "blogLinks": [
                "http://www.tripleblaze.com/best/?c=8"
            ],
            "longitude": "-118.095556461784"
        },
        "ridgecrest": {
            "latitude": "35.6225064",
            "closest_to": "pasadena",
            "address": "Ridgecrest, Kern County, California, United States of America",
            "locType": "city",
            "blogLinks": [
                "https://www.yelp.com/biz/death-valley-national-park-death-valley-3"
            ],
            "longitude": "-117.6699413"
        },
        "napa valley ca": {
            "latitude": "38.2972603",
            "closest_to": "fremont",
            "address": "California Boulevard, Napa, Napa County, California, 94558, United States of America",
            "locType": "secondary",
            "blogLinks": [
                "http://www.california-blog.com/"
            ],
            "longitude": "-122.3002947"
        },
        "ontario": {
            "latitude": "34.065846",
            "closest_to": "pasadena",
            "address": "Ontario, San Bernardino County, California, United States of America",
            "locType": "city",
            "blogLinks": [
                "http://www.california-blog.com/"
            ],
            "longitude": "-117.6484303"
        },
        "austin": {
            "latitude": "37.242444",
            "closest_to": "pasadena",
            "address": "Austin, Santa Clara County, California, United States of America",
            "locType": "hamlet",
            "blogLinks": [
                "https://www.yelp.com/biz/death-valley-national-park-death-valley-3"
            ],
            "longitude": "-121.9982913"
        },
        "seal beach": {
            "latitude": "33.741176",
            "closest_to": "pasadena",
            "address": "Seal Beach, Orange County, California, United States of America",
            "locType": "city",
            "blogLinks": [
                "https://www.yelp.com/biz/pacific-coast-highway-carmel"
            ],
            "longitude": "-118.1046355"
        },
        "pacific ocean": {
            "latitude": "36.16305775",
            "closest_to": "pasadena",
            "address": "Pacific Ocean, Cabrillo Highway, Monterey County, California, 93920, United States of America",
            "locType": "cliff",
            "blogLinks": [
                "https://www.yelp.com/biz/pacific-coast-highway-carmel"
            ],
            "longitude": "-121.678715787326"
        },
        "nebraska": {
            "latitude": "33.7133039",
            "closest_to": "pasadena",
            "address": "Nebraska, Walnut, Irvine, Orange County, California, 92606, United States of America",
            "locType": "residential",
            "blogLinks": [
                "https://en.wikipedia.org/wiki/National_Register_of_Historic_Places_listings_in_California"
            ],
            "longitude": "-117.787062"
        },
        "san francisco": {
            "latitude": "37.7792808",
            "closest_to": "fremont",
            "address": "SF, California, United States of America",
            "locType": "city",
            "blogLinks": [
                "https://www.yelp.com/biz/pacific-coast-highway-carmel"
            ],
            "longitude": "-122.4192362"
        },
        "big sur": {
            "latitude": "36.270241",
            "closest_to": "pasadena",
            "address": "Big Sur, Monterey County, California, United States of America",
            "locType": "village",
            "blogLinks": [
                "https://www.yelp.com/biz/pacific-coast-highway-carmel"
            ],
            "longitude": "-121.8074544"
        },
        "sacramento": {
            "latitude": "38.5815719",
            "closest_to": "fremont",
            "address": "Sacramento, Sacramento County, California, United States of America",
            "locType": "city",
            "blogLinks": [
                "https://www.yelp.com/biz/pacific-coast-highway-carmel"
            ],
            "longitude": "-121.4943995"
        },
        "torrey pines road": {
            "latitude": "32.8491824",
            "closest_to": "pasadena",
            "address": "Torrey Pines Road, La Jolla, San Diego, San Diego County, California, 92037, United States of America",
            "locType": "secondary",
            "blogLinks": [
                "https://www.yelp.com/biz/pacific-coast-highway-carmel"
            ],
            "longitude": "-117.2620194"
        },
        "bay area": {
            "latitude": "37.7884969",
            "closest_to": "fremont",
            "address": "San Francisco Bay Area, SF, California, United States of America",
            "locType": "region",
            "blogLinks": [
                "https://www.yelp.com/biz/pacific-coast-highway-carmel"
            ],
            "longitude": "-122.3558472"
        },
        "united states": {
            "latitude": "36.7014631",
            "closest_to": "pasadena",
            "address": "California, United States of America",
            "locType": "administrative",
            "blogLinks": [
                "https://www.distancecalculator.net/from-pasadena-2-to-fremont",
                "https://www.tripadvisor.com/Attractions-g32859-Activities-Pasadena_California.html",
                "https://www.yelp.com/biz/death-valley-national-park-death-valley-3"
            ],
            "longitude": "-118.7559973"
        },
        "pasadena": {
            "latitude": "34.1476452",
            "closest_to": "pasadena",
            "address": "Pasadena, Los Angeles County, California, United States of America",
            "locType": "city",
            "blogLinks": [
                "https://www.distancecalculator.net/from-pasadena-2-to-fremont",
                "http://www.tripleblaze.com/best/?c=8",
                "http://www.rent.com/california/south-pasadena-houses/1931-fremont-avenue-4-lv25539238"
            ],
            "longitude": "-118.1444778"
        },
        "san simeon": {
            "latitude": "35.6438587",
            "closest_to": "pasadena",
            "address": "San Simeon, San Luis Obispo County, California, United States of America",
            "locType": "hamlet",
            "blogLinks": [
                "https://www.yelp.com/biz/pacific-coast-highway-carmel"
            ],
            "longitude": "-121.1907532"
        },
        "zabriskie point": {
            "latitude": "36.4200275",
            "closest_to": "pasadena",
            "address": "Zabriskie Point, Zabriskie Point Trail, Inyo County, California, United States of America",
            "locType": "viewpoint",
            "blogLinks": [
                "https://www.yelp.com/biz/death-valley-national-park-death-valley-3"
            ],
            "longitude": "-116.8122757"
        },
        "donner lake rim": {
            "latitude": "39.349315",
            "closest_to": "fremont",
            "address": "Donner Lake Rim Trail, Donner, Nevada County, California, 95724, United States of America",
            "locType": "footway",
            "blogLinks": [
                "http://www.tripleblaze.com/best/?c=8"
            ],
            "longitude": "-120.3406539"
        },
        "manhattan beach": {
            "latitude": "33.8950839",
            "closest_to": "pasadena",
            "address": "Manhattan Beach, Los Angeles County, California, United States of America",
            "locType": "city",
            "blogLinks": [
                "https://www.yelp.com/biz/pacific-coast-highway-carmel"
            ],
            "longitude": "-118.4000146"
        },
        "fremont avenue": {
            "latitude": "34.0770508",
            "closest_to": "pasadena",
            "address": "Fremont Avenue, Alhambra, Los Angeles County, California, 91803, United States of America",
            "locType": "secondary",
            "blogLinks": [
                "http://www.rent.com/california/south-pasadena-houses/1931-fremont-avenue-4-lv25539238"
            ],
            "longitude": "-118.1518674"
        },
        "cardiff": {
            "latitude": "33.6883363",
            "closest_to": "pasadena",
            "address": "Cardiff, Westpark, Irvine, Orange County, California, 92606, United States of America",
            "locType": "residential",
            "blogLinks": [
                "https://www.yelp.com/biz/pacific-coast-highway-carmel"
            ],
            "longitude": "-117.806356451668"
        },
        "stovepipe wells": {
            "latitude": "36.6065528",
            "closest_to": "pasadena",
            "address": "Stovepipe Wells, Inyo County, California, United States of America",
            "locType": "hamlet",
            "blogLinks": [
                "https://www.yelp.com/biz/death-valley-national-park-death-valley-3"
            ],
            "longitude": "-117.1468689"
        },
        "frisco": {
            "latitude": "35.0714062",
            "closest_to": "pasadena",
            "address": "Frisco Way, Los Berros, San Luis Obispo County, California, 93420, United States of America",
            "locType": "residential",
            "blogLinks": [
                "https://www.yelp.com/biz/pacific-coast-highway-carmel"
            ],
            "longitude": "-120.5207138"
        },
        "malibu": {
            "latitude": "33.7932142",
            "closest_to": "pasadena",
            "address": "Malibu, Palm Springs, Riverside County, California, 92264, United States of America",
            "locType": "residential",
            "blogLinks": [
                "https://www.yelp.com/biz/pacific-coast-highway-carmel",
                "http://www.tripleblaze.com/best/?c=8"
            ],
            "longitude": "-116.5023561"
        },
        "mojave desert ca": {
            "latitude": "35.1456319",
            "closest_to": "pasadena",
            "address": "Mojave Desert, Utility Road, San Bernardino County, California, United States of America",
            "locType": "desert",
            "blogLinks": [
                "http://www.california-blog.com/"
            ],
            "longitude": "-115.548963686646"
        },
        "monterey bay aquarium ca": {
            "latitude": "36.61809095",
            "closest_to": "pasadena",
            "address": "MBA, 886, Cannery Row, Monterey, Monterey County, California, 93940, United States of America",
            "locType": "aquarium",
            "blogLinks": [
                "http://www.california-blog.com/"
            ],
            "longitude": "-121.901680002002"
        },
        "sin city": {
            "latitude": "37.7771563",
            "closest_to": "fremont",
            "address": "Wong Tai Sin Temple, Balboa Street, Jordan Park, SF, California, 94121, United States of America",
            "locType": "place_of_worship",
            "blogLinks": [
                "https://www.yelp.com/biz/death-valley-national-park-death-valley-3"
            ],
            "longitude": "-122.4635886"
        },
        "bay": {
            "latitude": "33.6899249",
            "closest_to": "pasadena",
            "address": "Bay, Meadows Mobile Home Park, El Camino Real, Irvine, Orange County, California, 92406, United States of America",
            "locType": "service",
            "blogLinks": [
                "https://www.yelp.com/biz/pacific-coast-highway-carmel"
            ],
            "longitude": "-117.7729354"
        },
        "kern river": {
            "latitude": "36.6816956",
            "closest_to": "pasadena",
            "address": "Kern River, Tulare County, California, United States of America",
            "locType": "river",
            "blogLinks": [
                "http://www.california-blog.com/"
            ],
            "longitude": "-118.4124188"
        },
        "carmel": {
            "latitude": "38.75511285",
            "closest_to": "fremont",
            "address": "Carmel, Roseville, Placer County, California, 95747, United States of America",
            "locType": "residential",
            "blogLinks": [
                "https://www.yelp.com/biz/pacific-coast-highway-carmel"
            ],
            "longitude": "-121.353308848273"
        },
        "laguna": {
            "latitude": "38.4210209",
            "closest_to": "fremont",
            "address": "Laguna, Sacramento County, California, United States of America",
            "locType": "hamlet",
            "blogLinks": [
                "https://www.yelp.com/biz/pacific-coast-highway-carmel"
            ],
            "longitude": "-121.4238413"
        },
        "racetrack valley": {
            "latitude": "36.74687115",
            "closest_to": "pasadena",
            "address": "Racetrack Valley, Racetrack Valley Road, Inyo County, California, United States of America",
            "locType": "desert",
            "blogLinks": [
                "https://www.yelp.com/biz/death-valley-national-park-death-valley-3"
            ],
            "longitude": "-117.554510687641"
        },
        "dana point": {
            "latitude": "33.4669721",
            "closest_to": "pasadena",
            "address": "Dana Point, Orange County, California, United States of America",
            "locType": "city",
            "blogLinks": [
                "https://www.yelp.com/biz/pacific-coast-highway-carmel"
            ],
            "longitude": "-117.6981074"
        }
    },
    "fremont": {
        "type": "city",
        "osm_id": "111943",
        "class": "place",
        "importance": 0.70373394703995,
        "lat": "37.5482697",
        "lon": "-121.9885718",
        "boundingbox": [
            "37.4539501",
            "37.6066739",
            "-122.1509872",
            "-121.8701127"
        ],
        "display_name": "Fremont, Alameda County, California, United States of America",
        "licence": "Data \u00a9 OpenStreetMap contributors, ODbL 1.0. http://www.openstreetmap.org/copyright",
        "icon": "https://nominatim.openstreetmap.org/images/mapicons/poi_place_city.p.20.png",
        "place_id": "159050638",
        "osm_type": "relation"
    }
}