{
    "fresno": {
        "type": "city",
        "osm_id": "33120274",
        "class": "place",
        "importance": 0.79213103374115,
        "lat": "36.748793",
        "lon": "-119.714839601149",
        "boundingbox": [
            "36.747122",
            "36.75042",
            "-119.7159249",
            "-119.7091549"
        ],
        "display_name": "Fresno, Fresno County, California, United States of America",
        "licence": "Data \u00a9 OpenStreetMap contributors, ODbL 1.0. http://www.openstreetmap.org/copyright",
        "icon": "https://nominatim.openstreetmap.org/images/mapicons/poi_place_city.p.20.png",
        "place_id": "72530219",
        "osm_type": "way"
    },
    "mentions": {
        "dragoon": {
            "latitude": "37.990701",
            "closest_to": "sacramento",
            "address": "Dragoon Circle, Knox Hill, Sonora, Tuolumne County, California, 95370, United States of America",
            "locType": "residential",
            "blogLinks": [
                "https://americarocksdude.wordpress.com/2011/07/07/roadside-attractions-between-texas-and-california/"
            ],
            "longitude": "-120.3951489"
        },
        "lemoore": {
            "latitude": "36.3007835",
            "closest_to": "fresno",
            "address": "Lemoore, Kings County, California, United States of America",
            "locType": "city",
            "blogLinks": [
                "http://www.roadsideamerica.com/location/ca"
            ],
            "longitude": "-119.7829106"
        },
        "calaveras big trees": {
            "latitude": "38.2638071",
            "closest_to": "sacramento",
            "address": "Calaveras Big Trees State Park, Big Trees Parkway, Snowshoe Springs, Calaveras County, California, 95223, United States of America",
            "locType": "protected_area",
            "blogLinks": [
                "https://www.tripadvisor.com/ShowTopic-g61000-i315-k5072708-What_Is_there_to_see_between_Yosemite_and_Sacramento-Yosemite_National_Park_California.html"
            ],
            "longitude": "-120.278540141632"
        },
        "emeryville": {
            "latitude": "37.8314089",
            "closest_to": "sacramento",
            "address": "Emeryville, Alameda County, California, United States of America",
            "locType": "administrative",
            "blogLinks": [
                "http://www.roadsideamerica.com/location/ca"
            ],
            "longitude": "-122.2865265"
        },
        "mono lake": {
            "latitude": "38.0077189",
            "closest_to": "sacramento",
            "address": "Mono Lake, Mono County, California, United States of America",
            "locType": "water",
            "blogLinks": [
                "http://beautifulplacestovisit.com/tag/california/",
                "https://www.tripadvisor.com/ShowTopic-g61000-i315-k5072708-What_Is_there_to_see_between_Yosemite_and_Sacramento-Yosemite_National_Park_California.html"
            ],
            "longitude": "-118.967033937845"
        },
        "el dorado county": {
            "latitude": "38.7574137",
            "closest_to": "sacramento",
            "address": "El Dorado County, California, United States of America",
            "locType": "administrative",
            "blogLinks": [
                "http://www.travbuddy.com/California-travel-guide-p85"
            ],
            "longitude": "-120.5276128"
        },
        "yosemite national park of california": {
            "latitude": "37.84054795",
            "closest_to": "sacramento",
            "address": "Yosemite National Park, Mt. Hoffmann Trail, Mariposa County, California, United States of America",
            "locType": "national_park",
            "blogLinks": [
                "http://beautifulplacestovisit.com/tag/california/"
            ],
            "longitude": "-119.516587698025"
        },
        "cotati": {
            "latitude": "38.3266798",
            "closest_to": "sacramento",
            "address": "Cotati, Sonoma County, California, United States of America",
            "locType": "city",
            "blogLinks": [
                "http://www.roadsideamerica.com/location/ca"
            ],
            "longitude": "-122.706844"
        },
        "north sacramento": {
            "latitude": "38.6060158",
            "closest_to": "sacramento",
            "address": "North Sacramento, Sacramento County, California, United States of America",
            "locType": "hamlet",
            "blogLinks": [
                "https://www.cheaptickets.com/lp/flights/602988/180049/fresno-to-sacramento"
            ],
            "longitude": "-121.4574542"
        },
        "san francisco bay area": {
            "latitude": "37.7884969",
            "closest_to": "sacramento",
            "address": "San Francisco Bay Area, SF, California, United States of America",
            "locType": "region",
            "blogLinks": [
                "https://www.trekaroo.com/places/california/snapshot"
            ],
            "longitude": "-122.3558472"
        },
        "sacto": {
            "latitude": "38.5181589",
            "closest_to": "sacramento",
            "address": "New Sacto Way, Sacramento, Sacramento County, California, 95824, United States of America",
            "locType": "residential",
            "blogLinks": [
                "https://www.tripadvisor.com/ShowTopic-g61000-i315-k5072708-What_Is_there_to_see_between_Yosemite_and_Sacramento-Yosemite_National_Park_California.html"
            ],
            "longitude": "-121.4225608"
        },
        "san joaquin county": {
            "latitude": "37.9372901",
            "closest_to": "sacramento",
            "address": "San Joaquin County, California, United States of America",
            "locType": "administrative",
            "blogLinks": [
                "http://www.visitcentralvalley.com/places/"
            ],
            "longitude": "-121.2773718"
        },
        "markleeville": {
            "latitude": "38.6671855",
            "closest_to": "sacramento",
            "address": "Markleeville, Thornburg Canyon Trail, Shay Creek Summer Home Area, Alpine County, California, United States of America",
            "locType": "administrative",
            "blogLinks": [
                "https://www.tripadvisor.com/ShowTopic-g61000-i315-k5072708-What_Is_there_to_see_between_Yosemite_and_Sacramento-Yosemite_National_Park_California.html"
            ],
            "longitude": "-119.831282157267"
        },
        "sierra foothills": {
            "latitude": "37.3933656",
            "closest_to": "sacramento",
            "address": "Sierra Road, Berryessa, San Jos\u00e9, Santa Clara County, California, 95132, United States of America",
            "locType": "secondary",
            "blogLinks": [
                "http://www.visitcentralvalley.com/places/"
            ],
            "longitude": "-121.8609818"
        },
        "ritter range": {
            "latitude": "37.689378",
            "closest_to": "sacramento",
            "address": "Mount Ritter, Madera County, California, United States of America",
            "locType": "peak",
            "blogLinks": [
                "http://beautifulplacestovisit.com/tag/california/"
            ],
            "longitude": "-119.1990297"
        },
        "death valley national park": {
            "latitude": "36.4914385",
            "closest_to": "fresno",
            "address": "Death Valley National Park, Lucky Wash Road, Skidoo, Inyo County, California, United States of America",
            "locType": "national_park",
            "blogLinks": [
                "http://www.roadsideamerica.com/location/ca"
            ],
            "longitude": "-117.102293507719"
        },
        "san rafael": {
            "latitude": "37.9735346",
            "closest_to": "sacramento",
            "address": "San Rafael, Marin County, California, United States of America",
            "locType": "city",
            "blogLinks": [
                "http://www.roadsideamerica.com/location/ca"
            ],
            "longitude": "-122.5310873"
        },
        "california state capitol": {
            "latitude": "38.57652685",
            "closest_to": "sacramento",
            "address": "California State Capitol, 1315, 10th Street, Sacramento, Sacramento County, California, 95818, United States of America",
            "locType": "townhall",
            "blogLinks": [
                "https://www.cheaptickets.com/lp/flights/602988/180049/fresno-to-sacramento"
            ],
            "longitude": "-121.493234843606"
        },
        "santa clara": {
            "latitude": "37.3541132",
            "closest_to": "sacramento",
            "address": "Santa Clara, Santa Clara County, California, United States of America",
            "locType": "city",
            "blogLinks": [
                "http://www.roadsideamerica.com/location/ca"
            ],
            "longitude": "-121.9551743"
        },
        "san luis obispo": {
            "latitude": "35.2827525",
            "closest_to": "fresno",
            "address": "San Luis Obispo, San Luis Obispo County, California, United States of America",
            "locType": "city",
            "blogLinks": [
                "http://www.roadsideamerica.com/location/ca",
                "http://traveltips.usatoday.com/driving-sacramento-los-angeles-108352.html"
            ],
            "longitude": "-120.6596155"
        },
        "san jose": {
            "latitude": "37.3361905",
            "closest_to": "sacramento",
            "address": "San Jos\u00e9, Santa Clara County, California, United States of America",
            "locType": "city",
            "blogLinks": [
                "http://www.travbuddy.com/California-travel-guide-p85",
                "http://www.roadsideamerica.com/location/ca",
                "http://gocalifornia.about.com/od/topcalifornia/ss/Los-Angeles-to-San-Francisco-on-I-5.htm",
                "http://traveltips.usatoday.com/driving-sacramento-los-angeles-108352.html"
            ],
            "longitude": "-121.8905832"
        },
        "tejon ranch": {
            "latitude": "34.9885197",
            "closest_to": "fresno",
            "address": "Bob Stine Road, Wheeler Ridge, Kern County, California, United States of America",
            "locType": "tertiary",
            "blogLinks": [
                "http://gocalifornia.about.com/od/topcalifornia/ss/Los-Angeles-to-San-Francisco-on-I-5.htm"
            ],
            "longitude": "-118.9408535"
        },
        "san francisco international airport": {
            "latitude": "37.622452",
            "closest_to": "sacramento",
            "address": "San Francisco Airport, North Access Road, Lomita Park, San Mateo County, California, 94128, United States of America",
            "locType": "aerodrome",
            "blogLinks": [
                "https://www.trekaroo.com/places/california/snapshot"
            ],
            "longitude": "-122.384071507814"
        },
        "guerneville": {
            "latitude": "38.5116609",
            "closest_to": "sacramento",
            "address": "Guerneville, Orchard Road, El Bonita, Sonoma County, California, 95446, United States of America",
            "locType": "administrative",
            "blogLinks": [
                "http://www.roadsideamerica.com/location/ca"
            ],
            "longitude": "-122.987128549631"
        },
        "san francisco bay": {
            "latitude": "37.708264",
            "closest_to": "sacramento",
            "address": "San Francisco Bay, Ferry Landing, Alameda, Alameda County, California, 94502, United States of America",
            "locType": "bay",
            "blogLinks": [
                "http://www.travbuddy.com/California-travel-guide-p85",
                "http://www.visitcentralvalley.com/places/"
            ],
            "longitude": "-122.2802469"
        },
        "silicon valley": {
            "latitude": "37.4105333",
            "closest_to": "sacramento",
            "address": "Carnegie Mellon Silicon Valley, South Akron Road, Santa Clara County, California, 94035-0016, United States of America",
            "locType": "school",
            "blogLinks": [
                "http://www.travbuddy.com/California-travel-guide-p85"
            ],
            "longitude": "-122.0597491"
        },
        "ukiah": {
            "latitude": "39.1501662",
            "closest_to": "sacramento",
            "address": "Ukiah, Mendocino County, California, United States of America",
            "locType": "city",
            "blogLinks": [
                "http://www.roadsideamerica.com/location/ca"
            ],
            "longitude": "-123.207786"
        },
        "madera county": {
            "latitude": "37.1716264",
            "closest_to": "sacramento",
            "address": "Madera County, California, United States of America",
            "locType": "administrative",
            "blogLinks": [
                "http://www.visitcentralvalley.com/places/"
            ],
            "longitude": "-119.773799"
        },
        "ca": {
            "latitude": "37.8242285466918",
            "closest_to": "sacramento",
            "address": "Piedmont, Alameda County, California, ca, United States of America",
            "locType": "postcode",
            "blogLinks": [
                "http://www.visitcentralvalley.com/places/"
            ],
            "longitude": "-122.232613735941"
        },
        "berkeley": {
            "latitude": "37.8708393",
            "closest_to": "sacramento",
            "address": "Berkeley, Alameda County, California, United States of America",
            "locType": "city",
            "blogLinks": [
                "http://www.travbuddy.com/California-travel-guide-p85",
                "http://www.roadsideamerica.com/location/ca"
            ],
            "longitude": "-122.2728638"
        },
        "harris ranch": {
            "latitude": "36.2535766",
            "closest_to": "fresno",
            "address": "Harris Ranch, West Dorris Avenue, Fresno County, California, 93210, United States of America",
            "locType": "hotel",
            "blogLinks": [
                "http://traveltips.usatoday.com/driving-sacramento-los-angeles-108352.html"
            ],
            "longitude": "-120.237368306069"
        },
        "fresno": {
            "latitude": "36.748793",
            "closest_to": "sacramento",
            "address": "Fresno, Fresno County, California, United States of America",
            "locType": "city",
            "blogLinks": [
                "http://www.roadsideamerica.com/location/ca",
                "https://www.cheaptickets.com/lp/flights/602988/180049/fresno-to-sacramento",
                "http://traveltips.usatoday.com/driving-sacramento-los-angeles-108352.html",
                "https://answers.yahoo.com/question/index?qid=20100313162058AAQOdwu",
                "http://www.visitcentralvalley.com/places/"
            ],
            "longitude": "-119.714839601149"
        },
        "oakdale": {
            "latitude": "37.7665947",
            "closest_to": "sacramento",
            "address": "Oakdale, Stanislaus County, California, United States of America",
            "locType": "city",
            "blogLinks": [
                "http://www.visitcentralvalley.com/places/"
            ],
            "longitude": "-120.8471544"
        },
        "healdsburg": {
            "latitude": "38.6106812",
            "closest_to": "sacramento",
            "address": "Healdsburg, Sonoma County, California, United States of America",
            "locType": "city",
            "blogLinks": [
                "http://www.roadsideamerica.com/location/ca"
            ],
            "longitude": "-122.8701379"
        },
        "sierra nevada": {
            "latitude": "39.097593",
            "closest_to": "sacramento",
            "address": "Sierra, Wolf, Nevada County, California, 95949, United States of America",
            "locType": "residential",
            "blogLinks": [
                "http://beautifulplacestovisit.com/tag/california/",
                "https://www.tripadvisor.com/ShowTopic-g61000-i315-k5072708-What_Is_there_to_see_between_Yosemite_and_Sacramento-Yosemite_National_Park_California.html",
                "http://sacramento.cbslocal.com/top-lists/getaway-guide-weekend-road-trip-to-reno/"
            ],
            "longitude": "-121.1396689"
        },
        "stanislaus county": {
            "latitude": "37.5500871",
            "closest_to": "sacramento",
            "address": "Stanislaus County, California, United States of America",
            "locType": "administrative",
            "blogLinks": [
                "http://www.visitcentralvalley.com/places/"
            ],
            "longitude": "-121.0501424"
        },
        "great basin": {
            "latitude": "38.7875775",
            "closest_to": "sacramento",
            "address": "Great Basin Drive, Roseville, Placer County, California, 95678, United States of America",
            "locType": "residential",
            "blogLinks": [
                "http://sacramento.cbslocal.com/top-lists/getaway-guide-weekend-road-trip-to-reno/"
            ],
            "longitude": "-121.2713333"
        },
        "jerusalem": {
            "latitude": "40.5175442",
            "closest_to": "sacramento",
            "address": "Jerusalem Creek, Shasta County, California, United States of America",
            "locType": "stream",
            "blogLinks": [
                "http://www.roadsideamerica.com/location/ca"
            ],
            "longitude": "-122.7581059"
        },
        "santa cruz": {
            "latitude": "36.9735903",
            "closest_to": "sacramento",
            "address": "Santa Cruz, Santa Cruz County, California, United States of America",
            "locType": "city",
            "blogLinks": [
                "http://www.travbuddy.com/California-travel-guide-p85",
                "http://www.roadsideamerica.com/location/ca"
            ],
            "longitude": "-122.0260569"
        },
        "visalia": {
            "latitude": "36.3302284",
            "closest_to": "fresno",
            "address": "Visalia, Tulare County, California, United States of America",
            "locType": "city",
            "blogLinks": [
                "https://answers.yahoo.com/question/index?qid=20100313162058AAQOdwu",
                "http://www.visitcentralvalley.com/places/"
            ],
            "longitude": "-119.2920584"
        },
        "california state railroad museum": {
            "latitude": "38.5846424",
            "closest_to": "sacramento",
            "address": "California State Railroad Museum, 125, I Street, Sacramento, Sacramento County, California, 95814, United States of America",
            "locType": "museum",
            "blogLinks": [
                "https://www.cheaptickets.com/lp/flights/602988/180049/fresno-to-sacramento"
            ],
            "longitude": "-121.5038909"
        },
        "june lake loop": {
            "latitude": "37.7977914",
            "closest_to": "sacramento",
            "address": "June Lake Loop, Rabbit Loop, June Lake Junction, Mono County, California, 93529, United States of America",
            "locType": "secondary",
            "blogLinks": [
                "https://www.tripadvisor.com/ShowTopic-g61000-i315-k5072708-What_Is_there_to_see_between_Yosemite_and_Sacramento-Yosemite_National_Park_California.html"
            ],
            "longitude": "-119.0637386"
        },
        "turlock": {
            "latitude": "37.4946568",
            "closest_to": "sacramento",
            "address": "Turlock, Stanislaus County, California, United States of America",
            "locType": "city",
            "blogLinks": [
                "http://www.roadsideamerica.com/location/ca"
            ],
            "longitude": "-120.846594"
        },
        "el paso": {
            "latitude": "36.8487922",
            "closest_to": "sacramento",
            "address": "El Paso, Clovis, Fresno County, California, 93611, United States of America",
            "locType": "residential",
            "blogLinks": [
                "https://americarocksdude.wordpress.com/2011/07/07/roadside-attractions-between-texas-and-california/"
            ],
            "longitude": "-119.6823199"
        },
        "yosemite": {
            "latitude": "37.7488554",
            "closest_to": "sacramento",
            "address": "Yosemite, Village Drive, Yosemite Village, Yosemite Valley, Mariposa County, California, United States of America",
            "locType": "attraction",
            "blogLinks": [
                "https://www.tripadvisor.com/ShowTopic-g61000-i315-k5072708-What_Is_there_to_see_between_Yosemite_and_Sacramento-Yosemite_National_Park_California.html",
                "http://www.visitcentralvalley.com/places/"
            ],
            "longitude": "-119.5893389"
        },
        "chicago": {
            "latitude": "37.7850531",
            "closest_to": "sacramento",
            "address": "Chicago, Woodstock, Alameda, Alameda County, California, 94501, United States of America",
            "locType": "residential",
            "blogLinks": [
                "https://www.cheaptickets.com/lp/flights/602988/180049/fresno-to-sacramento"
            ],
            "longitude": "-122.2872948"
        },
        "american river bike trail": {
            "latitude": "38.566474",
            "closest_to": "sacramento",
            "address": "American River Bike Trail, Sacramento, Sacramento County, California, 95819, United States of America",
            "locType": "cycleway",
            "blogLinks": [
                "https://www.cheaptickets.com/lp/flights/602988/180049/fresno-to-sacramento"
            ],
            "longitude": "-121.4217199"
        },
        "buellton": {
            "latitude": "34.6134727",
            "closest_to": "fresno",
            "address": "Buellton, Santa Barbara County, California, United States of America",
            "locType": "city",
            "blogLinks": [
                "http://www.roadsideamerica.com/location/ca"
            ],
            "longitude": "-120.1936691"
        },
        "trona": {
            "latitude": "35.7627322",
            "closest_to": "fresno",
            "address": "Trona, San Bernardino County, California, United States of America",
            "locType": "hamlet",
            "blogLinks": [
                "http://www.roadsideamerica.com/location/ca"
            ],
            "longitude": "-117.3728345"
        },
        "fresno chandler executive airport": {
            "latitude": "36.7324847",
            "closest_to": "sacramento",
            "address": "Fresno Chandler Executive Airport, South Teilman Avenue, Fresno County, California, 93706, United States of America",
            "locType": "aerodrome",
            "blogLinks": [
                "https://www.cheaptickets.com/lp/flights/602988/180049/fresno-to-sacramento"
            ],
            "longitude": "-119.820416551609"
        },
        "placerville": {
            "latitude": "38.7296252",
            "closest_to": "sacramento",
            "address": "Placerville, El Dorado County, California, United States of America",
            "locType": "city",
            "blogLinks": [
                "http://www.roadsideamerica.com/location/ca"
            ],
            "longitude": "-120.7985459"
        },
        "bay bridge": {
            "latitude": "37.8193514",
            "closest_to": "sacramento",
            "address": "San Francisco \u2013 Oakland Bay Bridge, Oakland, Alameda County, California, 94625, United States of America",
            "locType": "abandoned",
            "blogLinks": [
                "http://gocalifornia.about.com/od/topcalifornia/ss/Los-Angeles-to-San-Francisco-on-I-5.htm"
            ],
            "longitude": "-122.342234"
        },
        "west sacramento": {
            "latitude": "38.5804609",
            "closest_to": "sacramento",
            "address": "West Sacramento, Yolo County, California, United States of America",
            "locType": "city",
            "blogLinks": [
                "https://www.cheaptickets.com/lp/flights/602988/180049/fresno-to-sacramento",
                "http://www.visitcentralvalley.com/places/"
            ],
            "longitude": "-121.5302339"
        },
        "monterey": {
            "latitude": "36.5844165",
            "closest_to": "sacramento",
            "address": "Monterey, Monterey County, California, United States of America",
            "locType": "city",
            "blogLinks": [
                "http://www.travbuddy.com/California-travel-guide-p85",
                "http://traveltips.usatoday.com/driving-sacramento-los-angeles-108352.html"
            ],
            "longitude": "-121.866792846206"
        },
        "emerald pool": {
            "latitude": "37.7274993",
            "closest_to": "sacramento",
            "address": "Emerald Pool, Mist Trail, Half Dome Village, Mariposa County, California, United States of America",
            "locType": "attraction",
            "blogLinks": [
                "http://beautifulplacestovisit.com/tag/california/"
            ],
            "longitude": "-119.542313457874"
        },
        "south sacramento": {
            "latitude": "38.5815719",
            "closest_to": "sacramento",
            "address": "Sacramento, Sacramento County, California, United States of America",
            "locType": "city",
            "blogLinks": [
                "https://answers.yahoo.com/question/index?qid=20100313162058AAQOdwu"
            ],
            "longitude": "-121.4943995"
        },
        "adventure park visalia": {
            "latitude": "36.326007",
            "closest_to": "fresno",
            "address": "Adventure Park, West Cypress Avenue, Visalia, Tulare County, California, 93277, United States of America",
            "locType": "theme_park",
            "blogLinks": [
                "http://www.visitcentralvalley.com/places/"
            ],
            "longitude": "-119.352945975"
        },
        "fairytale town": {
            "latitude": "38.53977405",
            "closest_to": "sacramento",
            "address": "Fairytale Town, 3901, Land Park Drive, Sacramento, Sacramento County, California, 95822, United States of America",
            "locType": "theme_park",
            "blogLinks": [
                "https://www.cheaptickets.com/lp/flights/602988/180049/fresno-to-sacramento"
            ],
            "longitude": "-121.501064428096"
        },
        "mammoth mountain": {
            "latitude": "37.6307692",
            "closest_to": "sacramento",
            "address": "Mammoth Mountain, Mammoth Lakes, Mono County, California, United States of America",
            "locType": "peak",
            "blogLinks": [
                "http://beautifulplacestovisit.com/tag/california/"
            ],
            "longitude": "-119.0326341"
        },
        "jamestown": {
            "latitude": "37.9588565",
            "closest_to": "sacramento",
            "address": "Jamestown, Golden Oaks Drive, Volponi Acres, Tuolumne County, California, 95327, United States of America",
            "locType": "administrative",
            "blogLinks": [
                "https://www.tripadvisor.com/ShowTopic-g61000-i315-k5072708-What_Is_there_to_see_between_Yosemite_and_Sacramento-Yosemite_National_Park_California.html"
            ],
            "longitude": "-120.404431068133"
        },
        "redwood city": {
            "latitude": "37.4852152",
            "closest_to": "sacramento",
            "address": "Redwood City, San Mateo County, California, United States of America",
            "locType": "city",
            "blogLinks": [
                "http://www.roadsideamerica.com/location/ca"
            ],
            "longitude": "-122.2363547"
        },
        "truckee": {
            "latitude": "39.327962",
            "closest_to": "sacramento",
            "address": "Truckee, Nevada County, California, United States of America",
            "locType": "administrative",
            "blogLinks": [
                "http://sacramento.cbslocal.com/top-lists/getaway-guide-weekend-road-trip-to-reno/"
            ],
            "longitude": "-120.1832532"
        },
        "california state route 1": {
            "latitude": "37.7931799",
            "closest_to": "sacramento",
            "address": "One California Street Building, 1, California Street, Financial District, SF, California, 94121, United States of America",
            "locType": "yes",
            "blogLinks": [
                "http://traveltips.usatoday.com/driving-sacramento-los-angeles-108352.html"
            ],
            "longitude": "-122.397168822203"
        },
        "morro rock": {
            "latitude": "35.369669",
            "closest_to": "fresno",
            "address": "Morro Rock, Morro Bay, San Luis Obispo County, California, United States of America",
            "locType": "peak",
            "blogLinks": [
                "http://traveltips.usatoday.com/driving-sacramento-los-angeles-108352.html"
            ],
            "longitude": "-120.8676993"
        },
        "watsonville": {
            "latitude": "36.9092773",
            "closest_to": "sacramento",
            "address": "Watsonville, Santa Cruz County, California, United States of America",
            "locType": "city",
            "blogLinks": [
                "http://traveltips.usatoday.com/driving-sacramento-los-angeles-108352.html"
            ],
            "longitude": "-121.752907"
        },
        "modesto": {
            "latitude": "37.6390972",
            "closest_to": "sacramento",
            "address": "Modesto, Stanislaus County, California, United States of America",
            "locType": "city",
            "blogLinks": [
                "http://traveltips.usatoday.com/driving-sacramento-los-angeles-108352.html",
                "http://sacramento.cbslocal.com/top-lists/getaway-guide-weekend-road-trip-to-reno/",
                "http://www.visitcentralvalley.com/places/"
            ],
            "longitude": "-120.9968781"
        },
        "sonora": {
            "latitude": "37.9840911",
            "closest_to": "sacramento",
            "address": "Sonora, Tuolumne County, California, United States of America",
            "locType": "city",
            "blogLinks": [
                "https://www.tripadvisor.com/ShowTopic-g61000-i315-k5072708-What_Is_there_to_see_between_Yosemite_and_Sacramento-Yosemite_National_Park_California.html"
            ],
            "longitude": "-120.382138"
        },
        "taft highway": {
            "latitude": "35.2670566",
            "closest_to": "fresno",
            "address": "Taft Highway, Kern County, California, 93276, United States of America",
            "locType": "primary",
            "blogLinks": [
                "http://gocalifornia.about.com/od/topcalifornia/ss/Los-Angeles-to-San-Francisco-on-I-5.htm"
            ],
            "longitude": "-119.3064987"
        },
        "california welcome center": {
            "latitude": "37.8091709",
            "closest_to": "sacramento",
            "address": "California Welcome Center, Pier 39, Fisherman's Warf, SF, California, 94133, United States of America",
            "locType": "information",
            "blogLinks": [
                "http://www.visitcentralvalley.com/places/"
            ],
            "longitude": "-122.4101238"
        },
        "' tower bridge": {
            "latitude": "38.5802766",
            "closest_to": "sacramento",
            "address": "Tower Bridge, Sacramento, Sacramento County, California, 95814, United States of America",
            "locType": "secondary",
            "blogLinks": [
                "https://www.cheaptickets.com/lp/flights/602988/180049/fresno-to-sacramento"
            ],
            "longitude": "-121.5072445"
        },
        "san simeon": {
            "latitude": "35.6438587",
            "closest_to": "fresno",
            "address": "San Simeon, San Luis Obispo County, California, United States of America",
            "locType": "hamlet",
            "blogLinks": [
                "http://www.travbuddy.com/California-travel-guide-p85",
                "http://www.roadsideamerica.com/location/ca",
                "http://traveltips.usatoday.com/driving-sacramento-los-angeles-108352.html"
            ],
            "longitude": "-121.1907532"
        },
        "locke": {
            "latitude": "38.2504703",
            "closest_to": "sacramento",
            "address": "Locke, Sacramento County, California, United States of America",
            "locType": "hamlet",
            "blogLinks": [
                "http://traveltips.usatoday.com/driving-sacramento-los-angeles-108352.html"
            ],
            "longitude": "-121.5093973"
        },
        "sunol": {
            "latitude": "37.5943781",
            "closest_to": "sacramento",
            "address": "Sunol, Alameda County, California, United States of America",
            "locType": "hamlet",
            "blogLinks": [
                "http://www.roadsideamerica.com/location/ca"
            ],
            "longitude": "-121.8885682"
        },
        "mono county": {
            "latitude": "37.9533927",
            "closest_to": "sacramento",
            "address": "Mono County, California, United States of America",
            "locType": "administrative",
            "blogLinks": [
                "http://beautifulplacestovisit.com/tag/california/"
            ],
            "longitude": "-118.9398757"
        },
        "lake tahoe": {
            "latitude": "39.0888982",
            "closest_to": "sacramento",
            "address": "Lake Tahoe, Placer County, California, United States of America",
            "locType": "water",
            "blogLinks": [
                "http://www.travbuddy.com/California-travel-guide-p85",
                "http://www.roadsideamerica.com/location/ca",
                "https://www.tripadvisor.com/ShowTopic-g61000-i315-k5072708-What_Is_there_to_see_between_Yosemite_and_Sacramento-Yosemite_National_Park_California.html",
                "https://www.trekaroo.com/places/california/snapshot",
                "https://americarocksdude.wordpress.com/2011/07/07/roadside-attractions-between-texas-and-california/"
            ],
            "longitude": "-120.050511752934"
        },
        "yosemite valley": {
            "latitude": "37.734435",
            "closest_to": "sacramento",
            "address": "Yosemite Valley, Mariposa County, California, United States of America",
            "locType": "town",
            "blogLinks": [
                "http://beautifulplacestovisit.com/tag/california/"
            ],
            "longitude": "-119.6064673"
        },
        "bass lake": {
            "latitude": "37.3246665",
            "closest_to": "sacramento",
            "address": "Bass Lake, Madera County, California, United States of America",
            "locType": "hamlet",
            "blogLinks": [
                "http://www.visitcentralvalley.com/places/"
            ],
            "longitude": "-119.5662538"
        },
        "sebastopol": {
            "latitude": "38.4021359",
            "closest_to": "sacramento",
            "address": "Sebastopol, Sonoma County, California, United States of America",
            "locType": "city",
            "blogLinks": [
                "http://www.roadsideamerica.com/location/ca"
            ],
            "longitude": "-122.8238805"
        },
        "sutter creek": {
            "latitude": "38.3929675",
            "closest_to": "sacramento",
            "address": "Sutter Creek, Amador County, California, United States of America",
            "locType": "city",
            "blogLinks": [
                "https://www.tripadvisor.com/ShowTopic-g61000-i315-k5072708-What_Is_there_to_see_between_Yosemite_and_Sacramento-Yosemite_National_Park_California.html"
            ],
            "longitude": "-120.8024356"
        },
        "america": {
            "latitude": "36.2573198",
            "closest_to": "fresno",
            "address": "America, Kings County, California, 93246, United States of America",
            "locType": "residential",
            "blogLinks": [
                "http://www.travbuddy.com/California-travel-guide-p85",
                "http://www.roadsideamerica.com/location/ca",
                "https://www.trekaroo.com/places/california/snapshot"
            ],
            "longitude": "-119.8948706"
        },
        "fort tejon": {
            "latitude": "34.8736894",
            "closest_to": "fresno",
            "address": "Fort Tejon Road, Lebec, Kern County, California, 93243, United States of America",
            "locType": "tertiary",
            "blogLinks": [
                "http://gocalifornia.about.com/od/topcalifornia/ss/Los-Angeles-to-San-Francisco-on-I-5.htm"
            ],
            "longitude": "-118.8918151"
        },
        "kern river": {
            "latitude": "36.6816956",
            "closest_to": "fresno",
            "address": "Kern River, Tulare County, California, United States of America",
            "locType": "river",
            "blogLinks": [
                "http://www.visitcentralvalley.com/places/"
            ],
            "longitude": "-118.4124188"
        },
        "forestville": {
            "latitude": "38.4833405",
            "closest_to": "sacramento",
            "address": "Forestville, Trenton Road, Trenton, Sonoma County, California, 95436, United States of America",
            "locType": "administrative",
            "blogLinks": [
                "http://www.roadsideamerica.com/location/ca"
            ],
            "longitude": "-122.861584174866"
        },
        "turlock lake": {
            "latitude": "37.6118774",
            "closest_to": "sacramento",
            "address": "Turlock Lake, Davis Road, Stanislaus County, California, 95323, United States of America",
            "locType": "reservoir",
            "blogLinks": [
                "http://www.visitcentralvalley.com/places/"
            ],
            "longitude": "-120.5940883"
        },
        "merced": {
            "latitude": "37.3029568",
            "closest_to": "sacramento",
            "address": "Merced, Merced County, California, United States of America",
            "locType": "city",
            "blogLinks": [
                "http://traveltips.usatoday.com/driving-sacramento-los-angeles-108352.html",
                "https://answers.yahoo.com/question/index?qid=20100313162058AAQOdwu"
            ],
            "longitude": "-120.4843268"
        },
        "donner pass road": {
            "latitude": "39.3353749",
            "closest_to": "sacramento",
            "address": "Donner Pass Road, Truckee, Nevada County, California, 96161, United States of America",
            "locType": "secondary",
            "blogLinks": [
                "http://sacramento.cbslocal.com/top-lists/getaway-guide-weekend-road-trip-to-reno/"
            ],
            "longitude": "-120.1744927"
        },
        "golden gate bridge": {
            "latitude": "37.8302809",
            "closest_to": "sacramento",
            "address": "Golden Gate Bridge, Waldo, Marin County, California, 94965, United States of America",
            "locType": "motorway",
            "blogLinks": [
                "https://www.trekaroo.com/places/california/snapshot"
            ],
            "longitude": "-122.4798473"
        },
        "alcatraz": {
            "latitude": "37.8267283",
            "closest_to": "sacramento",
            "address": "Alcatraz Island, SF, California, United States of America",
            "locType": "island",
            "blogLinks": [
                "https://www.trekaroo.com/places/california/snapshot"
            ],
            "longitude": "-122.422746492409"
        },
        "tioga pass": {
            "latitude": "37.9109049",
            "closest_to": "sacramento",
            "address": "Tioga Pass, Tuolumne County, California, United States of America",
            "locType": "yes",
            "blogLinks": [
                "https://www.tripadvisor.com/ShowTopic-g61000-i315-k5072708-What_Is_there_to_see_between_Yosemite_and_Sacramento-Yosemite_National_Park_California.html"
            ],
            "longitude": "-119.2578542"
        },
        "usa": {
            "latitude": "36.7014631",
            "closest_to": "fresno",
            "address": "California, United States of America",
            "locType": "administrative",
            "blogLinks": [
                "https://www.trekaroo.com/places/california/snapshot"
            ],
            "longitude": "-118.7559973"
        },
        "castroville": {
            "latitude": "36.7657904",
            "closest_to": "sacramento",
            "address": "Castroville, Monterey County, California, United States of America",
            "locType": "administrative",
            "blogLinks": [
                "http://www.roadsideamerica.com/location/ca",
                "http://traveltips.usatoday.com/driving-sacramento-los-angeles-108352.html"
            ],
            "longitude": "-121.7580049"
        },
        "california state capitol museum": {
            "latitude": "38.57652685",
            "closest_to": "sacramento",
            "address": "California State Capitol, 1315, 10th Street, Sacramento, Sacramento County, California, 95818, United States of America",
            "locType": "townhall",
            "blogLinks": [
                "https://www.cheaptickets.com/lp/flights/602988/180049/fresno-to-sacramento"
            ],
            "longitude": "-121.493234843606"
        },
        "monterey bay": {
            "latitude": "36.7999557",
            "closest_to": "sacramento",
            "address": "Monterey Bay, Monterey County, California, United States of America",
            "locType": "bay",
            "blogLinks": [
                "http://www.travbuddy.com/California-travel-guide-p85"
            ],
            "longitude": "-121.9010667"
        },
        "kettleman city": {
            "latitude": "36.008937",
            "closest_to": "fresno",
            "address": "Kettleman City, 7th Street, Kettleman City, Kings County, California, 93239, United States of America",
            "locType": "administrative",
            "blogLinks": [
                "http://www.roadsideamerica.com/location/ca",
                "http://gocalifornia.about.com/od/topcalifornia/ss/Los-Angeles-to-San-Francisco-on-I-5.htm"
            ],
            "longitude": "-119.962676860725"
        },
        "sonoma": {
            "latitude": "38.5110803",
            "closest_to": "sacramento",
            "address": "Sonoma County, California, United States of America",
            "locType": "administrative",
            "blogLinks": [
                "http://www.visitcentralvalley.com/places/"
            ],
            "longitude": "-122.8473387"
        },
        "us": {
            "latitude": "36.7014631",
            "closest_to": "fresno",
            "address": "California, United States of America",
            "locType": "administrative",
            "blogLinks": [
                "http://www.travbuddy.com/California-travel-guide-p85",
                "http://gocalifornia.about.com/od/topcalifornia/ss/Los-Angeles-to-San-Francisco-on-I-5.htm",
                "https://www.cheaptickets.com/lp/flights/602988/180049/fresno-to-sacramento"
            ],
            "longitude": "-118.7559973"
        },
        "boonville": {
            "latitude": "39.0091667",
            "closest_to": "sacramento",
            "address": "Boonville, Mendocino County, California, 95415, United States of America",
            "locType": "village",
            "blogLinks": [
                "http://www.roadsideamerica.com/location/ca"
            ],
            "longitude": "-123.366111"
        },
        "bridgeport": {
            "latitude": "38.255757",
            "closest_to": "sacramento",
            "address": "Bridgeport, Mono County, California, United States of America",
            "locType": "village",
            "blogLinks": [
                "https://www.tripadvisor.com/ShowTopic-g61000-i315-k5072708-What_Is_there_to_see_between_Yosemite_and_Sacramento-Yosemite_National_Park_California.html"
            ],
            "longitude": "-119.2312664"
        },
        "central valley": {
            "latitude": "40.5626504",
            "closest_to": "sacramento",
            "address": "KNNN-FM (Central Valley), Rattlesnake Drive, Shasta County, California, 96001, United States of America",
            "locType": "tower",
            "blogLinks": [
                "http://gocalifornia.about.com/od/topcalifornia/ss/Los-Angeles-to-San-Francisco-on-I-5.htm",
                "https://www.trekaroo.com/places/california/snapshot",
                "http://www.visitcentralvalley.com/places/"
            ],
            "longitude": "-122.4530663"
        },
        "pacific": {
            "latitude": "38.7601815",
            "closest_to": "sacramento",
            "address": "Pacific, El Dorado County, California, United States of America",
            "locType": "hamlet",
            "blogLinks": [
                "http://www.travbuddy.com/California-travel-guide-p85"
            ],
            "longitude": "-120.507146"
        },
        "london": {
            "latitude": "36.4760619",
            "closest_to": "fresno",
            "address": "London, Tulare County, California, United States of America",
            "locType": "village",
            "blogLinks": [
                "http://www.roadsideamerica.com/location/ca"
            ],
            "longitude": "-119.4431784"
        },
        "san luis obispo county": {
            "latitude": "35.3540209",
            "closest_to": "fresno",
            "address": "San Luis Obispo County, California, United States of America",
            "locType": "administrative",
            "blogLinks": [
                "http://www.travbuddy.com/California-travel-guide-p85"
            ],
            "longitude": "-120.3757162"
        },
        "manteca": {
            "latitude": "37.7986184",
            "closest_to": "sacramento",
            "address": "Manteca, San Joaquin County, California, United States of America",
            "locType": "city",
            "blogLinks": [
                "http://www.visitcentralvalley.com/places/"
            ],
            "longitude": "-121.2117147"
        },
        "woodland": {
            "latitude": "38.6786109",
            "closest_to": "sacramento",
            "address": "Woodland, Yolo County, California, United States of America",
            "locType": "city",
            "blogLinks": [
                "http://www.visitcentralvalley.com/places/"
            ],
            "longitude": "-121.7733284"
        },
        "u.s.s.": {
            "latitude": "36.7014631",
            "closest_to": "fresno",
            "address": "California, United States of America",
            "locType": "administrative",
            "blogLinks": [
                "http://www.roadsideamerica.com/location/ca/all"
            ],
            "longitude": "-118.7559973"
        },
        "folsom": {
            "latitude": "38.6779591",
            "closest_to": "sacramento",
            "address": "Folsom, Sacramento County, California, United States of America",
            "locType": "city",
            "blogLinks": [
                "https://answers.yahoo.com/question/index?qid=20100313162058AAQOdwu"
            ],
            "longitude": "-121.1760582"
        },
        "south lake tahoe": {
            "latitude": "38.929125",
            "closest_to": "sacramento",
            "address": "South Lake Tahoe, El Dorado County, California, United States of America",
            "locType": "city",
            "blogLinks": [
                "http://www.travbuddy.com/California-travel-guide-p85",
                "http://www.roadsideamerica.com/location/ca"
            ],
            "longitude": "-119.987846390157"
        },
        "tejon pass": {
            "latitude": "34.8027895",
            "closest_to": "fresno",
            "address": "Tejon Pass, Golden State Freeway, Gorman, Los Angeles County, California, 93243, United States of America",
            "locType": "saddle",
            "blogLinks": [
                "http://gocalifornia.about.com/od/topcalifornia/ss/Los-Angeles-to-San-Francisco-on-I-5.htm",
                "http://traveltips.usatoday.com/driving-sacramento-los-angeles-108352.html"
            ],
            "longitude": "-118.8767819"
        },
        "hopland": {
            "latitude": "38.9729542",
            "closest_to": "sacramento",
            "address": "Hopland, Mendocino County, California, United States of America",
            "locType": "hamlet",
            "blogLinks": [
                "http://www.roadsideamerica.com/location/ca"
            ],
            "longitude": "-123.1163917"
        },
        "calico": {
            "latitude": "35.6327332",
            "closest_to": "fresno",
            "address": "Calico, Kern County, California, United States of America",
            "locType": "locality",
            "blogLinks": [
                "http://www.travbuddy.com/California-travel-guide-p85"
            ],
            "longitude": "-119.206496"
        },
        "golden state": {
            "latitude": "39.6712719",
            "closest_to": "sacramento",
            "address": "Golden State Island, Butte County, California, United States of America",
            "locType": "island",
            "blogLinks": [
                "http://traveltips.usatoday.com/driving-sacramento-los-angeles-108352.html"
            ],
            "longitude": "-121.9619226"
        },
        "san quentin": {
            "latitude": "37.9413133",
            "closest_to": "sacramento",
            "address": "San Quentin, Marin County, California, United States of America",
            "locType": "hamlet",
            "blogLinks": [
                "http://www.roadsideamerica.com/location/ca"
            ],
            "longitude": "-122.4849738"
        },
        "yuba-sutter": {
            "latitude": "39.1404477",
            "closest_to": "sacramento",
            "address": "Yuba City, Sutter County, California, United States of America",
            "locType": "city",
            "blogLinks": [
                "http://www.visitcentralvalley.com/places/"
            ],
            "longitude": "-121.6169107"
        },
        "tulare": {
            "latitude": "36.2516475",
            "closest_to": "fresno",
            "address": "Tulare County, California, United States of America",
            "locType": "administrative",
            "blogLinks": [
                "http://traveltips.usatoday.com/driving-sacramento-los-angeles-108352.html"
            ],
            "longitude": "-118.8525829"
        },
        "suisun": {
            "latitude": "38.24690555",
            "closest_to": "sacramento",
            "address": "Suisun City, Solano County, California, United States of America",
            "locType": "city",
            "blogLinks": [
                "http://www.visitcentralvalley.com/places/"
            ],
            "longitude": "-121.971724116502"
        },
        "san carlos": {
            "latitude": "37.4982065",
            "closest_to": "sacramento",
            "address": "San Carlos, San Mateo County, California, United States of America",
            "locType": "city",
            "blogLinks": [
                "http://www.roadsideamerica.com/location/ca"
            ],
            "longitude": "-122.266149723864"
        },
        "napa": {
            "latitude": "38.2971367",
            "closest_to": "sacramento",
            "address": "Napa, Napa County, California, United States of America",
            "locType": "city",
            "blogLinks": [
                "http://www.visitcentralvalley.com/places/"
            ],
            "longitude": "-122.2855292"
        },
        "raley field": {
            "latitude": "38.5803717",
            "closest_to": "sacramento",
            "address": "Raley Field, 400, Ballpark Drive, West Sacramento, Yolo County, California, 95691, United States of America",
            "locType": "attraction",
            "blogLinks": [
                "https://www.cheaptickets.com/lp/flights/602988/180049/fresno-to-sacramento"
            ],
            "longitude": "-121.513409596419"
        },
        "los angeles aqueduct": {
            "latitude": "36.6516297",
            "closest_to": "fresno",
            "address": "Los Angeles Aqueduct, Inyo County, California, United States of America",
            "locType": "canal",
            "blogLinks": [
                "http://gocalifornia.about.com/od/topcalifornia/ss/Los-Angeles-to-San-Francisco-on-I-5.htm"
            ],
            "longitude": "-118.0956309"
        },
        "palo alto": {
            "latitude": "37.442156",
            "closest_to": "sacramento",
            "address": "Palo Alto, Santa Clara County, California, United States of America",
            "locType": "city",
            "blogLinks": [
                "http://www.roadsideamerica.com/location/ca"
            ],
            "longitude": "-122.1634471"
        },
        "sacramento river": {
            "latitude": "39.5840295",
            "closest_to": "sacramento",
            "address": "Sacramento River, Glenn County, California, United States of America",
            "locType": "river",
            "blogLinks": [
                "http://www.visitcentralvalley.com/places/"
            ],
            "longitude": "-121.9960598"
        },
        "golden gate park": {
            "latitude": "37.7693681",
            "closest_to": "sacramento",
            "address": "Golden Gate Park, Overlook Drive, Richmond District, SF, California, 94122, United States of America",
            "locType": "park",
            "blogLinks": [
                "https://www.trekaroo.com/places/california/snapshot"
            ],
            "longitude": "-122.482183611177"
        },
        "sacramento valley": {
            "latitude": "38.5815719",
            "closest_to": "sacramento",
            "address": "Sacramento, Sacramento County, California, United States of America",
            "locType": "city",
            "blogLinks": [
                "http://www.visitcentralvalley.com/places/"
            ],
            "longitude": "-121.4943995"
        },
        "la": {
            "latitude": "36.7014631",
            "closest_to": "fresno",
            "address": "California, United States of America",
            "locType": "administrative",
            "blogLinks": [
                "http://www.travbuddy.com/California-travel-guide-p85",
                "http://gocalifornia.about.com/od/topcalifornia/ss/Los-Angeles-to-San-Francisco-on-I-5.htm",
                "https://answers.yahoo.com/question/index?qid=20100313162058AAQOdwu"
            ],
            "longitude": "-118.7559973"
        },
        "turlock community theatre": {
            "latitude": "37.4993327",
            "closest_to": "sacramento",
            "address": "Turlock Community Theater, East Canal Drive, Turlock, Stanislaus County, California, 95380, United States of America",
            "locType": "theatre",
            "blogLinks": [
                "http://www.visitcentralvalley.com/places/"
            ],
            "longitude": "-120.832241"
        },
        "mount ritter": {
            "latitude": "37.689378",
            "closest_to": "sacramento",
            "address": "Mount Ritter, Madera County, California, United States of America",
            "locType": "peak",
            "blogLinks": [
                "http://beautifulplacestovisit.com/tag/california/"
            ],
            "longitude": "-119.1990297"
        },
        "nevada": {
            "latitude": "39.3540335",
            "closest_to": "sacramento",
            "address": "Nevada County, California, United States of America",
            "locType": "administrative",
            "blogLinks": [
                "http://beautifulplacestovisit.com/tag/california/",
                "https://www.trekaroo.com/places/california/snapshot"
            ],
            "longitude": "-120.8089842"
        },
        "san joaquin valley": {
            "latitude": "37.9372901",
            "closest_to": "sacramento",
            "address": "San Joaquin County, California, United States of America",
            "locType": "administrative",
            "blogLinks": [
                "http://gocalifornia.about.com/od/topcalifornia/ss/Los-Angeles-to-San-Francisco-on-I-5.htm",
                "https://www.cheaptickets.com/lp/flights/602988/180049/fresno-to-sacramento",
                "http://traveltips.usatoday.com/driving-sacramento-los-angeles-108352.html"
            ],
            "longitude": "-121.2773718"
        },
        "bodie state historic park": {
            "latitude": "38.2154734",
            "closest_to": "sacramento",
            "address": "Bodie State Historic Park, Street, Bodie, Mono County, California, United States of America",
            "locType": "park",
            "blogLinks": [
                "http://www.roadsideamerica.com/location/ca"
            ],
            "longitude": "-119.0109761"
        },
        "chinatown": {
            "latitude": "37.7999301",
            "closest_to": "sacramento",
            "address": "Chinatown, Oakland, Alameda County, California, ca, United States of America",
            "locType": "neighbourhood",
            "blogLinks": [
                "https://www.trekaroo.com/places/california/snapshot"
            ],
            "longitude": "-122.2702385"
        },
        "central valley california": {
            "latitude": "40.5626504",
            "closest_to": "sacramento",
            "address": "KNNN-FM (Central Valley), Rattlesnake Drive, Shasta County, California, 96001, United States of America",
            "locType": "tower",
            "blogLinks": [
                "http://www.visitcentralvalley.com/places/"
            ],
            "longitude": "-122.4530663"
        },
        "sacramento": {
            "latitude": "38.5815719",
            "closest_to": "sacramento",
            "address": "Sacramento, Sacramento County, California, United States of America",
            "locType": "city",
            "blogLinks": [
                "http://www.travbuddy.com/California-travel-guide-p85",
                "https://www.cheaptickets.com/lp/flights/602988/180049/fresno-to-sacramento",
                "https://www.tripadvisor.com/ShowTopic-g61000-i315-k5072708-What_Is_there_to_see_between_Yosemite_and_Sacramento-Yosemite_National_Park_California.html",
                "http://sacramento.cbslocal.com/top-lists/getaway-guide-weekend-road-trip-to-reno/",
                "http://gocalifornia.about.com/od/topcalifornia/ss/Los-Angeles-to-San-Francisco-on-I-5.htm",
                "https://answers.yahoo.com/question/index?qid=20100313162058AAQOdwu",
                "http://www.fresno.gov/Residents/ThingsToDo/",
                "https://www.trekaroo.com/places/california/snapshot",
                "http://traveltips.usatoday.com/driving-sacramento-los-angeles-108352.html",
                "http://www.visitcentralvalley.com/places/"
            ],
            "longitude": "-121.4943995"
        },
        "vagabond inn executive old town": {
            "latitude": "38.58333915",
            "closest_to": "sacramento",
            "address": "Vagabond Inn Executive Old Town, 909, 3rd Street, Sacramento, Sacramento County, California, 95814, United States of America",
            "locType": "motel",
            "blogLinks": [
                "https://www.cheaptickets.com/lp/flights/602988/180049/fresno-to-sacramento"
            ],
            "longitude": "-121.501724950116"
        },
        "d.c.": {
            "latitude": "36.82841715",
            "closest_to": "sacramento",
            "address": "CL, Clovis, Fresno County, California, 93612, United States of America",
            "locType": "basin",
            "blogLinks": [
                "http://sacramento.cbslocal.com/top-lists/getaway-guide-weekend-road-trip-to-reno/"
            ],
            "longitude": "-119.728121480654"
        },
        "fresno yosemite international airport": {
            "latitude": "36.77616835",
            "closest_to": "sacramento",
            "address": "Fresno Yosemite International Airport, East Andersen Avenue, Fresno County, California, 93727, United States of America",
            "locType": "aerodrome",
            "blogLinks": [
                "https://www.cheaptickets.com/lp/flights/602988/180049/fresno-to-sacramento"
            ],
            "longitude": "-119.719956716463"
        },
        "downtown sacramento": {
            "latitude": "38.57433815",
            "closest_to": "sacramento",
            "address": "downtown, Quill Alley, Sacramento, Sacramento County, California, 95814, United States of America",
            "locType": "public_building",
            "blogLinks": [
                "https://www.cheaptickets.com/lp/flights/602988/180049/fresno-to-sacramento"
            ],
            "longitude": "-121.506844644067"
        },
        "north valley": {
            "latitude": "37.3863287",
            "closest_to": "sacramento",
            "address": "Berryessa, San Jos\u00e9, Santa Clara County, California, United States of America",
            "locType": "suburb",
            "blogLinks": [
                "https://www.trekaroo.com/places/california/snapshot"
            ],
            "longitude": "-121.8605103"
        },
        "oakland": {
            "latitude": "37.8044557",
            "closest_to": "sacramento",
            "address": "Oakland, Alameda County, California, United States of America",
            "locType": "city",
            "blogLinks": [
                "http://www.travbuddy.com/California-travel-guide-p85"
            ],
            "longitude": "-122.2713562"
        },
        "carson city": {
            "latitude": "39.125696",
            "closest_to": "sacramento",
            "address": "California Street, Carson City, Nevada, 89701, United States of America",
            "locType": "residential",
            "blogLinks": [
                "http://sacramento.cbslocal.com/top-lists/getaway-guide-weekend-road-trip-to-reno/"
            ],
            "longitude": "-119.7658449"
        },
        "buttonwillow": {
            "latitude": "35.3997369",
            "closest_to": "fresno",
            "address": "Buttonwillow, Kern County, California, United States of America",
            "locType": "village",
            "blogLinks": [
                "http://gocalifornia.about.com/od/topcalifornia/ss/Los-Angeles-to-San-Francisco-on-I-5.htm"
            ],
            "longitude": "-119.474104"
        },
        "' death valley national park": {
            "latitude": "36.4914385",
            "closest_to": "fresno",
            "address": "Death Valley National Park, Lucky Wash Road, Skidoo, Inyo County, California, United States of America",
            "locType": "national_park",
            "blogLinks": [
                "https://www.trekaroo.com/places/california/snapshot"
            ],
            "longitude": "-117.102293507719"
        },
        "lodi": {
            "latitude": "38.097198",
            "closest_to": "sacramento",
            "address": "Lodi, San Joaquin County, California, United States of America",
            "locType": "city",
            "blogLinks": [
                "http://traveltips.usatoday.com/driving-sacramento-los-angeles-108352.html",
                "http://www.visitcentralvalley.com/places/"
            ],
            "longitude": "-121.387849546574"
        },
        "madison ave. sacramento": {
            "latitude": "38.664093",
            "closest_to": "sacramento",
            "address": "Madison Avenue, Citrus Heights, Sacramento County, California, 95628, United States of America",
            "locType": "primary",
            "blogLinks": [
                "http://sacramento.cbslocal.com/top-lists/getaway-guide-weekend-road-trip-to-reno/"
            ],
            "longitude": "-121.2647048"
        },
        "sacramento international airport": {
            "latitude": "38.68722345",
            "closest_to": "sacramento",
            "address": "Sacramento International Airport, Airport Boulevard, Sacramento County, California, 95837, United States of America",
            "locType": "aerodrome",
            "blogLinks": [
                "https://www.cheaptickets.com/lp/flights/602988/180049/fresno-to-sacramento"
            ],
            "longitude": "-121.590370180632"
        },
        "pacific ocean": {
            "latitude": "36.16305775",
            "closest_to": "fresno",
            "address": "Pacific Ocean, Cabrillo Highway, Monterey County, California, 93920, United States of America",
            "locType": "cliff",
            "blogLinks": [
                "http://www.travbuddy.com/California-travel-guide-p85",
                "http://traveltips.usatoday.com/driving-sacramento-los-angeles-108352.html"
            ],
            "longitude": "-121.678715787326"
        },
        "san francisco": {
            "latitude": "37.7792808",
            "closest_to": "sacramento",
            "address": "SF, California, United States of America",
            "locType": "city",
            "blogLinks": [
                "http://www.travbuddy.com/California-travel-guide-p85",
                "http://gocalifornia.about.com/od/topcalifornia/ss/Los-Angeles-to-San-Francisco-on-I-5.htm",
                "https://www.trekaroo.com/places/california/snapshot",
                "http://www.roadsideamerica.com/location/ca/all",
                "http://www.roadsideamerica.com/location/ca",
                "http://traveltips.usatoday.com/driving-sacramento-los-angeles-108352.html",
                "http://www.visitcentralvalley.com/places/"
            ],
            "longitude": "-122.4192362"
        },
        "coalinga": {
            "latitude": "36.1298952",
            "closest_to": "fresno",
            "address": "Coalinga, Fresno County, California, United States of America",
            "locType": "city",
            "blogLinks": [
                "http://www.roadsideamerica.com/location/ca"
            ],
            "longitude": "-120.245046293019"
        },
        "parkway": {
            "latitude": "38.6789915",
            "closest_to": "sacramento",
            "address": "The Parkway, Sacramento County, California, United States of America",
            "locType": "village",
            "blogLinks": [
                "http://www.visitcentralvalley.com/places/"
            ],
            "longitude": "-121.1226108"
        },
        "bay area": {
            "latitude": "37.7884969",
            "closest_to": "sacramento",
            "address": "San Francisco Bay Area, SF, California, United States of America",
            "locType": "region",
            "blogLinks": [
                "http://traveltips.usatoday.com/driving-sacramento-los-angeles-108352.html",
                "https://answers.yahoo.com/question/index?qid=20100313162058AAQOdwu"
            ],
            "longitude": "-122.3558472"
        },
        "united states": {
            "latitude": "36.7014631",
            "closest_to": "fresno",
            "address": "California, United States of America",
            "locType": "administrative",
            "blogLinks": [
                "http://beautifulplacestovisit.com/tag/california/",
                "https://www.tripadvisor.com/Attractions-g32414-Activities-Fresno_California.html",
                "https://www.tripadvisor.com/ShowTopic-g61000-i315-k5072708-What_Is_there_to_see_between_Yosemite_and_Sacramento-Yosemite_National_Park_California.html",
                "https://www.trekaroo.com/places/california/snapshot",
                "http://www.visitcentralvalley.com/places/"
            ],
            "longitude": "-118.7559973"
        },
        "morro bay": {
            "latitude": "35.3658075",
            "closest_to": "fresno",
            "address": "Morro Bay, San Luis Obispo County, California, United States of America",
            "locType": "city",
            "blogLinks": [
                "http://traveltips.usatoday.com/driving-sacramento-los-angeles-108352.html"
            ],
            "longitude": "-120.8499012"
        },
        "sequoia national park": {
            "latitude": "36.49584065",
            "closest_to": "fresno",
            "address": "Sequoia National Park, Black Rock Pass Trail, Mineral King, Tulare County, California, United States of America",
            "locType": "national_park",
            "blogLinks": [
                "http://www.roadsideamerica.com/location/ca",
                "http://www.visitcentralvalley.com/places/"
            ],
            "longitude": "-118.559919284386"
        },
        "sierra": {
            "latitude": "39.5849065",
            "closest_to": "sacramento",
            "address": "Sierra County, California, United States of America",
            "locType": "administrative",
            "blogLinks": [
                "http://sacramento.cbslocal.com/top-lists/getaway-guide-weekend-road-trip-to-reno/",
                "http://www.visitcentralvalley.com/places/"
            ],
            "longitude": "-120.530573"
        },
        "galena creek": {
            "latitude": "36.2461416",
            "closest_to": "fresno",
            "address": "Galena Creek, Tulare County, California, United States of America",
            "locType": "stream",
            "blogLinks": [
                "http://sacramento.cbslocal.com/top-lists/getaway-guide-weekend-road-trip-to-reno/"
            ],
            "longitude": "-118.651773"
        },
        "pacifica": {
            "latitude": "37.6138253",
            "closest_to": "sacramento",
            "address": "Pacifica, San Mateo County, California, United States of America",
            "locType": "city",
            "blogLinks": [
                "http://www.roadsideamerica.com/location/ca"
            ],
            "longitude": "-122.4869193"
        },
        "yosemite national park": {
            "latitude": "37.84054795",
            "closest_to": "sacramento",
            "address": "Yosemite National Park, Mt. Hoffmann Trail, Mariposa County, California, United States of America",
            "locType": "national_park",
            "blogLinks": [
                "http://www.travbuddy.com/California-travel-guide-p85",
                "http://beautifulplacestovisit.com/tag/california/",
                "https://www.trekaroo.com/places/california/snapshot",
                "http://www.visitcentralvalley.com/places/"
            ],
            "longitude": "-119.516587698025"
        },
        "oroville": {
            "latitude": "39.5137752",
            "closest_to": "sacramento",
            "address": "Oroville, Butte County, California, United States of America",
            "locType": "city",
            "blogLinks": [
                "http://www.roadsideamerica.com/location/ca"
            ],
            "longitude": "-121.5563589"
        },
        "thousand island lake": {
            "latitude": "37.7198666",
            "closest_to": "sacramento",
            "address": "Thousand Island Lake, John Muir Trail, Tuolumne County, California, United States of America",
            "locType": "water",
            "blogLinks": [
                "http://beautifulplacestovisit.com/tag/california/"
            ],
            "longitude": "-119.186274380556"
        },
        "san jose international airport": {
            "latitude": "37.36312115",
            "closest_to": "sacramento",
            "address": "Norman Y. Mineta San Jose International Airport, Terminal Drive, Rose Garden, San Jos\u00e9, Santa Clara County, California, 95110, United States of America",
            "locType": "aerodrome",
            "blogLinks": [
                "http://beautifulplacestovisit.com/tag/california/"
            ],
            "longitude": "-121.928592538997"
        },
        "geyserville": {
            "latitude": "38.707687",
            "closest_to": "sacramento",
            "address": "Geyserville, Sonoma County, California, United States of America",
            "locType": "hamlet",
            "blogLinks": [
                "http://www.roadsideamerica.com/location/ca"
            ],
            "longitude": "-122.9024963"
        },
        "cesar chavez park": {
            "latitude": "37.8718002",
            "closest_to": "sacramento",
            "address": "Cesar Chavez Park, Spinnaker Way, Berkeley Marina, Berkeley, Alameda County, California, 94710, United States of America",
            "locType": "park",
            "blogLinks": [
                "https://www.cheaptickets.com/lp/flights/602988/180049/fresno-to-sacramento"
            ],
            "longitude": "-122.318934010354"
        },
        "richmond": {
            "latitude": "37.9357576",
            "closest_to": "sacramento",
            "address": "Richmond, Contra Costa County, California, United States of America",
            "locType": "city",
            "blogLinks": [
                "http://www.roadsideamerica.com/location/ca"
            ],
            "longitude": "-122.3477485"
        },
        "bakersfield": {
            "latitude": "35.3738712",
            "closest_to": "fresno",
            "address": "Bakersfield, Kern County, California, United States of America",
            "locType": "city",
            "blogLinks": [
                "http://www.roadsideamerica.com/location/ca",
                "http://traveltips.usatoday.com/driving-sacramento-los-angeles-108352.html",
                "https://answers.yahoo.com/question/index?qid=20100313162058AAQOdwu",
                "http://www.visitcentralvalley.com/places/"
            ],
            "longitude": "-119.0194638"
        },
        "joaquin county": {
            "latitude": "37.9372901",
            "closest_to": "sacramento",
            "address": "San Joaquin County, California, United States of America",
            "locType": "administrative",
            "blogLinks": [
                "http://www.visitcentralvalley.com/places/"
            ],
            "longitude": "-121.2773718"
        },
        "atascadero": {
            "latitude": "35.4894169",
            "closest_to": "fresno",
            "address": "Atascadero, San Luis Obispo County, California, United States of America",
            "locType": "city",
            "blogLinks": [
                "http://www.roadsideamerica.com/location/ca"
            ],
            "longitude": "-120.6707254"
        },
        "transverse range": {
            "latitude": "37.7716493",
            "closest_to": "sacramento",
            "address": "Transverse Drive, Richmond District, SF, California, 94121, United States of America",
            "locType": "unclassified",
            "blogLinks": [
                "http://gocalifornia.about.com/od/topcalifornia/ss/Los-Angeles-to-San-Francisco-on-I-5.htm"
            ],
            "longitude": "-122.4815799"
        },
        "san joaquin": {
            "latitude": "37.9372901",
            "closest_to": "sacramento",
            "address": "San Joaquin County, California, United States of America",
            "locType": "administrative",
            "blogLinks": [
                "http://www.visitcentralvalley.com/places/"
            ],
            "longitude": "-121.2773718"
        },
        "colma": {
            "latitude": "37.6768779",
            "closest_to": "sacramento",
            "address": "Colma, San Mateo County, California, United States of America",
            "locType": "administrative",
            "blogLinks": [
                "http://www.roadsideamerica.com/location/ca"
            ],
            "longitude": "-122.4596949"
        },
        "lake ediza": {
            "latitude": "37.6853376",
            "closest_to": "sacramento",
            "address": "Ediza Lake, Shadow Creek Trail, Madera County, California, United States of America",
            "locType": "water",
            "blogLinks": [
                "http://beautifulplacestovisit.com/tag/california/"
            ],
            "longitude": "-119.166652249367"
        },
        "california aqueduct": {
            "latitude": "36.2979299",
            "closest_to": "fresno",
            "address": "California Aqueduct, Fresno County, California, United States of America",
            "locType": "canal",
            "blogLinks": [
                "http://gocalifornia.about.com/od/topcalifornia/ss/Los-Angeles-to-San-Francisco-on-I-5.htm"
            ],
            "longitude": "-120.1567036"
        },
        "e. clinton way": {
            "latitude": "36.7721559",
            "closest_to": "sacramento",
            "address": "East Clinton Way, Fresno County, California, 93727, United States of America",
            "locType": "secondary",
            "blogLinks": [
                "https://www.cheaptickets.com/lp/flights/602988/180049/fresno-to-sacramento"
            ],
            "longitude": "-119.7258759"
        },
        "carmel": {
            "latitude": "38.75511285",
            "closest_to": "sacramento",
            "address": "Carmel, Roseville, Placer County, California, 95747, United States of America",
            "locType": "residential",
            "blogLinks": [
                "http://www.travbuddy.com/California-travel-guide-p85",
                "http://traveltips.usatoday.com/driving-sacramento-los-angeles-108352.html",
                "https://www.trekaroo.com/places/california/snapshot"
            ],
            "longitude": "-121.353308848273"
        },
        "grover hot springs": {
            "latitude": "38.69603205",
            "closest_to": "sacramento",
            "address": "Grover Hot Springs, Hot Springs Cutoff Trail, Shay Creek Summer Home Area, Alpine County, California, United States of America",
            "locType": "swimming_pool",
            "blogLinks": [
                "https://www.tripadvisor.com/ShowTopic-g61000-i315-k5072708-What_Is_there_to_see_between_Yosemite_and_Sacramento-Yosemite_National_Park_California.html"
            ],
            "longitude": "-119.84365679661"
        },
        "fairfield": {
            "latitude": "38.2493581",
            "closest_to": "sacramento",
            "address": "Fairfield, Solano County, California, United States of America",
            "locType": "city",
            "blogLinks": [
                "http://www.visitcentralvalley.com/places/"
            ],
            "longitude": "-122.0399662"
        },
        "vacaville": {
            "latitude": "38.3565773",
            "closest_to": "sacramento",
            "address": "Vacaville, Solano County, California, United States of America",
            "locType": "city",
            "blogLinks": [
                "http://www.visitcentralvalley.com/places/"
            ],
            "longitude": "-121.9877443"
        },
        "owens river": {
            "latitude": "37.4100005",
            "closest_to": "fresno",
            "address": "Owens River, Inyo County, California, United States of America",
            "locType": "river",
            "blogLinks": [
                "http://gocalifornia.about.com/od/topcalifornia/ss/Los-Angeles-to-San-Francisco-on-I-5.htm"
            ],
            "longitude": "-118.3819013"
        },
        "bear mountain road": {
            "latitude": "40.721773",
            "closest_to": "sacramento",
            "address": "Bear Mountain Road, Sherman, Shasta County, California, United States of America",
            "locType": "tertiary",
            "blogLinks": [
                "http://gocalifornia.about.com/od/topcalifornia/ss/Los-Angeles-to-San-Francisco-on-I-5.htm"
            ],
            "longitude": "-122.2381749"
        }
    },
    "sacramento": {
        "type": "city",
        "osm_id": "6232940",
        "class": "place",
        "importance": 0.80674211027009,
        "lat": "38.5815719",
        "lon": "-121.4943995",
        "boundingbox": [
            "38.437574",
            "38.685507",
            "-121.5601199",
            "-121.3627399"
        ],
        "display_name": "Sacramento, Sacramento County, California, United States of America",
        "licence": "Data \u00a9 OpenStreetMap contributors, ODbL 1.0. http://www.openstreetmap.org/copyright",
        "icon": "https://nominatim.openstreetmap.org/images/mapicons/poi_place_city.p.20.png",
        "place_id": "159758891",
        "osm_type": "relation"
    }
}