{
    "fresno": {
        "type": "city",
        "osm_id": "33120274",
        "class": "place",
        "importance": 0.79213103374115,
        "lat": "36.748793",
        "lon": "-119.714839601149",
        "boundingbox": [
            "36.747122",
            "36.75042",
            "-119.7159249",
            "-119.7091549"
        ],
        "display_name": "Fresno, Fresno County, California, United States of America",
        "licence": "Data \u00a9 OpenStreetMap contributors, ODbL 1.0. http://www.openstreetmap.org/copyright",
        "icon": "https://nominatim.openstreetmap.org/images/mapicons/poi_place_city.p.20.png",
        "place_id": "72530219",
        "osm_type": "way"
    },
    "mentions": {
        "upper lake": {
            "latitude": "39.1480125",
            "closest_to": "sausalito",
            "address": "Upper Lake, Mackie Road, Upper Lake, Lake County, California, 95485, United States of America",
            "locType": "administrative",
            "blogLinks": [
                "http://www.fortbragg.com/services/plan/"
            ],
            "longitude": "-122.903168583979"
        },
        "golden gate bridge": {
            "latitude": "37.8302809",
            "closest_to": "sausalito",
            "address": "Golden Gate Bridge, Waldo, Marin County, California, 94965, United States of America",
            "locType": "motorway",
            "blogLinks": [
                "http://www.fortbragg.com/services/plan/",
                "https://www.nps.gov/state/ca/index.htm?program=all"
            ],
            "longitude": "-122.4798473"
        },
        "santa rosa": {
            "latitude": "38.4404675",
            "closest_to": "sausalito",
            "address": "Santa Rosa, Sonoma County, California, United States of America",
            "locType": "city",
            "blogLinks": [
                "http://www.fortbragg.com/services/plan/"
            ],
            "longitude": "-122.7144313"
        },
        "usa": {
            "latitude": "36.7014631",
            "closest_to": "fresno",
            "address": "California, United States of America",
            "locType": "administrative",
            "blogLinks": [
                "http://www.distancesfrom.com/us/distance-from-Sausalito-to-Fresno/DistanceHistory/23952254.aspx"
            ],
            "longitude": "-118.7559973"
        },
        "sichuan": {
            "latitude": "37.56378245",
            "closest_to": "sausalito",
            "address": "Little Sichuan Restaurant, 168, East 4th Avenue, San Mateo, San Mateo County, California, 94401, United States of America",
            "locType": "restaurant",
            "blogLinks": [
                "https://www.tripadvisor.com/ShowTopic-g32414-i734-k3074000-Fresno_and_then_drive_to_San_Francisco-Fresno_California.html"
            ],
            "longitude": "-122.322374690783"
        },
        "san joaquin valley": {
            "latitude": "37.9372901",
            "closest_to": "sausalito",
            "address": "San Joaquin County, California, United States of America",
            "locType": "administrative",
            "blogLinks": [
                "https://www.mapquest.com/us/ca/fresno-282039231",
                "https://www.nps.gov/state/ca/index.htm?program=all",
                "https://www.thecrazytourist.com/top-25-things-to-do-in-fresno/",
                "https://www.tripadvisor.com/ShowTopic-g32414-i734-k3074000-Fresno_and_then_drive_to_San_Francisco-Fresno_California.html"
            ],
            "longitude": "-121.2773718"
        },
        "broadway": {
            "latitude": "37.7958391",
            "closest_to": "sausalito",
            "address": "Broadway, Russian Hill, SF, California, 94109;94115, United States of America",
            "locType": "primary",
            "blogLinks": [
                "http://www.fresnobee.com/entertainment/article52496915.html"
            ],
            "longitude": "-122.4226908"
        },
        "monterey bay": {
            "latitude": "36.7999557",
            "closest_to": "sausalito",
            "address": "Monterey Bay, Monterey County, California, United States of America",
            "locType": "bay",
            "blogLinks": [
                "http://www.travbuddy.com/California-popular-cities-p85"
            ],
            "longitude": "-121.9010667"
        },
        "oakhurst": {
            "latitude": "37.333178",
            "closest_to": "sausalito",
            "address": "Oakhurst, Junction Drive, Oakhurst, Madera County, California, 93644, United States of America",
            "locType": "administrative",
            "blogLinks": [
                "http://www.travbuddy.com/California-popular-cities-p85"
            ],
            "longitude": "-119.657244022836"
        },
        "el dorado county": {
            "latitude": "38.7574137",
            "closest_to": "sausalito",
            "address": "El Dorado County, California, United States of America",
            "locType": "administrative",
            "blogLinks": [
                "http://www.travbuddy.com/California-popular-cities-p85"
            ],
            "longitude": "-120.5276128"
        },
        "santa cruz mountains.the": {
            "latitude": "37.2188403",
            "closest_to": "sausalito",
            "address": "Santa Cruz Mountains, Santa Clara County, California, United States of America",
            "locType": "mountain_range",
            "blogLinks": [
                "http://www.travbuddy.com/California-popular-cities-p85"
            ],
            "longitude": "-122.0712855"
        },
        "san luis obispo county": {
            "latitude": "35.3540209",
            "closest_to": "fresno",
            "address": "San Luis Obispo County, California, United States of America",
            "locType": "administrative",
            "blogLinks": [
                "http://www.travbuddy.com/California-popular-cities-p85"
            ],
            "longitude": "-120.3757162"
        },
        "mission bay ca": {
            "latitude": "37.7707742",
            "closest_to": "sausalito",
            "address": "Mission Bay, SF, California, 94158, United States of America",
            "locType": "neighbourhood",
            "blogLinks": [
                "http://www.california-blog.com/"
            ],
            "longitude": "-122.3911711"
        },
        "san francisco maritime national historical park": {
            "latitude": "37.8065013",
            "closest_to": "sausalito",
            "address": "San Francisco Maritime National Historical Park, Beach Street, Russian Hill, SF, California, 94109, United States of America",
            "locType": "park",
            "blogLinks": [
                "https://www.nps.gov/state/ca/index.htm?program=all"
            ],
            "longitude": "-122.4233938"
        },
        "boonville": {
            "latitude": "39.0091667",
            "closest_to": "sausalito",
            "address": "Boonville, Mendocino County, California, 95415, United States of America",
            "locType": "village",
            "blogLinks": [
                "http://www.fortbragg.com/services/plan/"
            ],
            "longitude": "-123.366111"
        },
        "san francisco bay area": {
            "latitude": "37.7884969",
            "closest_to": "sausalito",
            "address": "San Francisco Bay Area, SF, California, United States of America",
            "locType": "region",
            "blogLinks": [
                "http://www.travbuddy.com/California-popular-cities-p85"
            ],
            "longitude": "-122.3558472"
        },
        "old town clovis": {
            "latitude": "36.8339731",
            "closest_to": "sausalito",
            "address": "Old Town Trail, Clovis, Fresno County, California, 93612, United States of America",
            "locType": "cycleway",
            "blogLinks": [
                "http://www.fresnobee.com/entertainment/article52496915.html"
            ],
            "longitude": "-119.7044089"
        },
        "sausalito": {
            "latitude": "37.8590272",
            "closest_to": "sausalito",
            "address": "Sausalito, Marin County, California, United States of America",
            "locType": "administrative",
            "blogLinks": [
                "http://www.distancesfrom.com/us/distance-from-Sausalito-to-Fresno/DistanceHistory/23952254.aspx",
                "http://www.california-blog.com/"
            ],
            "longitude": "-122.4854693"
        },
        "fresno state": {
            "latitude": "36.819475",
            "closest_to": "sausalito",
            "address": "California State University, Fresno, East Portals Avenue, Fresno County, California, 93710, United States of America",
            "locType": "university",
            "blogLinks": [
                "https://www.tripadvisor.com/ShowTopic-g32414-i734-k3074000-Fresno_and_then_drive_to_San_Francisco-Fresno_California.html"
            ],
            "longitude": "-119.740682156189"
        },
        "balclutha": {
            "latitude": "37.80978955",
            "closest_to": "sausalito",
            "address": "Balclutha, Hyde Street Pier, Russian Hill, SF, California, CA 94133, United States of America",
            "locType": "attraction",
            "blogLinks": [
                "https://www.nps.gov/state/ca/index.htm?program=all"
            ],
            "longitude": "-122.42252483534"
        },
        "san simeon": {
            "latitude": "35.6438587",
            "closest_to": "sausalito",
            "address": "San Simeon, San Luis Obispo County, California, United States of America",
            "locType": "hamlet",
            "blogLinks": [
                "http://www.travbuddy.com/California-popular-cities-p85"
            ],
            "longitude": "-121.1907532"
        },
        "pacific": {
            "latitude": "38.7601815",
            "closest_to": "sausalito",
            "address": "Pacific, El Dorado County, California, United States of America",
            "locType": "hamlet",
            "blogLinks": [
                "https://www.nps.gov/state/ca/index.htm?program=all",
                "http://www.travbuddy.com/California-popular-cities-p85"
            ],
            "longitude": "-120.507146"
        },
        "edwards": {
            "latitude": "34.9260827",
            "closest_to": "fresno",
            "address": "Edwards, Kern County, California, United States of America",
            "locType": "hamlet",
            "blogLinks": [
                "http://www.fresnobee.com/entertainment/article52496915.html"
            ],
            "longitude": "-117.9350682"
        },
        "sonoma": {
            "latitude": "38.5110803",
            "closest_to": "sausalito",
            "address": "Sonoma County, California, United States of America",
            "locType": "administrative",
            "blogLinks": [
                "http://www.fortbragg.com/services/plan/"
            ],
            "longitude": "-122.8473387"
        },
        "san juan bautista": {
            "latitude": "36.8455173",
            "closest_to": "sausalito",
            "address": "San Juan Bautista, San Benito County, California, United States of America",
            "locType": "city",
            "blogLinks": [
                "https://www.tripadvisor.com/ShowTopic-g32414-i734-k3074000-Fresno_and_then_drive_to_San_Francisco-Fresno_California.html"
            ],
            "longitude": "-121.5379893"
        },
        "fort bragg": {
            "latitude": "39.4447345",
            "closest_to": "sausalito",
            "address": "Fort Bragg, Mendocino County, California, United States of America",
            "locType": "city",
            "blogLinks": [
                "http://www.fortbragg.com/services/plan/",
                "https://www.nps.gov/state/ca/index.htm?program=all"
            ],
            "longitude": "-123.802699105743"
        },
        "yosemite": {
            "latitude": "37.7488554",
            "closest_to": "sausalito",
            "address": "Yosemite, Village Drive, Yosemite Village, Yosemite Valley, Mariposa County, California, United States of America",
            "locType": "attraction",
            "blogLinks": [
                "http://www.fresnobee.com/entertainment/article52496915.html"
            ],
            "longitude": "-119.5893389"
        },
        "south lake tahoe": {
            "latitude": "38.929125",
            "closest_to": "sausalito",
            "address": "South Lake Tahoe, El Dorado County, California, United States of America",
            "locType": "city",
            "blogLinks": [
                "http://www.travbuddy.com/California-popular-cities-p85"
            ],
            "longitude": "-119.987846390157"
        },
        "san luis reservoir": {
            "latitude": "37.0679995",
            "closest_to": "sausalito",
            "address": "San Luis Reservoir, Gonzaga Road, Merced County, California, United States of America",
            "locType": "reservoir",
            "blogLinks": [
                "https://www.tripadvisor.com/ShowTopic-g32414-i734-k3074000-Fresno_and_then_drive_to_San_Francisco-Fresno_California.html"
            ],
            "longitude": "-121.0815892"
        },
        "san jose": {
            "latitude": "37.3361905",
            "closest_to": "sausalito",
            "address": "San Jos\u00e9, Santa Clara County, California, United States of America",
            "locType": "city",
            "blogLinks": [
                "https://www.tripadvisor.com/ShowTopic-g32414-i734-k3074000-Fresno_and_then_drive_to_San_Francisco-Fresno_California.html",
                "http://www.travbuddy.com/California-popular-cities-p85"
            ],
            "longitude": "-121.8905832"
        },
        "calico": {
            "latitude": "35.6327332",
            "closest_to": "fresno",
            "address": "Calico, Kern County, California, United States of America",
            "locType": "locality",
            "blogLinks": [
                "http://www.travbuddy.com/California-popular-cities-p85"
            ],
            "longitude": "-119.206496"
        },
        "fresno": {
            "latitude": "36.748793",
            "closest_to": "fresno",
            "address": "Fresno, Fresno County, California, United States of America",
            "locType": "city",
            "blogLinks": [
                "http://www.fresnobee.com/entertainment/article52496915.html",
                "https://www.mapquest.com/us/ca/fresno-282039231",
                "https://www.thecrazytourist.com/top-25-things-to-do-in-fresno/",
                "http://www.fortbragg.com/services/plan/",
                "https://www.tripadvisor.com/ShowTopic-g32414-i734-k3074000-Fresno_and_then_drive_to_San_Francisco-Fresno_California.html",
                "http://www.distancesfrom.com/us/distance-from-Sausalito-to-Fresno/DistanceHistory/23952254.aspx"
            ],
            "longitude": "-119.714839601149"
        },
        "north mendocino coast": {
            "latitude": "39.4219269",
            "closest_to": "sausalito",
            "address": "College of the Redwoods Mendocino Coast Campus, 1211, Del Mar Drive, Noyo, Mendocino County, California, 95437, United States of America",
            "locType": "college",
            "blogLinks": [
                "http://www.fortbragg.com/services/plan/"
            ],
            "longitude": "-123.811305914389"
        },
        "port chicago naval magazine": {
            "latitude": "38.0565864",
            "closest_to": "sausalito",
            "address": "Port Chicago Naval Magazine National Memorial, Kinney Boulevard, Clyde, Contra Costa County, California, United States of America",
            "locType": "park",
            "blogLinks": [
                "https://www.nps.gov/state/ca/index.htm?program=all"
            ],
            "longitude": "-122.0274629"
        },
        "solano county": {
            "latitude": "38.2218938",
            "closest_to": "sausalito",
            "address": "Solano County, California, United States of America",
            "locType": "administrative",
            "blogLinks": [
                "http://www.travbuddy.com/California-popular-cities-p85"
            ],
            "longitude": "-121.9163554"
        },
        "san francisco bay area of california": {
            "latitude": "37.7884969",
            "closest_to": "sausalito",
            "address": "San Francisco Bay Area, SF, California, United States of America",
            "locType": "region",
            "blogLinks": [
                "http://www.travbuddy.com/California-popular-cities-p85"
            ],
            "longitude": "-122.3558472"
        },
        "san francisco bay": {
            "latitude": "37.708264",
            "closest_to": "sausalito",
            "address": "San Francisco Bay, Ferry Landing, Alameda, Alameda County, California, 94502, United States of America",
            "locType": "bay",
            "blogLinks": [
                "https://www.nps.gov/state/ca/index.htm?program=all",
                "http://www.travbuddy.com/California-popular-cities-p85"
            ],
            "longitude": "-122.2802469"
        },
        "alcatraz island": {
            "latitude": "37.8267283",
            "closest_to": "sausalito",
            "address": "Alcatraz Island, SF, California, United States of America",
            "locType": "island",
            "blogLinks": [
                "https://www.nps.gov/state/ca/index.htm?program=all"
            ],
            "longitude": "-122.422746492409"
        },
        "ukiah": {
            "latitude": "39.1501662",
            "closest_to": "sausalito",
            "address": "Ukiah, Mendocino County, California, United States of America",
            "locType": "city",
            "blogLinks": [
                "http://www.fortbragg.com/services/plan/"
            ],
            "longitude": "-123.207786"
        },
        "ca": {
            "latitude": "37.8242285466918",
            "closest_to": "sausalito",
            "address": "Piedmont, Alameda County, California, ca, United States of America",
            "locType": "postcode",
            "blogLinks": [
                "http://www.distancesfrom.com/us/distance-from-Sausalito-to-Fresno/DistanceHistory/23952254.aspx"
            ],
            "longitude": "-122.232613735941"
        },
        "anderson valley": {
            "latitude": "39.1117345",
            "closest_to": "sausalito",
            "address": "L L Anderson 1030 Dam, Placer County, California, United States of America",
            "locType": "dam",
            "blogLinks": [
                "http://www.fortbragg.com/services/plan/"
            ],
            "longitude": "-120.4700107"
        },
        "berkeley": {
            "latitude": "37.8708393",
            "closest_to": "sausalito",
            "address": "Berkeley, Alameda County, California, United States of America",
            "locType": "city",
            "blogLinks": [
                "http://www.travbuddy.com/California-popular-cities-p85"
            ],
            "longitude": "-122.2728638"
        },
        "morro rock ca": {
            "latitude": "35.369669",
            "closest_to": "fresno",
            "address": "Morro Rock, Morro Bay, San Luis Obispo County, California, United States of America",
            "locType": "peak",
            "blogLinks": [
                "http://www.california-blog.com/"
            ],
            "longitude": "-120.8676993"
        },
        "downtown fresno": {
            "latitude": "36.7382823",
            "closest_to": "sausalito",
            "address": "The Downtown Church, Fulton Street, Fresno County, California, 93721, United States of America",
            "locType": "place_of_worship",
            "blogLinks": [
                "https://www.mapquest.com/us/ca/fresno-282039231"
            ],
            "longitude": "-119.7951447"
        },
        "pebble beach ca": {
            "latitude": "36.5664874",
            "closest_to": "sausalito",
            "address": "Pebble Beach, Monterey County, California, United States of America",
            "locType": "hamlet",
            "blogLinks": [
                "http://www.california-blog.com/"
            ],
            "longitude": "-121.9466112"
        },
        "pescadero": {
            "latitude": "37.2516018",
            "closest_to": "sausalito",
            "address": "Pescadero, San Mateo County, California, United States of America",
            "locType": "village",
            "blogLinks": [
                "https://www.tripadvisor.com/ShowTopic-g32414-i734-k3074000-Fresno_and_then_drive_to_San_Francisco-Fresno_California.html"
            ],
            "longitude": "-122.3821926"
        },
        "sierra nevada": {
            "latitude": "39.097593",
            "closest_to": "sausalito",
            "address": "Sierra, Wolf, Nevada County, California, 95949, United States of America",
            "locType": "residential",
            "blogLinks": [
                "https://www.nps.gov/state/ca/index.htm?program=all"
            ],
            "longitude": "-121.1396689"
        },
        "morro bay ca": {
            "latitude": "35.3658075",
            "closest_to": "fresno",
            "address": "Morro Bay, San Luis Obispo County, California, United States of America",
            "locType": "city",
            "blogLinks": [
                "http://www.california-blog.com/"
            ],
            "longitude": "-120.8499012"
        },
        "monterey peninsula ca": {
            "latitude": "36.5878734",
            "closest_to": "sausalito",
            "address": "Monterey Regional Airport, Airport Road, Seaside, Del Monte Heights, Monterey County, California, 93940, United States of America",
            "locType": "aerodrome",
            "blogLinks": [
                "http://www.california-blog.com/"
            ],
            "longitude": "-121.843618374407"
        },
        "forestiere underground gardens": {
            "latitude": "36.8075845",
            "closest_to": "sausalito",
            "address": "Forestiere Underground Gardens, 5021, West Shaw Avenue, Highway City, Fresno County, California, 93722, United States of America",
            "locType": "attraction",
            "blogLinks": [
                "https://www.thecrazytourist.com/top-25-things-to-do-in-fresno/"
            ],
            "longitude": "-119.881841"
        },
        "hopland": {
            "latitude": "38.9729542",
            "closest_to": "sausalito",
            "address": "Hopland, Mendocino County, California, United States of America",
            "locType": "hamlet",
            "blogLinks": [
                "http://www.fortbragg.com/services/plan/"
            ],
            "longitude": "-123.1163917"
        },
        "old town": {
            "latitude": "35.142943",
            "closest_to": "fresno",
            "address": "Old Town, Golden Hills, Kern County, California, United States of America",
            "locType": "locality",
            "blogLinks": [
                "http://www.fresnobee.com/entertainment/article52496915.html"
            ],
            "longitude": "-118.4954422"
        },
        "pearl harbor": {
            "latitude": "37.788139",
            "closest_to": "sausalito",
            "address": "Pearl Harbor Road, Woodstock, Alameda, Alameda County, California, 94501, United States of America",
            "locType": "residential",
            "blogLinks": [
                "https://www.nps.gov/state/ca/index.htm?program=all"
            ],
            "longitude": "-122.2948823"
        },
        "santa cruz": {
            "latitude": "36.9735903",
            "closest_to": "sausalito",
            "address": "Santa Cruz, Santa Cruz County, California, United States of America",
            "locType": "city",
            "blogLinks": [
                "https://www.tripadvisor.com/ShowTopic-g32414-i734-k3074000-Fresno_and_then_drive_to_San_Francisco-Fresno_California.html",
                "http://www.travbuddy.com/California-popular-cities-p85"
            ],
            "longitude": "-122.0260569"
        },
        "visalia": {
            "latitude": "36.3302284",
            "closest_to": "fresno",
            "address": "Visalia, Tulare County, California, United States of America",
            "locType": "city",
            "blogLinks": [
                "http://www.fresnobee.com/entertainment/article52496915.html"
            ],
            "longitude": "-119.2920584"
        },
        "san joaquin": {
            "latitude": "37.9372901",
            "closest_to": "sausalito",
            "address": "San Joaquin County, California, United States of America",
            "locType": "administrative",
            "blogLinks": [
                "https://www.mapquest.com/us/ca/fresno-282039231",
                "https://www.thecrazytourist.com/top-25-things-to-do-in-fresno/"
            ],
            "longitude": "-121.2773718"
        },
        "la": {
            "latitude": "36.7014631",
            "closest_to": "fresno",
            "address": "California, United States of America",
            "locType": "administrative",
            "blogLinks": [
                "https://www.tripadvisor.com/ShowTopic-g32414-i734-k3074000-Fresno_and_then_drive_to_San_Francisco-Fresno_California.html",
                "http://www.travbuddy.com/California-popular-cities-p85"
            ],
            "longitude": "-118.7559973"
        },
        "sierra vista": {
            "latitude": "37.1513327",
            "closest_to": "sausalito",
            "address": "Sierra Vista, Madera County, California, United States of America",
            "locType": "hamlet",
            "blogLinks": [
                "http://www.fresnobee.com/entertainment/article52496915.html"
            ],
            "longitude": "-120.2862883"
        },
        "death valley": {
            "latitude": "36.42404725",
            "closest_to": "fresno",
            "address": "Death Valley, Timbisha, Inyo County, California, 92328, United States of America",
            "locType": "desert",
            "blogLinks": [
                "https://www.nps.gov/state/ca/index.htm?program=all"
            ],
            "longitude": "-116.914043572057"
        },
        "mendocino county": {
            "latitude": "39.3176491",
            "closest_to": "sausalito",
            "address": "Mendocino County, California, United States of America",
            "locType": "administrative",
            "blogLinks": [
                "http://www.fortbragg.com/services/plan/"
            ],
            "longitude": "-123.4126398"
        },
        "fresno pacific": {
            "latitude": "36.72601005",
            "closest_to": "sausalito",
            "address": "Fresno Pacific University, East Heaton Avenue, Fresno County, California, 93727, United States of America",
            "locType": "university",
            "blogLinks": [
                "http://www.fresnobee.com/entertainment/article52496915.html"
            ],
            "longitude": "-119.734190004115"
        },
        "nevada city": {
            "latitude": "39.2615606",
            "closest_to": "sausalito",
            "address": "Nevada City, Nevada County, California, United States of America",
            "locType": "city",
            "blogLinks": [
                "https://www.nps.gov/state/ca/index.htm?program=all"
            ],
            "longitude": "-121.0160593"
        },
        "ojai valley": {
            "latitude": "34.4480495",
            "closest_to": "fresno",
            "address": "Ojai, Ventura County, California, United States of America",
            "locType": "city",
            "blogLinks": [
                "http://www.california-blog.com/"
            ],
            "longitude": "-119.2428889"
        },
        "willits": {
            "latitude": "39.4096043",
            "closest_to": "sausalito",
            "address": "Willits, Mendocino County, California, United States of America",
            "locType": "city",
            "blogLinks": [
                "http://www.fortbragg.com/services/plan/"
            ],
            "longitude": "-123.3555601"
        },
        "san francisco east": {
            "latitude": "37.7792808",
            "closest_to": "sausalito",
            "address": "SF, California, United States of America",
            "locType": "city",
            "blogLinks": [
                "https://www.nps.gov/state/ca/index.htm?program=all"
            ],
            "longitude": "-122.4192362"
        },
        "cloverdale": {
            "latitude": "38.8054624",
            "closest_to": "sausalito",
            "address": "Cloverdale, Sonoma County, California, United States of America",
            "locType": "city",
            "blogLinks": [
                "http://www.fortbragg.com/services/plan/"
            ],
            "longitude": "-123.0172226"
        },
        "us": {
            "latitude": "36.7014631",
            "closest_to": "fresno",
            "address": "California, United States of America",
            "locType": "administrative",
            "blogLinks": [
                "http://www.fortbragg.com/services/plan/",
                "https://www.nps.gov/state/ca/index.htm?program=all",
                "https://www.tripadvisor.com/ShowTopic-g32414-i734-k3074000-Fresno_and_then_drive_to_San_Francisco-Fresno_California.html",
                "http://www.travbuddy.com/California-popular-cities-p85"
            ],
            "longitude": "-118.7559973"
        },
        "sandusky county": {
            "latitude": "39.4898877",
            "closest_to": "sausalito",
            "address": "Sandusky Creek, Sierra County, California, United States of America",
            "locType": "stream",
            "blogLinks": [
                "http://www.travbuddy.com/California-popular-cities-p85"
            ],
            "longitude": "-120.8679252"
        },
        "fig garden": {
            "latitude": "35.3085705",
            "closest_to": "fresno",
            "address": "Fig Orchard, Kern County, California, United States of America",
            "locType": "hamlet",
            "blogLinks": [
                "http://www.fresnobee.com/entertainment/article52496915.html"
            ],
            "longitude": "-118.5825894"
        },
        "sonoma coast": {
            "latitude": "38.41699",
            "closest_to": "sausalito",
            "address": "Sonoma Coast State Park, Coast Highway, Carmet, Sonoma County, California, United States of America",
            "locType": "park",
            "blogLinks": [
                "http://www.fortbragg.com/services/plan/"
            ],
            "longitude": "-123.099028545174"
        },
        "oakland": {
            "latitude": "37.8044557",
            "closest_to": "sausalito",
            "address": "Oakland, Alameda County, California, United States of America",
            "locType": "city",
            "blogLinks": [
                "http://www.travbuddy.com/California-popular-cities-p85"
            ],
            "longitude": "-122.2713562"
        },
        "river park": {
            "latitude": "38.5840776",
            "closest_to": "sausalito",
            "address": "River Park, Erlewine Circle, Sacramento, Sacramento County, California, 95819, United States of America",
            "locType": "park",
            "blogLinks": [
                "http://www.fresnobee.com/entertainment/article52496915.html"
            ],
            "longitude": "-121.4486569"
        },
        "monterey": {
            "latitude": "36.5844165",
            "closest_to": "sausalito",
            "address": "Monterey, Monterey County, California, United States of America",
            "locType": "city",
            "blogLinks": [
                "http://www.travbuddy.com/California-popular-cities-p85"
            ],
            "longitude": "-121.866792846206"
        },
        "north lake ca": {
            "latitude": "37.76958295",
            "closest_to": "sausalito",
            "address": "North Lake, Chain of Lakes Drive East, Sunset District, SF, California, 94122, United States of America",
            "locType": "water",
            "blogLinks": [
                "http://www.california-blog.com/"
            ],
            "longitude": "-122.501983281136"
        },
        "marin county": {
            "latitude": "38.0409144",
            "closest_to": "sausalito",
            "address": "Marin County, California, United States of America",
            "locType": "administrative",
            "blogLinks": [
                "http://www.fortbragg.com/services/plan/"
            ],
            "longitude": "-122.6199637"
        },
        "woodward park": {
            "latitude": "37.7743722",
            "closest_to": "sausalito",
            "address": "Woodward Park, Primrose Avenue, Manteca, San Joaquin County, California, 95337, United States of America",
            "locType": "park",
            "blogLinks": [
                "https://www.mapquest.com/us/ca/fresno-282039231",
                "http://www.fresnobee.com/entertainment/article52496915.html"
            ],
            "longitude": "-121.2129963"
        },
        "mono lake ca": {
            "latitude": "38.0077189",
            "closest_to": "fresno",
            "address": "Mono Lake, Mono County, California, United States of America",
            "locType": "water",
            "blogLinks": [
                "http://www.california-blog.com/"
            ],
            "longitude": "-118.967033937845"
        },
        "jamaica": {
            "latitude": "35.350121",
            "closest_to": "fresno",
            "address": "Jamaica Way, Bakersfield, Kern County, California, 93309, United States of America",
            "locType": "residential",
            "blogLinks": [
                "https://www.mapquest.com/us/ca/fresno-282039231"
            ],
            "longitude": "-119.0832859"
        },
        "fulton mall": {
            "latitude": "36.73552975",
            "closest_to": "sausalito",
            "address": "Fulton Mall, Fresno County, California, 93701, United States of America",
            "locType": "commercial",
            "blogLinks": [
                "http://www.fresnobee.com/entertainment/article52496915.html"
            ],
            "longitude": "-119.791520463653"
        },
        "silicon valley": {
            "latitude": "37.4105333",
            "closest_to": "sausalito",
            "address": "Carnegie Mellon Silicon Valley, South Akron Road, Santa Clara County, California, 94035-0016, United States of America",
            "locType": "school",
            "blogLinks": [
                "http://www.travbuddy.com/California-popular-cities-p85"
            ],
            "longitude": "-122.0597491"
        },
        "napa valley ca": {
            "latitude": "38.2972603",
            "closest_to": "sausalito",
            "address": "California Boulevard, Napa, Napa County, California, 94558, United States of America",
            "locType": "secondary",
            "blogLinks": [
                "http://www.california-blog.com/"
            ],
            "longitude": "-122.3002947"
        },
        "santa clara county": {
            "latitude": "37.2333253",
            "closest_to": "sausalito",
            "address": "Santa Clara County, California, United States of America",
            "locType": "administrative",
            "blogLinks": [
                "http://www.travbuddy.com/California-popular-cities-p85"
            ],
            "longitude": "-121.6846348"
        },
        "casa de fruta": {
            "latitude": "36.9882491",
            "closest_to": "sausalito",
            "address": "Casa de Fruta, Casa de Fruta Parkway, San Felipe, Santa Clara County, California, United States of America",
            "locType": "restaurant",
            "blogLinks": [
                "https://www.tripadvisor.com/ShowTopic-g32414-i734-k3074000-Fresno_and_then_drive_to_San_Francisco-Fresno_California.html"
            ],
            "longitude": "-121.3824509"
        },
        "yuba city": {
            "latitude": "39.1404477",
            "closest_to": "sausalito",
            "address": "Yuba City, Sutter County, California, United States of America",
            "locType": "city",
            "blogLinks": [
                "http://www.fortbragg.com/services/plan/"
            ],
            "longitude": "-121.6169107"
        },
        "pacific ocean": {
            "latitude": "36.16305775",
            "closest_to": "sausalito",
            "address": "Pacific Ocean, Cabrillo Highway, Monterey County, California, 93920, United States of America",
            "locType": "cliff",
            "blogLinks": [
                "https://www.nps.gov/state/ca/index.htm?program=all",
                "http://www.travbuddy.com/California-popular-cities-p85"
            ],
            "longitude": "-121.678715787326"
        },
        "san francisco": {
            "latitude": "37.7792808",
            "closest_to": "sausalito",
            "address": "SF, California, United States of America",
            "locType": "city",
            "blogLinks": [
                "https://www.tripadvisor.com/ShowTopic-g32414-i734-k3074000-Fresno_and_then_drive_to_San_Francisco-Fresno_California.html",
                "http://www.fortbragg.com/services/plan/",
                "https://www.nps.gov/state/ca/index.htm?program=all",
                "https://www.tripadvisor.com/Attractions-g32414-Activities-Fresno_California.html",
                "http://www.travbuddy.com/California-popular-cities-p85"
            ],
            "longitude": "-122.4192362"
        },
        "pajaro river": {
            "latitude": "36.9792499",
            "closest_to": "sausalito",
            "address": "Pajaro River, San Benito County, California, United States of America",
            "locType": "river",
            "blogLinks": [
                "https://www.tripadvisor.com/ShowTopic-g32414-i734-k3074000-Fresno_and_then_drive_to_San_Francisco-Fresno_California.html"
            ],
            "longitude": "-121.4820156"
        },
        "sacramento": {
            "latitude": "38.5815719",
            "closest_to": "sausalito",
            "address": "Sacramento, Sacramento County, California, United States of America",
            "locType": "city",
            "blogLinks": [
                "http://www.fortbragg.com/services/plan/",
                "https://www.mapquest.com/us/ca/fresno-282039231"
            ],
            "longitude": "-121.4943995"
        },
        "kingsburg": {
            "latitude": "36.5138398",
            "closest_to": "fresno",
            "address": "Kingsburg, Fresno County, California, United States of America",
            "locType": "administrative",
            "blogLinks": [
                "http://www.fresnobee.com/entertainment/article52496915.html"
            ],
            "longitude": "-119.5538928"
        },
        "bay area": {
            "latitude": "37.7884969",
            "closest_to": "sausalito",
            "address": "San Francisco Bay Area, SF, California, United States of America",
            "locType": "region",
            "blogLinks": [
                "https://www.mapquest.com/us/ca/fresno-282039231",
                "https://www.tripadvisor.com/ShowTopic-g32414-i734-k3074000-Fresno_and_then_drive_to_San_Francisco-Fresno_California.html"
            ],
            "longitude": "-122.3558472"
        },
        "united states": {
            "latitude": "36.7014631",
            "closest_to": "fresno",
            "address": "California, United States of America",
            "locType": "administrative",
            "blogLinks": [
                "https://www.mapquest.com/us/ca/fresno-282039231",
                "https://www.nps.gov/state/ca/index.htm?program=all",
                "https://www.tripadvisor.com/Attractions-g32414-Activities-Fresno_California.html",
                "http://www.travbuddy.com/California-popular-cities-p85"
            ],
            "longitude": "-118.7559973"
        },
        "watsonville": {
            "latitude": "36.9092773",
            "closest_to": "sausalito",
            "address": "Watsonville, Santa Cruz County, California, United States of America",
            "locType": "city",
            "blogLinks": [
                "https://www.tripadvisor.com/ShowTopic-g32414-i734-k3074000-Fresno_and_then_drive_to_San_Francisco-Fresno_California.html"
            ],
            "longitude": "-121.752907"
        },
        "calistoga": {
            "latitude": "38.582615",
            "closest_to": "sausalito",
            "address": "Calistoga, Napa County, California, United States of America",
            "locType": "city",
            "blogLinks": [
                "http://www.travbuddy.com/California-popular-cities-p85"
            ],
            "longitude": "-122.583325948608"
        },
        "russian river": {
            "latitude": "38.4825985",
            "closest_to": "sausalito",
            "address": "Russian River, Sonoma County, California, United States of America",
            "locType": "river",
            "blogLinks": [
                "http://www.fortbragg.com/services/plan/"
            ],
            "longitude": "-123.0082118"
        },
        "pacifica": {
            "latitude": "37.6138253",
            "closest_to": "sausalito",
            "address": "Pacifica, San Mateo County, California, United States of America",
            "locType": "city",
            "blogLinks": [
                "https://www.tripadvisor.com/ShowTopic-g32414-i734-k3074000-Fresno_and_then_drive_to_San_Francisco-Fresno_California.html"
            ],
            "longitude": "-122.4869193"
        },
        "yosemite national park": {
            "latitude": "37.84054795",
            "closest_to": "sausalito",
            "address": "Yosemite National Park, Mt. Hoffmann Trail, Mariposa County, California, United States of America",
            "locType": "national_park",
            "blogLinks": [
                "http://www.fresnobee.com/entertainment/article52496915.html"
            ],
            "longitude": "-119.516587698025"
        },
        "south bay": {
            "latitude": "37.794096",
            "closest_to": "sausalito",
            "address": "South Bay, Sea Cliff Avenue, Seacliff, SF, California, 94121, United States of America",
            "locType": "bay",
            "blogLinks": [
                "http://www.travbuddy.com/California-popular-cities-p85"
            ],
            "longitude": "-122.4927499"
        },
        "williams": {
            "latitude": "39.1546137",
            "closest_to": "sausalito",
            "address": "Williams, Colusa County, California, United States of America",
            "locType": "city",
            "blogLinks": [
                "http://www.fortbragg.com/services/plan/"
            ],
            "longitude": "-122.1494186"
        },
        "bakersfield": {
            "latitude": "35.3738712",
            "closest_to": "fresno",
            "address": "Bakersfield, Kern County, California, United States of America",
            "locType": "city",
            "blogLinks": [
                "https://www.mapquest.com/us/ca/fresno-282039231"
            ],
            "longitude": "-119.0194638"
        },
        "nevada": {
            "latitude": "39.3540335",
            "closest_to": "sausalito",
            "address": "Nevada County, California, United States of America",
            "locType": "administrative",
            "blogLinks": [
                "https://www.nps.gov/state/ca/index.htm?program=all"
            ],
            "longitude": "-120.8089842"
        },
        "vallejo": {
            "latitude": "38.1040864",
            "closest_to": "sausalito",
            "address": "Vallejo, Solano County, California, United States of America",
            "locType": "city",
            "blogLinks": [
                "http://www.travbuddy.com/California-popular-cities-p85"
            ],
            "longitude": "-122.2566366"
        },
        "monterey bay aquarium ca": {
            "latitude": "36.61809095",
            "closest_to": "sausalito",
            "address": "MBA, 886, Cannery Row, Monterey, Monterey County, California, 93940, United States of America",
            "locType": "aquarium",
            "blogLinks": [
                "http://www.california-blog.com/"
            ],
            "longitude": "-121.901680002002"
        },
        "central california": {
            "latitude": "38.392688",
            "closest_to": "sausalito",
            "address": "Central, Yolo County, California, United States of America",
            "locType": "hamlet",
            "blogLinks": [
                "http://www.fresnobee.com/entertainment/article52496915.html"
            ],
            "longitude": "-121.573011"
        },
        "chukchansi park": {
            "latitude": "36.73201265",
            "closest_to": "sausalito",
            "address": "Chukchansi Park, Homerun Alley, Fresno County, California, 93721, United States of America",
            "locType": "stadium",
            "blogLinks": [
                "http://www.fresnobee.com/entertainment/article52496915.html"
            ],
            "longitude": "-119.790271628903"
        },
        "pinkham": {
            "latitude": "36.3126393",
            "closest_to": "fresno",
            "address": "South Pinkham Street, Visalia, Tulare County, California, 93292, United States of America",
            "locType": "tertiary",
            "blogLinks": [
                "https://www.nps.gov/state/ca/index.htm?program=all"
            ],
            "longitude": "-119.2695254"
        },
        "navarro river": {
            "latitude": "39.1749006",
            "closest_to": "sausalito",
            "address": "Navarro River Redwoods State Park, CA 128, Navarro, Mendocino County, California, 95463, United States of America",
            "locType": "park",
            "blogLinks": [
                "http://www.fortbragg.com/services/plan/"
            ],
            "longitude": "-123.6775135"
        },
        "america": {
            "latitude": "36.2573198",
            "closest_to": "fresno",
            "address": "America, Kings County, California, 93246, United States of America",
            "locType": "residential",
            "blogLinks": [
                "http://www.fresnobee.com/entertainment/article52496915.html"
            ],
            "longitude": "-119.8948706"
        },
        "half moon bay state beach": {
            "latitude": "37.47903115",
            "closest_to": "sausalito",
            "address": "Half Moon Bay State Beach, Venice Boulevard, Half Moon Bay, San Mateo County, California, 94019, United States of America",
            "locType": "beach",
            "blogLinks": [
                "https://www.tripoto.com/travel-guide/sausalito"
            ],
            "longitude": "-122.449789014662"
        },
        "kern river": {
            "latitude": "36.6816956",
            "closest_to": "fresno",
            "address": "Kern River, Tulare County, California, United States of America",
            "locType": "river",
            "blogLinks": [
                "http://www.california-blog.com/"
            ],
            "longitude": "-118.4124188"
        },
        "carmel": {
            "latitude": "38.75511285",
            "closest_to": "sausalito",
            "address": "Carmel, Roseville, Placer County, California, 95747, United States of America",
            "locType": "residential",
            "blogLinks": [
                "http://www.travbuddy.com/California-popular-cities-p85"
            ],
            "longitude": "-121.353308848273"
        },
        "hollister": {
            "latitude": "36.8524545",
            "closest_to": "sausalito",
            "address": "Hollister, San Benito County, California, United States of America",
            "locType": "administrative",
            "blogLinks": [
                "https://www.tripadvisor.com/ShowTopic-g32414-i734-k3074000-Fresno_and_then_drive_to_San_Francisco-Fresno_California.html"
            ],
            "longitude": "-121.401602"
        }
    },
    "sausalito": {
        "type": "administrative",
        "osm_id": "2829689",
        "class": "boundary",
        "importance": 0.64561533453658,
        "lat": "37.8590272",
        "lon": "-122.4854693",
        "boundingbox": [
            "37.8436795",
            "37.8731429",
            "-122.5102612",
            "-122.4753744"
        ],
        "display_name": "Sausalito, Marin County, California, United States of America",
        "licence": "Data \u00a9 OpenStreetMap contributors, ODbL 1.0. http://www.openstreetmap.org/copyright",
        "icon": "https://nominatim.openstreetmap.org/images/mapicons/poi_boundary_administrative.p.20.png",
        "place_id": "159575624",
        "osm_type": "relation"
    }
}