{
    "fresno": {
        "type": "city",
        "osm_id": "33120274",
        "class": "place",
        "importance": 0.79213103374115,
        "lat": "36.748793",
        "lon": "-119.714839601149",
        "boundingbox": [
            "36.747122",
            "36.75042",
            "-119.7159249",
            "-119.7091549"
        ],
        "display_name": "Fresno, Fresno County, California, United States of America",
        "licence": "Data \u00a9 OpenStreetMap contributors, ODbL 1.0. http://www.openstreetmap.org/copyright",
        "icon": "https://nominatim.openstreetmap.org/images/mapicons/poi_place_city.p.20.png",
        "place_id": "72530219",
        "osm_type": "way"
    },
    "mentions": {
        "san luis obispo museum of art": {
            "latitude": "35.2795773",
            "closest_to": "san luis obispo",
            "address": "San Luis Obispo Museum of Art, 1010, Broad Street, San Luis Obispo, San Luis Obispo County, California, 93401, United States of America",
            "locType": "museum",
            "blogLinks": [
                "http://travelblog.viator.com/road-trip-san-francisco-los-angeles/"
            ],
            "longitude": "-120.6649345"
        },
        "big sur bakery": {
            "latitude": "36.2359105",
            "closest_to": "san luis obispo",
            "address": "Big Sur Bakery, 47540, Cabrillo Highway, Posts, Monterey County, California, 93920, United States of America",
            "locType": "bakery",
            "blogLinks": [
                "http://travelblog.viator.com/road-trip-san-francisco-los-angeles/"
            ],
            "longitude": "-121.7693642"
        },
        "mcway falls trail": {
            "latitude": "36.1578211",
            "closest_to": "san luis obispo",
            "address": "McWay Falls, Monterey County, California, United States of America",
            "locType": "waterfall",
            "blogLinks": [
                "http://travelblog.viator.com/road-trip-san-francisco-los-angeles/"
            ],
            "longitude": "-121.6723957"
        },
        "usa": {
            "latitude": "36.7014631",
            "closest_to": "fresno",
            "address": "California, United States of America",
            "locType": "administrative",
            "blogLinks": [
                "http://www.usatourist.com/english/destinations/california/california-driving-tour.html",
                "https://sanluisobispovacations.com/shareslo-blog/"
            ],
            "longitude": "-118.7559973"
        },
        "carmel-by-the-sea": {
            "latitude": "36.5552387",
            "closest_to": "san luis obispo",
            "address": "Carmel-by-the-Sea, Monterey County, California, United States of America",
            "locType": "city",
            "blogLinks": [
                "http://travelblog.viator.com/road-trip-san-francisco-los-angeles/",
                "http://www.hopper.com/articles/291/five-great-stops-between-los-angeles-and-san-francisco-on-the-pacific-coast-highway"
            ],
            "longitude": "-121.9232878"
        },
        "avila beach resort": {
            "latitude": "35.18524475",
            "closest_to": "san luis obispo",
            "address": "Avila Beach Resort Golf Course, Alt Egress, Avila Beach, San Luis Obispo County, California, 93424, United States of America",
            "locType": "golf_course",
            "blogLinks": [
                "https://sanluisobispovacations.com/shareslo-blog/"
            ],
            "longitude": "-120.739445736618"
        },
        "baggett stadium": {
            "latitude": "35.3066584",
            "closest_to": "san luis obispo",
            "address": "Baggett Stadium, Pinnacles Road, San Luis Obispo County, California, 93407, United States of America",
            "locType": "pitch",
            "blogLinks": [
                "https://sanluisobispovacations.com/shareslo-blog/"
            ],
            "longitude": "-120.664894520715"
        },
        "garden street": {
            "latitude": "34.416549",
            "closest_to": "san luis obispo",
            "address": "Garden Street, Santa Barbara, Santa Barbara County, California, 93101, United States of America",
            "locType": "secondary",
            "blogLinks": [
                "https://sanluisobispovacations.com/shareslo-blog/"
            ],
            "longitude": "-119.6875199"
        },
        "lemoore": {
            "latitude": "36.3007835",
            "closest_to": "san luis obispo",
            "address": "Lemoore, Kings County, California, United States of America",
            "locType": "city",
            "blogLinks": [
                "http://highway1discoveryroute.com/blog/"
            ],
            "longitude": "-119.7829106"
        },
        "gaviota": {
            "latitude": "34.4716558",
            "closest_to": "san luis obispo",
            "address": "Gaviota, Santa Barbara County, California, United States of America",
            "locType": "hamlet",
            "blogLinks": [
                "http://gocalifornia.about.com/cs/bigsur/a/highwayone.htm"
            ],
            "longitude": "-120.2148715"
        },
        "santa maria valley": {
            "latitude": "34.947792",
            "closest_to": "san luis obispo",
            "address": "Santa Maria Valley, Barsug, Santa Barbara County, California, 93434, United States of America",
            "locType": "residential",
            "blogLinks": [
                "http://www.travelcalifornia.com/Cities/Santa_Barbara/santa_barbara.htm"
            ],
            "longitude": "-120.5647119"
        },
        "us": {
            "latitude": "36.7014631",
            "closest_to": "fresno",
            "address": "California, United States of America",
            "locType": "administrative",
            "blogLinks": [
                "http://www.travbuddy.com/California-travel-guide-p85",
                "http://www.bestplaces.net/cost_of_living/city/california/san_luis_obispo",
                "http://gocalifornia.about.com/cs/bigsur/a/highwayone.htm",
                "http://www.usatourist.com/english/destinations/california/california-driving-tour.html",
                "http://highway1discoveryroute.com/blog/",
                "https://sanluisobispovacations.com/shareslo-blog/"
            ],
            "longitude": "-118.7559973"
        },
        "avila beach and valley": {
            "latitude": "35.1799752",
            "closest_to": "san luis obispo",
            "address": "Avila Beach, San Luis Obispo County, California, United States of America",
            "locType": "hamlet",
            "blogLinks": [
                "http://highway1discoveryroute.com/blog/"
            ],
            "longitude": "-120.7318417"
        },
        "pico creek": {
            "latitude": "35.6212644",
            "closest_to": "san luis obispo",
            "address": "Pico Creek, Paso Robles, San Luis Obispo County, California, United States of America",
            "locType": "stream",
            "blogLinks": [
                "http://highway1discoveryroute.com/blog/"
            ],
            "longitude": "-121.1439082"
        },
        "cal poly": {
            "latitude": "35.30440705",
            "closest_to": "san luis obispo",
            "address": "Cal Poly, Mount Bishop Road, Paso Robles, San Luis Obispo County, California, 93407, United States of America",
            "locType": "parking",
            "blogLinks": [
                "http://highway1discoveryroute.com/blog/",
                "https://sanluisobispovacations.com/shareslo-blog/"
            ],
            "longitude": "-120.670126285884"
        },
        "kreuzberg": {
            "latitude": "35.2784947",
            "closest_to": "san luis obispo",
            "address": "Kreuzberg, 685, Higuera Street, San Luis Obispo, San Luis Obispo County, California, 93401, United States of America",
            "locType": "cafe",
            "blogLinks": [
                "https://sanluisobispovacations.com/shareslo-blog/"
            ],
            "longitude": "-120.664630981886"
        },
        "dinosaur caves park": {
            "latitude": "35.15378375",
            "closest_to": "san luis obispo",
            "address": "Dinosaur Caves Park, 2701, Price Street, Pismo Beach, San Luis Obispo County, California, 93449, United States of America",
            "locType": "park",
            "blogLinks": [
                "http://highway1discoveryroute.com/blog/"
            ],
            "longitude": "-120.664611203543"
        },
        "san luis obispo county": {
            "latitude": "35.3540209",
            "closest_to": "san luis obispo",
            "address": "San Luis Obispo County, California, United States of America",
            "locType": "administrative",
            "blogLinks": [
                "http://www.travbuddy.com/California-travel-guide-p85",
                "http://highway1discoveryroute.com/blog/",
                "https://sanluisobispovacations.com/shareslo-blog/",
                "http://www.hopper.com/articles/291/five-great-stops-between-los-angeles-and-san-francisco-on-the-pacific-coast-highway",
                "http://visitslo.com/getting-around/"
            ],
            "longitude": "-120.3757162"
        },
        "san juan bautista": {
            "latitude": "36.8455173",
            "closest_to": "fresno",
            "address": "San Juan Bautista, San Benito County, California, United States of America",
            "locType": "city",
            "blogLinks": [
                "http://www.parks.ca.gov/?page_id=22722"
            ],
            "longitude": "-121.5379893"
        },
        "u.s.s.": {
            "latitude": "36.7014631",
            "closest_to": "fresno",
            "address": "California, United States of America",
            "locType": "administrative",
            "blogLinks": [
                "http://www.roadsideamerica.com/location/ca/all"
            ],
            "longitude": "-118.7559973"
        },
        "central coast": {
            "latitude": "35.3611193",
            "closest_to": "san luis obispo",
            "address": "Central Coast Street, Bakersfield, Kern County, California, 93314, United States of America",
            "locType": "residential",
            "blogLinks": [
                "http://highway1discoveryroute.com/blog/",
                "http://travelblog.viator.com/road-trip-san-francisco-los-angeles/",
                "http://www.travelcalifornia.com/Cities/Santa_Barbara/santa_barbara.htm",
                "http://www.travelmath.com/flying-distance/from/San+Luis+Obispo,+CA/to/Fresno,+CA",
                "https://sanluisobispovacations.com/shareslo-blog/"
            ],
            "longitude": "-119.1665989"
        },
        "oceano": {
            "latitude": "35.0988648",
            "closest_to": "san luis obispo",
            "address": "Oceano, San Luis Obispo County, California, United States of America",
            "locType": "administrative",
            "blogLinks": [
                "http://highway1discoveryroute.com/blog/"
            ],
            "longitude": "-120.612393"
        },
        "oso flaco lake": {
            "latitude": "35.02945545",
            "closest_to": "san luis obispo",
            "address": "Oso Flaco Lake, Oso Flaco Lake Road, Callender, San Luis Obispo County, California, United States of America",
            "locType": "water",
            "blogLinks": [
                "http://highway1discoveryroute.com/blog/"
            ],
            "longitude": "-120.623450366216"
        },
        "moonstone beach": {
            "latitude": "35.573855",
            "closest_to": "san luis obispo",
            "address": "Moonstone Beach, Cambria, San Luis Obispo County, California, CA 93428, United States of America",
            "locType": "path",
            "blogLinks": [
                "http://highway1discoveryroute.com/blog/"
            ],
            "longitude": "-121.1128747"
        },
        "salinas valley": {
            "latitude": "36.6744117",
            "closest_to": "san luis obispo",
            "address": "Salinas, Monterey County, California, United States of America",
            "locType": "city",
            "blogLinks": [
                "http://www.parks.ca.gov/?page_id=22722"
            ],
            "longitude": "-121.6550371"
        },
        "lompoc": {
            "latitude": "34.6391501",
            "closest_to": "san luis obispo",
            "address": "Lompoc, Santa Barbara County, California, United States of America",
            "locType": "city",
            "blogLinks": [
                "http://www.parks.ca.gov/?page_id=22722"
            ],
            "longitude": "-120.4579408"
        },
        "hearst castle": {
            "latitude": "35.6853689",
            "closest_to": "san luis obispo",
            "address": "Hearst Castle, 750, Hearst Castle Road, San Simeon, San Luis Obispo County, California, 93452, United States of America",
            "locType": "museum",
            "blogLinks": [
                "http://highway1discoveryroute.com/blog/",
                "http://gocalifornia.about.com/cs/bigsur/a/highwayone.htm"
            ],
            "longitude": "-121.167587299509"
        },
        "kelsey see canyon vineyards": {
            "latitude": "35.2081995",
            "closest_to": "san luis obispo",
            "address": "Kelsey See Canyon Vineyards, 1947, See Canyon Road, San Luis Obispo County, California, 93405, United States of America",
            "locType": "winery",
            "blogLinks": [
                "http://highway1discoveryroute.com/blog/"
            ],
            "longitude": "-120.718615347869"
        },
        "san luis creek": {
            "latitude": "37.0334262",
            "closest_to": "fresno",
            "address": "San Luis Creek, Merced County, California, United States of America",
            "locType": "stream",
            "blogLinks": [
                "https://sanluisobispovacations.com/shareslo-blog/"
            ],
            "longitude": "-121.0987331"
        },
        "los alamos": {
            "latitude": "34.7379311",
            "closest_to": "san luis obispo",
            "address": "Los Alamos, Bell Street, Los Alamos, Santa Barbara County, California, 93455, United States of America",
            "locType": "administrative",
            "blogLinks": [
                "http://travelblog.viator.com/road-trip-san-francisco-los-angeles/"
            ],
            "longitude": "-120.26591036241"
        },
        "pismo state beach": {
            "latitude": "35.1061627",
            "closest_to": "san luis obispo",
            "address": "Pismo State Beach, San Luis Obispo County, California, United States of America",
            "locType": "national_park",
            "blogLinks": [
                "http://highway1discoveryroute.com/blog/"
            ],
            "longitude": "-120.62834686522"
        },
        "san luis obispo": {
            "latitude": "35.2827525",
            "closest_to": "san luis obispo",
            "address": "San Luis Obispo, San Luis Obispo County, California, United States of America",
            "locType": "city",
            "blogLinks": [
                "http://www.tripleblaze.com/best/?c=59",
                "http://www.bestplaces.net/cost_of_living/city/california/san_luis_obispo",
                "http://www.morrobay.org/things-to-do/free-things-to-do",
                "http://travelblog.viator.com/road-trip-san-francisco-los-angeles/",
                "http://www.parks.ca.gov/?page_id=22722",
                "http://www.usatourist.com/english/destinations/california/california-driving-tour.html",
                "https://main.transportation.ucla.edu/getting-to-ucla/travel-options/amtrak-california-thruway-service-to-and-from-ucla",
                "http://www.travelmath.com/flying-distance/from/San+Luis+Obispo,+CA/to/Fresno,+CA",
                "http://visitslo.com/getting-around/",
                "http://highway1discoveryroute.com/blog/",
                "https://sanluisobispovacations.com/shareslo-blog/"
            ],
            "longitude": "-120.6596155"
        },
        "fresno": {
            "latitude": "36.748793",
            "closest_to": "san luis obispo",
            "address": "Fresno, Fresno County, California, United States of America",
            "locType": "city",
            "blogLinks": [
                "http://highway1discoveryroute.com/blog/",
                "https://main.transportation.ucla.edu/getting-to-ucla/travel-options/amtrak-california-thruway-service-to-and-from-ucla",
                "http://www.travelmath.com/flying-distance/from/San+Luis+Obispo,+CA/to/Fresno,+CA",
                "http://visitslo.com/getting-around/"
            ],
            "longitude": "-119.714839601149"
        },
        "ireland": {
            "latitude": "37.7992191",
            "closest_to": "fresno",
            "address": "Ireland Creek, Tuolumne County, California, United States of America",
            "locType": "stream",
            "blogLinks": [
                "http://www.roadsideamerica.com/location/ca/all"
            ],
            "longitude": "-119.2896473"
        },
        "montana": {
            "latitude": "37.413991",
            "closest_to": "fresno",
            "address": "Montana, Rovana, Inyo County, California, United States of America",
            "locType": "residential",
            "blogLinks": [
                "http://www.tripleblaze.com/best/?c=59",
                "http://highway1discoveryroute.com/blog/"
            ],
            "longitude": "-118.6129969"
        },
        "cambria shores inn": {
            "latitude": "35.5741271",
            "closest_to": "san luis obispo",
            "address": "Cambria Shores Inn, 6276, Moonstone Beach Drive, Cambria, San Luis Obispo County, California, 93428, United States of America",
            "locType": "hotel",
            "blogLinks": [
                "http://highway1discoveryroute.com/blog/"
            ],
            "longitude": "-121.1123155"
        },
        "santa maria": {
            "latitude": "34.9531295",
            "closest_to": "san luis obispo",
            "address": "Santa Maria, Santa Barbara County, California, United States of America",
            "locType": "city",
            "blogLinks": [
                "http://www.travelcalifornia.com/Cities/Santa_Barbara/santa_barbara.htm",
                "http://visitslo.com/things-to-do/",
                "https://sanluisobispovacations.com/shareslo-blog/"
            ],
            "longitude": "-120.4358576"
        },
        "ontario road": {
            "latitude": "35.1818929",
            "closest_to": "san luis obispo",
            "address": "Ontario Road, Sunset Palisades, Squire Canyon, San Luis Obispo County, California, 93405, United States of America",
            "locType": "tertiary",
            "blogLinks": [
                "https://sanluisobispovacations.com/shareslo-blog/"
            ],
            "longitude": "-120.7039797"
        },
        "santa lucia mountain": {
            "latitude": "34.4379129",
            "closest_to": "san luis obispo",
            "address": "Santa Lucia, Santa Barbara County, California, 93111, United States of America",
            "locType": "residential",
            "blogLinks": [
                "http://travelblog.viator.com/road-trip-san-francisco-los-angeles/"
            ],
            "longitude": "-119.8003246"
        },
        "pebble beach golf course": {
            "latitude": "36.56413635",
            "closest_to": "san luis obispo",
            "address": "Pebble Beach Golf Course, Live Oak Meadow Road, Del Monte Forest, Monterey County, California, 93953, United States of America",
            "locType": "golf_course",
            "blogLinks": [
                "http://www.usatourist.com/english/destinations/california/california-driving-tour.html"
            ],
            "longitude": "-121.937790801787"
        },
        "la": {
            "latitude": "36.7014631",
            "closest_to": "fresno",
            "address": "California, United States of America",
            "locType": "administrative",
            "blogLinks": [
                "http://www.travbuddy.com/California-travel-guide-p85"
            ],
            "longitude": "-118.7559973"
        },
        "avila valley barn": {
            "latitude": "35.1828049",
            "closest_to": "san luis obispo",
            "address": "Avila Valley Barn, Avila Beach Drive, Avila Beach, San Luis Obispo County, California, 93424, United States of America",
            "locType": "farm",
            "blogLinks": [
                "http://highway1discoveryroute.com/blog/"
            ],
            "longitude": "-120.7061067"
        },
        "calico": {
            "latitude": "35.6327332",
            "closest_to": "san luis obispo",
            "address": "Calico, Kern County, California, United States of America",
            "locType": "locality",
            "blogLinks": [
                "http://www.travbuddy.com/California-travel-guide-p85"
            ],
            "longitude": "-119.206496"
        },
        "montana de oro state park": {
            "latitude": "35.2714109",
            "closest_to": "san luis obispo",
            "address": "Montana de Oro State Park, San Luis Obispo County, California, United States of America",
            "locType": "track",
            "blogLinks": [
                "http://highway1discoveryroute.com/blog/"
            ],
            "longitude": "-120.8888312"
        },
        "solvang": {
            "latitude": "34.5958572",
            "closest_to": "san luis obispo",
            "address": "Solvang, Santa Barbara County, California, United States of America",
            "locType": "city",
            "blogLinks": [
                "http://www.usatourist.com/english/destinations/california/california-driving-tour.html",
                "http://www.parks.ca.gov/?page_id=22722",
                "http://www.travelcalifornia.com/Cities/Santa_Barbara/santa_barbara.htm"
            ],
            "longitude": "-120.1390893"
        },
        "pacific ocean": {
            "latitude": "36.16305775",
            "closest_to": "san luis obispo",
            "address": "Pacific Ocean, Cabrillo Highway, Monterey County, California, 93920, United States of America",
            "locType": "cliff",
            "blogLinks": [
                "http://www.travbuddy.com/California-travel-guide-p85",
                "http://travelblog.viator.com/road-trip-san-francisco-los-angeles/",
                "http://www.travelcalifornia.com/Cities/Santa_Barbara/santa_barbara.htm",
                "http://highway1discoveryroute.com/blog/",
                "http://www.hopper.com/articles/291/five-great-stops-between-los-angeles-and-san-francisco-on-the-pacific-coast-highway",
                "https://sanluisobispovacations.com/shareslo-blog/"
            ],
            "longitude": "-121.678715787326"
        },
        "san miguel": {
            "latitude": "35.7524679",
            "closest_to": "san luis obispo",
            "address": "San Miguel, San Luis Obispo County, California, United States of America",
            "locType": "village",
            "blogLinks": [
                "http://www.parks.ca.gov/?page_id=22722"
            ],
            "longitude": "-120.6962825"
        },
        "yosemite": {
            "latitude": "37.7488554",
            "closest_to": "fresno",
            "address": "Yosemite, Village Drive, Yosemite Village, Yosemite Valley, Mariposa County, California, United States of America",
            "locType": "attraction",
            "blogLinks": [
                "http://www.usatourist.com/english/destinations/california/california-driving-tour.html"
            ],
            "longitude": "-119.5893389"
        },
        "state parks": {
            "latitude": "37.4648304",
            "closest_to": "fresno",
            "address": "California State Mining and Mineral Museum, 5005, Fairgrounds Road, Mormon Bar, Mariposa County, California, 95338, United States of America",
            "locType": "museum",
            "blogLinks": [
                "http://highway1discoveryroute.com/blog/"
            ],
            "longitude": "-119.948196593988"
        },
        "whale rock reservoir": {
            "latitude": "35.446447",
            "closest_to": "san luis obispo",
            "address": "Whale Rock Reservoir, San Luis Obispo County, California, United States of America",
            "locType": "service",
            "blogLinks": [
                "http://highway1discoveryroute.com/blog/"
            ],
            "longitude": "-120.0180599"
        },
        "slo county": {
            "latitude": "35.6442814",
            "closest_to": "san luis obispo",
            "address": "Slo San Simeon Road, San Simeon, San Luis Obispo County, California, United States of America",
            "locType": "service",
            "blogLinks": [
                "http://highway1discoveryroute.com/blog/",
                "https://sanluisobispovacations.com/shareslo-blog/"
            ],
            "longitude": "-121.1870436"
        },
        "monterey county": {
            "latitude": "36.2231079",
            "closest_to": "san luis obispo",
            "address": "Monterey County, California, United States of America",
            "locType": "administrative",
            "blogLinks": [
                "http://travelblog.viator.com/road-trip-san-francisco-los-angeles/"
            ],
            "longitude": "-121.3877427"
        },
        "yosemite national park": {
            "latitude": "37.84054795",
            "closest_to": "fresno",
            "address": "Yosemite National Park, Mt. Hoffmann Trail, Mariposa County, California, United States of America",
            "locType": "national_park",
            "blogLinks": [
                "http://www.travbuddy.com/California-travel-guide-p85",
                "http://www.usatourist.com/english/destinations/california/california-driving-tour.html"
            ],
            "longitude": "-119.516587698025"
        },
        "prefumo canyon": {
            "latitude": "35.24716",
            "closest_to": "san luis obispo",
            "address": "Prefumo Canyon Road, San Luis Obispo County, California, 93405, United States of America",
            "locType": "residential",
            "blogLinks": [
                "https://sanluisobispovacations.com/shareslo-blog/"
            ],
            "longitude": "-120.7772119"
        },
        "san simeon bay": {
            "latitude": "35.6396921",
            "closest_to": "san luis obispo",
            "address": "San Simeon Bay, Slo San Simeon Road, San Simeon, San Luis Obispo County, California, United States of America",
            "locType": "bay",
            "blogLinks": [
                "http://highway1discoveryroute.com/blog/"
            ],
            "longitude": "-121.1888087"
        },
        "monterey": {
            "latitude": "36.5844165",
            "closest_to": "san luis obispo",
            "address": "Monterey, Monterey County, California, United States of America",
            "locType": "city",
            "blogLinks": [
                "http://www.travbuddy.com/California-travel-guide-p85",
                "http://www.usatourist.com/english/destinations/california/california-driving-tour.html",
                "http://gocalifornia.about.com/cs/bigsur/a/highwayone.htm",
                "http://visitslo.com/things-to-do/",
                "https://sanluisobispovacations.com/shareslo-blog/"
            ],
            "longitude": "-121.866792846206"
        },
        "cerro san luis": {
            "latitude": "35.4146957",
            "closest_to": "san luis obispo",
            "address": "Cerro Alto, San Luis Obispo County, California, United States of America",
            "locType": "peak",
            "blogLinks": [
                "https://sanluisobispovacations.com/shareslo-blog/"
            ],
            "longitude": "-120.7340622"
        },
        "baywood park": {
            "latitude": "35.3263634",
            "closest_to": "san luis obispo",
            "address": "Baywood Park, San Luis Obispo County, California, United States of America",
            "locType": "village",
            "blogLinks": [
                "http://highway1discoveryroute.com/blog/"
            ],
            "longitude": "-120.8351784"
        },
        "nepenthe": {
            "latitude": "36.2218116",
            "closest_to": "san luis obispo",
            "address": "Nepenthe, 48510, Cabrillo Highway, Posts, Monterey County, California, 93920-9549, United States of America",
            "locType": "restaurant",
            "blogLinks": [
                "http://travelblog.viator.com/road-trip-san-francisco-los-angeles/"
            ],
            "longitude": "-121.7596564"
        },
        "central california coast": {
            "latitude": "35.3611193",
            "closest_to": "san luis obispo",
            "address": "Central Coast Street, Bakersfield, Kern County, California, 93314, United States of America",
            "locType": "residential",
            "blogLinks": [
                "http://highway1discoveryroute.com/blog/"
            ],
            "longitude": "-119.1665989"
        },
        "san andreas": {
            "latitude": "38.1875605",
            "closest_to": "fresno",
            "address": "San Andreas, Angels Road, Toyanza Subdivision, Calaveras County, California, 95249, United States of America",
            "locType": "administrative",
            "blogLinks": [
                "http://www.parks.ca.gov/?page_id=22722"
            ],
            "longitude": "-120.675382525556"
        },
        "lopez lake": {
            "latitude": "35.2060338",
            "closest_to": "san luis obispo",
            "address": "Lopez Lake, Wittenberg Creek, San Luis Obispo County, California, 94320, United States of America",
            "locType": "water",
            "blogLinks": [
                "http://highway1discoveryroute.com/blog/"
            ],
            "longitude": "-120.483517275303"
        },
        "cambria": {
            "latitude": "35.5641381",
            "closest_to": "san luis obispo",
            "address": "Cambria, San Luis Obispo County, California, United States of America",
            "locType": "administrative",
            "blogLinks": [
                "http://highway1discoveryroute.com/blog/"
            ],
            "longitude": "-121.0807467"
        },
        "madonna inn": {
            "latitude": "35.2673282",
            "closest_to": "san luis obispo",
            "address": "Madonna Inn, 100, Madonna Road, San Luis Obispo, San Luis Obispo County, California, 93405, United States of America",
            "locType": "hotel",
            "blogLinks": [
                "https://sanluisobispovacations.com/shareslo-blog/"
            ],
            "longitude": "-120.674725246222"
        },
        "salinas river": {
            "latitude": "35.2891002",
            "closest_to": "san luis obispo",
            "address": "Salinas River, San Luis Obispo County, California, United States of America",
            "locType": "river",
            "blogLinks": [
                "http://www.parks.ca.gov/?page_id=22722"
            ],
            "longitude": "-120.3596546"
        },
        "bixby creek bridge": {
            "latitude": "36.3710197",
            "closest_to": "san luis obispo",
            "address": "Bixby Creek Bridge, Notleys Landing, Monterey County, California, 93923, United States of America",
            "locType": "primary",
            "blogLinks": [
                "http://travelblog.viator.com/road-trip-san-francisco-los-angeles/"
            ],
            "longitude": "-121.9017572"
        },
        "avila beach": {
            "latitude": "35.1799752",
            "closest_to": "san luis obispo",
            "address": "Avila Beach, San Luis Obispo County, California, United States of America",
            "locType": "hamlet",
            "blogLinks": [
                "http://highway1discoveryroute.com/blog/",
                "https://sanluisobispovacations.com/shareslo-blog/"
            ],
            "longitude": "-120.7318417"
        },
        "soledad": {
            "latitude": "36.4269452",
            "closest_to": "san luis obispo",
            "address": "Soledad, Monterey County, California, United States of America",
            "locType": "city",
            "blogLinks": [
                "http://www.parks.ca.gov/?page_id=22722"
            ],
            "longitude": "-121.3272146"
        },
        "paso robles": {
            "latitude": "35.6267654",
            "closest_to": "san luis obispo",
            "address": "Paso Robles, San Luis Obispo County, California, United States of America",
            "locType": "city",
            "blogLinks": [
                "http://highway1discoveryroute.com/blog/",
                "http://www.parks.ca.gov/?page_id=22722",
                "http://visitslo.com/getting-around/"
            ],
            "longitude": "-120.6912455"
        },
        "limekiln": {
            "latitude": "36.0227366",
            "closest_to": "san luis obispo",
            "address": "Limekiln State Park, Twitchell Elevator, Lucia, Monterey County, California, United States of America",
            "locType": "park",
            "blogLinks": [
                "http://www.tripleblaze.com/best/?c=59"
            ],
            "longitude": "-121.527771252348"
        },
        "hazard canyon": {
            "latitude": "35.29245",
            "closest_to": "san luis obispo",
            "address": "Hazard Canyon Road, Cuesta-by-the-Sea, San Luis Obispo County, California, 93402, United States of America",
            "locType": "track",
            "blogLinks": [
                "http://highway1discoveryroute.com/blog/"
            ],
            "longitude": "-120.8543059"
        },
        "arroyo grande valley": {
            "latitude": "35.1185869",
            "closest_to": "san luis obispo",
            "address": "Arroyo Grande, San Luis Obispo County, California, United States of America",
            "locType": "city",
            "blogLinks": [
                "http://highway1discoveryroute.com/blog/",
                "http://visitslo.com/things-to-do/"
            ],
            "longitude": "-120.5907251"
        },
        "terrace hill": {
            "latitude": "35.2734557",
            "closest_to": "san luis obispo",
            "address": "Terrace Hill, San Luis Obispo, San Luis Obispo County, California, United States of America",
            "locType": "peak",
            "blogLinks": [
                "https://sanluisobispovacations.com/shareslo-blog/"
            ],
            "longitude": "-120.6508092"
        },
        "morro rock": {
            "latitude": "35.369669",
            "closest_to": "san luis obispo",
            "address": "Morro Rock, Morro Bay, San Luis Obispo County, California, United States of America",
            "locType": "peak",
            "blogLinks": [
                "http://highway1discoveryroute.com/blog/",
                "http://www.morrobay.org/things-to-do/free-things-to-do"
            ],
            "longitude": "-120.8676993"
        },
        "united states": {
            "latitude": "36.7014631",
            "closest_to": "fresno",
            "address": "California, United States of America",
            "locType": "administrative",
            "blogLinks": [
                "http://www.tripleblaze.com/best/?c=59",
                "http://highway1discoveryroute.com/blog/",
                "http://visitslo.com/things-to-do/",
                "https://sanluisobispovacations.com/shareslo-blog/"
            ],
            "longitude": "-118.7559973"
        },
        "morro bay": {
            "latitude": "35.3658075",
            "closest_to": "san luis obispo",
            "address": "Morro Bay, San Luis Obispo County, California, United States of America",
            "locType": "city",
            "blogLinks": [
                "http://highway1discoveryroute.com/blog/",
                "http://www.morrobay.org/things-to-do/free-things-to-do",
                "https://sanluisobispovacations.com/shareslo-blog/"
            ],
            "longitude": "-120.8499012"
        },
        "san simeon": {
            "latitude": "35.6438587",
            "closest_to": "san luis obispo",
            "address": "San Simeon, San Luis Obispo County, California, United States of America",
            "locType": "hamlet",
            "blogLinks": [
                "http://www.travbuddy.com/California-travel-guide-p85",
                "http://highway1discoveryroute.com/blog/",
                "http://www.travelcalifornia.com/Cities/Santa_Barbara/santa_barbara.htm",
                "http://www.hopper.com/articles/291/five-great-stops-between-los-angeles-and-san-francisco-on-the-pacific-coast-highway",
                "https://sanluisobispovacations.com/shareslo-blog/"
            ],
            "longitude": "-121.1907532"
        },
        "oxnard": {
            "latitude": "34.1976308",
            "closest_to": "san luis obispo",
            "address": "Oxnard, Ventura County, California, United States of America",
            "locType": "city",
            "blogLinks": [
                "http://gocalifornia.about.com/cs/bigsur/a/highwayone.htm",
                "http://www.travelcalifornia.com/Cities/Santa_Barbara/santa_barbara.htm"
            ],
            "longitude": "-119.1803817"
        },
        "coastal san luis obispo county": {
            "latitude": "35.1273326",
            "closest_to": "san luis obispo",
            "address": "CIC Coastal Industrial Comercial, Grover Beach, San Luis Obispo County, California, 93433, United States of America",
            "locType": "industrial",
            "blogLinks": [
                "http://highway1discoveryroute.com/blog/"
            ],
            "longitude": "-120.630495433164"
        },
        "big sur": {
            "latitude": "36.270241",
            "closest_to": "san luis obispo",
            "address": "Big Sur, Monterey County, California, United States of America",
            "locType": "village",
            "blogLinks": [
                "http://gocalifornia.about.com/cs/bigsur/a/highwayone.htm"
            ],
            "longitude": "-121.8074544"
        },
        "california highway": {
            "latitude": "36.7014631",
            "closest_to": "fresno",
            "address": "California, United States of America",
            "locType": "administrative",
            "blogLinks": [
                "http://highway1discoveryroute.com/blog/"
            ],
            "longitude": "-118.7559973"
        },
        "los osos baywood park": {
            "latitude": "35.3605294",
            "closest_to": "san luis obispo",
            "address": "KSTT-FM (Los Osos-Baywood Park), Tv Tower Road, San Luis Obispo County, California, United States of America",
            "locType": "tower",
            "blogLinks": [
                "http://highway1discoveryroute.com/blog/"
            ],
            "longitude": "-120.656837"
        },
        "pismo beach": {
            "latitude": "35.1427533",
            "closest_to": "san luis obispo",
            "address": "Pismo Beach, San Luis Obispo County, California, United States of America",
            "locType": "city",
            "blogLinks": [
                "http://highway1discoveryroute.com/blog/",
                "http://gocalifornia.about.com/cs/bigsur/a/highwayone.htm",
                "http://www.hopper.com/articles/291/five-great-stops-between-los-angeles-and-san-francisco-on-the-pacific-coast-highway"
            ],
            "longitude": "-120.6412826"
        },
        "los osos/baywood park": {
            "latitude": "35.3605294",
            "closest_to": "san luis obispo",
            "address": "KSTT-FM (Los Osos-Baywood Park), Tv Tower Road, San Luis Obispo County, California, United States of America",
            "locType": "tower",
            "blogLinks": [
                "http://highway1discoveryroute.com/blog/"
            ],
            "longitude": "-120.656837"
        },
        "bakersfield": {
            "latitude": "35.3738712",
            "closest_to": "san luis obispo",
            "address": "Bakersfield, Kern County, California, United States of America",
            "locType": "city",
            "blogLinks": [
                "https://sanluisobispovacations.com/shareslo-blog/",
                "http://visitslo.com/getting-around/"
            ],
            "longitude": "-119.0194638"
        },
        "ventura": {
            "latitude": "34.4458248",
            "closest_to": "san luis obispo",
            "address": "Ventura County, California, United States of America",
            "locType": "administrative",
            "blogLinks": [
                "http://travelblog.viator.com/road-trip-san-francisco-los-angeles/",
                "http://www.parks.ca.gov/?page_id=22722"
            ],
            "longitude": "-119.0779358"
        },
        "downtown san luis obispo": {
            "latitude": "35.2748845",
            "closest_to": "san luis obispo",
            "address": "Avenue Inn Downtown San Luis Obispo, 345, Pacific Street, San Luis Obispo, San Luis Obispo County, California, 93401, United States of America",
            "locType": "motel",
            "blogLinks": [
                "https://sanluisobispovacations.com/shareslo-blog/"
            ],
            "longitude": "-120.66819803545"
        },
        "los osos": {
            "latitude": "35.3107214",
            "closest_to": "san luis obispo",
            "address": "Los Osos, San Luis Obispo County, California, United States of America",
            "locType": "village",
            "blogLinks": [
                "http://highway1discoveryroute.com/blog/"
            ],
            "longitude": "-120.8323486"
        },
        "morro bay state park": {
            "latitude": "35.34276815",
            "closest_to": "san luis obispo",
            "address": "Morro Bay State Park, South Bay Boulevard, Baywood Park, San Luis Obispo County, California, 93442, United States of America",
            "locType": "national_park",
            "blogLinks": [
                "http://highway1discoveryroute.com/blog/",
                "http://www.morrobay.org/things-to-do/free-things-to-do"
            ],
            "longitude": "-120.826622345451"
        },
        "santa barbara": {
            "latitude": "34.4221319",
            "closest_to": "san luis obispo",
            "address": "Santa Barbara, Santa Barbara County, California, United States of America",
            "locType": "city",
            "blogLinks": [
                "http://gocalifornia.about.com/cs/bigsur/a/highwayone.htm",
                "http://travelblog.viator.com/road-trip-san-francisco-los-angeles/",
                "http://www.parks.ca.gov/?page_id=22722",
                "http://www.usatourist.com/english/destinations/california/california-driving-tour.html",
                "http://www.travelcalifornia.com/Cities/Santa_Barbara/santa_barbara.htm",
                "https://main.transportation.ucla.edu/getting-to-ucla/travel-options/amtrak-california-thruway-service-to-and-from-ucla",
                "http://www.hopper.com/articles/291/five-great-stops-between-los-angeles-and-san-francisco-on-the-pacific-coast-highway"
            ],
            "longitude": "-119.7026672"
        },
        "cambria pines lodge": {
            "latitude": "35.5584997",
            "closest_to": "san luis obispo",
            "address": "Cambria Pines Lodge, 2905, Patterson Place, Fiscalini Ranch Preserve, Cambria, San Luis Obispo County, California, 93428, United States of America",
            "locType": "hotel",
            "blogLinks": [
                "http://highway1discoveryroute.com/blog/"
            ],
            "longitude": "-121.0804434"
        },
        "america": {
            "latitude": "36.2573198",
            "closest_to": "san luis obispo",
            "address": "America, Kings County, California, 93246, United States of America",
            "locType": "residential",
            "blogLinks": [
                "http://www.travbuddy.com/California-travel-guide-p85",
                "http://highway1discoveryroute.com/blog/",
                "https://sanluisobispovacations.com/shareslo-blog/"
            ],
            "longitude": "-119.8948706"
        },
        "central coast of california": {
            "latitude": "35.3611193",
            "closest_to": "san luis obispo",
            "address": "Central Coast Street, Bakersfield, Kern County, California, 93314, United States of America",
            "locType": "residential",
            "blogLinks": [
                "http://highway1discoveryroute.com/blog/"
            ],
            "longitude": "-119.1665989"
        },
        "arroyo grande": {
            "latitude": "35.1185869",
            "closest_to": "san luis obispo",
            "address": "Arroyo Grande, San Luis Obispo County, California, United States of America",
            "locType": "city",
            "blogLinks": [
                "http://highway1discoveryroute.com/blog/"
            ],
            "longitude": "-120.5907251"
        },
        "los osos & baywood park": {
            "latitude": "35.3605294",
            "closest_to": "san luis obispo",
            "address": "KSTT-FM (Los Osos-Baywood Park), Tv Tower Road, San Luis Obispo County, California, United States of America",
            "locType": "tower",
            "blogLinks": [
                "http://highway1discoveryroute.com/blog/"
            ],
            "longitude": "-120.656837"
        },
        "san buenaventura": {
            "latitude": "34.2783355",
            "closest_to": "san luis obispo",
            "address": "Ventura, Ventura County, California, United States of America",
            "locType": "city",
            "blogLinks": [
                "http://www.parks.ca.gov/?page_id=22722"
            ],
            "longitude": "-119.2931742"
        },
        "nipomo": {
            "latitude": "35.0358216",
            "closest_to": "san luis obispo",
            "address": "Nipomo, Crosby Way, Nipomo, San Luis Obispo County, California, 93444, United States of America",
            "locType": "administrative",
            "blogLinks": [
                "http://highway1discoveryroute.com/blog/"
            ],
            "longitude": "-120.496418815962"
        }
    },
    "san luis obispo": {
        "type": "city",
        "osm_id": "33111824",
        "class": "place",
        "importance": 0.87823218277902,
        "lat": "35.2827525",
        "lon": "-120.6596155",
        "boundingbox": [
            "35.233002",
            "35.31199",
            "-120.7229769",
            "-120.6177727"
        ],
        "display_name": "San Luis Obispo, San Luis Obispo County, California, United States of America",
        "licence": "Data \u00a9 OpenStreetMap contributors, ODbL 1.0. http://www.openstreetmap.org/copyright",
        "icon": "https://nominatim.openstreetmap.org/images/mapicons/poi_place_city.p.20.png",
        "place_id": "71485104",
        "osm_type": "way"
    }
}