{
    "fresno": {
        "type": "city",
        "osm_id": "33120274",
        "class": "place",
        "importance": 0.79213103374115,
        "lat": "36.748793",
        "lon": "-119.714839601149",
        "boundingbox": [
            "36.747122",
            "36.75042",
            "-119.7159249",
            "-119.7091549"
        ],
        "display_name": "Fresno, Fresno County, California, United States of America",
        "licence": "Data \u00a9 OpenStreetMap contributors, ODbL 1.0. http://www.openstreetmap.org/copyright",
        "icon": "https://nominatim.openstreetmap.org/images/mapicons/poi_place_city.p.20.png",
        "place_id": "72530219",
        "osm_type": "way"
    },
    "mentions": {
        "capitol": {
            "latitude": "37.2745825",
            "closest_to": "san jose",
            "address": "Capitol, West Capitol Expressway, Willow Glen, San Jos\u00e9, Santa Clara County, California, 95136, United States of America",
            "locType": "tram_stop",
            "blogLinks": [
                "http://www.cahsrblog.com/2016/01/san-jose-loves-idea-of-starting-hsr-service-in-the-north/"
            ],
            "longitude": "-121.8630662"
        },
        "merced": {
            "latitude": "37.3029568",
            "closest_to": "san jose",
            "address": "Merced, Merced County, California, United States of America",
            "locType": "city",
            "blogLinks": [
                "https://www.tripadvisor.com/ShowTopic-g60713-i30-k6063670-Best_places_to_stop_between_San_Fran_and_San_Diego_Thanks-San_Francisco_California.html"
            ],
            "longitude": "-120.4843268"
        },
        "lemoore": {
            "latitude": "36.3007835",
            "closest_to": "fresno",
            "address": "Lemoore, Kings County, California, United States of America",
            "locType": "city",
            "blogLinks": [
                "http://www.roadsideamerica.com/location/ca"
            ],
            "longitude": "-119.7829106"
        },
        "golden gate bridge": {
            "latitude": "37.8302809",
            "closest_to": "san jose",
            "address": "Golden Gate Bridge, Waldo, Marin County, California, 94965, United States of America",
            "locType": "motorway",
            "blogLinks": [
                "http://places-to-see.net/california/"
            ],
            "longitude": "-122.4798473"
        },
        "hammond": {
            "latitude": "36.4655023",
            "closest_to": "fresno",
            "address": "Hammond, Tulare County, California, United States of America",
            "locType": "hamlet",
            "blogLinks": [
                "http://www.fresnobee.com/news/local/high-speed-rail/"
            ],
            "longitude": "-118.8612103"
        },
        "willow glen": {
            "latitude": "37.3085532",
            "closest_to": "san jose",
            "address": "Willow Glen, San Jos\u00e9, Santa Clara County, California, United States of America",
            "locType": "suburb",
            "blogLinks": [
                "http://www.cahsrblog.com/2016/01/san-jose-loves-idea-of-starting-hsr-service-in-the-north/"
            ],
            "longitude": "-121.889677"
        },
        "san jose state": {
            "latitude": "37.3352583",
            "closest_to": "san jose",
            "address": "SJSU, El Paseo de Cesar E Chavez, SoFA, Japantown, San Jos\u00e9, Santa Clara County, California, 95112, United States of America",
            "locType": "university",
            "blogLinks": [
                "http://www.mercurynews.com/2016/02/17/california-bullet-train-headed-first-to-san-jose-a-big-bay-area-win/"
            ],
            "longitude": "-121.88130228815"
        },
        "guerneville": {
            "latitude": "38.5116609",
            "closest_to": "san jose",
            "address": "Guerneville, Orchard Road, El Bonita, Sonoma County, California, 95446, United States of America",
            "locType": "administrative",
            "blogLinks": [
                "http://www.roadsideamerica.com/location/ca"
            ],
            "longitude": "-122.987128549631"
        },
        "tuolumne county": {
            "latitude": "38.056944",
            "closest_to": "san jose",
            "address": "Tuolumne County, California, United States of America",
            "locType": "administrative",
            "blogLinks": [
                "https://www.tripadvisor.com/ShowTopic-g61000-i315-k6618701-Sites_to_see_between_San_Francisco_and_Yosemite-Yosemite_National_Park_California.html"
            ],
            "longitude": "-119.991935"
        },
        "emeryville": {
            "latitude": "37.8314089",
            "closest_to": "san jose",
            "address": "Emeryville, Alameda County, California, United States of America",
            "locType": "administrative",
            "blogLinks": [
                "http://www.roadsideamerica.com/location/ca"
            ],
            "longitude": "-122.2865265"
        },
        "point lobos state park": {
            "latitude": "38.77817125",
            "closest_to": "san jose",
            "address": "Point Lobos State Park, Woodgate Way, Laureate, Roseville, Placer County, California, 95747, United States of America",
            "locType": "yes",
            "blogLinks": [
                "http://www.airfarewatchdog.com/blog/18225332/14-things-you-need-to-know-before-driving-california-big-sur/"
            ],
            "longitude": "-121.371560849992"
        },
        "santa cruz": {
            "latitude": "36.9735903",
            "closest_to": "san jose",
            "address": "Santa Cruz, Santa Cruz County, California, United States of America",
            "locType": "city",
            "blogLinks": [
                "http://www.airfarewatchdog.com/blog/18225332/14-things-you-need-to-know-before-driving-california-big-sur/",
                "http://www.roadsideamerica.com/location/ca"
            ],
            "longitude": "-122.0260569"
        },
        "tuolumne street": {
            "latitude": "36.7319102",
            "closest_to": "san jose",
            "address": "Tuolumne Street, Fresno County, California, 93706, United States of America",
            "locType": "secondary",
            "blogLinks": [
                "http://www.fresnobee.com/news/local/high-speed-rail/",
                "https://calstablog.wordpress.com/category/transportation-infrastructure-projects/high-speed-rail/"
            ],
            "longitude": "-119.8029184"
        },
        "mission bay ca": {
            "latitude": "37.7707742",
            "closest_to": "san jose",
            "address": "Mission Bay, SF, California, 94158, United States of America",
            "locType": "neighbourhood",
            "blogLinks": [
                "http://www.california-blog.com/"
            ],
            "longitude": "-122.3911711"
        },
        "us": {
            "latitude": "36.7014631",
            "closest_to": "fresno",
            "address": "California, United States of America",
            "locType": "administrative",
            "blogLinks": [
                "http://www.cahsrblog.com/2016/01/san-jose-loves-idea-of-starting-hsr-service-in-the-north/",
                "https://calstablog.wordpress.com/category/transportation-infrastructure-projects/high-speed-rail/"
            ],
            "longitude": "-118.7559973"
        },
        "fresno river": {
            "latitude": "37.3400118",
            "closest_to": "san jose",
            "address": "Fresno River, Madera County, California, United States of America",
            "locType": "river",
            "blogLinks": [
                "https://calstablog.wordpress.com/category/transportation-infrastructure-projects/high-speed-rail/"
            ],
            "longitude": "-119.7242302"
        },
        "yosemite valley": {
            "latitude": "37.734435",
            "closest_to": "fresno",
            "address": "Yosemite Valley, Mariposa County, California, United States of America",
            "locType": "town",
            "blogLinks": [
                "https://www.tripadvisor.com/ShowTopic-g61000-i315-k6618701-Sites_to_see_between_San_Francisco_and_Yosemite-Yosemite_National_Park_California.html",
                "https://www.tripadvisor.com/ShowTopic-g60713-i30-k6063670-Best_places_to_stop_between_San_Fran_and_San_Diego_Thanks-San_Francisco_California.html"
            ],
            "longitude": "-119.6064673"
        },
        "madera": {
            "latitude": "37.1716264",
            "closest_to": "san jose",
            "address": "Madera County, California, United States of America",
            "locType": "administrative",
            "blogLinks": [
                "https://calstablog.wordpress.com/category/transportation-infrastructure-projects/high-speed-rail/"
            ],
            "longitude": "-119.773799"
        },
        "stanislaus river": {
            "latitude": "37.7410327",
            "closest_to": "san jose",
            "address": "Stanislaus River, Stanislaus County, California, United States of America",
            "locType": "river",
            "blogLinks": [
                "https://www.tripadvisor.com/ShowTopic-g61000-i315-k6618701-Sites_to_see_between_San_Francisco_and_Yosemite-Yosemite_National_Park_California.html"
            ],
            "longitude": "-120.9468443"
        },
        "centennial boulevard": {
            "latitude": "37.4047084",
            "closest_to": "san jose",
            "address": "Centennial Boulevard, Santa Clara, Santa Clara County, California, 95054, United States of America",
            "locType": "tertiary",
            "blogLinks": [
                "http://www.santaclara.org/getting-around/public-transportation/"
            ],
            "longitude": "-121.9694691"
        },
        "almaden valley": {
            "latitude": "37.1587635",
            "closest_to": "san jose",
            "address": "Almaden Air Force Station (closed), Mt. Umunhum Road, Peckham Ranch, Santa Clara County, California, United States of America",
            "locType": "air_force_station",
            "blogLinks": [
                "http://www.mercurynews.com/2016/02/17/california-bullet-train-headed-first-to-san-jose-a-big-bay-area-win/"
            ],
            "longitude": "-121.902194020393"
        },
        "kern county": {
            "latitude": "35.3145701",
            "closest_to": "fresno",
            "address": "Kern County, California, United States of America",
            "locType": "administrative",
            "blogLinks": [
                "http://www.cahsrblog.com/2016/01/san-jose-loves-idea-of-starting-hsr-service-in-the-north/",
                "https://calstablog.wordpress.com/category/transportation-infrastructure-projects/high-speed-rail/"
            ],
            "longitude": "-118.7538221"
        },
        "shaker heights": {
            "latitude": "37.596091",
            "closest_to": "san jose",
            "address": "Shaker Heights Way, Modesto, Stanislaus County, California, 95358, United States of America",
            "locType": "residential",
            "blogLinks": [
                "http://www.cahsrblog.com/2016/01/san-jose-loves-idea-of-starting-hsr-service-in-the-north/"
            ],
            "longitude": "-120.9972409"
        },
        "newark": {
            "latitude": "37.5296593",
            "closest_to": "san jose",
            "address": "Newark, Alameda County, California, United States of America",
            "locType": "city",
            "blogLinks": [
                "http://www.cahsrblog.com/2016/01/san-jose-loves-idea-of-starting-hsr-service-in-the-north/"
            ],
            "longitude": "-122.0402398"
        },
        "colorado road": {
            "latitude": "36.6200443",
            "closest_to": "san jose",
            "address": "Colorado Road, Fresno County, California, 93660, United States of America",
            "locType": "tertiary",
            "blogLinks": [
                "http://www.airfarewatchdog.com/blog/18225332/14-things-you-need-to-know-before-driving-california-big-sur/"
            ],
            "longitude": "-120.2068465"
        },
        "dumbarton": {
            "latitude": "37.53583145",
            "closest_to": "san jose",
            "address": "Caltrans Dumbarton Bridge Toll Plaza, Fremont, Alameda County, California, 94560, United States of America",
            "locType": "industrial",
            "blogLinks": [
                "http://www.cahsrblog.com/2016/01/san-jose-loves-idea-of-starting-hsr-service-in-the-north/"
            ],
            "longitude": "-122.075600781405"
        },
        "san rafael": {
            "latitude": "37.9735346",
            "closest_to": "san jose",
            "address": "San Rafael, Marin County, California, United States of America",
            "locType": "city",
            "blogLinks": [
                "http://www.roadsideamerica.com/location/ca"
            ],
            "longitude": "-122.5310873"
        },
        "london": {
            "latitude": "36.4760619",
            "closest_to": "fresno",
            "address": "London, Tulare County, California, United States of America",
            "locType": "village",
            "blogLinks": [
                "http://www.cahsrblog.com/2016/01/san-jose-loves-idea-of-starting-hsr-service-in-the-north/",
                "http://www.roadsideamerica.com/location/ca"
            ],
            "longitude": "-119.4431784"
        },
        "san pedro square market": {
            "latitude": "37.3364282",
            "closest_to": "san jose",
            "address": "San Pedro Square Market, West Saint John Street, Little Italy, Japantown, San Jos\u00e9, Santa Clara County, California, 95110, United States of America",
            "locType": "marketplace",
            "blogLinks": [
                "https://calstablog.wordpress.com/category/transportation-infrastructure-projects/high-speed-rail/"
            ],
            "longitude": "-121.894818420458"
        },
        "morro rock ca": {
            "latitude": "35.369669",
            "closest_to": "fresno",
            "address": "Morro Rock, Morro Bay, San Luis Obispo County, California, United States of America",
            "locType": "peak",
            "blogLinks": [
                "http://www.california-blog.com/"
            ],
            "longitude": "-120.8676993"
        },
        "central coast": {
            "latitude": "35.3611193",
            "closest_to": "fresno",
            "address": "Central Coast Street, Bakersfield, Kern County, California, 93314, United States of America",
            "locType": "residential",
            "blogLinks": [
                "http://www.airfarewatchdog.com/blog/18225332/14-things-you-need-to-know-before-driving-california-big-sur/"
            ],
            "longitude": "-119.1665989"
        },
        "camden": {
            "latitude": "36.431061",
            "closest_to": "fresno",
            "address": "Camden, Fresno County, California, United States of America",
            "locType": "hamlet",
            "blogLinks": [
                "http://www.cahsrblog.com/2016/01/san-jose-loves-idea-of-starting-hsr-service-in-the-north/"
            ],
            "longitude": "-119.7979142"
        },
        "northern santa clara county": {
            "latitude": "37.3043402",
            "closest_to": "san jose",
            "address": "Northern Road, Willow Glen, San Jos\u00e9, Santa Clara County, California, 95125, United States of America",
            "locType": "unclassified",
            "blogLinks": [
                "http://www.cahsrblog.com/2016/01/san-jose-loves-idea-of-starting-hsr-service-in-the-north/"
            ],
            "longitude": "-121.8813913"
        },
        "diridon station": {
            "latitude": "37.3293688",
            "closest_to": "san jose",
            "address": "San Jose Diridon Station, Cahill Street, Little Italy, Buena Vista, San Jos\u00e9, Santa Clara County, California, 95110, United States of America",
            "locType": "yes",
            "blogLinks": [
                "http://www.cahsrblog.com/2016/01/san-jose-loves-idea-of-starting-hsr-service-in-the-north/",
                "http://www.mercurynews.com/2016/02/17/california-bullet-train-headed-first-to-san-jose-a-big-bay-area-win/"
            ],
            "longitude": "-121.902573703776"
        },
        "bodie state historic park": {
            "latitude": "38.2154734",
            "closest_to": "fresno",
            "address": "Bodie State Historic Park, Street, Bodie, Mono County, California, United States of America",
            "locType": "park",
            "blogLinks": [
                "http://www.roadsideamerica.com/location/ca"
            ],
            "longitude": "-119.0109761"
        },
        "groveland": {
            "latitude": "37.8382608",
            "closest_to": "san jose",
            "address": "Groveland, Tuolumne County, California, United States of America",
            "locType": "hamlet",
            "blogLinks": [
                "https://www.tripadvisor.com/ShowTopic-g61000-i315-k6618701-Sites_to_see_between_San_Francisco_and_Yosemite-Yosemite_National_Park_California.html"
            ],
            "longitude": "-120.2326893"
        },
        "santa clara": {
            "latitude": "37.3541132",
            "closest_to": "san jose",
            "address": "Santa Clara, Santa Clara County, California, United States of America",
            "locType": "city",
            "blogLinks": [
                "http://www.livability.com/ca",
                "http://www.roadsideamerica.com/location/ca",
                "http://www.santaclara.org/getting-around/public-transportation/"
            ],
            "longitude": "-121.9551743"
        },
        "chicago": {
            "latitude": "37.7850531",
            "closest_to": "san jose",
            "address": "Chicago, Woodstock, Alameda, Alameda County, California, 94501, United States of America",
            "locType": "residential",
            "blogLinks": [
                "http://www.roadsideamerica.com/location/ca",
                "https://www.tripadvisor.com/ShowTopic-g60713-i30-k6063670-Best_places_to_stop_between_San_Fran_and_San_Diego_Thanks-San_Francisco_California.html"
            ],
            "longitude": "-122.2872948"
        },
        "king st. station": {
            "latitude": "36.968977",
            "closest_to": "san jose",
            "address": "King Street, Westside, Santa Cruz, Santa Cruz County, California, 95061, United States of America",
            "locType": "residential",
            "blogLinks": [
                "https://calstablog.wordpress.com/category/transportation-infrastructure-projects/high-speed-rail/"
            ],
            "longitude": "-122.042494547473"
        },
        "blossom hill": {
            "latitude": "37.2256238",
            "closest_to": "san jose",
            "address": "Blossom Hill, Los Gatos, Santa Clara County, California, United States of America",
            "locType": "peak",
            "blogLinks": [
                "http://www.cahsrblog.com/2016/01/san-jose-loves-idea-of-starting-hsr-service-in-the-north/"
            ],
            "longitude": "-121.9265924"
        },
        "san tomas aquino creek trail": {
            "latitude": "37.4145764",
            "closest_to": "san jose",
            "address": "San Tomas Aquino Creek Trail, Santa Clara, Santa Clara County, California, 95002, United States of America",
            "locType": "cycleway",
            "blogLinks": [
                "http://www.santaclara.org/getting-around/public-transportation/"
            ],
            "longitude": "-121.9802759"
        },
        "san francisco bay": {
            "latitude": "37.708264",
            "closest_to": "san jose",
            "address": "San Francisco Bay, Ferry Landing, Alameda, Alameda County, California, 94502, United States of America",
            "locType": "bay",
            "blogLinks": [
                "http://places-to-see.net/california/"
            ],
            "longitude": "-122.2802469"
        },
        "tulare": {
            "latitude": "36.2516475",
            "closest_to": "fresno",
            "address": "Tulare County, California, United States of America",
            "locType": "administrative",
            "blogLinks": [
                "https://calstablog.wordpress.com/category/transportation-infrastructure-projects/high-speed-rail/"
            ],
            "longitude": "-118.8525829"
        },
        "tuolumne": {
            "latitude": "38.056944",
            "closest_to": "san jose",
            "address": "Tuolumne County, California, United States of America",
            "locType": "administrative",
            "blogLinks": [
                "https://www.tripadvisor.com/ShowTopic-g61000-i315-k6618701-Sites_to_see_between_San_Francisco_and_Yosemite-Yosemite_National_Park_California.html"
            ],
            "longitude": "-119.991935"
        },
        "pfeiffer state park": {
            "latitude": "36.25330545",
            "closest_to": "san jose",
            "address": "Pfeiffer Big Sur State Park, Valley View Trail, Big Sur, Monterey County, California, United States of America",
            "locType": "park",
            "blogLinks": [
                "http://www.airfarewatchdog.com/blog/18225332/14-things-you-need-to-know-before-driving-california-big-sur/"
            ],
            "longitude": "-121.783295208903"
        },
        "alcatraz island": {
            "latitude": "37.8267283",
            "closest_to": "san jose",
            "address": "Alcatraz Island, SF, California, United States of America",
            "locType": "island",
            "blogLinks": [
                "http://places-to-see.net/california/"
            ],
            "longitude": "-122.422746492409"
        },
        "san carlos": {
            "latitude": "37.4982065",
            "closest_to": "san jose",
            "address": "San Carlos, San Mateo County, California, United States of America",
            "locType": "city",
            "blogLinks": [
                "http://www.roadsideamerica.com/location/ca"
            ],
            "longitude": "-122.266149723864"
        },
        "madera county": {
            "latitude": "37.1716264",
            "closest_to": "san jose",
            "address": "Madera County, California, United States of America",
            "locType": "administrative",
            "blogLinks": [
                "https://calstablog.wordpress.com/category/transportation-infrastructure-projects/high-speed-rail/"
            ],
            "longitude": "-119.773799"
        },
        "napa valley ca": {
            "latitude": "38.2972603",
            "closest_to": "san jose",
            "address": "California Boulevard, Napa, Napa County, California, 94558, United States of America",
            "locType": "secondary",
            "blogLinks": [
                "http://www.california-blog.com/"
            ],
            "longitude": "-122.3002947"
        },
        "san jos": {
            "latitude": "37.5800244",
            "closest_to": "san jose",
            "address": "Joe's, North Delaware Street, San Mateo, San Mateo County, California, 94401, United States of America",
            "locType": "restaurant",
            "blogLinks": [
                "http://www.cahsrblog.com/2016/01/san-jose-loves-idea-of-starting-hsr-service-in-the-north/"
            ],
            "longitude": "-122.3329393"
        },
        "berkeley": {
            "latitude": "37.8708393",
            "closest_to": "san jose",
            "address": "Berkeley, Alameda County, California, United States of America",
            "locType": "city",
            "blogLinks": [
                "http://www.roadsideamerica.com/location/ca",
                "http://www.livability.com/ca"
            ],
            "longitude": "-122.2728638"
        },
        "pacific grove": {
            "latitude": "36.6174432",
            "closest_to": "san jose",
            "address": "Pacific Grove, Monterey County, California, United States of America",
            "locType": "city",
            "blogLinks": [
                "http://www.airfarewatchdog.com/blog/18225332/14-things-you-need-to-know-before-driving-california-big-sur/"
            ],
            "longitude": "-121.9155905"
        },
        "san luis obispo": {
            "latitude": "35.2827525",
            "closest_to": "fresno",
            "address": "San Luis Obispo, San Luis Obispo County, California, United States of America",
            "locType": "city",
            "blogLinks": [
                "http://www.roadsideamerica.com/location/ca"
            ],
            "longitude": "-120.6596155"
        },
        "fresno": {
            "latitude": "36.748793",
            "closest_to": "fresno",
            "address": "Fresno, Fresno County, California, United States of America",
            "locType": "city",
            "blogLinks": [
                "http://places-to-see.net/california/",
                "http://www.cahsrblog.com/2016/01/san-jose-loves-idea-of-starting-hsr-service-in-the-north/",
                "http://www.fresnobee.com/news/local/high-speed-rail/",
                "https://www.tripadvisor.com/ShowTopic-g28926-i29-k7578574-Places_to_stop_visit_between_Dallas_and_Bay_Area-California.html",
                "https://calstablog.wordpress.com/category/transportation-infrastructure-projects/high-speed-rail/",
                "http://www.santaclara.org/getting-around/public-transportation/"
            ],
            "longitude": "-119.714839601149"
        },
        "oakdale": {
            "latitude": "37.7665947",
            "closest_to": "san jose",
            "address": "Oakdale, Stanislaus County, California, United States of America",
            "locType": "city",
            "blogLinks": [
                "https://www.tripadvisor.com/ShowTopic-g61000-i315-k6618701-Sites_to_see_between_San_Francisco_and_Yosemite-Yosemite_National_Park_California.html"
            ],
            "longitude": "-120.8471544"
        },
        "healdsburg": {
            "latitude": "38.6106812",
            "closest_to": "san jose",
            "address": "Healdsburg, Sonoma County, California, United States of America",
            "locType": "city",
            "blogLinks": [
                "http://www.roadsideamerica.com/location/ca"
            ],
            "longitude": "-122.8701379"
        },
        "headlands trail": {
            "latitude": "36.2816229",
            "closest_to": "san jose",
            "address": "Headlands Trail, Monterey County, California, United States of America",
            "locType": "path",
            "blogLinks": [
                "http://www.airfarewatchdog.com/blog/18225332/14-things-you-need-to-know-before-driving-california-big-sur/"
            ],
            "longitude": "-121.8602547"
        },
        "morro bay ca": {
            "latitude": "35.3658075",
            "closest_to": "fresno",
            "address": "Morro Bay, San Luis Obispo County, California, United States of America",
            "locType": "city",
            "blogLinks": [
                "http://www.california-blog.com/"
            ],
            "longitude": "-120.8499012"
        },
        "monterey peninsula ca": {
            "latitude": "36.5878734",
            "closest_to": "san jose",
            "address": "Monterey Regional Airport, Airport Road, Seaside, Del Monte Heights, Monterey County, California, 93940, United States of America",
            "locType": "aerodrome",
            "blogLinks": [
                "http://www.california-blog.com/"
            ],
            "longitude": "-121.843618374407"
        },
        "tamien station": {
            "latitude": "37.3123875",
            "closest_to": "san jose",
            "address": "Tamien, Highway 87 Bikeway, SoFA, Willow Glen, San Jos\u00e9, Santa Clara County, California, 95125, United States of America",
            "locType": "station",
            "blogLinks": [
                "https://calstablog.wordpress.com/category/transportation-infrastructure-projects/high-speed-rail/"
            ],
            "longitude": "-121.8845198"
        },
        "atascadero": {
            "latitude": "35.4894169",
            "closest_to": "fresno",
            "address": "Atascadero, San Luis Obispo County, California, United States of America",
            "locType": "city",
            "blogLinks": [
                "http://www.roadsideamerica.com/location/ca"
            ],
            "longitude": "-120.6707254"
        },
        "santa clara convention center": {
            "latitude": "37.4044039",
            "closest_to": "san jose",
            "address": "Santa Clara Convention Center, Convention Center Way, Santa Clara, Santa Clara County, California, 95002, United States of America",
            "locType": "conference_centre",
            "blogLinks": [
                "http://www.santaclara.org/getting-around/public-transportation/"
            ],
            "longitude": "-121.975031612487"
        },
        "fresno river viaduct": {
            "latitude": "37.3400118",
            "closest_to": "san jose",
            "address": "Fresno River, Madera County, California, United States of America",
            "locType": "river",
            "blogLinks": [
                "https://calstablog.wordpress.com/category/transportation-infrastructure-projects/high-speed-rail/"
            ],
            "longitude": "-119.7242302"
        },
        "san jose": {
            "latitude": "37.3361905",
            "closest_to": "san jose",
            "address": "San Jos\u00e9, Santa Clara County, California, United States of America",
            "locType": "city",
            "blogLinks": [
                "http://www.mercurynews.com/2016/02/17/california-bullet-train-headed-first-to-san-jose-a-big-bay-area-win/",
                "http://places-to-see.net/california/",
                "http://blog.utrip.com/san-jose-city-guide/",
                "http://www.livability.com/ca",
                "http://www.cahsrblog.com/2016/01/san-jose-loves-idea-of-starting-hsr-service-in-the-north/",
                "https://www.tripadvisor.com/ShowTopic-g28926-i29-k7578574-Places_to_stop_visit_between_Dallas_and_Bay_Area-California.html",
                "http://www.roadsideamerica.com/location/ca",
                "https://calstablog.wordpress.com/category/transportation-infrastructure-projects/high-speed-rail/",
                "http://www.santaclara.org/getting-around/public-transportation/"
            ],
            "longitude": "-121.8905832"
        },
        "gianera street": {
            "latitude": "37.3997317",
            "closest_to": "san jose",
            "address": "Gianera Street, Santa Clara, Santa Clara County, California, 95054, United States of America",
            "locType": "residential",
            "blogLinks": [
                "http://www.santaclara.org/getting-around/public-transportation/"
            ],
            "longitude": "-121.9677788"
        },
        "agnew road": {
            "latitude": "37.3943647",
            "closest_to": "san jose",
            "address": "Agnew Road, Santa Clara, Santa Clara County, California, 95054, United States of America",
            "locType": "secondary",
            "blogLinks": [
                "http://www.santaclara.org/getting-around/public-transportation/"
            ],
            "longitude": "-121.9488924"
        },
        "modesto": {
            "latitude": "37.6390972",
            "closest_to": "san jose",
            "address": "Modesto, Stanislaus County, California, United States of America",
            "locType": "city",
            "blogLinks": [
                "http://www.cahsrblog.com/2016/01/san-jose-loves-idea-of-starting-hsr-service-in-the-north/"
            ],
            "longitude": "-120.9968781"
        },
        "san joaquin": {
            "latitude": "37.9372901",
            "closest_to": "san jose",
            "address": "San Joaquin County, California, United States of America",
            "locType": "administrative",
            "blogLinks": [
                "https://calstablog.wordpress.com/category/transportation-infrastructure-projects/high-speed-rail/"
            ],
            "longitude": "-121.2773718"
        },
        "la": {
            "latitude": "36.7014631",
            "closest_to": "fresno",
            "address": "California, United States of America",
            "locType": "administrative",
            "blogLinks": [
                "http://www.cahsrblog.com/2016/01/san-jose-loves-idea-of-starting-hsr-service-in-the-north/",
                "https://www.tripadvisor.com/ShowTopic-g61000-i315-k6618701-Sites_to_see_between_San_Francisco_and_Yosemite-Yosemite_National_Park_California.html",
                "http://www.mercurynews.com/2016/02/17/california-bullet-train-headed-first-to-san-jose-a-big-bay-area-win/",
                "https://www.tripadvisor.com/ShowTopic-g60713-i30-k6063670-Best_places_to_stop_between_San_Fran_and_San_Diego_Thanks-San_Francisco_California.html"
            ],
            "longitude": "-118.7559973"
        },
        "yosemite junction": {
            "latitude": "37.8907599",
            "closest_to": "san jose",
            "address": "Yosemite Junction, Tuolumne County, California, United States of America",
            "locType": "hamlet",
            "blogLinks": [
                "https://www.tripadvisor.com/ShowTopic-g61000-i315-k6618701-Sites_to_see_between_San_Francisco_and_Yosemite-Yosemite_National_Park_California.html"
            ],
            "longitude": "-120.4882529"
        },
        "menlo park": {
            "latitude": "37.4538274",
            "closest_to": "san jose",
            "address": "Menlo Park, San Mateo County, California, United States of America",
            "locType": "administrative",
            "blogLinks": [
                "http://www.cahsrblog.com/2016/01/san-jose-loves-idea-of-starting-hsr-service-in-the-north/"
            ],
            "longitude": "-122.182187"
        },
        "sunnyvale": {
            "latitude": "37.3688301",
            "closest_to": "san jose",
            "address": "Sunnyvale, Santa Clara County, California, United States of America",
            "locType": "city",
            "blogLinks": [
                "http://www.cahsrblog.com/2016/01/san-jose-loves-idea-of-starting-hsr-service-in-the-north/"
            ],
            "longitude": "-122.0363495"
        },
        "san joaquin valley": {
            "latitude": "37.9372901",
            "closest_to": "san jose",
            "address": "San Joaquin County, California, United States of America",
            "locType": "administrative",
            "blogLinks": [
                "https://www.tripadvisor.com/ShowTopic-g61000-i315-k6618701-Sites_to_see_between_San_Francisco_and_Yosemite-Yosemite_National_Park_California.html",
                "https://calstablog.wordpress.com/category/transportation-infrastructure-projects/high-speed-rail/",
                "http://www.santaclara.org/getting-around/public-transportation/"
            ],
            "longitude": "-121.2773718"
        },
        "kettleman city": {
            "latitude": "36.008937",
            "closest_to": "fresno",
            "address": "Kettleman City, 7th Street, Kettleman City, Kings County, California, 93239, United States of America",
            "locType": "administrative",
            "blogLinks": [
                "http://www.roadsideamerica.com/location/ca"
            ],
            "longitude": "-119.962676860725"
        },
        "turlock": {
            "latitude": "37.4946568",
            "closest_to": "san jose",
            "address": "Turlock, Stanislaus County, California, United States of America",
            "locType": "city",
            "blogLinks": [
                "http://www.roadsideamerica.com/location/ca"
            ],
            "longitude": "-120.846594"
        },
        "pebble beach ca": {
            "latitude": "36.5664874",
            "closest_to": "san jose",
            "address": "Pebble Beach, Monterey County, California, United States of America",
            "locType": "hamlet",
            "blogLinks": [
                "http://www.california-blog.com/"
            ],
            "longitude": "-121.9466112"
        },
        "new melones": {
            "latitude": "37.9471474",
            "closest_to": "san jose",
            "address": "New Melones Dam, Calaveras County, California, United States of America",
            "locType": "dam",
            "blogLinks": [
                "https://www.tripadvisor.com/ShowTopic-g61000-i315-k6618701-Sites_to_see_between_San_Francisco_and_Yosemite-Yosemite_National_Park_California.html"
            ],
            "longitude": "-120.5279768"
        },
        "yosemite": {
            "latitude": "37.7488554",
            "closest_to": "fresno",
            "address": "Yosemite, Village Drive, Yosemite Village, Yosemite Valley, Mariposa County, California, United States of America",
            "locType": "attraction",
            "blogLinks": [
                "https://www.tripadvisor.com/ShowTopic-g61000-i315-k6618701-Sites_to_see_between_San_Francisco_and_Yosemite-Yosemite_National_Park_California.html"
            ],
            "longitude": "-119.5893389"
        },
        "carmel": {
            "latitude": "38.75511285",
            "closest_to": "san jose",
            "address": "Carmel, Roseville, Placer County, California, 95747, United States of America",
            "locType": "residential",
            "blogLinks": [
                "http://www.airfarewatchdog.com/blog/18225332/14-things-you-need-to-know-before-driving-california-big-sur/"
            ],
            "longitude": "-121.353308848273"
        },
        "merced county": {
            "latitude": "37.1641544",
            "closest_to": "san jose",
            "address": "Merced County, California, United States of America",
            "locType": "administrative",
            "blogLinks": [
                "http://www.fresnobee.com/news/local/high-speed-rail/"
            ],
            "longitude": "-120.7678601"
        },
        "monterey peninsula": {
            "latitude": "36.5878734",
            "closest_to": "san jose",
            "address": "Monterey Regional Airport, Airport Road, Seaside, Del Monte Heights, Monterey County, California, 93940, United States of America",
            "locType": "aerodrome",
            "blogLinks": [
                "http://www.airfarewatchdog.com/blog/18225332/14-things-you-need-to-know-before-driving-california-big-sur/"
            ],
            "longitude": "-121.843618374407"
        },
        "tamien": {
            "latitude": "37.3123875",
            "closest_to": "san jose",
            "address": "Tamien, Highway 87 Bikeway, SoFA, Willow Glen, San Jos\u00e9, Santa Clara County, California, 95125, United States of America",
            "locType": "station",
            "blogLinks": [
                "http://www.cahsrblog.com/2016/01/san-jose-loves-idea-of-starting-hsr-service-in-the-north/"
            ],
            "longitude": "-121.8845198"
        },
        "san mateo co.": {
            "latitude": "37.496904",
            "closest_to": "san jose",
            "address": "San Mateo County, California, United States of America",
            "locType": "administrative",
            "blogLinks": [
                "http://www.cahsrblog.com/2016/01/san-jose-loves-idea-of-starting-hsr-service-in-the-north/"
            ],
            "longitude": "-122.3330572"
        },
        "placerville": {
            "latitude": "38.7296252",
            "closest_to": "san jose",
            "address": "Placerville, El Dorado County, California, United States of America",
            "locType": "city",
            "blogLinks": [
                "http://www.roadsideamerica.com/location/ca"
            ],
            "longitude": "-120.7985459"
        },
        "carlucci road": {
            "latitude": "37.089297",
            "closest_to": "san jose",
            "address": "Carlucci Road, Merced County, California, 93620, United States of America",
            "locType": "residential",
            "blogLinks": [
                "https://calstablog.wordpress.com/category/transportation-infrastructure-projects/high-speed-rail/"
            ],
            "longitude": "-120.6807069"
        },
        "east bay": {
            "latitude": "38.156964",
            "closest_to": "san jose",
            "address": "East Bay, San Joaquin County, California, United States of America",
            "locType": "track",
            "blogLinks": [
                "https://calstablog.wordpress.com/category/transportation-infrastructure-projects/high-speed-rail/"
            ],
            "longitude": "-121.0270079"
        },
        "bay bridge": {
            "latitude": "37.8193514",
            "closest_to": "san jose",
            "address": "San Francisco \u2013 Oakland Bay Bridge, Oakland, Alameda County, California, 94625, United States of America",
            "locType": "abandoned",
            "blogLinks": [
                "https://calstablog.wordpress.com/category/transportation-infrastructure-projects/high-speed-rail/"
            ],
            "longitude": "-122.342234"
        },
        "oakland": {
            "latitude": "37.8044557",
            "closest_to": "san jose",
            "address": "Oakland, Alameda County, California, United States of America",
            "locType": "city",
            "blogLinks": [
                "http://www.cahsrblog.com/2016/01/san-jose-loves-idea-of-starting-hsr-service-in-the-north/",
                "https://calstablog.wordpress.com/category/transportation-infrastructure-projects/high-speed-rail/"
            ],
            "longitude": "-122.2713562"
        },
        "oakhurst": {
            "latitude": "37.333178",
            "closest_to": "san jose",
            "address": "Oakhurst, Junction Drive, Oakhurst, Madera County, California, 93644, United States of America",
            "locType": "administrative",
            "blogLinks": [
                "https://www.tripadvisor.com/ShowTopic-g28926-i29-k7578574-Places_to_stop_visit_between_Dallas_and_Bay_Area-California.html"
            ],
            "longitude": "-119.657244022836"
        },
        "sonora": {
            "latitude": "37.9840911",
            "closest_to": "san jose",
            "address": "Sonora, Tuolumne County, California, United States of America",
            "locType": "city",
            "blogLinks": [
                "https://www.tripadvisor.com/ShowTopic-g61000-i315-k6618701-Sites_to_see_between_San_Francisco_and_Yosemite-Yosemite_National_Park_California.html"
            ],
            "longitude": "-120.382138"
        },
        "pfeiffer beach": {
            "latitude": "36.23934855",
            "closest_to": "san jose",
            "address": "Pfeiffer Beach, Sycamore Canyon Road, Big Sur, Monterey County, California, 93920, United States of America",
            "locType": "beach",
            "blogLinks": [
                "http://www.airfarewatchdog.com/blog/18225332/14-things-you-need-to-know-before-driving-california-big-sur/"
            ],
            "longitude": "-121.81778571416"
        },
        "north lake ca": {
            "latitude": "37.76958295",
            "closest_to": "san jose",
            "address": "North Lake, Chain of Lakes Drive East, Sunset District, SF, California, 94122, United States of America",
            "locType": "water",
            "blogLinks": [
                "http://www.california-blog.com/"
            ],
            "longitude": "-122.501983281136"
        },
        "fresno county": {
            "latitude": "36.6713502",
            "closest_to": "san jose",
            "address": "Fresno County, California, United States of America",
            "locType": "administrative",
            "blogLinks": [
                "https://calstablog.wordpress.com/category/transportation-infrastructure-projects/high-speed-rail/"
            ],
            "longitude": "-119.8155354"
        },
        "marin county": {
            "latitude": "38.0409144",
            "closest_to": "san jose",
            "address": "Marin County, California, United States of America",
            "locType": "administrative",
            "blogLinks": [
                "https://calstablog.wordpress.com/category/transportation-infrastructure-projects/high-speed-rail/"
            ],
            "longitude": "-122.6199637"
        },
        "altamont": {
            "latitude": "37.7438175",
            "closest_to": "san jose",
            "address": "Altamont, Alameda County, California, United States of America",
            "locType": "hamlet",
            "blogLinks": [
                "http://www.cahsrblog.com/2016/01/san-jose-loves-idea-of-starting-hsr-service-in-the-north/"
            ],
            "longitude": "-121.6627284"
        },
        "north fresno": {
            "latitude": "36.748793",
            "closest_to": "fresno",
            "address": "Fresno, Fresno County, California, United States of America",
            "locType": "city",
            "blogLinks": [
                "https://calstablog.wordpress.com/category/transportation-infrastructure-projects/high-speed-rail/"
            ],
            "longitude": "-119.714839601149"
        },
        "cambria": {
            "latitude": "35.5641381",
            "closest_to": "fresno",
            "address": "Cambria, San Luis Obispo County, California, United States of America",
            "locType": "administrative",
            "blogLinks": [
                "http://www.airfarewatchdog.com/blog/18225332/14-things-you-need-to-know-before-driving-california-big-sur/",
                "https://www.tripadvisor.com/ShowTopic-g60713-i30-k6063670-Best_places_to_stop_between_San_Fran_and_San_Diego_Thanks-San_Francisco_California.html"
            ],
            "longitude": "-121.0807467"
        },
        "jamestown": {
            "latitude": "37.9588565",
            "closest_to": "san jose",
            "address": "Jamestown, Golden Oaks Drive, Volponi Acres, Tuolumne County, California, 95327, United States of America",
            "locType": "administrative",
            "blogLinks": [
                "https://www.tripadvisor.com/ShowTopic-g61000-i315-k6618701-Sites_to_see_between_San_Francisco_and_Yosemite-Yosemite_National_Park_California.html"
            ],
            "longitude": "-120.404431068133"
        },
        "redwood city": {
            "latitude": "37.4852152",
            "closest_to": "san jose",
            "address": "Redwood City, San Mateo County, California, United States of America",
            "locType": "city",
            "blogLinks": [
                "http://www.cahsrblog.com/2016/01/san-jose-loves-idea-of-starting-hsr-service-in-the-north/",
                "http://www.roadsideamerica.com/location/ca"
            ],
            "longitude": "-122.2363547"
        },
        "los banos": {
            "latitude": "37.0592253",
            "closest_to": "san jose",
            "address": "Los Banos, Merced County, California, United States of America",
            "locType": "administrative",
            "blogLinks": [
                "https://calstablog.wordpress.com/category/transportation-infrastructure-projects/high-speed-rail/"
            ],
            "longitude": "-120.8505341"
        },
        "american avenue": {
            "latitude": "38.612125",
            "closest_to": "san jose",
            "address": "American Avenue, Sacramento, Sacramento County, California, 95833, United States of America",
            "locType": "residential",
            "blogLinks": [
                "https://calstablog.wordpress.com/category/transportation-infrastructure-projects/high-speed-rail/"
            ],
            "longitude": "-121.4717539"
        },
        "vietnam": {
            "latitude": "37.7979399",
            "closest_to": "san jose",
            "address": "Vietnam, 618-626, Broadway Street, Nob Hill, SF, California, 94109, United States of America",
            "locType": "restaurant",
            "blogLinks": [
                "http://blog.utrip.com/san-jose-city-guide/"
            ],
            "longitude": "-122.4074503"
        },
        "mono lake ca": {
            "latitude": "38.0077189",
            "closest_to": "fresno",
            "address": "Mono Lake, Mono County, California, United States of America",
            "locType": "water",
            "blogLinks": [
                "http://www.california-blog.com/"
            ],
            "longitude": "-118.967033937845"
        },
        "san joes": {
            "latitude": "37.5800244",
            "closest_to": "san jose",
            "address": "Joe's, North Delaware Street, San Mateo, San Mateo County, California, 94401, United States of America",
            "locType": "restaurant",
            "blogLinks": [
                "http://places-to-see.net/california/"
            ],
            "longitude": "-122.3329393"
        },
        "china": {
            "latitude": "37.9989198",
            "closest_to": "san jose",
            "address": "China Camp State Park, Bay View Trail, Santa Venetia, Marin County, California, 94901, United States of America",
            "locType": "park",
            "blogLinks": [
                "https://www.tripadvisor.com/ShowTopic-g61000-i315-k6618701-Sites_to_see_between_San_Francisco_and_Yosemite-Yosemite_National_Park_California.html"
            ],
            "longitude": "-122.49033307856"
        },
        "united states": {
            "latitude": "36.7014631",
            "closest_to": "fresno",
            "address": "California, United States of America",
            "locType": "administrative",
            "blogLinks": [
                "http://www.airfarewatchdog.com/blog/18225332/14-things-you-need-to-know-before-driving-california-big-sur/",
                "http://www.cahsrblog.com/2016/01/san-jose-loves-idea-of-starting-hsr-service-in-the-north/",
                "http://places-to-see.net/california/"
            ],
            "longitude": "-118.7559973"
        },
        "silicon valley": {
            "latitude": "37.4105333",
            "closest_to": "san jose",
            "address": "Carnegie Mellon Silicon Valley, South Akron Road, Santa Clara County, California, 94035-0016, United States of America",
            "locType": "school",
            "blogLinks": [
                "http://www.cahsrblog.com/2016/01/san-jose-loves-idea-of-starting-hsr-service-in-the-north/",
                "https://calstablog.wordpress.com/category/transportation-infrastructure-projects/high-speed-rail/",
                "http://www.mercurynews.com/2016/02/17/california-bullet-train-headed-first-to-san-jose-a-big-bay-area-win/",
                "http://www.santaclara.org/getting-around/public-transportation/"
            ],
            "longitude": "-122.0597491"
        },
        "san simeon": {
            "latitude": "35.6438587",
            "closest_to": "san jose",
            "address": "San Simeon, San Luis Obispo County, California, United States of America",
            "locType": "hamlet",
            "blogLinks": [
                "http://www.airfarewatchdog.com/blog/18225332/14-things-you-need-to-know-before-driving-california-big-sur/",
                "http://www.roadsideamerica.com/location/ca"
            ],
            "longitude": "-121.1907532"
        },
        "cotati": {
            "latitude": "38.3266798",
            "closest_to": "san jose",
            "address": "Cotati, Sonoma County, California, United States of America",
            "locType": "city",
            "blogLinks": [
                "http://www.roadsideamerica.com/location/ca"
            ],
            "longitude": "-122.706844"
        },
        "santa clara county": {
            "latitude": "37.2333253",
            "closest_to": "san jose",
            "address": "Santa Clara County, California, United States of America",
            "locType": "administrative",
            "blogLinks": [
                "http://www.cahsrblog.com/2016/01/san-jose-loves-idea-of-starting-hsr-service-in-the-north/"
            ],
            "longitude": "-121.6846348"
        },
        "monterey": {
            "latitude": "36.5844165",
            "closest_to": "san jose",
            "address": "Monterey, Monterey County, California, United States of America",
            "locType": "city",
            "blogLinks": [
                "http://www.airfarewatchdog.com/blog/18225332/14-things-you-need-to-know-before-driving-california-big-sur/",
                "http://www.cahsrblog.com/2016/01/san-jose-loves-idea-of-starting-hsr-service-in-the-north/",
                "http://www.roadsideamerica.com/location/ca",
                "https://www.tripadvisor.com/ShowTopic-g60713-i30-k6063670-Best_places_to_stop_between_San_Fran_and_San_Diego_Thanks-San_Francisco_California.html"
            ],
            "longitude": "-121.866792846206"
        },
        "morro bay": {
            "latitude": "35.3658075",
            "closest_to": "fresno",
            "address": "Morro Bay, San Luis Obispo County, California, United States of America",
            "locType": "city",
            "blogLinks": [
                "http://www.airfarewatchdog.com/blog/18225332/14-things-you-need-to-know-before-driving-california-big-sur/"
            ],
            "longitude": "-120.8499012"
        },
        "avenue 17": {
            "latitude": "36.996468",
            "closest_to": "san jose",
            "address": "Avenue 17, Notarb, Madera County, California, 93637, United States of America",
            "locType": "tertiary",
            "blogLinks": [
                "https://calstablog.wordpress.com/category/transportation-infrastructure-projects/high-speed-rail/"
            ],
            "longitude": "-120.1017689"
        },
        "pacific ocean": {
            "latitude": "36.16305775",
            "closest_to": "san jose",
            "address": "Pacific Ocean, Cabrillo Highway, Monterey County, California, 93920, United States of America",
            "locType": "cliff",
            "blogLinks": [
                "http://www.cahsrblog.com/2016/01/san-jose-loves-idea-of-starting-hsr-service-in-the-north/",
                "http://places-to-see.net/california/"
            ],
            "longitude": "-121.678715787326"
        },
        "san francisco": {
            "latitude": "37.7792808",
            "closest_to": "san jose",
            "address": "SF, California, United States of America",
            "locType": "city",
            "blogLinks": [
                "https://www.tripadvisor.com/ShowTopic-g61000-i315-k6618701-Sites_to_see_between_San_Francisco_and_Yosemite-Yosemite_National_Park_California.html",
                "http://www.mercurynews.com/2016/02/17/california-bullet-train-headed-first-to-san-jose-a-big-bay-area-win/",
                "http://places-to-see.net/california/",
                "http://www.livability.com/ca",
                "http://www.airfarewatchdog.com/blog/18225332/14-things-you-need-to-know-before-driving-california-big-sur/",
                "http://www.cahsrblog.com/2016/01/san-jose-loves-idea-of-starting-hsr-service-in-the-north/",
                "https://www.tripadvisor.com/ShowTopic-g60713-i30-k6063670-Best_places_to_stop_between_San_Fran_and_San_Diego_Thanks-San_Francisco_California.html",
                "http://www.roadsideamerica.com/location/ca",
                "https://calstablog.wordpress.com/category/transportation-infrastructure-projects/high-speed-rail/",
                "http://www.santaclara.org/getting-around/public-transportation/"
            ],
            "longitude": "-122.4192362"
        },
        "south san jose": {
            "latitude": "37.3326082",
            "closest_to": "san jose",
            "address": "S, Swift Lane, Alum Rock, San Jos\u00e9, Santa Clara County, California, 95121, United States of America",
            "locType": "taxiway",
            "blogLinks": [
                "http://www.cahsrblog.com/2016/01/san-jose-loves-idea-of-starting-hsr-service-in-the-north/"
            ],
            "longitude": "-121.8161041"
        },
        "coalinga": {
            "latitude": "36.1298952",
            "closest_to": "san jose",
            "address": "Coalinga, Fresno County, California, United States of America",
            "locType": "city",
            "blogLinks": [
                "http://www.roadsideamerica.com/location/ca"
            ],
            "longitude": "-120.245046293019"
        },
        "sacramento": {
            "latitude": "38.5815719",
            "closest_to": "san jose",
            "address": "Sacramento, Sacramento County, California, United States of America",
            "locType": "city",
            "blogLinks": [
                "http://www.cahsrblog.com/2016/01/san-jose-loves-idea-of-starting-hsr-service-in-the-north/",
                "https://calstablog.wordpress.com/category/transportation-infrastructure-projects/high-speed-rail/",
                "http://www.santaclara.org/getting-around/public-transportation/"
            ],
            "longitude": "-121.4943995"
        },
        "great america": {
            "latitude": "37.4034903",
            "closest_to": "san jose",
            "address": "Great America, West Tasman Drive, Santa Clara, Santa Clara County, California, 95002, United States of America",
            "locType": "tram_stop",
            "blogLinks": [
                "http://www.santaclara.org/getting-around/public-transportation/"
            ],
            "longitude": "-121.9743159"
        },
        "columbia": {
            "latitude": "38.03227005",
            "closest_to": "san jose",
            "address": "Columbia, Maiden Lane, Columbia, Tuolumne County, California, 95310, United States of America",
            "locType": "administrative",
            "blogLinks": [
                "https://www.tripadvisor.com/ShowTopic-g61000-i315-k6618701-Sites_to_see_between_San_Francisco_and_Yosemite-Yosemite_National_Park_California.html"
            ],
            "longitude": "-120.402418618899"
        },
        "bay area": {
            "latitude": "37.7884969",
            "closest_to": "san jose",
            "address": "San Francisco Bay Area, SF, California, United States of America",
            "locType": "region",
            "blogLinks": [
                "http://www.cahsrblog.com/2016/01/san-jose-loves-idea-of-starting-hsr-service-in-the-north/",
                "https://www.tripadvisor.com/ShowTopic-g61000-i315-k6618701-Sites_to_see_between_San_Francisco_and_Yosemite-Yosemite_National_Park_California.html",
                "https://calstablog.wordpress.com/category/transportation-infrastructure-projects/high-speed-rail/",
                "https://www.tripadvisor.com/ShowTopic-g28926-i29-k7578574-Places_to_stop_visit_between_Dallas_and_Bay_Area-California.html",
                "http://www.mercurynews.com/2016/02/17/california-bullet-train-headed-first-to-san-jose-a-big-bay-area-win/"
            ],
            "longitude": "-122.3558472"
        },
        "new melones reservoir": {
            "latitude": "38.0037779",
            "closest_to": "san jose",
            "address": "New Melones Reservoir Visiter Center, Stud Horse Flat Road, Tuolumne County, California, United States of America",
            "locType": "information",
            "blogLinks": [
                "https://www.tripadvisor.com/ShowTopic-g61000-i315-k6618701-Sites_to_see_between_San_Francisco_and_Yosemite-Yosemite_National_Park_California.html"
            ],
            "longitude": "-120.4873123"
        },
        "east american avenue": {
            "latitude": "36.6635767",
            "closest_to": "fresno",
            "address": "East American Avenue, Fresno County, California, 93625, United States of America",
            "locType": "tertiary",
            "blogLinks": [
                "https://calstablog.wordpress.com/category/transportation-infrastructure-projects/high-speed-rail/"
            ],
            "longitude": "-119.6995553"
        },
        "sequoia national park": {
            "latitude": "36.49584065",
            "closest_to": "fresno",
            "address": "Sequoia National Park, Black Rock Pass Trail, Mineral King, Tulare County, California, United States of America",
            "locType": "national_park",
            "blogLinks": [
                "http://www.roadsideamerica.com/location/ca"
            ],
            "longitude": "-118.559919284386"
        },
        "detroit": {
            "latitude": "37.8190177",
            "closest_to": "san jose",
            "address": "Golden Gate, Golden Gate Bridge, Waldo, Marin County, California, 94965, United States of America",
            "locType": "strait",
            "blogLinks": [
                "http://www.cahsrblog.com/2016/01/san-jose-loves-idea-of-starting-hsr-service-in-the-north/"
            ],
            "longitude": "-122.4793972"
        },
        "san joaquin river viaduct": {
            "latitude": "37.5308299",
            "closest_to": "fresno",
            "address": "San Joaquin River, Madera County, California, United States of America",
            "locType": "river",
            "blogLinks": [
                "https://calstablog.wordpress.com/category/transportation-infrastructure-projects/high-speed-rail/"
            ],
            "longitude": "-119.1862809"
        },
        "sunol": {
            "latitude": "37.5943781",
            "closest_to": "san jose",
            "address": "Sunol, Alameda County, California, United States of America",
            "locType": "hamlet",
            "blogLinks": [
                "http://www.roadsideamerica.com/location/ca"
            ],
            "longitude": "-121.8885682"
        },
        "big sur": {
            "latitude": "36.270241",
            "closest_to": "san jose",
            "address": "Big Sur, Monterey County, California, United States of America",
            "locType": "village",
            "blogLinks": [
                "http://www.airfarewatchdog.com/blog/18225332/14-things-you-need-to-know-before-driving-california-big-sur/"
            ],
            "longitude": "-121.8074544"
        },
        "pacifica": {
            "latitude": "37.6138253",
            "closest_to": "san jose",
            "address": "Pacifica, San Mateo County, California, United States of America",
            "locType": "city",
            "blogLinks": [
                "http://www.roadsideamerica.com/location/ca"
            ],
            "longitude": "-122.4869193"
        },
        "big sur bakery": {
            "latitude": "36.2359105",
            "closest_to": "san jose",
            "address": "Big Sur Bakery, 47540, Cabrillo Highway, Posts, Monterey County, California, 93920, United States of America",
            "locType": "bakery",
            "blogLinks": [
                "http://www.airfarewatchdog.com/blog/18225332/14-things-you-need-to-know-before-driving-california-big-sur/"
            ],
            "longitude": "-121.7693642"
        },
        "castroville": {
            "latitude": "36.7657904",
            "closest_to": "san jose",
            "address": "Castroville, Monterey County, California, United States of America",
            "locType": "administrative",
            "blogLinks": [
                "http://www.roadsideamerica.com/location/ca"
            ],
            "longitude": "-121.7580049"
        },
        "asilomar": {
            "latitude": "36.6208094",
            "closest_to": "san jose",
            "address": "Asilomar, Pacific Grove, Monterey County, California, United States of America",
            "locType": "locality",
            "blogLinks": [
                "http://www.airfarewatchdog.com/blog/18225332/14-things-you-need-to-know-before-driving-california-big-sur/"
            ],
            "longitude": "-121.9363569"
        },
        "angelinos": {
            "latitude": "37.8544615",
            "closest_to": "san jose",
            "address": "Angelino's, Bridgeway, Sausalito, Marin County, California, 94965, United States of America",
            "locType": "restaurant",
            "blogLinks": [
                "http://www.fresnobee.com/news/local/high-speed-rail/"
            ],
            "longitude": "-122.4791527"
        },
        "dallas": {
            "latitude": "37.3099472",
            "closest_to": "san jose",
            "address": "Upper Dallas Lateral, Merced County, California, United States of America",
            "locType": "ditch",
            "blogLinks": [
                "http://www.cahsrblog.com/2016/01/san-jose-loves-idea-of-starting-hsr-service-in-the-north/",
                "https://www.tripadvisor.com/ShowTopic-g28926-i29-k7578574-Places_to_stop_visit_between_Dallas_and_Bay_Area-California.html"
            ],
            "longitude": "-120.6404967"
        },
        "priest station": {
            "latitude": "37.8004841",
            "closest_to": "san jose",
            "address": "Priest 9-006 Dam, Tuolumne County, California, United States of America",
            "locType": "dam",
            "blogLinks": [
                "https://www.tripadvisor.com/ShowTopic-g61000-i315-k6618701-Sites_to_see_between_San_Francisco_and_Yosemite-Yosemite_National_Park_California.html"
            ],
            "longitude": "-120.266857"
        },
        "geyserville": {
            "latitude": "38.707687",
            "closest_to": "san jose",
            "address": "Geyserville, Sonoma County, California, United States of America",
            "locType": "hamlet",
            "blogLinks": [
                "http://www.roadsideamerica.com/location/ca"
            ],
            "longitude": "-122.9024963"
        },
        "manteca": {
            "latitude": "37.7986184",
            "closest_to": "san jose",
            "address": "Manteca, San Joaquin County, California, United States of America",
            "locType": "city",
            "blogLinks": [
                "http://www.cahsrblog.com/2016/01/san-jose-loves-idea-of-starting-hsr-service-in-the-north/",
                "https://www.tripadvisor.com/ShowTopic-g61000-i315-k6618701-Sites_to_see_between_San_Francisco_and_Yosemite-Yosemite_National_Park_California.html"
            ],
            "longitude": "-121.2117147"
        },
        "the city of san jose": {
            "latitude": "37.3317699",
            "closest_to": "san jose",
            "address": "San Jose Municipal Rose Garden, Emory Street, Newhall, Rose Garden, San Jos\u00e9, Santa Clara County, California, 95128, United States of America",
            "locType": "attraction",
            "blogLinks": [
                "http://www.cahsrblog.com/2016/01/san-jose-loves-idea-of-starting-hsr-service-in-the-north/"
            ],
            "longitude": "-121.928583469557"
        },
        "sebastopol": {
            "latitude": "38.4021359",
            "closest_to": "san jose",
            "address": "Sebastopol, Sonoma County, California, United States of America",
            "locType": "city",
            "blogLinks": [
                "http://www.cahsrblog.com/2016/01/san-jose-loves-idea-of-starting-hsr-service-in-the-north/",
                "http://www.roadsideamerica.com/location/ca"
            ],
            "longitude": "-122.8238805"
        },
        "richmond": {
            "latitude": "37.9357576",
            "closest_to": "san jose",
            "address": "Richmond, Contra Costa County, California, United States of America",
            "locType": "city",
            "blogLinks": [
                "http://www.roadsideamerica.com/location/ca"
            ],
            "longitude": "-122.3477485"
        },
        "bakersfield": {
            "latitude": "35.3738712",
            "closest_to": "fresno",
            "address": "Bakersfield, Kern County, California, United States of America",
            "locType": "city",
            "blogLinks": [
                "http://www.cahsrblog.com/2016/01/san-jose-loves-idea-of-starting-hsr-service-in-the-north/",
                "http://places-to-see.net/california/",
                "http://www.roadsideamerica.com/location/ca",
                "https://calstablog.wordpress.com/category/transportation-infrastructure-projects/high-speed-rail/",
                "https://www.tripadvisor.com/ShowTopic-g28926-i29-k7578574-Places_to_stop_visit_between_Dallas_and_Bay_Area-California.html"
            ],
            "longitude": "-119.0194638"
        },
        "pebble beach": {
            "latitude": "36.5664874",
            "closest_to": "san jose",
            "address": "Pebble Beach, Monterey County, California, United States of America",
            "locType": "hamlet",
            "blogLinks": [
                "http://www.airfarewatchdog.com/blog/18225332/14-things-you-need-to-know-before-driving-california-big-sur/"
            ],
            "longitude": "-121.9466112"
        },
        "palo alto": {
            "latitude": "37.442156",
            "closest_to": "san jose",
            "address": "Palo Alto, Santa Clara County, California, United States of America",
            "locType": "city",
            "blogLinks": [
                "http://www.cahsrblog.com/2016/01/san-jose-loves-idea-of-starting-hsr-service-in-the-north/",
                "http://www.roadsideamerica.com/location/ca"
            ],
            "longitude": "-122.1634471"
        },
        "monterey bay aquarium ca": {
            "latitude": "36.61809095",
            "closest_to": "san jose",
            "address": "MBA, 886, Cannery Row, Monterey, Monterey County, California, 93940, United States of America",
            "locType": "aquarium",
            "blogLinks": [
                "http://www.california-blog.com/"
            ],
            "longitude": "-121.901680002002"
        },
        "los osos": {
            "latitude": "35.3107214",
            "closest_to": "fresno",
            "address": "Los Osos, San Luis Obispo County, California, United States of America",
            "locType": "village",
            "blogLinks": [
                "http://www.airfarewatchdog.com/blog/18225332/14-things-you-need-to-know-before-driving-california-big-sur/"
            ],
            "longitude": "-120.8323486"
        },
        "colma": {
            "latitude": "37.6768779",
            "closest_to": "san jose",
            "address": "Colma, San Mateo County, California, United States of America",
            "locType": "administrative",
            "blogLinks": [
                "http://www.roadsideamerica.com/location/ca"
            ],
            "longitude": "-122.4596949"
        },
        "treebones resort": {
            "latitude": "35.8842713",
            "closest_to": "san jose",
            "address": "Treebones Resort, Cabrillo Highway, Gorda, Monterey County, California, 93920, United States of America",
            "locType": "hotel",
            "blogLinks": [
                "http://www.airfarewatchdog.com/blog/18225332/14-things-you-need-to-know-before-driving-california-big-sur/"
            ],
            "longitude": "-121.4552883"
        },
        "san quentin": {
            "latitude": "37.9413133",
            "closest_to": "san jose",
            "address": "San Quentin, Marin County, California, United States of America",
            "locType": "hamlet",
            "blogLinks": [
                "http://www.roadsideamerica.com/location/ca"
            ],
            "longitude": "-122.4849738"
        },
        "caltrain san jose diridon station": {
            "latitude": "37.32946865",
            "closest_to": "san jose",
            "address": "San Jose Diridon, West San Fernando Street, Little Italy, Buena Vista, San Jos\u00e9, Santa Clara County, California, 95110, United States of America",
            "locType": "parking",
            "blogLinks": [
                "https://calstablog.wordpress.com/category/transportation-infrastructure-projects/high-speed-rail/"
            ],
            "longitude": "-121.9015486"
        },
        "america": {
            "latitude": "36.2573198",
            "closest_to": "fresno",
            "address": "America, Kings County, California, 93246, United States of America",
            "locType": "residential",
            "blogLinks": [
                "http://places-to-see.net/california/",
                "http://www.roadsideamerica.com/location/ca",
                "http://www.timeanddate.com/worldclock/distances.html?n=390",
                "http://www.livability.com/ca"
            ],
            "longitude": "-119.8948706"
        },
        "kern river": {
            "latitude": "36.6816956",
            "closest_to": "fresno",
            "address": "Kern River, Tulare County, California, United States of America",
            "locType": "river",
            "blogLinks": [
                "http://www.california-blog.com/"
            ],
            "longitude": "-118.4124188"
        },
        "forestville": {
            "latitude": "38.4833405",
            "closest_to": "san jose",
            "address": "Forestville, Trenton Road, Trenton, Sonoma County, California, 95436, United States of America",
            "locType": "administrative",
            "blogLinks": [
                "http://www.roadsideamerica.com/location/ca"
            ],
            "longitude": "-122.861584174866"
        },
        "carmel valley": {
            "latitude": "36.4796839",
            "closest_to": "san jose",
            "address": "Carmel Valley, Monterey County, California, United States of America",
            "locType": "village",
            "blogLinks": [
                "http://www.airfarewatchdog.com/blog/18225332/14-things-you-need-to-know-before-driving-california-big-sur/"
            ],
            "longitude": "-121.7324475"
        },
        "calif.": {
            "latitude": "37.786376",
            "closest_to": "san jose",
            "address": "California, Woodstock, Alameda, Alameda County, California, 94501, United States of America",
            "locType": "residential",
            "blogLinks": [
                "https://calstablog.wordpress.com/category/transportation-infrastructure-projects/high-speed-rail/"
            ],
            "longitude": "-122.2902806"
        },
        "santa clara valley water district": {
            "latitude": "37.24650945",
            "closest_to": "san jose",
            "address": "Santa Clara Valley Water District, Almaden, San Jos\u00e9, Santa Clara County, California, 95118, United States of America",
            "locType": "industrial",
            "blogLinks": [
                "http://www.cahsrblog.com/2016/01/san-jose-loves-idea-of-starting-hsr-service-in-the-north/"
            ],
            "longitude": "-121.87376002123"
        },
        "santa cruz mountains": {
            "latitude": "37.2188403",
            "closest_to": "san jose",
            "address": "Santa Cruz Mountains, Santa Clara County, California, United States of America",
            "locType": "mountain_range",
            "blogLinks": [
                "http://www.airfarewatchdog.com/blog/18225332/14-things-you-need-to-know-before-driving-california-big-sur/"
            ],
            "longitude": "-122.0712855"
        }
    },
    "san jose": {
        "type": "city",
        "osm_id": "112143",
        "class": "place",
        "importance": 0.79127376502597,
        "lat": "37.3361905",
        "lon": "-121.8905832",
        "boundingbox": [
            "37.124503",
            "37.4692175",
            "-122.0456719",
            "-121.5891529"
        ],
        "display_name": "San Jos\u00e9, Santa Clara County, California, United States of America",
        "licence": "Data \u00a9 OpenStreetMap contributors, ODbL 1.0. http://www.openstreetmap.org/copyright",
        "icon": "https://nominatim.openstreetmap.org/images/mapicons/poi_place_city.p.20.png",
        "place_id": "159251412",
        "osm_type": "relation"
    }
}