{
    "santa cruz": {
        "type": "city",
        "osm_id": "111737",
        "class": "place",
        "importance": 0.80562903030115,
        "lat": "36.9735903",
        "lon": "-122.0260569",
        "boundingbox": [
            "36.9479995",
            "37.0251537",
            "-122.1512979",
            "-121.9867104"
        ],
        "display_name": "Santa Cruz, Santa Cruz County, California, United States of America",
        "licence": "Data \u00a9 OpenStreetMap contributors, ODbL 1.0. http://www.openstreetmap.org/copyright",
        "icon": "https://nominatim.openstreetmap.org/images/mapicons/poi_place_city.p.20.png",
        "place_id": "157779626",
        "osm_type": "relation"
    },
    "irvine": {
        "type": "city",
        "osm_id": "114485",
        "class": "place",
        "importance": 0.55,
        "lat": "33.6856969",
        "lon": "-117.8259818",
        "boundingbox": [
            "33.5993914",
            "33.7736521",
            "-117.8687518",
            "-117.6780258"
        ],
        "display_name": "Irvine, Orange County, California, United States of America",
        "licence": "Data \u00a9 OpenStreetMap contributors, ODbL 1.0. http://www.openstreetmap.org/copyright",
        "icon": "https://nominatim.openstreetmap.org/images/mapicons/poi_place_city.p.20.png",
        "place_id": "159062335",
        "osm_type": "relation"
    },
    "mentions": {
        "california coast": {
            "latitude": "32.7586361",
            "closest_to": "irvine",
            "address": "California Coast Credit Union, Park Boulevard, Hillcrest, San Diego, San Diego County, California, 92116, United States of America",
            "locType": "bank",
            "blogLinks": [
                "http://www.safewise.com/blog/50-safest-cities-california/",
                "http://traveltips.usatoday.com/fun-things-los-angeles-san-francisco-14664.html"
            ],
            "longitude": "-117.1464145"
        },
        "highway 101": {
            "latitude": "32.9967358",
            "closest_to": "irvine",
            "address": "Highway 101, Solana Beach, San Diego County, California, 92075, United States of America",
            "locType": "primary",
            "blogLinks": [
                "http://moon.com/2011/02/fun-road-trip-ideas-road-trip-the-california-coast/",
                "http://traveltips.usatoday.com/fun-things-los-angeles-san-francisco-14664.html"
            ],
            "longitude": "-117.2731974"
        },
        "irvine": {
            "latitude": "33.6856969",
            "closest_to": "santa cruz",
            "address": "Irvine, Orange County, California, United States of America",
            "locType": "city",
            "blogLinks": [
                "http://www.distancesfrom.com/us/map-from-Santa-Cruz-to-Irvine-CA/MapHistory/4217003.aspx",
                "http://ocmomblog.com/category/parks/irvine/",
                "http://talk.collegeconfidential.com/university-california-general/332421-uc-irvine-or-uc-santa-cruz-help.html",
                "http://www.safewise.com/blog/50-safest-cities-california/",
                "http://www.distancesfrom.com/us/travel-from-Irvine-to-Santa-Cruz-CA/TravelFromHistory/5440481.aspx",
                "http://www.distancesfrom.com/us/how-far-is-Santa-Cruz-CA-from-Irvine/HowFarHistory/5440481.aspx"
            ],
            "longitude": "-117.8259818"
        },
        "los osos valley road": {
            "latitude": "35.2676425",
            "closest_to": "santa cruz",
            "address": "Los Osos Valley Road, San Luis Obispo, San Luis Obispo County, California, 93402, United States of America",
            "locType": "secondary",
            "blogLinks": [
                "http://moon.com/2011/02/fun-road-trip-ideas-road-trip-the-california-coast/"
            ],
            "longitude": "-120.7033035"
        },
        "new england": {
            "latitude": "33.8793794",
            "closest_to": "santa cruz",
            "address": "New England, Cerritos, Los Angeles County, California, 90701, United States of America",
            "locType": "residential",
            "blogLinks": [
                "http://www.glorioustreats.com/2015/02/sweet-places-visit-santa-cruz-california.html"
            ],
            "longitude": "-118.0890007"
        },
        "phoenix": {
            "latitude": "33.6988015",
            "closest_to": "irvine",
            "address": "Phoenix, Heritage Park Apartments, El Camino Real, Irvine, Orange County, California, 92604, United States of America",
            "locType": "residential",
            "blogLinks": [
                "http://moon.com/2011/02/fun-road-trip-ideas-road-trip-the-california-coast/",
                "http://traveltips.usatoday.com/fun-things-los-angeles-san-francisco-14664.html"
            ],
            "longitude": "-117.7764481"
        },
        "humboldt county": {
            "latitude": "40.5997415",
            "closest_to": "santa cruz",
            "address": "Humboldt County, California, United States of America",
            "locType": "administrative",
            "blogLinks": [
                "http://www.travbuddy.com/California-travel-guide-p85"
            ],
            "longitude": "-123.8997733"
        },
        "dublin": {
            "latitude": "37.7021521",
            "closest_to": "santa cruz",
            "address": "Dublin, Alameda County, California, United States of America",
            "locType": "city",
            "blogLinks": [
                "http://www.safewise.com/blog/50-safest-cities-california/"
            ],
            "longitude": "-121.9357917"
        },
        "santa cruz": {
            "latitude": "36.9735903",
            "closest_to": "santa cruz",
            "address": "Santa Cruz, Santa Cruz County, California, United States of America",
            "locType": "city",
            "blogLinks": [
                "http://www.bestplaces.net/cost_of_living/city/california/santa_cruz",
                "http://www.sfgate.com/restaurants/diningout/article/Superb-restaurants-for-visitors-to-Santa-Cruz-4986382.php",
                "http://www.distancesfrom.com/us/map-from-Santa-Cruz-to-Irvine-CA/MapHistory/4217003.aspx",
                "http://moon.com/2011/02/fun-road-trip-ideas-road-trip-the-california-coast/",
                "http://www.travbuddy.com/California-travel-guide-p85",
                "http://talk.collegeconfidential.com/university-california-general/332421-uc-irvine-or-uc-santa-cruz-help.html",
                "https://www.tripit.com/blog/2016/01/california-driving-distances-and-times.html",
                "https://www.tripadvisor.com/Tourism-g33048-Santa_Cruz_California-Vacations.html",
                "http://www.santacruz.org/blog/p/3671",
                "http://www.distancesfrom.com/us/travel-from-Irvine-to-Santa-Cruz-CA/TravelFromHistory/5440481.aspx",
                "http://www.distancesfrom.com/us/how-far-is-Santa-Cruz-CA-from-Irvine/HowFarHistory/5440481.aspx",
                "http://www.glorioustreats.com/2015/02/sweet-places-visit-santa-cruz-california.html",
                "http://traveltips.usatoday.com/fun-things-los-angeles-san-francisco-14664.html"
            ],
            "longitude": "-122.0260569"
        },
        "santa cruz beach": {
            "latitude": "36.9632617",
            "closest_to": "santa cruz",
            "address": "Santa Cruz Beach, Boardwalk, Beach & Boardwalk District (Commercial), Seabright, Santa Cruz, Santa Cruz County, California, 1982, United States of America",
            "locType": "beach",
            "blogLinks": [
                "http://www.santacruz.org/blog/p/3671",
                "http://www.glorioustreats.com/2015/02/sweet-places-visit-santa-cruz-california.html"
            ],
            "longitude": "-122.0189205"
        },
        "capitola venetian hotel": {
            "latitude": "36.9717403",
            "closest_to": "santa cruz",
            "address": "Capitola Venetian Hotel, Wharf Road, Capitola, Santa Cruz County, California, 95010, United States of America",
            "locType": "hotel",
            "blogLinks": [
                "http://www.glorioustreats.com/2015/02/sweet-places-visit-santa-cruz-california.html"
            ],
            "longitude": "-121.9533805"
        },
        "foster city": {
            "latitude": "37.5600336",
            "closest_to": "santa cruz",
            "address": "Foster City, San Mateo County, California, United States of America",
            "locType": "city",
            "blogLinks": [
                "http://www.safewise.com/blog/50-safest-cities-california/"
            ],
            "longitude": "-122.2688521"
        },
        "san pablo bay": {
            "latitude": "38.0665874",
            "closest_to": "santa cruz",
            "address": "San Pablo Bay, Marin County, California, United States of America",
            "locType": "bay",
            "blogLinks": [
                "http://www.safewise.com/blog/50-safest-cities-california/"
            ],
            "longitude": "-122.3844177"
        },
        "hercules": {
            "latitude": "38.0171441",
            "closest_to": "santa cruz",
            "address": "Hercules, Contra Costa County, California, United States of America",
            "locType": "administrative",
            "blogLinks": [
                "http://www.safewise.com/blog/50-safest-cities-california/"
            ],
            "longitude": "-122.2885807"
        },
        "las angeles": {
            "latitude": "33.9995929",
            "closest_to": "santa cruz",
            "address": "California, Obregon Street, West Whittier, Rosemead, Los Angeles County, California, 90606, United States of America",
            "locType": "abandoned",
            "blogLinks": [
                "http://www.travbuddy.com/California-travel-guide-p85"
            ],
            "longitude": "-118.0668337"
        },
        "manhattan": {
            "latitude": "33.8109789",
            "closest_to": "santa cruz",
            "address": "Manhattan, Anaheim Resort District, Anaheim, Orange County, California, 217, United States of America",
            "locType": "forest",
            "blogLinks": [
                "http://moon.com/2011/02/fun-road-trip-ideas-road-trip-the-california-coast/"
            ],
            "longitude": "-117.919744373725"
        },
        "valley oak park": {
            "latitude": "33.66655605",
            "closest_to": "irvine",
            "address": "Valley Oak Park, San Diego Creek Bike Trail, Woodbridge, Irvine, Orange County, California, 92620, United States of America",
            "locType": "park",
            "blogLinks": [
                "http://ocmomblog.com/category/parks/irvine/"
            ],
            "longitude": "-117.775492771241"
        },
        "san gabriel valley": {
            "latitude": "34.0991325",
            "closest_to": "santa cruz",
            "address": "San Gabriel, Los Angeles County, California, United States of America",
            "locType": "city",
            "blogLinks": [
                "http://www.safewise.com/blog/50-safest-cities-california/"
            ],
            "longitude": "-118.108604"
        },
        "' castle park": {
            "latitude": "32.6103329",
            "closest_to": "irvine",
            "address": "Castle Park, San Diego County, California, United States of America",
            "locType": "hamlet",
            "blogLinks": [
                "http://ocmomblog.com/category/parks/irvine/"
            ],
            "longitude": "-117.0675277"
        },
        "southern california": {
            "latitude": "34.0224149",
            "closest_to": "santa cruz",
            "address": "University of Southern California, Watt Way, Saint James Park, LA, Los Angeles County, California, 90089, United States of America",
            "locType": "university",
            "blogLinks": [
                "http://www.safewise.com/blog/50-safest-cities-california/"
            ],
            "longitude": "-118.286343973446"
        },
        "long beach airport": {
            "latitude": "33.81682825",
            "closest_to": "santa cruz",
            "address": "Long Beach Airport (LGB), Globemaster Avenue, California Heights, Long Beach, Los Angeles County, California, 90712:90807, United States of America",
            "locType": "aerodrome",
            "blogLinks": [
                "http://moon.com/2011/02/fun-road-trip-ideas-road-trip-the-california-coast/"
            ],
            "longitude": "-118.153407224598"
        },
        "los angeles county": {
            "latitude": "34.3155072",
            "closest_to": "santa cruz",
            "address": "Los Angeles County, California, United States of America",
            "locType": "administrative",
            "blogLinks": [
                "http://www.safewise.com/blog/50-safest-cities-california/",
                "http://www.travbuddy.com/California-travel-guide-p85"
            ],
            "longitude": "-118.2096813"
        },
        "davenport": {
            "latitude": "37.0116166",
            "closest_to": "santa cruz",
            "address": "Davenport, Santa Cruz County, California, United States of America",
            "locType": "village",
            "blogLinks": [
                "http://moon.com/2011/02/fun-road-trip-ideas-road-trip-the-california-coast/"
            ],
            "longitude": "-122.1919133"
        },
        "san clemente": {
            "latitude": "33.4270275",
            "closest_to": "irvine",
            "address": "San Clemente, Orange County, California, United States of America",
            "locType": "city",
            "blogLinks": [
                "http://www.safewise.com/blog/50-safest-cities-california/"
            ],
            "longitude": "-117.6124178"
        },
        "moonstone beach": {
            "latitude": "35.573855",
            "closest_to": "santa cruz",
            "address": "Moonstone Beach, Cambria, San Luis Obispo County, California, CA 93428, United States of America",
            "locType": "path",
            "blogLinks": [
                "http://moon.com/2011/02/fun-road-trip-ideas-road-trip-the-california-coast/"
            ],
            "longitude": "-121.1128747"
        },
        "san jose": {
            "latitude": "37.3361905",
            "closest_to": "santa cruz",
            "address": "San Jos\u00e9, Santa Clara County, California, United States of America",
            "locType": "city",
            "blogLinks": [
                "http://moon.com/2011/02/fun-road-trip-ideas-road-trip-the-california-coast/",
                "http://www.safewise.com/blog/50-safest-cities-california/",
                "http://www.travbuddy.com/California-travel-guide-p85"
            ],
            "longitude": "-121.8905832"
        },
        "king city": {
            "latitude": "36.2127439",
            "closest_to": "santa cruz",
            "address": "King City, Monterey County, California, United States of America",
            "locType": "city",
            "blogLinks": [
                "http://traveltips.usatoday.com/fun-things-los-angeles-san-francisco-14664.html"
            ],
            "longitude": "-121.1260286"
        },
        "saratoga": {
            "latitude": "37.2638324",
            "closest_to": "santa cruz",
            "address": "Saratoga, Santa Clara County, California, United States of America",
            "locType": "city",
            "blogLinks": [
                "http://www.safewise.com/blog/50-safest-cities-california/"
            ],
            "longitude": "-122.0230145"
        },
        "ocean beach": {
            "latitude": "32.7477784",
            "closest_to": "irvine",
            "address": "Ocean Beach, San Diego, San Diego County, California, United States of America",
            "locType": "region",
            "blogLinks": [
                "http://moon.com/2011/02/fun-road-trip-ideas-road-trip-the-california-coast/"
            ],
            "longitude": "-117.249321"
        },
        "santa cruz beach boardwalk": {
            "latitude": "36.96446855",
            "closest_to": "santa cruz",
            "address": "Santa Cruz Beach Boardwalk, Boardwalk, Beach & Boardwalk District (Commercial), Seabright, Santa Cruz, Santa Cruz County, California, 1982, United States of America",
            "locType": "attraction",
            "blogLinks": [
                "http://moon.com/2011/02/fun-road-trip-ideas-road-trip-the-california-coast/",
                "http://www.glorioustreats.com/2015/02/sweet-places-visit-santa-cruz-california.html",
                "https://www.tripadvisor.com/Tourism-g33048-Santa_Cruz_California-Vacations.html"
            ],
            "longitude": "-122.016027247326"
        },
        "pacific coast highway": {
            "latitude": "33.6595127",
            "closest_to": "santa cruz",
            "address": "Pacific Coast Highway, Huntington Beach, Orange County, California, 92648, United States of America",
            "locType": "primary",
            "blogLinks": [
                "http://moon.com/2011/02/fun-road-trip-ideas-road-trip-the-california-coast/",
                "http://traveltips.usatoday.com/fun-things-los-angeles-san-francisco-14664.html",
                "https://www.tripit.com/blog/2016/01/california-driving-distances-and-times.html",
                "http://www.travbuddy.com/California-travel-guide-p85"
            ],
            "longitude": "-118.0051687"
        },
        "hollywood": {
            "latitude": "34.1028268",
            "closest_to": "santa cruz",
            "address": "Hollywood, LA, Los Angeles County, California, United States of America",
            "locType": "suburb",
            "blogLinks": [
                "http://www.travbuddy.com/California-travel-guide-p85"
            ],
            "longitude": "-118.3299898"
        },
        "pacific ave.": {
            "latitude": "34.1571445",
            "closest_to": "santa cruz",
            "address": "Pacific Avenue, Glendale, Los Angeles County, California, 91203, United States of America",
            "locType": "secondary",
            "blogLinks": [
                "http://www.sfgate.com/restaurants/diningout/article/Superb-restaurants-for-visitors-to-Santa-Cruz-4986382.php"
            ],
            "longitude": "-118.2641839"
        },
        "soquel creek": {
            "latitude": "36.9739823",
            "closest_to": "santa cruz",
            "address": "Soquel Creek, Capitola, Santa Cruz County, California, United States of America",
            "locType": "river",
            "blogLinks": [
                "http://www.glorioustreats.com/2015/02/sweet-places-visit-santa-cruz-california.html"
            ],
            "longitude": "-121.9544765"
        },
        "san francisco bay": {
            "latitude": "37.708264",
            "closest_to": "santa cruz",
            "address": "San Francisco Bay, Ferry Landing, Alameda, Alameda County, California, 94502, United States of America",
            "locType": "bay",
            "blogLinks": [
                "http://www.safewise.com/blog/50-safest-cities-california/",
                "http://www.travbuddy.com/California-travel-guide-p85"
            ],
            "longitude": "-122.2802469"
        },
        "uc santa cruz": {
            "latitude": "36.9637594",
            "closest_to": "santa cruz",
            "address": "UC East, Bay Street, California Street, Westside, Santa Cruz, Santa Cruz County, California, 95061, United States of America",
            "locType": "tram_stop",
            "blogLinks": [
                "https://www.tripadvisor.com/Tourism-g33048-Santa_Cruz_California-Vacations.html"
            ],
            "longitude": "-122.0356254"
        },
        "vancouver": {
            "latitude": "34.824773",
            "closest_to": "santa cruz",
            "address": "Vancouver, San Bernardino County, California, United States of America",
            "locType": "residential",
            "blogLinks": [
                "http://moon.com/2011/02/fun-road-trip-ideas-road-trip-the-california-coast/"
            ],
            "longitude": "-117.4634669"
        },
        "los altos": {
            "latitude": "37.3790629",
            "closest_to": "santa cruz",
            "address": "Los Altos, Santa Clara County, California, United States of America",
            "locType": "city",
            "blogLinks": [
                "http://www.safewise.com/blog/50-safest-cities-california/"
            ],
            "longitude": "-122.1165779"
        },
        "rancho santa margarita": {
            "latitude": "33.6408845",
            "closest_to": "irvine",
            "address": "Rancho Santa Margarita, Orange County, California, United States of America",
            "locType": "city",
            "blogLinks": [
                "http://www.safewise.com/blog/50-safest-cities-california/"
            ],
            "longitude": "-117.602934"
        },
        "pacific northwest": {
            "latitude": "37.98042375",
            "closest_to": "santa cruz",
            "address": "University of the Pacific, 3601, Pacific Avenue, Stockton, San Joaquin County, California, 95211, United States of America",
            "locType": "university",
            "blogLinks": [
                "https://www.tripit.com/blog/2016/01/california-driving-distances-and-times.html"
            ],
            "longitude": "-121.312847098327"
        },
        "knollcrest park": {
            "latitude": "33.6487968",
            "closest_to": "irvine",
            "address": "Knollcrest Park, Quail Hill Parkway, Woodbridge, Irvine, Orange County, California, 92603, United States of America",
            "locType": "park",
            "blogLinks": [
                "http://ocmomblog.com/category/parks/irvine/"
            ],
            "longitude": "-117.773902417266"
        },
        "eureka": {
            "latitude": "40.8020712",
            "closest_to": "santa cruz",
            "address": "Eureka, Humboldt County, California, United States of America",
            "locType": "city",
            "blogLinks": [
                "http://www.travbuddy.com/California-travel-guide-p85"
            ],
            "longitude": "-124.1636728"
        },
        "gayles": {
            "latitude": "36.9785211",
            "closest_to": "santa cruz",
            "address": "Gayle's Bakery, Bay Avenue, Capitola, Santa Cruz County, California, 95010, United States of America",
            "locType": "restaurant",
            "blogLinks": [
                "http://www.glorioustreats.com/2015/02/sweet-places-visit-santa-cruz-california.html"
            ],
            "longitude": "-121.952589"
        },
        "san luis obispo": {
            "latitude": "35.2827525",
            "closest_to": "santa cruz",
            "address": "San Luis Obispo, San Luis Obispo County, California, United States of America",
            "locType": "city",
            "blogLinks": [
                "http://traveltips.usatoday.com/fun-things-los-angeles-san-francisco-14664.html"
            ],
            "longitude": "-120.6596155"
        },
        "abalone cove shoreline park": {
            "latitude": "33.7438366",
            "closest_to": "santa cruz",
            "address": "Abalone Cove Shoreline Park, Palos Verdes Drive South, Ranchos Palos Verdes, Los Angeles County, California, 90275, United States of America",
            "locType": "parking",
            "blogLinks": [
                "http://www.safewise.com/blog/50-safest-cities-california/"
            ],
            "longitude": "-118.381346621066"
        },
        "ireland": {
            "latitude": "37.7992191",
            "closest_to": "santa cruz",
            "address": "Ireland Creek, Tuolumne County, California, United States of America",
            "locType": "stream",
            "blogLinks": [
                "http://www.safewise.com/blog/50-safest-cities-california/"
            ],
            "longitude": "-119.2896473"
        },
        "northwood park": {
            "latitude": "36.84719505",
            "closest_to": "santa cruz",
            "address": "Northwood Park, Cromwell Avenue, Clovis, Fresno County, California, 93611, United States of America",
            "locType": "park",
            "blogLinks": [
                "http://ocmomblog.com/category/parks/irvine/"
            ],
            "longitude": "-119.670753962409"
        },
        "wharf road": {
            "latitude": "36.9732645",
            "closest_to": "santa cruz",
            "address": "Wharf Road, Jewelbox, Capitola, Santa Cruz County, California, 95010, United States of America",
            "locType": "secondary",
            "blogLinks": [
                "http://www.glorioustreats.com/2015/02/sweet-places-visit-santa-cruz-california.html"
            ],
            "longitude": "-121.9544194"
        },
        "2016capitola beach": {
            "latitude": "35.13738",
            "closest_to": "santa cruz",
            "address": "Beach, Pismo Beach Senior Mobile Home Park, Pismo Beach, San Luis Obispo County, California, 93449, United States of America",
            "locType": "service",
            "blogLinks": [
                "https://www.tripadvisor.com/Tourism-g33048-Santa_Cruz_California-Vacations.html"
            ],
            "longitude": "-120.6345489"
        },
        "adventure playground": {
            "latitude": "37.8631287",
            "closest_to": "santa cruz",
            "address": "Adventure Playground, 162, University Avenue, Berkeley Marina, Berkeley, Alameda County, California, 94710, United States of America",
            "locType": "playground",
            "blogLinks": [
                "http://ocmomblog.com/category/parks/irvine/"
            ],
            "longitude": "-122.314451514646"
        },
        "simi valley": {
            "latitude": "34.2694474",
            "closest_to": "santa cruz",
            "address": "Simi Valley, Ventura County, California, United States of America",
            "locType": "city",
            "blogLinks": [
                "http://www.safewise.com/blog/50-safest-cities-california/"
            ],
            "longitude": "-118.7814819"
        },
        "el dorado county": {
            "latitude": "38.7574137",
            "closest_to": "santa cruz",
            "address": "El Dorado County, California, United States of America",
            "locType": "administrative",
            "blogLinks": [
                "http://www.travbuddy.com/California-travel-guide-p85"
            ],
            "longitude": "-120.5276128"
        },
        "cupertino": {
            "latitude": "37.3230107",
            "closest_to": "santa cruz",
            "address": "Cupertino, Santa Clara County, California, United States of America",
            "locType": "city",
            "blogLinks": [
                "http://www.safewise.com/blog/50-safest-cities-california/"
            ],
            "longitude": "-122.0322518"
        },
        "warf road": {
            "latitude": "37.80981655",
            "closest_to": "santa cruz",
            "address": "Fisherman's Warf, SF, California, 94133, United States of America",
            "locType": "retail",
            "blogLinks": [
                "http://www.glorioustreats.com/2015/02/sweet-places-visit-santa-cruz-california.html"
            ],
            "longitude": "-122.41035087315"
        },
        "pebble beach golf course": {
            "latitude": "36.56413635",
            "closest_to": "santa cruz",
            "address": "Pebble Beach Golf Course, Live Oak Meadow Road, Del Monte Forest, Monterey County, California, 93953, United States of America",
            "locType": "golf_course",
            "blogLinks": [
                "http://traveltips.usatoday.com/fun-things-los-angeles-san-francisco-14664.html"
            ],
            "longitude": "-121.937790801787"
        },
        "pfeiffer big sur state park": {
            "latitude": "36.25330545",
            "closest_to": "santa cruz",
            "address": "Pfeiffer Big Sur State Park, Valley View Trail, Big Sur, Monterey County, California, United States of America",
            "locType": "park",
            "blogLinks": [
                "http://moon.com/2011/02/fun-road-trip-ideas-road-trip-the-california-coast/"
            ],
            "longitude": "-121.783295208903"
        },
        "temple city": {
            "latitude": "34.1082994",
            "closest_to": "santa cruz",
            "address": "Temple City, Los Angeles County, California, United States of America",
            "locType": "city",
            "blogLinks": [
                "http://www.safewise.com/blog/50-safest-cities-california/"
            ],
            "longitude": "-118.0577567"
        },
        "point state park": {
            "latitude": "35.5818461",
            "closest_to": "santa cruz",
            "address": "State Park, Cambria, San Luis Obispo County, California, 93428, United States of America",
            "locType": "service",
            "blogLinks": [
                "http://moon.com/2011/02/fun-road-trip-ideas-road-trip-the-california-coast/"
            ],
            "longitude": "-121.1198923"
        },
        "pacific avenue": {
            "latitude": "34.1571445",
            "closest_to": "santa cruz",
            "address": "Pacific Avenue, Glendale, Los Angeles County, California, 91203, United States of America",
            "locType": "secondary",
            "blogLinks": [
                "http://www.glorioustreats.com/2015/02/sweet-places-visit-santa-cruz-california.html",
                "http://www.sfgate.com/restaurants/diningout/article/Superb-restaurants-for-visitors-to-Santa-Cruz-4986382.php"
            ],
            "longitude": "-118.2641839"
        },
        "santa barbara": {
            "latitude": "34.4221319",
            "closest_to": "santa cruz",
            "address": "Santa Barbara, Santa Barbara County, California, United States of America",
            "locType": "city",
            "blogLinks": [
                "http://moon.com/2011/02/fun-road-trip-ideas-road-trip-the-california-coast/",
                "http://www.safewise.com/blog/50-safest-cities-california/",
                "http://traveltips.usatoday.com/fun-things-los-angeles-san-francisco-14664.html"
            ],
            "longitude": "-119.7026672"
        },
        "san juan capistrano": {
            "latitude": "33.5016932",
            "closest_to": "irvine",
            "address": "San Juan Capistrano, Orange County, California, United States of America",
            "locType": "city",
            "blogLinks": [
                "http://moon.com/2011/02/fun-road-trip-ideas-road-trip-the-california-coast/",
                "http://www.safewise.com/blog/50-safest-cities-california/"
            ],
            "longitude": "-117.6625508"
        },
        "buellton": {
            "latitude": "34.6134727",
            "closest_to": "santa cruz",
            "address": "Buellton, Santa Barbara County, California, United States of America",
            "locType": "city",
            "blogLinks": [
                "http://traveltips.usatoday.com/fun-things-los-angeles-san-francisco-14664.html"
            ],
            "longitude": "-120.1936691"
        },
        "poway": {
            "latitude": "32.9628234",
            "closest_to": "irvine",
            "address": "Poway, San Diego County, California, United States of America",
            "locType": "city",
            "blogLinks": [
                "http://www.safewise.com/blog/50-safest-cities-california/"
            ],
            "longitude": "-117.0358645"
        },
        "tomales bay": {
            "latitude": "38.0812158",
            "closest_to": "santa cruz",
            "address": "Tomales Bay, Bivalve, Marin County, California, 94948, United States of America",
            "locType": "path",
            "blogLinks": [
                "http://moon.com/2011/02/fun-road-trip-ideas-road-trip-the-california-coast/"
            ],
            "longitude": "-122.8225806"
        },
        "quail hill": {
            "latitude": "41.3057081",
            "closest_to": "santa cruz",
            "address": "Quail Hill, Siskiyou County, California, United States of America",
            "locType": "peak",
            "blogLinks": [
                "http://ocmomblog.com/category/parks/irvine/"
            ],
            "longitude": "-122.2991773"
        },
        "burbank airport": {
            "latitude": "34.1944171",
            "closest_to": "santa cruz",
            "address": "Burbank Airport, Burbank, Los Angeles County, California, 91504, United States of America",
            "locType": "service",
            "blogLinks": [
                "http://www.safewise.com/blog/50-safest-cities-california/"
            ],
            "longitude": "-118.353019743886"
        },
        "sonoma county": {
            "latitude": "38.5110803",
            "closest_to": "santa cruz",
            "address": "Sonoma County, California, United States of America",
            "locType": "administrative",
            "blogLinks": [
                "http://www.safewise.com/blog/50-safest-cities-california/"
            ],
            "longitude": "-122.8473387"
        },
        "second street": {
            "latitude": "34.0440456",
            "closest_to": "santa cruz",
            "address": "Second Street, Walnut Hills Mobile Home Park, Pomona, Los Angeles County, California, 91765, United States of America",
            "locType": "residential",
            "blogLinks": [
                "http://www.sfgate.com/restaurants/diningout/article/Superb-restaurants-for-visitors-to-Santa-Cruz-4986382.php"
            ],
            "longitude": "-117.8182676"
        },
        "aliso viejo": {
            "latitude": "33.5761376",
            "closest_to": "irvine",
            "address": "Aliso Viejo, Orange County, California, United States of America",
            "locType": "city",
            "blogLinks": [
                "http://www.safewise.com/blog/50-safest-cities-california/"
            ],
            "longitude": "-117.7258121"
        },
        "brussels": {
            "latitude": "34.3209021",
            "closest_to": "santa cruz",
            "address": "Brussels Avenue, Sylmar, LA, Los Angeles County, California, 91342, United States of America",
            "locType": "residential",
            "blogLinks": [
                "http://www.sfgate.com/restaurants/diningout/article/Superb-restaurants-for-visitors-to-Santa-Cruz-4986382.php"
            ],
            "longitude": "-118.4269567"
        },
        "san diego creek trail": {
            "latitude": "33.6795768",
            "closest_to": "irvine",
            "address": "San Diego Creek Trail, Woodbridge, Irvine, Orange County, California, 92614, United States of America",
            "locType": "cycleway",
            "blogLinks": [
                "http://ocmomblog.com/category/parks/irvine/"
            ],
            "longitude": "-117.8038448"
        },
        "carlsbad": {
            "latitude": "33.1580933",
            "closest_to": "irvine",
            "address": "Carlsbad, San Diego County, California, United States of America",
            "locType": "city",
            "blogLinks": [
                "http://www.travbuddy.com/California-travel-guide-p85"
            ],
            "longitude": "-117.3505938"
        },
        "bird park": {
            "latitude": "32.73914695",
            "closest_to": "irvine",
            "address": "Bird Park, 28th Street, North Park, San Diego, San Diego County, California, 92104, United States of America",
            "locType": "park",
            "blogLinks": [
                "http://www.safewise.com/blog/50-safest-cities-california/"
            ],
            "longitude": "-117.134159066525"
        },
        "thousand oaks": {
            "latitude": "34.17142715",
            "closest_to": "santa cruz",
            "address": "Thousand Oaks, Ventura County, California, United States of America",
            "locType": "city",
            "blogLinks": [
                "http://www.safewise.com/blog/50-safest-cities-california/"
            ],
            "longitude": "-118.910587629744"
        },
        "marin": {
            "latitude": "38.0409144",
            "closest_to": "santa cruz",
            "address": "Marin County, California, United States of America",
            "locType": "administrative",
            "blogLinks": [
                "http://moon.com/2011/02/fun-road-trip-ideas-road-trip-the-california-coast/"
            ],
            "longitude": "-122.6199637"
        },
        "las vegas": {
            "latitude": "36.17310935",
            "closest_to": "irvine",
            "address": "California Hotel, Sky Walk(Connection from Main Street to California, Cultural Corridor, Vegas Heights, Las Vegas, Clark County, Nevada, 89101, United States of America",
            "locType": "hotel",
            "blogLinks": [
                "https://www.tripit.com/blog/2016/01/california-driving-distances-and-times.html"
            ],
            "longitude": "-115.144667930325"
        },
        "united states": {
            "latitude": "36.7014631",
            "closest_to": "santa cruz",
            "address": "California, United States of America",
            "locType": "administrative",
            "blogLinks": [
                "http://moon.com/2011/02/fun-road-trip-ideas-road-trip-the-california-coast/",
                "https://www.tripadvisor.com/Attractions-g33048-Activities-Santa_Cruz_California.html"
            ],
            "longitude": "-118.7559973"
        },
        "soledad": {
            "latitude": "36.4269452",
            "closest_to": "santa cruz",
            "address": "Soledad, Monterey County, California, United States of America",
            "locType": "city",
            "blogLinks": [
                "http://www.safewise.com/blog/50-safest-cities-california/",
                "http://traveltips.usatoday.com/fun-things-los-angeles-san-francisco-14664.html"
            ],
            "longitude": "-121.3272146"
        },
        "santa cruz county": {
            "latitude": "37.050096",
            "closest_to": "santa cruz",
            "address": "Santa Cruz County, California, United States of America",
            "locType": "administrative",
            "blogLinks": [
                "http://www.santacruz.org/blog/p/3671",
                "http://www.santacruz.org/",
                "http://www.safewise.com/blog/50-safest-cities-california/",
                "https://www.tripit.com/blog/2016/01/california-driving-distances-and-times.html"
            ],
            "longitude": "-121.9905907"
        },
        "university community park": {
            "latitude": "33.6605916",
            "closest_to": "irvine",
            "address": "University Community Park, Beech Tree Lane, Turtle Rock, Irvine, Orange County, California, 92612, United States of America",
            "locType": "park",
            "blogLinks": [
                "http://ocmomblog.com/category/parks/irvine/"
            ],
            "longitude": "-117.818749958995"
        },
        "benicia": {
            "latitude": "38.049365",
            "closest_to": "santa cruz",
            "address": "Benicia, Solano County, California, United States of America",
            "locType": "administrative",
            "blogLinks": [
                "http://www.safewise.com/blog/50-safest-cities-california/"
            ],
            "longitude": "-122.1585776"
        },
        "oxnard": {
            "latitude": "34.1976308",
            "closest_to": "santa cruz",
            "address": "Oxnard, Ventura County, California, United States of America",
            "locType": "city",
            "blogLinks": [
                "http://moon.com/2011/02/fun-road-trip-ideas-road-trip-the-california-coast/",
                "http://traveltips.usatoday.com/fun-things-los-angeles-san-francisco-14664.html"
            ],
            "longitude": "-119.1803817"
        },
        "hog island oyster company": {
            "latitude": "37.7960191",
            "closest_to": "santa cruz",
            "address": "Hog Island Oyster Company, Gate B, Financial District, SF, California, 94111, United States of America",
            "locType": "restaurant",
            "blogLinks": [
                "http://moon.com/2011/02/fun-road-trip-ideas-road-trip-the-california-coast/"
            ],
            "longitude": "-122.3936028"
        },
        "prairie creek redwoods state park": {
            "latitude": "41.40951025",
            "closest_to": "santa cruz",
            "address": "Prairie Creek Redwoods State Park, West Ridge Trail, Humboldt County, California, United States of America",
            "locType": "national_park",
            "blogLinks": [
                "http://moon.com/2011/02/fun-road-trip-ideas-road-trip-the-california-coast/"
            ],
            "longitude": "-124.036052276854"
        },
        "big sur": {
            "latitude": "36.270241",
            "closest_to": "santa cruz",
            "address": "Big Sur, Monterey County, California, United States of America",
            "locType": "village",
            "blogLinks": [
                "http://moon.com/2011/02/fun-road-trip-ideas-road-trip-the-california-coast/"
            ],
            "longitude": "-121.8074544"
        },
        "sacramento": {
            "latitude": "38.5815719",
            "closest_to": "santa cruz",
            "address": "Sacramento, Sacramento County, California, United States of America",
            "locType": "city",
            "blogLinks": [
                "http://www.safewise.com/blog/50-safest-cities-california/",
                "http://www.travbuddy.com/California-travel-guide-p85"
            ],
            "longitude": "-121.4943995"
        },
        "beacon park": {
            "latitude": "33.6886299",
            "closest_to": "irvine",
            "address": "Beacon Park, 501, Benchmark, El Camino Real, Irvine, Orange County, California, 92618, United States of America",
            "locType": "park",
            "blogLinks": [
                "http://ocmomblog.com/category/parks/irvine/"
            ],
            "longitude": "-117.733413996379"
        },
        "moorpark": {
            "latitude": "34.285558",
            "closest_to": "santa cruz",
            "address": "Moorpark, Ventura County, California, United States of America",
            "locType": "city",
            "blogLinks": [
                "http://www.safewise.com/blog/50-safest-cities-california/"
            ],
            "longitude": "-118.8820413"
        },
        "agoura hills": {
            "latitude": "34.1363945",
            "closest_to": "santa cruz",
            "address": "Agoura Hills, Los Angeles County, California, United States of America",
            "locType": "city",
            "blogLinks": [
                "http://www.safewise.com/blog/50-safest-cities-california/"
            ],
            "longitude": "-118.7745347"
        },
        "huntington beach": {
            "latitude": "33.6783336",
            "closest_to": "santa cruz",
            "address": "Huntington Beach, Orange County, California, United States of America",
            "locType": "city",
            "blogLinks": [
                "http://moon.com/2011/02/fun-road-trip-ideas-road-trip-the-california-coast/"
            ],
            "longitude": "-118.0000165"
        },
        "san simeon": {
            "latitude": "35.6438587",
            "closest_to": "santa cruz",
            "address": "San Simeon, San Luis Obispo County, California, United States of America",
            "locType": "hamlet",
            "blogLinks": [
                "http://moon.com/2011/02/fun-road-trip-ideas-road-trip-the-california-coast/",
                "http://traveltips.usatoday.com/fun-things-los-angeles-san-francisco-14664.html",
                "http://www.travbuddy.com/California-travel-guide-p85"
            ],
            "longitude": "-121.1907532"
        },
        "carquinez strait": {
            "latitude": "38.042402",
            "closest_to": "santa cruz",
            "address": "Carquinez Strait, Pacific Avenue, Rodeo, Contra Costa County, California, 94572, United States of America",
            "locType": "bay",
            "blogLinks": [
                "http://www.safewise.com/blog/50-safest-cities-california/"
            ],
            "longitude": "-122.271246054921"
        },
        "chino hills": {
            "latitude": "33.9926803",
            "closest_to": "santa cruz",
            "address": "Chino Hills, San Bernardino County, California, United States of America",
            "locType": "city",
            "blogLinks": [
                "http://www.safewise.com/blog/50-safest-cities-california/"
            ],
            "longitude": "-117.7600559"
        },
        "santa cruz mountains": {
            "latitude": "37.2188403",
            "closest_to": "santa cruz",
            "address": "Santa Cruz Mountains, Santa Clara County, California, United States of America",
            "locType": "mountain_range",
            "blogLinks": [
                "http://www.safewise.com/blog/50-safest-cities-california/"
            ],
            "longitude": "-122.0712855"
        },
        "lake tahoe": {
            "latitude": "39.0888982",
            "closest_to": "santa cruz",
            "address": "Lake Tahoe, Placer County, California, United States of America",
            "locType": "water",
            "blogLinks": [
                "http://www.safewise.com/blog/50-safest-cities-california/",
                "http://www.travbuddy.com/California-travel-guide-p85"
            ],
            "longitude": "-120.050511752934"
        },
        "malibu": {
            "latitude": "33.7932142",
            "closest_to": "irvine",
            "address": "Malibu, Palm Springs, Riverside County, California, 92264, United States of America",
            "locType": "residential",
            "blogLinks": [
                "http://moon.com/2011/02/fun-road-trip-ideas-road-trip-the-california-coast/",
                "http://www.travbuddy.com/California-travel-guide-p85"
            ],
            "longitude": "-116.5023561"
        },
        "watson street": {
            "latitude": "38.611491",
            "closest_to": "santa cruz",
            "address": "Watson Street, Sacramento County, California, 95864, United States of America",
            "locType": "residential",
            "blogLinks": [
                "http://www.sfgate.com/restaurants/diningout/article/Superb-restaurants-for-visitors-to-Santa-Cruz-4986382.php"
            ],
            "longitude": "-121.3657959"
        },
        "capitola": {
            "latitude": "36.9762927",
            "closest_to": "santa cruz",
            "address": "Capitola, Santa Cruz County, California, United States of America",
            "locType": "city",
            "blogLinks": [
                "http://www.glorioustreats.com/2015/02/sweet-places-visit-santa-cruz-california.html"
            ],
            "longitude": "-121.9540576"
        },
        "la": {
            "latitude": "36.7014631",
            "closest_to": "santa cruz",
            "address": "California, United States of America",
            "locType": "administrative",
            "blogLinks": [
                "http://traveltips.usatoday.com/fun-things-los-angeles-san-francisco-14664.html",
                "http://www.travbuddy.com/California-travel-guide-p85"
            ],
            "longitude": "-118.7559973"
        },
        "santa ana": {
            "latitude": "33.7494951",
            "closest_to": "santa cruz",
            "address": "Santa Ana, Orange County, California, United States of America",
            "locType": "city",
            "blogLinks": [
                "http://www.safewise.com/blog/50-safest-cities-california/"
            ],
            "longitude": "-117.8732212"
        },
        "esalen": {
            "latitude": "36.1248106",
            "closest_to": "santa cruz",
            "address": "Esalen Institute, Cabrillo Highway, Slates Hot Springs, Monterey County, California, 93920, United States of America",
            "locType": "school",
            "blogLinks": [
                "http://moon.com/2011/02/fun-road-trip-ideas-road-trip-the-california-coast/"
            ],
            "longitude": "-121.6377439"
        },
        "san fernando valley": {
            "latitude": "34.2819461",
            "closest_to": "santa cruz",
            "address": "San Fernando, Los Angeles County, California, United States of America",
            "locType": "administrative",
            "blogLinks": [
                "http://www.safewise.com/blog/50-safest-cities-california/"
            ],
            "longitude": "-118.4389718"
        },
        "cascade park": {
            "latitude": "37.9129811",
            "closest_to": "santa cruz",
            "address": "Cascade Park, Napier Lane, Mill Valley, Marin County, California, 94941, United States of America",
            "locType": "park",
            "blogLinks": [
                "http://ocmomblog.com/category/parks/irvine/"
            ],
            "longitude": "-122.5649774"
        },
        "ventura": {
            "latitude": "34.4458248",
            "closest_to": "santa cruz",
            "address": "Ventura County, California, United States of America",
            "locType": "administrative",
            "blogLinks": [
                "http://moon.com/2011/02/fun-road-trip-ideas-road-trip-the-california-coast/",
                "http://traveltips.usatoday.com/fun-things-los-angeles-san-francisco-14664.html"
            ],
            "longitude": "-119.0779358"
        },
        "stinson beach": {
            "latitude": "37.9008084",
            "closest_to": "santa cruz",
            "address": "Stinson Beach, Marin County, California, United States of America",
            "locType": "hamlet",
            "blogLinks": [
                "http://moon.com/2011/02/fun-road-trip-ideas-road-trip-the-california-coast/"
            ],
            "longitude": "-122.64508"
        },
        "sunnyvale": {
            "latitude": "37.3688301",
            "closest_to": "santa cruz",
            "address": "Sunnyvale, Santa Clara County, California, United States of America",
            "locType": "city",
            "blogLinks": [
                "http://www.safewise.com/blog/50-safest-cities-california/"
            ],
            "longitude": "-122.0363495"
        },
        "quail hill irvine": {
            "latitude": "33.65475605",
            "closest_to": "irvine",
            "address": "Quail Hill Shopping Center, Woodbridge, Irvine, Orange County, California, 92603, United States of America",
            "locType": "retail",
            "blogLinks": [
                "http://ocmomblog.com/category/parks/irvine/"
            ],
            "longitude": "-117.779042025334"
        },
        "america": {
            "latitude": "36.2573198",
            "closest_to": "santa cruz",
            "address": "America, Kings County, California, 93246, United States of America",
            "locType": "residential",
            "blogLinks": [
                "http://www.safewise.com/blog/50-safest-cities-california/",
                "http://traveltips.usatoday.com/fun-things-los-angeles-san-francisco-14664.html",
                "http://www.travbuddy.com/California-travel-guide-p85"
            ],
            "longitude": "-119.8948706"
        },
        "san diego county": {
            "latitude": "32.9637838",
            "closest_to": "irvine",
            "address": "San Diego County, California, United States of America",
            "locType": "administrative",
            "blogLinks": [
                "http://www.safewise.com/blog/50-safest-cities-california/"
            ],
            "longitude": "-116.7706276"
        },
        "city hall": {
            "latitude": "32.84439345",
            "closest_to": "irvine",
            "address": "City Hall, Imperial, Imperial County, California, 92251, United States of America",
            "locType": "commercial",
            "blogLinks": [
                "http://www.safewise.com/blog/50-safest-cities-california/"
            ],
            "longitude": "-115.569543523702"
        },
        "carmel valley": {
            "latitude": "36.4796839",
            "closest_to": "santa cruz",
            "address": "Carmel Valley, Monterey County, California, United States of America",
            "locType": "village",
            "blogLinks": [
                "http://moon.com/2011/02/fun-road-trip-ideas-road-trip-the-california-coast/"
            ],
            "longitude": "-121.7324475"
        },
        "pacifica": {
            "latitude": "37.6138253",
            "closest_to": "santa cruz",
            "address": "Pacifica, San Mateo County, California, United States of America",
            "locType": "city",
            "blogLinks": [
                "http://www.safewise.com/blog/50-safest-cities-california/"
            ],
            "longitude": "-122.4869193"
        },
        "valley view park": {
            "latitude": "34.2350067",
            "closest_to": "santa cruz",
            "address": "Valley View Park, San Bernardino County, California, United States of America",
            "locType": "hamlet",
            "blogLinks": [
                "http://ocmomblog.com/category/parks/irvine/"
            ],
            "longitude": "-117.3080999"
        },
        "heritage park": {
            "latitude": "34.123511",
            "closest_to": "santa cruz",
            "address": "Heritage Park, Alta Loma, Rancho Cucamonga, San Bernardino County, California, 91701, United States of America",
            "locType": "residential",
            "blogLinks": [
                "http://ocmomblog.com/category/parks/irvine/"
            ],
            "longitude": "-117.595707621245"
        },
        "el salchichero": {
            "latitude": "36.958804",
            "closest_to": "santa cruz",
            "address": "El Salchichero, 402, Ingalls Street, Westside Industrial District, Westside, Santa Cruz, Santa Cruz County, California, 95060, United States of America",
            "locType": "supermarket",
            "blogLinks": [
                "http://www.sfgate.com/restaurants/diningout/article/Superb-restaurants-for-visitors-to-Santa-Cruz-4986382.php"
            ],
            "longitude": "-122.0489131"
        },
        "golden gate bridge": {
            "latitude": "37.8302809",
            "closest_to": "santa cruz",
            "address": "Golden Gate Bridge, Waldo, Marin County, California, 94965, United States of America",
            "locType": "motorway",
            "blogLinks": [
                "http://moon.com/2011/02/fun-road-trip-ideas-road-trip-the-california-coast/"
            ],
            "longitude": "-122.4798473"
        },
        "golden state": {
            "latitude": "39.6712719",
            "closest_to": "santa cruz",
            "address": "Golden State Island, Butte County, California, United States of America",
            "locType": "island",
            "blogLinks": [
                "http://www.safewise.com/blog/50-safest-cities-california/",
                "https://www.tripit.com/blog/2016/01/california-driving-distances-and-times.html"
            ],
            "longitude": "-121.9619226"
        },
        "shadowbrook": {
            "latitude": "38.7532834",
            "closest_to": "santa cruz",
            "address": "Shadowbrook, Shadow Ridge, Roseville, Placer County, California, 95678, United States of America",
            "locType": "residential",
            "blogLinks": [
                "http://www.glorioustreats.com/2015/02/sweet-places-visit-santa-cruz-california.html"
            ],
            "longitude": "-121.2677998"
        },
        "arizona": {
            "latitude": "34.4631398",
            "closest_to": "santa cruz",
            "address": "Arizona, San Bernardino County, California, 92371, United States of America",
            "locType": "track",
            "blogLinks": [
                "http://moon.com/2011/02/fun-road-trip-ideas-road-trip-the-california-coast/"
            ],
            "longitude": "-117.5060679"
        },
        "la mirada": {
            "latitude": "33.9060971",
            "closest_to": "santa cruz",
            "address": "La Mirada, Los Angeles County, California, United States of America",
            "locType": "city",
            "blogLinks": [
                "http://www.safewise.com/blog/50-safest-cities-california/"
            ],
            "longitude": "-118.0107091"
        },
        "ferndale": {
            "latitude": "40.5762406",
            "closest_to": "santa cruz",
            "address": "Ferndale, Humboldt County, California, United States of America",
            "locType": "city",
            "blogLinks": [
                "http://moon.com/2011/02/fun-road-trip-ideas-road-trip-the-california-coast/"
            ],
            "longitude": "-124.2639441"
        },
        "monterey bay": {
            "latitude": "36.7999557",
            "closest_to": "santa cruz",
            "address": "Monterey Bay, Monterey County, California, United States of America",
            "locType": "bay",
            "blogLinks": [
                "http://www.travbuddy.com/California-travel-guide-p85"
            ],
            "longitude": "-121.9010667"
        },
        "pismo beach": {
            "latitude": "35.1427533",
            "closest_to": "santa cruz",
            "address": "Pismo Beach, San Luis Obispo County, California, United States of America",
            "locType": "city",
            "blogLinks": [
                "http://moon.com/2011/02/fun-road-trip-ideas-road-trip-the-california-coast/",
                "http://traveltips.usatoday.com/fun-things-los-angeles-san-francisco-14664.html"
            ],
            "longitude": "-120.6412826"
        },
        "sea ranch": {
            "latitude": "38.7151899",
            "closest_to": "santa cruz",
            "address": "Sea Ranch, Sonoma County, California, United States of America",
            "locType": "hamlet",
            "blogLinks": [
                "http://moon.com/2011/02/fun-road-trip-ideas-road-trip-the-california-coast/"
            ],
            "longitude": "-123.4544531"
        },
        "venice": {
            "latitude": "33.995044",
            "closest_to": "santa cruz",
            "address": "Venice, LA, Los Angeles County, California, United States of America",
            "locType": "suburb",
            "blogLinks": [
                "http://moon.com/2011/02/fun-road-trip-ideas-road-trip-the-california-coast/"
            ],
            "longitude": "-118.4668874"
        },
        "disneyland": {
            "latitude": "33.8136367",
            "closest_to": "santa cruz",
            "address": "DL, 1313, South Harbor Boulevard, Anaheim Resort District, Anaheim, Orange County, California, 92805, United States of America",
            "locType": "theme_park",
            "blogLinks": [
                "http://www.safewise.com/blog/50-safest-cities-california/",
                "http://www.travbuddy.com/California-travel-guide-p85"
            ],
            "longitude": "-117.91971186569"
        },
        "us": {
            "latitude": "36.7014631",
            "closest_to": "santa cruz",
            "address": "California, United States of America",
            "locType": "administrative",
            "blogLinks": [
                "http://www.bestplaces.net/cost_of_living/city/california/santa_cruz",
                "http://www.travbuddy.com/California-travel-guide-p85"
            ],
            "longitude": "-118.7559973"
        },
        "la posta": {
            "latitude": "36.9681662",
            "closest_to": "santa cruz",
            "address": "La Posta, Seabright Avenue, Upper Seabright, Seabright, Santa Cruz, Santa Cruz County, California, 95062, United States of America",
            "locType": "restaurant",
            "blogLinks": [
                "http://www.sfgate.com/restaurants/diningout/article/Superb-restaurants-for-visitors-to-Santa-Cruz-4986382.php"
            ],
            "longitude": "-122.0077602"
        },
        "los angeles airport": {
            "latitude": "33.95203015",
            "closest_to": "santa cruz",
            "address": "Super 8 Motel, 9250, Airport Boulevard, Westchester, Playa Vista, LA, Los Angeles County, California, 90045, United States of America",
            "locType": "motel",
            "blogLinks": [
                "http://www.safewise.com/blog/50-safest-cities-california/"
            ],
            "longitude": "-118.385011876892"
        },
        "john wayne airport": {
            "latitude": "33.6742056",
            "closest_to": "santa cruz",
            "address": "John Wayne Airport, Airport Way, Paularino, Orange County, California, 92707, United States of America",
            "locType": "aerodrome",
            "blogLinks": [
                "http://www.safewise.com/blog/50-safest-cities-california/"
            ],
            "longitude": "-117.868014707705"
        },
        "brywood park": {
            "latitude": "33.71247895",
            "closest_to": "irvine",
            "address": "Brywood Park, Bryan Avenue, Northwood, Irvine, Orange County, California, 92780, United States of America",
            "locType": "park",
            "blogLinks": [
                "http://ocmomblog.com/category/parks/irvine/"
            ],
            "longitude": "-117.772895455479"
        },
        "santa monica": {
            "latitude": "34.0195598",
            "closest_to": "santa cruz",
            "address": "Santa Monica, Los Angeles County, California, United States of America",
            "locType": "city",
            "blogLinks": [
                "http://www.santacruz.org/blog/p/3671",
                "http://moon.com/2011/02/fun-road-trip-ideas-road-trip-the-california-coast/"
            ],
            "longitude": "-118.4869738"
        },
        "san gabriel": {
            "latitude": "34.0991325",
            "closest_to": "santa cruz",
            "address": "San Gabriel, Los Angeles County, California, United States of America",
            "locType": "city",
            "blogLinks": [
                "http://www.safewise.com/blog/50-safest-cities-california/"
            ],
            "longitude": "-118.108604"
        },
        "angel stadium": {
            "latitude": "33.8002599",
            "closest_to": "santa cruz",
            "address": "Angel Stadium of Anaheim, South Douglass Road, Anaheim Resort District, Anaheim, Orange County, California, 92806, United States of America",
            "locType": "stadium",
            "blogLinks": [
                "http://www.safewise.com/blog/50-safest-cities-california/"
            ],
            "longitude": "-117.881742527598"
        },
        "pacific": {
            "latitude": "38.7601815",
            "closest_to": "santa cruz",
            "address": "Pacific, El Dorado County, California, United States of America",
            "locType": "hamlet",
            "blogLinks": [
                "http://www.glorioustreats.com/2015/02/sweet-places-visit-santa-cruz-california.html",
                "http://www.travbuddy.com/California-travel-guide-p85"
            ],
            "longitude": "-120.507146"
        },
        "fort bragg": {
            "latitude": "39.4447345",
            "closest_to": "santa cruz",
            "address": "Fort Bragg, Mendocino County, California, United States of America",
            "locType": "city",
            "blogLinks": [
                "http://moon.com/2011/02/fun-road-trip-ideas-road-trip-the-california-coast/"
            ],
            "longitude": "-123.802699105743"
        },
        "san luis obispo county": {
            "latitude": "35.3540209",
            "closest_to": "santa cruz",
            "address": "San Luis Obispo County, California, United States of America",
            "locType": "administrative",
            "blogLinks": [
                "http://www.travbuddy.com/California-travel-guide-p85"
            ],
            "longitude": "-120.3757162"
        },
        "la puente": {
            "latitude": "34.01979",
            "closest_to": "santa cruz",
            "address": "La Puente, Los Angeles County, California, United States of America",
            "locType": "city",
            "blogLinks": [
                "http://www.safewise.com/blog/50-safest-cities-california/"
            ],
            "longitude": "-117.9503676"
        },
        "seacliff beach": {
            "latitude": "33.6748992",
            "closest_to": "santa cruz",
            "address": "Seacliff Lane, Huntington Beach, Orange County, California, 92648, United States of America",
            "locType": "residential",
            "blogLinks": [
                "http://www.glorioustreats.com/2015/02/sweet-places-visit-santa-cruz-california.html"
            ],
            "longitude": "-118.0076789"
        },
        "julia pfeiffer burns state park": {
            "latitude": "36.16998345",
            "closest_to": "santa cruz",
            "address": "Julia Pfeiffer Burns State Park, Ewoldsen trail, Monterey County, California, United States of America",
            "locType": "park",
            "blogLinks": [
                "http://moon.com/2011/02/fun-road-trip-ideas-road-trip-the-california-coast/"
            ],
            "longitude": "-121.665388254615"
        },
        "newport beach": {
            "latitude": "33.6170092",
            "closest_to": "santa cruz",
            "address": "Newport Beach, Orange County, California, United States of America",
            "locType": "city",
            "blogLinks": [
                "http://ocmomblog.com/category/parks/irvine/",
                "http://www.travbuddy.com/California-travel-guide-p85"
            ],
            "longitude": "-117.92944"
        },
        "california-nevada": {
            "latitude": "36.17310935",
            "closest_to": "irvine",
            "address": "California Hotel, Sky Walk(Connection from Main Street to California, Cultural Corridor, Vegas Heights, Las Vegas, Clark County, Nevada, 89101, United States of America",
            "locType": "hotel",
            "blogLinks": [
                "http://www.travbuddy.com/California-travel-guide-p85"
            ],
            "longitude": "-115.144667930325"
        },
        "south lake tahoe": {
            "latitude": "38.929125",
            "closest_to": "santa cruz",
            "address": "South Lake Tahoe, El Dorado County, California, United States of America",
            "locType": "city",
            "blogLinks": [
                "http://www.travbuddy.com/California-travel-guide-p85"
            ],
            "longitude": "-119.987846390157"
        },
        "saddleback valley": {
            "latitude": "34.67534675",
            "closest_to": "santa cruz",
            "address": "Saddleback Butte State Park, 175th Street East, Wilsona Gardens, Los Angeles County, California, United States of America",
            "locType": "park",
            "blogLinks": [
                "http://www.safewise.com/blog/50-safest-cities-california/"
            ],
            "longitude": "-117.805161708143"
        },
        "malibu pier": {
            "latitude": "34.0364323",
            "closest_to": "santa cruz",
            "address": "Malibu Pier, Pacific Coast Highway, Malibu, Los Angeles County, California, 90265, United States of America",
            "locType": "pier",
            "blogLinks": [
                "http://moon.com/2011/02/fun-road-trip-ideas-road-trip-the-california-coast/"
            ],
            "longitude": "-118.676144945982"
        },
        "monterey bay aquarium": {
            "latitude": "36.61809095",
            "closest_to": "santa cruz",
            "address": "MBA, 886, Cannery Row, Monterey, Monterey County, California, 93940, United States of America",
            "locType": "aquarium",
            "blogLinks": [
                "http://moon.com/2011/02/fun-road-trip-ideas-road-trip-the-california-coast/",
                "http://traveltips.usatoday.com/fun-things-los-angeles-san-francisco-14664.html"
            ],
            "longitude": "-121.901680002002"
        },
        "salinas valley": {
            "latitude": "36.6744117",
            "closest_to": "santa cruz",
            "address": "Salinas, Monterey County, California, United States of America",
            "locType": "city",
            "blogLinks": [
                "http://www.safewise.com/blog/50-safest-cities-california/"
            ],
            "longitude": "-121.6550371"
        },
        "lompoc": {
            "latitude": "34.6391501",
            "closest_to": "santa cruz",
            "address": "Lompoc, Santa Barbara County, California, United States of America",
            "locType": "city",
            "blogLinks": [
                "http://moon.com/2011/02/fun-road-trip-ideas-road-trip-the-california-coast/"
            ],
            "longitude": "-120.4579408"
        },
        "hearst castle": {
            "latitude": "35.6853689",
            "closest_to": "santa cruz",
            "address": "Hearst Castle, 750, Hearst Castle Road, San Simeon, San Luis Obispo County, California, 93452, United States of America",
            "locType": "museum",
            "blogLinks": [
                "http://traveltips.usatoday.com/fun-things-los-angeles-san-francisco-14664.html"
            ],
            "longitude": "-121.167587299509"
        },
        "camarillo": {
            "latitude": "34.2163939",
            "closest_to": "santa cruz",
            "address": "Camarillo, Ventura County, California, United States of America",
            "locType": "city",
            "blogLinks": [
                "http://www.safewise.com/blog/50-safest-cities-california/"
            ],
            "longitude": "-119.0376023"
        },
        "los rios historic district": {
            "latitude": "33.5015539",
            "closest_to": "irvine",
            "address": "Los Rios Historic District, Ramos Street, San Juan Capistrano, Orange County, California, 92675, United States of America",
            "locType": "park",
            "blogLinks": [
                "http://www.safewise.com/blog/50-safest-cities-california/"
            ],
            "longitude": "-117.6655412"
        },
        "calabasas lake": {
            "latitude": "34.1446643",
            "closest_to": "santa cruz",
            "address": "Calabasas, Los Angeles County, California, United States of America",
            "locType": "administrative",
            "blogLinks": [
                "http://www.safewise.com/blog/50-safest-cities-california/"
            ],
            "longitude": "-118.6440972"
        },
        "gilroy": {
            "latitude": "37.0065078",
            "closest_to": "santa cruz",
            "address": "Gilroy, Santa Clara County, California, United States of America",
            "locType": "city",
            "blogLinks": [
                "http://traveltips.usatoday.com/fun-things-los-angeles-san-francisco-14664.html"
            ],
            "longitude": "-121.5631722"
        },
        "calabasas": {
            "latitude": "34.1446643",
            "closest_to": "santa cruz",
            "address": "Calabasas, Los Angeles County, California, United States of America",
            "locType": "administrative",
            "blogLinks": [
                "http://www.safewise.com/blog/50-safest-cities-california/"
            ],
            "longitude": "-118.6440972"
        },
        "broadway": {
            "latitude": "37.7958391",
            "closest_to": "santa cruz",
            "address": "Broadway, Russian Hill, SF, California, 94109;94115, United States of America",
            "locType": "primary",
            "blogLinks": [
                "http://www.safewise.com/blog/50-safest-cities-california/"
            ],
            "longitude": "-122.4226908"
        },
        "santa clarita": {
            "latitude": "34.3916641",
            "closest_to": "santa cruz",
            "address": "Santa Clarita, Los Angeles County, California, United States of America",
            "locType": "city",
            "blogLinks": [
                "http://www.safewise.com/blog/50-safest-cities-california/"
            ],
            "longitude": "-118.5425859"
        },
        "pinnacles national park": {
            "latitude": "36.4862515",
            "closest_to": "santa cruz",
            "address": "Pinnacles National Park, Pinnacles Road, San Benito County, California, United States of America",
            "locType": "national_park",
            "blogLinks": [
                "http://www.safewise.com/blog/50-safest-cities-california/"
            ],
            "longitude": "-121.171140689253"
        },
        "bodega bay": {
            "latitude": "38.273529",
            "closest_to": "santa cruz",
            "address": "Bodega Bay, Estero Lane, Bodega Bay, Sonoma County, California, United States of America",
            "locType": "bay",
            "blogLinks": [
                "http://moon.com/2011/02/fun-road-trip-ideas-road-trip-the-california-coast/"
            ],
            "longitude": "-123.0061117"
        },
        "flintridge": {
            "latitude": "33.6338013",
            "closest_to": "irvine",
            "address": "Flintridge, Turtle Rock, Irvine, Orange County, California, 92603, United States of America",
            "locType": "residential",
            "blogLinks": [
                "http://www.safewise.com/blog/50-safest-cities-california/"
            ],
            "longitude": "-117.8111037"
        },
        "malibu lagoon state beach": {
            "latitude": "34.03385755",
            "closest_to": "santa cruz",
            "address": "Malibu Lagoon State Beach, Pacific Coast Highway, Malibu, Los Angeles County, California, 90265, United States of America",
            "locType": "beach",
            "blogLinks": [
                "http://moon.com/2011/02/fun-road-trip-ideas-road-trip-the-california-coast/"
            ],
            "longitude": "-118.679064060789"
        },
        "hermosa": {
            "latitude": "38.0172961",
            "closest_to": "santa cruz",
            "address": "Hermosa, Pittsburg, Contra Costa County, California, 94565, United States of America",
            "locType": "residential",
            "blogLinks": [
                "http://moon.com/2011/02/fun-road-trip-ideas-road-trip-the-california-coast/"
            ],
            "longitude": "-121.8724176"
        },
        "redondo beach": {
            "latitude": "33.8455911",
            "closest_to": "santa cruz",
            "address": "Redondo Beach, Los Angeles County, California, United States of America",
            "locType": "city",
            "blogLinks": [
                "http://moon.com/2011/02/fun-road-trip-ideas-road-trip-the-california-coast/"
            ],
            "longitude": "-118.3886765"
        },
        "lafayette": {
            "latitude": "37.8857582",
            "closest_to": "santa cruz",
            "address": "Lafayette, Contra Costa County, California, United States of America",
            "locType": "administrative",
            "blogLinks": [
                "http://www.safewise.com/blog/50-safest-cities-california/"
            ],
            "longitude": "-122.11802"
        },
        "ventura county": {
            "latitude": "34.4458248",
            "closest_to": "santa cruz",
            "address": "Ventura County, California, United States of America",
            "locType": "administrative",
            "blogLinks": [
                "http://www.safewise.com/blog/50-safest-cities-california/"
            ],
            "longitude": "-119.0779358"
        },
        "golden gate park": {
            "latitude": "37.7693681",
            "closest_to": "santa cruz",
            "address": "Golden Gate Park, Overlook Drive, Richmond District, SF, California, 94122, United States of America",
            "locType": "park",
            "blogLinks": [
                "https://www.tripit.com/blog/2016/01/california-driving-distances-and-times.html"
            ],
            "longitude": "-122.482183611177"
        },
        "redwood highway": {
            "latitude": "37.8379549",
            "closest_to": "santa cruz",
            "address": "Redwood Highway, Waldo, Marin County, California, 94965, United States of America",
            "locType": "motorway",
            "blogLinks": [
                "http://moon.com/2011/02/fun-road-trip-ideas-road-trip-the-california-coast/"
            ],
            "longitude": "-122.4860838"
        },
        "riverside county": {
            "latitude": "33.7219991",
            "closest_to": "irvine",
            "address": "Riverside County, California, United States of America",
            "locType": "administrative",
            "blogLinks": [
                "http://www.safewise.com/blog/50-safest-cities-california/"
            ],
            "longitude": "-116.0372471"
        },
        "laguna niguel": {
            "latitude": "33.5225261",
            "closest_to": "irvine",
            "address": "Laguna Niguel, Orange County, California, United States of America",
            "locType": "city",
            "blogLinks": [
                "http://www.safewise.com/blog/50-safest-cities-california/"
            ],
            "longitude": "-117.7075525"
        },
        "big bear lake": {
            "latitude": "34.253293",
            "closest_to": "irvine",
            "address": "Big Bear Lake, Lagunita Lane, Big Bear Lake, San Bernardino County, California, 92315, United States of America",
            "locType": "water",
            "blogLinks": [
                "http://www.travbuddy.com/California-travel-guide-p85"
            ],
            "longitude": "-116.932209587315"
        },
        "pierpont bay": {
            "latitude": "34.2597255",
            "closest_to": "santa cruz",
            "address": "Pierpont Bay, Ventura County, California, United States of America",
            "locType": "hamlet",
            "blogLinks": [
                "http://moon.com/2011/02/fun-road-trip-ideas-road-trip-the-california-coast/"
            ],
            "longitude": "-119.2692775"
        },
        "windsor": {
            "latitude": "38.519758",
            "closest_to": "santa cruz",
            "address": "Windsor, Sonoma County, California, United States of America",
            "locType": "administrative",
            "blogLinks": [
                "http://www.safewise.com/blog/50-safest-cities-california/"
            ],
            "longitude": "-122.804427291464"
        },
        "san ramon": {
            "latitude": "37.7799273",
            "closest_to": "santa cruz",
            "address": "San Ramon, Contra Costa County, California, United States of America",
            "locType": "administrative",
            "blogLinks": [
                "http://www.safewise.com/blog/50-safest-cities-california/"
            ],
            "longitude": "-121.9780152"
        },
        "community center": {
            "latitude": "34.2691696",
            "closest_to": "santa cruz",
            "address": "Community Center, Ventura County, California, United States of America",
            "locType": "hamlet",
            "blogLinks": [
                "http://www.safewise.com/blog/50-safest-cities-california/"
            ],
            "longitude": "-118.7375915"
        },
        "danville": {
            "latitude": "37.8215929",
            "closest_to": "santa cruz",
            "address": "Danville, Contra Costa County, California, United States of America",
            "locType": "administrative",
            "blogLinks": [
                "http://www.safewise.com/blog/50-safest-cities-california/"
            ],
            "longitude": "-121.9999605"
        },
        "calico": {
            "latitude": "35.6327332",
            "closest_to": "santa cruz",
            "address": "Calico, Kern County, California, United States of America",
            "locType": "locality",
            "blogLinks": [
                "http://www.travbuddy.com/California-travel-guide-p85"
            ],
            "longitude": "-119.206496"
        },
        "san joaquin valley": {
            "latitude": "37.9372901",
            "closest_to": "santa cruz",
            "address": "San Joaquin County, California, United States of America",
            "locType": "administrative",
            "blogLinks": [
                "http://www.safewise.com/blog/50-safest-cities-california/"
            ],
            "longitude": "-121.2773718"
        },
        "moon california": {
            "latitude": "33.7967376",
            "closest_to": "irvine",
            "address": "Moon, Palm Springs, Riverside County, California, 92264, United States of America",
            "locType": "residential",
            "blogLinks": [
                "http://moon.com/2011/02/fun-road-trip-ideas-road-trip-the-california-coast/"
            ],
            "longitude": "-116.5099829"
        },
        "long beach": {
            "latitude": "33.78538945",
            "closest_to": "santa cruz",
            "address": "Long Beach, Los Angeles County, California, United States of America",
            "locType": "city",
            "blogLinks": [
                "http://moon.com/2011/02/fun-road-trip-ideas-road-trip-the-california-coast/",
                "http://www.travbuddy.com/California-travel-guide-p85"
            ],
            "longitude": "-118.158049215311"
        },
        "northern california": {
            "latitude": "32.7349196",
            "closest_to": "irvine",
            "address": "Northern Frontier, San Diego, San Diego County, California, United States of America",
            "locType": "locality",
            "blogLinks": [
                "http://www.santacruz.org/"
            ],
            "longitude": "-117.1545973"
        },
        "santa barbara mission": {
            "latitude": "34.4662154",
            "closest_to": "santa cruz",
            "address": "KDB-FM (Santa Barbara), Gibraltar Road, Santa Barbara County, California, 93103, United States of America",
            "locType": "tower",
            "blogLinks": [
                "http://traveltips.usatoday.com/fun-things-los-angeles-san-francisco-14664.html"
            ],
            "longitude": "-119.6779962"
        },
        "dodger stadium": {
            "latitude": "34.0736255",
            "closest_to": "santa cruz",
            "address": "Dodger Stadium, 1000, Vin Scully Avenue, New Chinatown, Angelino Heights, LA, Los Angeles County, California, 90012, United States of America",
            "locType": "stadium",
            "blogLinks": [
                "http://www.safewise.com/blog/50-safest-cities-california/"
            ],
            "longitude": "-118.238969292435"
        },
        "half moon bay": {
            "latitude": "37.4635519",
            "closest_to": "santa cruz",
            "address": "Half Moon Bay, San Mateo County, California, United States of America",
            "locType": "city",
            "blogLinks": [
                "http://moon.com/2011/02/fun-road-trip-ideas-road-trip-the-california-coast/"
            ],
            "longitude": "-122.4285861"
        },
        "santa cruz surfing museum": {
            "latitude": "36.9514908",
            "closest_to": "santa cruz",
            "address": "Santa Cruz Surfing Museum, West Cliff Drive, Lighthouse/West Cliff, Westside, Santa Cruz, Santa Cruz County, California, 95060, United States of America",
            "locType": "museum",
            "blogLinks": [
                "https://www.tripadvisor.com/Tourism-g33048-Santa_Cruz_California-Vacations.html"
            ],
            "longitude": "-122.0266902"
        },
        "mendocino": {
            "latitude": "39.3176491",
            "closest_to": "santa cruz",
            "address": "Mendocino County, California, United States of America",
            "locType": "administrative",
            "blogLinks": [
                "http://moon.com/2011/02/fun-road-trip-ideas-road-trip-the-california-coast/"
            ],
            "longitude": "-123.4126398"
        },
        "pleasanton": {
            "latitude": "37.6624312",
            "closest_to": "santa cruz",
            "address": "Pleasanton, Alameda County, California, United States of America",
            "locType": "administrative",
            "blogLinks": [
                "http://www.safewise.com/blog/50-safest-cities-california/"
            ],
            "longitude": "-121.8746788"
        },
        "orange county": {
            "latitude": "33.7500378",
            "closest_to": "santa cruz",
            "address": "Orange County, California, United States of America",
            "locType": "administrative",
            "blogLinks": [
                "http://www.safewise.com/blog/50-safest-cities-california/",
                "http://ocmomblog.com/category/parks/irvine/",
                "http://www.travbuddy.com/California-travel-guide-p85"
            ],
            "longitude": "-117.870493"
        },
        "gaviota state park": {
            "latitude": "34.51187925",
            "closest_to": "santa cruz",
            "address": "Gaviota State Park, San Julian Road, Las Cruces, Santa Barbara County, California, United States of America",
            "locType": "park",
            "blogLinks": [
                "http://moon.com/2011/02/fun-road-trip-ideas-road-trip-the-california-coast/"
            ],
            "longitude": "-120.23689175403"
        },
        "alamo creek park": {
            "latitude": "37.7244438",
            "closest_to": "santa cruz",
            "address": "Alamo Creek Park, Willow Creek Drive, Dublin, Alameda County, California, 94568, United States of America",
            "locType": "park",
            "blogLinks": [
                "http://www.safewise.com/blog/50-safest-cities-california/"
            ],
            "longitude": "-121.910967662648"
        },
        "los angeles": {
            "latitude": "34.0543942",
            "closest_to": "santa cruz",
            "address": "LA, Los Angeles County, California, United States of America",
            "locType": "city",
            "blogLinks": [
                "http://www.safewise.com/blog/50-safest-cities-california/",
                "http://traveltips.usatoday.com/fun-things-los-angeles-san-francisco-14664.html",
                "https://www.tripit.com/blog/2016/01/california-driving-distances-and-times.html",
                "http://www.travbuddy.com/California-travel-guide-p85"
            ],
            "longitude": "-118.2439408"
        },
        "san diego": {
            "latitude": "32.7174209",
            "closest_to": "irvine",
            "address": "San Diego, San Diego County, California, United States of America",
            "locType": "city",
            "blogLinks": [
                "http://moon.com/2011/02/fun-road-trip-ideas-road-trip-the-california-coast/",
                "http://www.safewise.com/blog/50-safest-cities-california/",
                "http://traveltips.usatoday.com/fun-things-los-angeles-san-francisco-14664.html",
                "http://www.travbuddy.com/California-travel-guide-p85"
            ],
            "longitude": "-117.1627713"
        },
        "cambria": {
            "latitude": "35.5641381",
            "closest_to": "santa cruz",
            "address": "Cambria, San Luis Obispo County, California, United States of America",
            "locType": "administrative",
            "blogLinks": [
                "http://moon.com/2011/02/fun-road-trip-ideas-road-trip-the-california-coast/"
            ],
            "longitude": "-121.0807467"
        },
        "madonna inn": {
            "latitude": "35.2673282",
            "closest_to": "santa cruz",
            "address": "Madonna Inn, 100, Madonna Road, San Luis Obispo, San Luis Obispo County, California, 93405, United States of America",
            "locType": "hotel",
            "blogLinks": [
                "http://traveltips.usatoday.com/fun-things-los-angeles-san-francisco-14664.html"
            ],
            "longitude": "-120.674725246222"
        },
        "capitola beach": {
            "latitude": "36.9715255",
            "closest_to": "santa cruz",
            "address": "Capitola Beach, Esplanade, Capitola, Santa Cruz County, California, 95010, United States of America",
            "locType": "beach",
            "blogLinks": [
                "https://www.tripadvisor.com/Tourism-g33048-Santa_Cruz_California-Vacations.html"
            ],
            "longitude": "-121.9515645"
        },
        "san francisco bay area": {
            "latitude": "37.7884969",
            "closest_to": "santa cruz",
            "address": "San Francisco Bay Area, SF, California, United States of America",
            "locType": "region",
            "blogLinks": [
                "http://www.safewise.com/blog/50-safest-cities-california/"
            ],
            "longitude": "-122.3558472"
        },
        "muir beach": {
            "latitude": "37.8621493",
            "closest_to": "santa cruz",
            "address": "Muir Beach, Marin County, California, United States of America",
            "locType": "hamlet",
            "blogLinks": [
                "http://moon.com/2011/02/fun-road-trip-ideas-road-trip-the-california-coast/"
            ],
            "longitude": "-122.5813666"
        },
        "lake forest": {
            "latitude": "33.6469261",
            "closest_to": "irvine",
            "address": "Lake Forest, Orange County, California, United States of America",
            "locType": "city",
            "blogLinks": [
                "http://www.safewise.com/blog/50-safest-cities-california/"
            ],
            "longitude": "-117.6859212"
        },
        "humboldt redwoods state park": {
            "latitude": "40.376048",
            "closest_to": "santa cruz",
            "address": "Humboldt Redwoods State Park, Englewood, Humboldt County, California, 95569, United States of America",
            "locType": "residential",
            "blogLinks": [
                "http://moon.com/2011/02/fun-road-trip-ideas-road-trip-the-california-coast/"
            ],
            "longitude": "-123.9263449"
        },
        "silicon valley": {
            "latitude": "37.4105333",
            "closest_to": "santa cruz",
            "address": "Carnegie Mellon Silicon Valley, South Akron Road, Santa Clara County, California, 94035-0016, United States of America",
            "locType": "school",
            "blogLinks": [
                "http://www.safewise.com/blog/50-safest-cities-california/",
                "http://www.travbuddy.com/California-travel-guide-p85"
            ],
            "longitude": "-122.0597491"
        },
        "riverside": {
            "latitude": "33.9533546",
            "closest_to": "irvine",
            "address": "Riverside, Riverside County, California, United States of America",
            "locType": "city",
            "blogLinks": [
                "http://www.safewise.com/blog/50-safest-cities-california/"
            ],
            "longitude": "-117.3961622"
        },
        "monterey": {
            "latitude": "36.5844165",
            "closest_to": "santa cruz",
            "address": "Monterey, Monterey County, California, United States of America",
            "locType": "city",
            "blogLinks": [
                "http://moon.com/2011/02/fun-road-trip-ideas-road-trip-the-california-coast/",
                "http://www.santacruz.org/",
                "http://traveltips.usatoday.com/fun-things-los-angeles-san-francisco-14664.html",
                "http://www.travbuddy.com/California-travel-guide-p85"
            ],
            "longitude": "-121.866792846206"
        },
        "goleta": {
            "latitude": "34.4358295",
            "closest_to": "santa cruz",
            "address": "Goleta, Santa Barbara County, California, United States of America",
            "locType": "administrative",
            "blogLinks": [
                "http://www.safewise.com/blog/50-safest-cities-california/"
            ],
            "longitude": "-119.8276388"
        },
        "pacific ocean": {
            "latitude": "36.16305775",
            "closest_to": "santa cruz",
            "address": "Pacific Ocean, Cabrillo Highway, Monterey County, California, 93920, United States of America",
            "locType": "cliff",
            "blogLinks": [
                "http://moon.com/2011/02/fun-road-trip-ideas-road-trip-the-california-coast/",
                "http://www.safewise.com/blog/50-safest-cities-california/",
                "http://www.travbuddy.com/California-travel-guide-p85"
            ],
            "longitude": "-121.678715787326"
        },
        "san francisco": {
            "latitude": "37.7792808",
            "closest_to": "santa cruz",
            "address": "SF, California, United States of America",
            "locType": "city",
            "blogLinks": [
                "http://www.santacruz.org/",
                "http://moon.com/2011/02/fun-road-trip-ideas-road-trip-the-california-coast/",
                "http://www.travbuddy.com/California-travel-guide-p85",
                "http://www.safewise.com/blog/50-safest-cities-california/",
                "https://www.tripit.com/blog/2016/01/california-driving-distances-and-times.html",
                "http://www.glorioustreats.com/2015/02/sweet-places-visit-santa-cruz-california.html",
                "http://traveltips.usatoday.com/fun-things-los-angeles-san-francisco-14664.html"
            ],
            "longitude": "-122.4192362"
        },
        "ventana inn": {
            "latitude": "36.2269124",
            "closest_to": "santa cruz",
            "address": "The Restaurant at Ventana, Coast Ridge Road, Posts, Monterey County, California, United States of America",
            "locType": "restaurant",
            "blogLinks": [
                "http://moon.com/2011/02/fun-road-trip-ideas-road-trip-the-california-coast/"
            ],
            "longitude": "-121.759462751273"
        },
        "irvine park": {
            "latitude": "33.9082151",
            "closest_to": "irvine",
            "address": "Irvine Park, Beaumont, Riverside County, California, 92223, United States of America",
            "locType": "residential",
            "blogLinks": [
                "http://ocmomblog.com/category/parks/irvine/"
            ],
            "longitude": "-116.9604311"
        },
        "bay area": {
            "latitude": "37.7884969",
            "closest_to": "santa cruz",
            "address": "San Francisco Bay Area, SF, California, United States of America",
            "locType": "region",
            "blogLinks": [
                "http://www.glorioustreats.com/2015/02/sweet-places-visit-santa-cruz-california.html",
                "http://ocmomblog.com/category/parks/irvine/"
            ],
            "longitude": "-122.3558472"
        },
        "chino hills state park": {
            "latitude": "33.91604865",
            "closest_to": "santa cruz",
            "address": "Chino Hills State Park, South Ridge Trail, Orange County, California, 92886, United States of America",
            "locType": "park",
            "blogLinks": [
                "http://www.safewise.com/blog/50-safest-cities-california/"
            ],
            "longitude": "-117.760259865186"
        },
        "morro bay": {
            "latitude": "35.3658075",
            "closest_to": "santa cruz",
            "address": "Morro Bay, San Luis Obispo County, California, United States of America",
            "locType": "city",
            "blogLinks": [
                "http://traveltips.usatoday.com/fun-things-los-angeles-san-francisco-14664.html"
            ],
            "longitude": "-120.8499012"
        },
        "harbor boulevard": {
            "latitude": "33.8172821",
            "closest_to": "santa cruz",
            "address": "Harbor Boulevard, Anaheim Resort District, Anaheim, Orange County, California, 217, United States of America",
            "locType": "primary",
            "blogLinks": [
                "http://moon.com/2011/02/fun-road-trip-ideas-road-trip-the-california-coast/"
            ],
            "longitude": "-117.9152933"
        },