{
    "santa clarita": {
        "type": "city",
        "osm_id": "2313083",
        "class": "place",
        "importance": 0.75253815368059,
        "lat": "34.3916641",
        "lon": "-118.5425859",
        "boundingbox": [
            "34.340498",
            "34.477213",
            "-118.6131919",
            "-118.3760709"
        ],
        "display_name": "Santa Clarita, Los Angeles County, California, United States of America",
        "licence": "Data \u00a9 OpenStreetMap contributors, ODbL 1.0. http://www.openstreetmap.org/copyright",
        "icon": "https://nominatim.openstreetmap.org/images/mapicons/poi_place_city.p.20.png",
        "place_id": "159444356",
        "osm_type": "relation"
    },
    "los angeles": {
        "type": "city",
        "osm_id": "207359",
        "class": "place",
        "importance": 1.0289952798766,
        "lat": "34.0543942",
        "lon": "-118.2439408",
        "boundingbox": [
            "33.7036216",
            "34.337306",
            "-118.6681901",
            "-118.1552946"
        ],
        "display_name": "LA, Los Angeles County, California, United States of America",
        "licence": "Data \u00a9 OpenStreetMap contributors, ODbL 1.0. http://www.openstreetmap.org/copyright",
        "icon": "https://nominatim.openstreetmap.org/images/mapicons/poi_place_city.p.20.png",
        "place_id": "159250198",
        "osm_type": "relation"
    },
    "mentions": {
        "hollywood walk of fame": {
            "latitude": "34.1018331",
            "closest_to": "santa clarita",
            "address": "Old Hollywood Bookshop, Walk of Fame, Whitley Heights, LA, Los Angeles County, California, 90028, United States of America",
            "locType": "attraction",
            "blogLinks": [
                "https://www.timeout.com/los-angeles/things-to-do/great-things-to-do-in-los-angeles"
            ],
            "longitude": "-118.3385158"
        },
        "macarthur park": {
            "latitude": "34.058874",
            "closest_to": "santa clarita",
            "address": "MacArthur Park, Wilshire Boulevard, Angelino Heights, LA, Los Angeles County, California, 90057, United States of America",
            "locType": "park",
            "blogLinks": [
                "http://www.la-bike.org/blog"
            ],
            "longitude": "-118.27767170166"
        },
        "old pasadena": {
            "latitude": "34.1476452",
            "closest_to": "santa clarita",
            "address": "Pasadena, Los Angeles County, California, United States of America",
            "locType": "city",
            "blogLinks": [
                "http://www.greatamericancountry.com/living/at-home/10-great-neighborhoods-in-los-angeles"
            ],
            "longitude": "-118.1444778"
        },
        "venice": {
            "latitude": "33.995044",
            "closest_to": "santa clarita",
            "address": "Venice, LA, Los Angeles County, California, United States of America",
            "locType": "suburb",
            "blogLinks": [
                "http://www.greatamericancountry.com/living/at-home/10-great-neighborhoods-in-los-angeles"
            ],
            "longitude": "-118.4668874"
        },
        "disneyland": {
            "latitude": "33.8136367",
            "closest_to": "los angeles",
            "address": "DL, 1313, South Harbor Boulevard, Anaheim Resort District, Anaheim, Orange County, California, 92805, United States of America",
            "locType": "theme_park",
            "blogLinks": [
                "http://www.safewise.com/blog/50-safest-cities-california/"
            ],
            "longitude": "-117.91971186569"
        },
        "santa clarita station": {
            "latitude": "34.3916641",
            "closest_to": "santa clarita",
            "address": "Santa Clarita, Los Angeles County, California, United States of America",
            "locType": "city",
            "blogLinks": [
                "https://en.wikipedia.org/wiki/Santa_Clarita,_California"
            ],
            "longitude": "-118.5425859"
        },
        "la puente": {
            "latitude": "34.01979",
            "closest_to": "los angeles",
            "address": "La Puente, Los Angeles County, California, United States of America",
            "locType": "city",
            "blogLinks": [
                "http://www.safewise.com/blog/50-safest-cities-california/"
            ],
            "longitude": "-117.9503676"
        },
        "via princessa station": {
            "latitude": "34.4060913",
            "closest_to": "santa clarita",
            "address": "Via Princessa, Canyon Country, Santa Clarita, Los Angeles County, California, 91351, United States of America",
            "locType": "secondary",
            "blogLinks": [
                "https://en.wikipedia.org/wiki/Santa_Clarita,_California"
            ],
            "longitude": "-118.4654305"
        },
        "santa monica": {
            "latitude": "34.0195598",
            "closest_to": "santa clarita",
            "address": "Santa Monica, Los Angeles County, California, United States of America",
            "locType": "city",
            "blogLinks": [
                "http://www.bestplaces.net/city/california/santa_clarita",
                "http://www.greatamericancountry.com/living/at-home/10-great-neighborhoods-in-los-angeles",
                "https://www.timeout.com/los-angeles/things-to-do/great-things-to-do-in-los-angeles"
            ],
            "longitude": "-118.4869738"
        },
        "venice beach": {
            "latitude": "33.9862012",
            "closest_to": "santa clarita",
            "address": "Venice Beach, Venice Beach Bike Path, Venice, LA, Los Angeles County, California, 90405, United States of America",
            "locType": "police",
            "blogLinks": [
                "https://www.timeout.com/los-angeles/things-to-do/great-things-to-do-in-los-angeles"
            ],
            "longitude": "-118.4739815"
        },
        "angel stadium": {
            "latitude": "33.8002599",
            "closest_to": "los angeles",
            "address": "Angel Stadium of Anaheim, South Douglass Road, Anaheim Resort District, Anaheim, Orange County, California, 92806, United States of America",
            "locType": "stadium",
            "blogLinks": [
                "http://www.safewise.com/blog/50-safest-cities-california/"
            ],
            "longitude": "-117.881742527598"
        },
        "sierra highway": {
            "latitude": "34.5912297",
            "closest_to": "santa clarita",
            "address": "Sierra Highway, Palmdale, Los Angeles County, California, 93550, United States of America",
            "locType": "secondary",
            "blogLinks": [
                "http://www.santaclaritahomemarket.com/blog/page/2/",
                "https://en.wikipedia.org/wiki/Santa_Clarita,_California"
            ],
            "longitude": "-118.1182306"
        },
        "california science center": {
            "latitude": "34.0159757",
            "closest_to": "los angeles",
            "address": "California Science Center, 700, Exposition Park Drive, Jefferson, LA, Los Angeles County, California, 90037, United States of America",
            "locType": "museum",
            "blogLinks": [
                "https://www.timeout.com/los-angeles/things-to-do/great-things-to-do-in-los-angeles"
            ],
            "longitude": "-118.286286870567"
        },
        "main street usa": {
            "latitude": "34.1619793",
            "closest_to": "santa clarita",
            "address": "Main Street, Burbank, Los Angeles County, California, 91502, United States of America",
            "locType": "secondary",
            "blogLinks": [
                "https://www.timeout.com/los-angeles/things-to-do/great-things-to-do-in-los-angeles"
            ],
            "longitude": "-118.3108771"
        },
        "valencia meadows": {
            "latitude": "34.39343735",
            "closest_to": "santa clarita",
            "address": "Valencia Meadows Park, Fedala Road, Valencia, Santa Clarita, Los Angeles County, California, 91355, United States of America",
            "locType": "park",
            "blogLinks": [
                "http://www.santaclaritahomemarket.com/blog/page/2/"
            ],
            "longitude": "-118.555726714442"
        },
        "san gabriel valley": {
            "latitude": "34.0991325",
            "closest_to": "los angeles",
            "address": "San Gabriel, Los Angeles County, California, United States of America",
            "locType": "city",
            "blogLinks": [
                "http://www.safewise.com/blog/50-safest-cities-california/"
            ],
            "longitude": "-118.108604"
        },
        "temescal canyon park": {
            "latitude": "34.0505642",
            "closest_to": "santa clarita",
            "address": "Temescal Canyon Park, Temescal Canyon Park access road, Pacific Palisades, LA, Los Angeles County, California, 90272, United States of America",
            "locType": "park",
            "blogLinks": [
                "http://www.greatamericancountry.com/living/at-home/10-great-neighborhoods-in-los-angeles"
            ],
            "longitude": "-118.5298039"
        },
        "los angeles county": {
            "latitude": "34.3155072",
            "closest_to": "santa clarita",
            "address": "Los Angeles County, California, United States of America",
            "locType": "administrative",
            "blogLinks": [
                "https://foursquare.com/v/the-gentle-barn/4c9be069d3c2b60c83c3b2bc",
                "http://www.la-bike.org/blog",
                "http://www.santaclaritahomemarket.com/blog/",
                "http://www.safewise.com/blog/50-safest-cities-california/",
                "https://en.wikipedia.org/wiki/Santa_Clarita,_California",
                "http://visitsantaclarita.com/"
            ],
            "longitude": "-118.2096813"
        },
        "old road": {
            "latitude": "34.3328446",
            "closest_to": "santa clarita",
            "address": "The Old Road, LA, Los Angeles County, California, SCV, United States of America",
            "locType": "primary",
            "blogLinks": [
                "http://www.greatamericancountry.com/living/at-home/10-great-neighborhoods-in-los-angeles"
            ],
            "longitude": "-118.506284"
        },
        "southern california": {
            "latitude": "34.0224149",
            "closest_to": "los angeles",
            "address": "University of Southern California, Watt Way, Saint James Park, LA, Los Angeles County, California, 90089, United States of America",
            "locType": "university",
            "blogLinks": [
                "http://www.santaclaritahomemarket.com/blog/",
                "http://www.safewise.com/blog/50-safest-cities-california/",
                "http://www.bestplaces.net/city/california/santa_clarita",
                "https://en.wikipedia.org/wiki/Santa_Clarita,_California",
                "http://visitsantaclarita.com/",
                "http://www.hopper.com/articles/291/five-great-stops-between-los-angeles-and-san-francisco-on-the-pacific-coast-highway"
            ],
            "longitude": "-118.286343973446"
        },
        "soledad canyon road": {
            "latitude": "34.4158767",
            "closest_to": "santa clarita",
            "address": "Soledad Canyon Road, Canyon Country, Santa Clarita, Los Angeles County, California, 93510, United States of America",
            "locType": "secondary",
            "blogLinks": [
                "https://en.wikipedia.org/wiki/Santa_Clarita,_California"
            ],
            "longitude": "-118.4644374"
        },
        "uptown whittier": {
            "latitude": "33.9734916",
            "closest_to": "los angeles",
            "address": "Uptown Market, Mar Vista Street, East Whittier, Whittier, Los Angeles County, California, 90602:90605, United States of America",
            "locType": "supermarket",
            "blogLinks": [
                "http://www.greatamericancountry.com/living/at-home/10-great-neighborhoods-in-los-angeles"
            ],
            "longitude": "-118.037741263868"
        },
        "gavola": {
            "latitude": "34.3950106",
            "closest_to": "santa clarita",
            "address": "Via Gavola, Valencia, Santa Clarita, Los Angeles County, California, 91327, United States of America",
            "locType": "residential",
            "blogLinks": [
                "http://www.santaclaritahomemarket.com/blog/page/2/"
            ],
            "longitude": "-118.5504595"
        },
        "heritage valley": {
            "latitude": "34.0880367",
            "closest_to": "santa clarita",
            "address": "Heritage Square, Pasadena Freeway, Dayton Avenue, Highland Park, LA, Los Angeles County, California, 90031, United States of America",
            "locType": "museum",
            "blogLinks": [
                "http://www.santaclaritahomemarket.com/blog/page/2/"
            ],
            "longitude": "-118.208391549888"
        },
        "cerritos": {
            "latitude": "33.8644291",
            "closest_to": "los angeles",
            "address": "Cerritos, Los Angeles County, California, United States of America",
            "locType": "city",
            "blogLinks": [
                "http://www.greatamericancountry.com/living/at-home/10-great-neighborhoods-in-los-angeles"
            ],
            "longitude": "-118.0539322"
        },
        "santa clara river": {
            "latitude": "34.4235943",
            "closest_to": "santa clarita",
            "address": "Santa Clara River, Chuck Pontius Commuter Rail Trail, Valencia, Santa Clarita, Los Angeles County, California, 91355, United States of America",
            "locType": "water",
            "blogLinks": [
                "http://www.santaclaritahomemarket.com/blog/page/2/",
                "https://en.wikipedia.org/wiki/Santa_Clarita,_California"
            ],
            "longitude": "-118.550387466286"
        },
        "elysian valley": {
            "latitude": "34.08289815",
            "closest_to": "santa clarita",
            "address": "Elysian Park, Solano Canyon Drive, Dayton Avenue, Angelino Heights, LA, Los Angeles County, California, 90012, United States of America",
            "locType": "park",
            "blogLinks": [
                "http://www.la-bike.org/blog"
            ],
            "longitude": "-118.234413340192"
        },
        "culver city": {
            "latitude": "34.0211224",
            "closest_to": "santa clarita",
            "address": "Culver City, Los Angeles County, California, United States of America",
            "locType": "administrative",
            "blogLinks": [
                "http://www.greatamericancountry.com/living/at-home/10-great-neighborhoods-in-los-angeles"
            ],
            "longitude": "-118.3964664"
        },
        "quigley canyon": {
            "latitude": "34.3860127",
            "closest_to": "santa clarita",
            "address": "Quigley Canyon Road, Newhall, Santa Clarita, Los Angeles County, California, 91321, United States of America",
            "locType": "residential",
            "blogLinks": [
                "https://en.wikipedia.org/wiki/Santa_Clarita,_California"
            ],
            "longitude": "-118.5166861"
        },
        "plum canyon road": {
            "latitude": "34.4482109",
            "closest_to": "santa clarita",
            "address": "Plum Canyon Road, Saugus, Santa Clarita, Los Angeles County, California, 91350, United States of America",
            "locType": "tertiary",
            "blogLinks": [
                "http://www.santaclaritahomemarket.com/blog/page/2/"
            ],
            "longitude": "-118.4915452"
        },
        "placerita canyon": {
            "latitude": "34.3758312",
            "closest_to": "santa clarita",
            "address": "Placerita Canyon State Park, Placerita Canyon Trail, Sand Canyon, Los Angeles County, California, 91351, United States of America",
            "locType": "park",
            "blogLinks": [
                "https://en.wikipedia.org/wiki/Santa_Clarita,_California",
                "https://www.yelp.com/biz/heritage-junction-historic-park-newhall"
            ],
            "longitude": "-118.4459162"
        },
        "new orleans": {
            "latitude": "33.8116219",
            "closest_to": "los angeles",
            "address": "New Orleans Square, Anaheim, Orange County, California, United States of America",
            "locType": "locality",
            "blogLinks": [
                "https://foursquare.com/v/the-gentle-barn/4c9be069d3c2b60c83c3b2bc",
                "https://www.timeout.com/los-angeles/things-to-do/great-things-to-do-in-los-angeles"
            ],
            "longitude": "-117.9206364"
        },
        "mcbean parkway": {
            "latitude": "34.4425384",
            "closest_to": "santa clarita",
            "address": "McBean Parkway, Valencia, Santa Clarita, Los Angeles County, California, 91354, United States of America",
            "locType": "secondary",
            "blogLinks": [
                "http://www.santaclaritahomemarket.com/blog/page/2/"
            ],
            "longitude": "-118.5539864"
        },
        "hollywood": {
            "latitude": "34.1028268",
            "closest_to": "santa clarita",
            "address": "Hollywood, LA, Los Angeles County, California, United States of America",
            "locType": "suburb",
            "blogLinks": [
                "https://www.timeout.com/los-angeles/things-to-do/great-things-to-do-in-los-angeles",
                "http://www.la-bike.org/blog",
                "http://www.greatamericancountry.com/living/at-home/10-great-neighborhoods-in-los-angeles",
                "https://en.wikipedia.org/wiki/Santa_Clarita,_California"
            ],
            "longitude": "-118.3299898"
        },
        "kesley street": {
            "latitude": "34.4354649",
            "closest_to": "santa clarita",
            "address": "Kesley Street, Honby, Canyon Country, Santa Clarita, Los Angeles County, California, 91351, United States of America",
            "locType": "residential",
            "blogLinks": [
                "http://www.santaclaritahomemarket.com/blog/"
            ],
            "longitude": "-118.4921914"
        },
        "calabasas lake": {
            "latitude": "34.1446643",
            "closest_to": "santa clarita",
            "address": "Calabasas, Los Angeles County, California, United States of America",
            "locType": "administrative",
            "blogLinks": [
                "http://www.safewise.com/blog/50-safest-cities-california/"
            ],
            "longitude": "-118.6440972"
        },
        "towsley canyon": {
            "latitude": "34.3573878",
            "closest_to": "santa clarita",
            "address": "Towsley Canyon Road, Newhall, Santa Clarita, Los Angeles County, California, 91321, United States of America",
            "locType": "residential",
            "blogLinks": [
                "http://www.santaclaritahomemarket.com/blog/"
            ],
            "longitude": "-118.5605864"
        },
        "antelope valley freeway": {
            "latitude": "34.5816462",
            "closest_to": "santa clarita",
            "address": "Antelope Valley Freeway, Palmdale, Los Angeles County, California, 93550, United States of America",
            "locType": "motorway",
            "blogLinks": [
                "https://en.wikipedia.org/wiki/Santa_Clarita,_California"
            ],
            "longitude": "-118.1338867"
        },
        "calabasas": {
            "latitude": "34.1446643",
            "closest_to": "santa clarita",
            "address": "Calabasas, Los Angeles County, California, United States of America",
            "locType": "administrative",
            "blogLinks": [
                "http://www.safewise.com/blog/50-safest-cities-california/"
            ],
            "longitude": "-118.6440972"
        },
        "los angeles county museum of art": {
            "latitude": "34.0634357",
            "closest_to": "santa clarita",
            "address": "Los Angeles County Museum of Art, Wilshire Boulevard, Park La Brea, The Village Green, LA, Los Angeles County, California, 90036, United States of America",
            "locType": "museum",
            "blogLinks": [
                "https://www.timeout.com/los-angeles/things-to-do/great-things-to-do-in-los-angeles"
            ],
            "longitude": "-118.357997654056"
        },
        "century city": {
            "latitude": "34.0555654",
            "closest_to": "santa clarita",
            "address": "Century City, Westwood, LA, Los Angeles County, California, 90067, United States of America",
            "locType": "neighbourhood",
            "blogLinks": [
                "https://en.wikipedia.org/wiki/Santa_Clarita,_California"
            ],
            "longitude": "-118.4178564"
        },
        "la mirada theatre": {
            "latitude": "33.8966667",
            "closest_to": "los angeles",
            "address": "La Mirada Theatre For The Performing Arts, La Mirada Boulevard, La Mirada, Los Angeles County, California, 90638, United States of America",
            "locType": "arts_centre",
            "blogLinks": [
                "http://www.safewise.com/blog/50-safest-cities-california/"
            ],
            "longitude": "-118.0097221"
        },
        "west": {
            "latitude": "33.9492548",
            "closest_to": "los angeles",
            "address": "W, Service road S, Westchester, Playa del Rey, LA, Los Angeles County, California, 90245, United States of America",
            "locType": "taxiway",
            "blogLinks": [
                "https://www.timeout.com/los-angeles/things-to-do/great-things-to-do-in-los-angeles"
            ],
            "longitude": "-118.4108078"
        },
        "northridge": {
            "latitude": "34.2285918",
            "closest_to": "santa clarita",
            "address": "Northridge, LA, Los Angeles County, California, United States of America",
            "locType": "suburb",
            "blogLinks": [
                "https://en.wikipedia.org/wiki/Santa_Clarita,_California"
            ],
            "longitude": "-118.5369315"
        },
        "los angeles international": {
            "latitude": "33.94211345",
            "closest_to": "los angeles",
            "address": "Los Angeles International Airport, Gate 41, Westchester, Playa del Rey, LA, Los Angeles County, California, 90245, United States of America",
            "locType": "aerodrome",
            "blogLinks": [
                "http://www.bestplaces.net/city/california/santa_clarita"
            ],
            "longitude": "-118.407057290249"
        },
        "santa clarita": {
            "latitude": "34.3916641",
            "closest_to": "santa clarita",
            "address": "Santa Clarita, Los Angeles County, California, United States of America",
            "locType": "city",
            "blogLinks": [
                "https://www.newhomesource.com/communityresults/california/los-angeles-area/santa-clarita",
                "https://foursquare.com/v/the-gentle-barn/4c9be069d3c2b60c83c3b2bc",
                "http://www.santaclaritahomemarket.com/blog/page/2/",
                "https://www.expedia.com/Santa-Clarita-Hotels.d9878.Travel-Guide-Hotels",
                "http://www.santaclaritahomemarket.com/blog/",
                "http://www.safewise.com/blog/50-safest-cities-california/",
                "http://www.bestplaces.net/city/california/santa_clarita",
                "https://en.wikipedia.org/wiki/Santa_Clarita,_California",
                "https://www.yelp.com/biz/heritage-junction-historic-park-newhall",
                "http://visitsantaclarita.com/",
                "http://www.greatamericancountry.com/living/at-home/10-great-neighborhoods-in-los-angeles"
            ],
            "longitude": "-118.5425859"
        },
        "soledad canyon rd": {
            "latitude": "34.4158767",
            "closest_to": "santa clarita",
            "address": "Soledad Canyon Road, Canyon Country, Santa Clarita, Los Angeles County, California, 93510, United States of America",
            "locType": "secondary",
            "blogLinks": [
                "https://en.wikipedia.org/wiki/Santa_Clarita,_California"
            ],
            "longitude": "-118.4644374"
        },
        "abalone cove shoreline park": {
            "latitude": "33.7438366",
            "closest_to": "los angeles",
            "address": "Abalone Cove Shoreline Park, Palos Verdes Drive South, Ranchos Palos Verdes, Los Angeles County, California, 90275, United States of America",
            "locType": "parking",
            "blogLinks": [
                "http://www.safewise.com/blog/50-safest-cities-california/"
            ],
            "longitude": "-118.381346621066"
        },
        "castaic": {
            "latitude": "34.4888822",
            "closest_to": "santa clarita",
            "address": "Castaic, Los Angeles County, California, United States of America",
            "locType": "hamlet",
            "blogLinks": [
                "http://www.santaclaritahomemarket.com/blog/"
            ],
            "longitude": "-118.6228655"
        },
        "hollywood bowl": {
            "latitude": "34.1121836",
            "closest_to": "santa clarita",
            "address": "Hollywood Bowl, Los Tilos Road, Whitley Heights, LA, Los Angeles County, California, 90068, United States of America",
            "locType": "theatre",
            "blogLinks": [
                "https://www.timeout.com/los-angeles/things-to-do/great-things-to-do-in-los-angeles"
            ],
            "longitude": "-118.339277261641"
        },
        "santa monica bay": {
            "latitude": "33.9350121",
            "closest_to": "los angeles",
            "address": "Santa Monica Bay, South Bay Bike Path, El Segundo, Los Angeles County, California, 90245, United States of America",
            "locType": "bay",
            "blogLinks": [
                "http://www.greatamericancountry.com/living/at-home/10-great-neighborhoods-in-los-angeles"
            ],
            "longitude": "-118.4667443"
        },
        "marsh park": {
            "latitude": "34.1068282",
            "closest_to": "santa clarita",
            "address": "Marsh Park, Marsh Street Path, Silver Lake Heights, Atwater, LA, Los Angeles County, California, 90039, United States of America",
            "locType": "park",
            "blogLinks": [
                "http://www.la-bike.org/blog"
            ],
            "longitude": "-118.246015633026"
        },
        "simi valley": {
            "latitude": "34.2694474",
            "closest_to": "santa clarita",
            "address": "Simi Valley, Ventura County, California, United States of America",
            "locType": "city",
            "blogLinks": [
                "http://www.safewise.com/blog/50-safest-cities-california/"
            ],
            "longitude": "-118.7814819"
        },
        "thousand oaks": {
            "latitude": "34.17142715",
            "closest_to": "santa clarita",
            "address": "Thousand Oaks, Ventura County, California, United States of America",
            "locType": "city",
            "blogLinks": [
                "http://www.safewise.com/blog/50-safest-cities-california/"
            ],
            "longitude": "-118.910587629744"
        },
        "frontierland": {
            "latitude": "33.81314275",
            "closest_to": "los angeles",
            "address": "Frontierland, Anaheim, Orange County, California, United States of America",
            "locType": "locality",
            "blogLinks": [
                "https://www.timeout.com/los-angeles/things-to-do/great-things-to-do-in-los-angeles"
            ],
            "longitude": "-117.921339068848"
        },
        "five knolls": {
            "latitude": "34.280465",
            "closest_to": "santa clarita",
            "address": "Five Oak Court, Simi Valley, Ventura County, California, 93063, United States of America",
            "locType": "residential",
            "blogLinks": [
                "http://www.santaclaritahomemarket.com/blog/page/2/"
            ],
            "longitude": "-118.6809009"
        },
        "community center": {
            "latitude": "34.2691696",
            "closest_to": "santa clarita",
            "address": "Community Center, Ventura County, California, United States of America",
            "locType": "hamlet",
            "blogLinks": [
                "http://www.safewise.com/blog/50-safest-cities-california/"
            ],
            "longitude": "-118.7375915"
        },
        "valencia boulevard": {
            "latitude": "34.413154",
            "closest_to": "santa clarita",
            "address": "Valencia Boulevard, Valencia, Santa Clarita, Los Angeles County, California, 91355, United States of America",
            "locType": "secondary",
            "blogLinks": [
                "https://en.wikipedia.org/wiki/Santa_Clarita,_California"
            ],
            "longitude": "-118.5545419"
        },
        "glendale": {
            "latitude": "34.1423455",
            "closest_to": "santa clarita",
            "address": "Glendale, Los Angeles County, California, United States of America",
            "locType": "city",
            "blogLinks": [
                "http://www.bestplaces.net/city/california/santa_clarita"
            ],
            "longitude": "-118.248367"
        },
        "calabasas tennis and swim center": {
            "latitude": "34.15486425",
            "closest_to": "santa clarita",
            "address": "Calabasas Swim and Tennis Center, Park Mirasol, Calabasas, Los Angeles County, California, 91302, United States of America",
            "locType": "park",
            "blogLinks": [
                "http://www.safewise.com/blog/50-safest-cities-california/"
            ],
            "longitude": "-118.638888535598"
        },
        "stevenson ranch": {
            "latitude": "34.3804077",
            "closest_to": "santa clarita",
            "address": "Stevenson Ranch Parkway, Valencia, Los Angeles County, California, 91381, United States of America",
            "locType": "secondary",
            "blogLinks": [
                "http://www.santaclaritahomemarket.com/blog/"
            ],
            "longitude": "-118.5843793"
        },
        "san fernando": {
            "latitude": "34.2819461",
            "closest_to": "santa clarita",
            "address": "San Fernando, Los Angeles County, California, United States of America",
            "locType": "administrative",
            "blogLinks": [
                "http://www.greatamericancountry.com/living/at-home/10-great-neighborhoods-in-los-angeles",
                "https://en.wikipedia.org/wiki/Santa_Clarita,_California"
            ],
            "longitude": "-118.4389718"
        },
        "william s. hart park": {
            "latitude": "34.3755536",
            "closest_to": "santa clarita",
            "address": "William S Hart Park, La Loma Road, Newhall, Santa Clarita, Los Angeles County, California, SCV, United States of America",
            "locType": "tree",
            "blogLinks": [
                "https://www.yelp.com/biz/heritage-junction-historic-park-newhall"
            ],
            "longitude": "-118.5273077"
        },
        "valencia blvd": {
            "latitude": "34.413154",
            "closest_to": "santa clarita",
            "address": "Valencia Boulevard, Valencia, Santa Clarita, Los Angeles County, California, 91355, United States of America",
            "locType": "secondary",
            "blogLinks": [
                "http://www.santaclaritahomemarket.com/blog/page/2/"
            ],
            "longitude": "-118.5545419"
        },
        "temple city": {
            "latitude": "34.1082994",
            "closest_to": "los angeles",
            "address": "Temple City, Los Angeles County, California, United States of America",
            "locType": "city",
            "blogLinks": [
                "http://www.safewise.com/blog/50-safest-cities-california/"
            ],
            "longitude": "-118.0577567"
        },
        "golden valley ranch": {
            "latitude": "34.378418",
            "closest_to": "santa clarita",
            "address": "Disney Golden Oak Ranch, Canyon Country, Los Angeles County, California, 91321, United States of America",
            "locType": "residential",
            "blogLinks": [
                "https://en.wikipedia.org/wiki/Santa_Clarita,_California"
            ],
            "longitude": "-118.4795884"
        },
        "dodger stadium": {
            "latitude": "34.0736255",
            "closest_to": "santa clarita",
            "address": "Dodger Stadium, 1000, Vin Scully Avenue, New Chinatown, Angelino Heights, LA, Los Angeles County, California, 90012, United States of America",
            "locType": "stadium",
            "blogLinks": [
                "http://www.safewise.com/blog/50-safest-cities-california/"
            ],
            "longitude": "-118.238969292435"
        },
        "saugus": {
            "latitude": "34.4493489",
            "closest_to": "santa clarita",
            "address": "Saugus, Santa Clarita, Los Angeles County, California, United States of America",
            "locType": "suburb",
            "blogLinks": [
                "http://www.santaclaritahomemarket.com/blog/",
                "https://en.wikipedia.org/wiki/Santa_Clarita,_California"
            ],
            "longitude": "-118.5168256"
        },
        "whittier hills": {
            "latitude": "33.9397495",
            "closest_to": "los angeles",
            "address": "Whittwood Branch Whittier Public Library, Starbuck Street, Friendly Hills, Whittier, Los Angeles County, California, 90603, United States of America",
            "locType": "library",
            "blogLinks": [
                "http://www.greatamericancountry.com/living/at-home/10-great-neighborhoods-in-los-angeles"
            ],
            "longitude": "-117.993545449378"
        },
        "valencia glen park": {
            "latitude": "34.395275",
            "closest_to": "santa clarita",
            "address": "Valencia Glen Park, Via Avant, Valencia, Santa Clarita, Los Angeles County, California, 91355, United States of America",
            "locType": "park",
            "blogLinks": [
                "http://www.santaclaritahomemarket.com/blog/page/2/"
            ],
            "longitude": "-118.5492526"
        },
        "downtown los angeles": {
            "latitude": "34.1789188",
            "closest_to": "santa clarita",
            "address": "Downtown Burbank, Front Street, Burbank, Los Angeles County, California, 91502, United States of America",
            "locType": "station",
            "blogLinks": [
                "https://en.wikipedia.org/wiki/Santa_Clarita,_California",
                "https://www.timeout.com/los-angeles/things-to-do/great-things-to-do-in-los-angeles"
            ],
            "longitude": "-118.312628"
        },
        "tataviam": {
            "latitude": "34.4940067",
            "closest_to": "santa clarita",
            "address": "Tataviam Drive, Agua Dulce, Los Angeles County, California, 91390, United States of America",
            "locType": "residential",
            "blogLinks": [
                "https://en.wikipedia.org/wiki/Santa_Clarita,_California"
            ],
            "longitude": "-118.3039596"
        },
        "sherman oaks": {
            "latitude": "34.1508718",
            "closest_to": "santa clarita",
            "address": "Sherman Oaks, LA, Los Angeles County, California, United States of America",
            "locType": "suburb",
            "blogLinks": [
                "http://www.greatamericancountry.com/living/at-home/10-great-neighborhoods-in-los-angeles",
                "https://en.wikipedia.org/wiki/Santa_Clarita,_California"
            ],
            "longitude": "-118.4489864"
        },
        "burbank airport": {
            "latitude": "34.1944171",
            "closest_to": "santa clarita",
            "address": "Burbank Airport, Burbank, Los Angeles County, California, 91504, United States of America",
            "locType": "service",
            "blogLinks": [
                "http://www.safewise.com/blog/50-safest-cities-california/"
            ],
            "longitude": "-118.353019743886"
        },
        "canyon country": {
            "latitude": "34.4233293",
            "closest_to": "santa clarita",
            "address": "Canyon Country, Santa Clarita, Los Angeles County, California, United States of America",
            "locType": "suburb",
            "blogLinks": [
                "https://en.wikipedia.org/wiki/Santa_Clarita,_California"
            ],
            "longitude": "-118.472028"
        },
        "los angeles district": {
            "latitude": "34.1480627",
            "closest_to": "santa clarita",
            "address": "Fuller Theological Seminary in California, North Oakland Avenue, Pasadena Playhouse District, Pasadena, Los Angeles County, California, 91101, United States of America",
            "locType": "school",
            "blogLinks": [
                "http://www.la-bike.org/blog"
            ],
            "longitude": "-118.1403485"
        },
        "san fernando road": {
            "latitude": "34.3113261",
            "closest_to": "santa clarita",
            "address": "San Fernando Road, Sylmar, LA, Los Angeles County, California, 91344, United States of America",
            "locType": "primary",
            "blogLinks": [
                "http://www.greatamericancountry.com/living/at-home/10-great-neighborhoods-in-los-angeles"
            ],
            "longitude": "-118.4749246"
        },
        "pacific palisades": {
            "latitude": "34.0480643",
            "closest_to": "santa clarita",
            "address": "Pacific Palisades, LA, Los Angeles County, California, 90272, United States of America",
            "locType": "neighbourhood",
            "blogLinks": [
                "http://www.greatamericancountry.com/living/at-home/10-great-neighborhoods-in-los-angeles",
                "https://www.timeout.com/los-angeles/things-to-do/great-things-to-do-in-los-angeles"
            ],
            "longitude": "-118.5264705"
        },
        "los angeles": {
            "latitude": "34.0543942",
            "closest_to": "los angeles",
            "address": "LA, Los Angeles County, California, United States of America",
            "locType": "city",
            "blogLinks": [
                "https://www.newhomesource.com/communityresults/california/los-angeles-area/santa-clarita",
                "http://www.santaclaritahomemarket.com/blog/page/2/",
                "https://www.expedia.com/Santa-Clarita-Hotels.d9878.Travel-Guide-Hotels",
                "http://www.la-bike.org/blog",
                "http://www.santaclaritahomemarket.com/blog/",
                "http://www.safewise.com/blog/50-safest-cities-california/",
                "http://www.bestplaces.net/city/california/santa_clarita",
                "https://en.wikipedia.org/wiki/Santa_Clarita,_California",
                "https://www.timeout.com/los-angeles/things-to-do/great-things-to-do-in-los-angeles",
                "https://www.yelp.com/biz/heritage-junction-historic-park-newhall",
                "http://visitsantaclarita.com/",
                "http://www.hopper.com/articles/291/five-great-stops-between-los-angeles-and-san-francisco-on-the-pacific-coast-highway",
                "http://www.greatamericancountry.com/living/at-home/10-great-neighborhoods-in-los-angeles"
            ],
            "longitude": "-118.2439408"
        },
        "saugus station": {
            "latitude": "34.4493489",
            "closest_to": "santa clarita",
            "address": "Saugus, Santa Clarita, Los Angeles County, California, United States of America",
            "locType": "suburb",
            "blogLinks": [
                "https://www.yelp.com/biz/heritage-junction-historic-park-newhall"
            ],
            "longitude": "-118.5168256"
        },
        "orchard village road": {
            "latitude": "34.3890817",
            "closest_to": "santa clarita",
            "address": "Orchard Village Road, Newhall, Santa Clarita, Los Angeles County, California, 91355, United States of America",
            "locType": "residential",
            "blogLinks": [
                "http://www.santaclaritahomemarket.com/blog/page/2/"
            ],
            "longitude": "-118.5468352"
        },
        "metro station": {
            "latitude": "34.0367088",
            "closest_to": "los angeles",
            "address": "Caltrans Metro Electrical Maintenance Station, Saint James Park, LA, Los Angeles County, California, 90015, United States of America",
            "locType": "industrial",
            "blogLinks": [
                "http://www.santaclaritahomemarket.com/blog/page/2/"
            ],
            "longitude": "-118.275249200362"
        },
        "santa clarita valley": {
            "latitude": "34.3916641",
            "closest_to": "santa clarita",
            "address": "Santa Clarita, Los Angeles County, California, United States of America",
            "locType": "city",
            "blogLinks": [
                "http://www.santaclaritahomemarket.com/blog/",
                "http://www.santaclaritahomemarket.com/blog/page/2/",
                "http://www.la-bike.org/blog",
                "https://en.wikipedia.org/wiki/Santa_Clarita,_California",
                "https://www.yelp.com/biz/heritage-junction-historic-park-newhall"
            ],
            "longitude": "-118.5425859"
        },
        "golden valley road": {
            "latitude": "34.3933054",
            "closest_to": "santa clarita",
            "address": "Golden Valley Road, Canyon Country, Santa Clarita, Los Angeles County, California, 91351, United States of America",
            "locType": "trunk",
            "blogLinks": [
                "http://www.santaclaritahomemarket.com/blog/page/2/"
            ],
            "longitude": "-118.4740207"
        },
        "la mirada": {
            "latitude": "33.9060971",
            "closest_to": "los angeles",
            "address": "La Mirada, Los Angeles County, California, United States of America",
            "locType": "city",
            "blogLinks": [
                "http://www.safewise.com/blog/50-safest-cities-california/"
            ],
            "longitude": "-118.0107091"
        },
        "santa clara river trail": {
            "latitude": "34.4258901",
            "closest_to": "santa clarita",
            "address": "Santa Clara River Trail, Saugus, Santa Clarita, Los Angeles County, California, 91350, United States of America",
            "locType": "cycleway",
            "blogLinks": [
                "https://en.wikipedia.org/wiki/Santa_Clarita,_California"
            ],
            "longitude": "-118.511812"
        },
        "los feliz": {
            "latitude": "34.10815355",
            "closest_to": "santa clarita",
            "address": "Los Feliz, Little Armenia, LA, Los Angeles County, California, 90027, United States of America",
            "locType": "neighbourhood",
            "blogLinks": [
                "http://www.la-bike.org/blog"
            ],
            "longitude": "-118.289935811004"
        },
        "east whittier": {
            "latitude": "33.9244577",
            "closest_to": "los angeles",
            "address": "East La Mirada, Leffingwell, Los Angeles County, California, United States of America",
            "locType": "suburb",
            "blogLinks": [
                "http://www.greatamericancountry.com/living/at-home/10-great-neighborhoods-in-los-angeles"
            ],
            "longitude": "-117.9889524"
        },
        "southern pacific": {
            "latitude": "34.391601",
            "closest_to": "santa clarita",
            "address": "Southern Pacific, Fillmore, Ventura County, California, 93015, United States of America",
            "locType": "residential",
            "blogLinks": [
                "https://en.wikipedia.org/wiki/Santa_Clarita,_California"
            ],
            "longitude": "-118.9223619"
        },
        "san marino": {
            "latitude": "34.1215947",
            "closest_to": "los angeles",
            "address": "San Marino, Los Angeles County, California, United States of America",
            "locType": "town",
            "blogLinks": [
                "http://www.bestplaces.net/city/california/santa_clarita"
            ],
            "longitude": "-118.1057393"
        },
        "los angeles airport": {
            "latitude": "33.95203015",
            "closest_to": "los angeles",
            "address": "Super 8 Motel, 9250, Airport Boulevard, Westchester, Playa Vista, LA, Los Angeles County, California, 90045, United States of America",
            "locType": "motel",
            "blogLinks": [
                "http://www.safewise.com/blog/50-safest-cities-california/"
            ],
            "longitude": "-118.385011876892"
        },
        "moorpark": {
            "latitude": "34.285558",
            "closest_to": "santa clarita",
            "address": "Moorpark, Ventura County, California, United States of America",
            "locType": "city",
            "blogLinks": [
                "http://www.safewise.com/blog/50-safest-cities-california/"
            ],
            "longitude": "-118.8820413"
        },
        "agoura hills": {
            "latitude": "34.1363945",
            "closest_to": "santa clarita",
            "address": "Agoura Hills, Los Angeles County, California, United States of America",
            "locType": "city",
            "blogLinks": [
                "http://www.safewise.com/blog/50-safest-cities-california/"
            ],
            "longitude": "-118.7745347"
        },
        "pasadena": {
            "latitude": "34.1476452",
            "closest_to": "santa clarita",
            "address": "Pasadena, Los Angeles County, California, United States of America",
            "locType": "city",
            "blogLinks": [
                "http://www.santaclaritahomemarket.com/blog/",
                "http://www.santaclaritahomemarket.com/blog/page/2/",
                "http://www.bestplaces.net/city/california/santa_clarita",
                "http://www.greatamericancountry.com/living/at-home/10-great-neighborhoods-in-los-angeles"
            ],
            "longitude": "-118.1444778"
        },
        "manhattan beach": {
            "latitude": "33.8950839",
            "closest_to": "los angeles",
            "address": "Manhattan Beach, Los Angeles County, California, United States of America",
            "locType": "city",
            "blogLinks": [
                "http://www.greatamericancountry.com/living/at-home/10-great-neighborhoods-in-los-angeles"
            ],
            "longitude": "-118.4000146"
        },
        "newhall pass": {
            "latitude": "34.3450804",
            "closest_to": "santa clarita",
            "address": "Beals Cut, Beals Cut Trail, Newhall, Santa Clarita, Los Angeles County, California, SCV, United States of America",
            "locType": "ruins",
            "blogLinks": [
                "https://en.wikipedia.org/wiki/Santa_Clarita,_California"
            ],
            "longitude": "-118.5082283"
        },
        "santa monica mountains": {
            "latitude": "34.11008435",
            "closest_to": "santa clarita",
            "address": "Santa Monica Mountains National Recreation Area, Simes Lane, Seminole Hot Springs, Los Angeles County, California, 91301, United States of America",
            "locType": "protected_area",
            "blogLinks": [
                "http://www.greatamericancountry.com/living/at-home/10-great-neighborhoods-in-los-angeles"
            ],
            "longitude": "-118.789983284662"
        },
        "chino hills": {
            "latitude": "33.9926803",
            "closest_to": "los angeles",
            "address": "Chino Hills, San Bernardino County, California, United States of America",
            "locType": "city",
            "blogLinks": [
                "http://www.safewise.com/blog/50-safest-cities-california/"
            ],
            "longitude": "-117.7600559"
        },
        "beverly hills": {
            "latitude": "34.0736204",
            "closest_to": "santa clarita",
            "address": "Beverly Hills, Los Angeles County, California, United States of America",
            "locType": "city",
            "blogLinks": [
                "http://www.bestplaces.net/city/california/santa_clarita"
            ],
            "longitude": "-118.4003562"
        },
        "silver lake": {
            "latitude": "34.0896518",
            "closest_to": "santa clarita",
            "address": "Silver Lake, Angelino Heights, LA, Los Angeles County, California, 90026, United States of America",
            "locType": "neighbourhood",
            "blogLinks": [
                "https://www.timeout.com/los-angeles/things-to-do/great-things-to-do-in-los-angeles"
            ],
            "longitude": "-118.2693734"
        },
        "san gabriel": {
            "latitude": "34.0991325",
            "closest_to": "los angeles",
            "address": "San Gabriel, Los Angeles County, California, United States of America",
            "locType": "city",
            "blogLinks": [
                "http://www.safewise.com/blog/50-safest-cities-california/",
                "http://www.greatamericancountry.com/living/at-home/10-great-neighborhoods-in-los-angeles"
            ],
            "longitude": "-118.108604"
        },
        "burbank": {
            "latitude": "34.1816482",
            "closest_to": "santa clarita",
            "address": "Burbank, Los Angeles County, California, United States of America",
            "locType": "city",
            "blogLinks": [
                "http://www.safewise.com/blog/50-safest-cities-california/",
                "http://www.bestplaces.net/city/california/santa_clarita",
                "https://en.wikipedia.org/wiki/Santa_Clarita,_California"
            ],
            "longitude": "-118.3258553"
        },
        "maywood": {
            "latitude": "33.9866807",
            "closest_to": "los angeles",
            "address": "Maywood, Los Angeles County, California, United States of America",
            "locType": "administrative",
            "blogLinks": [
                "http://www.safewise.com/blog/50-safest-cities-california/"
            ],
            "longitude": "-118.1853489"
        },
        "valencia town center": {
            "latitude": "34.41642985",
            "closest_to": "santa clarita",
            "address": "Valencia Town Center, Valencia, Santa Clarita, Los Angeles County, California, 91355, United States of America",
            "locType": "retail",
            "blogLinks": [
                "http://www.greatamericancountry.com/living/at-home/10-great-neighborhoods-in-los-angeles",
                "https://en.wikipedia.org/wiki/Santa_Clarita,_California"
            ],
            "longitude": "-118.557273163561"
        },
        "san fernando valley": {
            "latitude": "34.2819461",
            "closest_to": "santa clarita",
            "address": "San Fernando, Los Angeles County, California, United States of America",
            "locType": "administrative",
            "blogLinks": [
                "http://www.safewise.com/blog/50-safest-cities-california/",
                "http://www.santaclaritahomemarket.com/blog/page/2/",
                "http://www.bestplaces.net/city/california/santa_clarita",
                "http://www.greatamericancountry.com/living/at-home/10-great-neighborhoods-in-los-angeles",
                "https://en.wikipedia.org/wiki/Santa_Clarita,_California"
            ],
            "longitude": "-118.4389718"
        },
        "sepulveda boulevard": {
            "latitude": "34.1172036",
            "closest_to": "santa clarita",
            "address": "Sepulveda Boulevard, Encino, LA, Los Angeles County, California, 90049, United States of America",
            "locType": "primary",
            "blogLinks": [
                "http://www.greatamericancountry.com/living/at-home/10-great-neighborhoods-in-los-angeles"
            ],
            "longitude": "-118.4825211"
        },
        "bloomfield avenue": {
            "latitude": "33.9176419",
            "closest_to": "los angeles",
            "address": "Bloomfield Avenue, Norwalk, Los Angeles County, California, 90650, United States of America",
            "locType": "secondary",
            "blogLinks": [
                "http://www.greatamericancountry.com/living/at-home/10-great-neighborhoods-in-los-angeles"
            ],
            "longitude": "-118.0639303"
        },
        "culver": {
            "latitude": "34.0211224",
            "closest_to": "santa clarita",
            "address": "Culver City, Los Angeles County, California, United States of America",
            "locType": "administrative",
            "blogLinks": [
                "http://www.greatamericancountry.com/living/at-home/10-great-neighborhoods-in-los-angeles"
            ],
            "longitude": "-118.3964664"
        },
        "whittier": {
            "latitude": "33.9748932",
            "closest_to": "los angeles",
            "address": "Whittier, Los Angeles County, California, United States of America",
            "locType": "city",
            "blogLinks": [
                "http://www.greatamericancountry.com/living/at-home/10-great-neighborhoods-in-los-angeles"
            ],
            "longitude": "-118.0336974"
        },
        "grandview drive": {
            "latitude": "34.1044797",
            "closest_to": "santa clarita",
            "address": "Grandview Drive, Whitley Heights, LA, Los Angeles County, California, 90046, United States of America",
            "locType": "residential",
            "blogLinks": [
                "http://www.santaclaritahomemarket.com/blog/page/2/"
            ],
            "longitude": "-118.3708504"
        },
        "long beach": {
            "latitude": "33.78538945",
            "closest_to": "los angeles",
            "address": "Long Beach, Los Angeles County, California, United States of America",
            "locType": "city",
            "blogLinks": [
                "http://www.bestplaces.net/city/california/santa_clarita",
                "http://www.greatamericancountry.com/living/at-home/10-great-neighborhoods-in-los-angeles"
            ],
            "longitude": "-118.158049215311"
        },
        "l.a. county": {
            "latitude": "34.0363994",
            "closest_to": "santa clarita",
            "address": "LA County, Santa Monica Beach Bike Path, Inceville, Pacific Palisades, LA, Los Angeles County, California, 90272, United States of America",
            "locType": "parking",
            "blogLinks": [
                "http://www.la-bike.org/blog"
            ],
            "longitude": "-118.537542576007"
        },
        "valley": {
            "latitude": "34.0148403",
            "closest_to": "los angeles",
            "address": "Valley, South Stimson Avenue, Industry, Los Angeles County, California, 91745, United States of America",
            "locType": "yes",
            "blogLinks": [
                "http://www.greatamericancountry.com/living/at-home/10-great-neighborhoods-in-los-angeles"
            ],
            "longitude": "-117.955234675878"
        },
        "sylmar": {
            "latitude": "34.3076252",
            "closest_to": "santa clarita",
            "address": "Sylmar, LA, Los Angeles County, California, United States of America",
            "locType": "suburb",
            "blogLinks": [
                "https://en.wikipedia.org/wiki/Santa_Clarita,_California"
            ],
            "longitude": "-118.4492147"
        },
        "greenleaf avenue": {
            "latitude": "33.9564313",
            "closest_to": "los angeles",
            "address": "Greenleaf Avenue, Whittier, Los Angeles County, California, 90670, United States of America",
            "locType": "tertiary",
            "blogLinks": [
                "http://www.greatamericancountry.com/living/at-home/10-great-neighborhoods-in-los-angeles"
            ],
            "longitude": "-118.0464691"
        },
        "north hollywood": {
            "latitude": "34.1729044",
            "closest_to": "santa clarita",
            "address": "North Hollywood, LA, Los Angeles County, California, United States of America",
            "locType": "suburb",
            "blogLinks": [
                "https://en.wikipedia.org/wiki/Santa_Clarita,_California"
            ],
            "longitude": "-118.374037"
        },
        "golden state freeway": {
            "latitude": "34.080595",
            "closest_to": "santa clarita",
            "address": "Golden State Freeway, Dayton Avenue, Angelino Heights, LA, Los Angeles County, California, CA 90031, United States of America",
            "locType": "motorway",
            "blogLinks": [
                "https://en.wikipedia.org/wiki/Santa_Clarita,_California"
            ],
            "longitude": "-118.2219316"
        },
        "space mountain": {
            "latitude": "33.810975",
            "closest_to": "los angeles",
            "address": "Hyperspace Mountain, 1313, South Harbor Boulevard, Anaheim Resort District, Anaheim, Orange County, California, 217, United States of America",
            "locType": "attraction",
            "blogLinks": [
                "https://www.timeout.com/los-angeles/things-to-do/great-things-to-do-in-los-angeles"
            ],
            "longitude": "-117.9174943"
        },
        "newhall": {
            "latitude": "34.3798765",
            "closest_to": "santa clarita",
            "address": "Newhall, Santa Clarita, Los Angeles County, California, United States of America",
            "locType": "suburb",
            "blogLinks": [
                "http://www.santaclaritahomemarket.com/blog/",
                "https://en.wikipedia.org/wiki/Santa_Clarita,_California"
            ],
            "longitude": "-118.5291916"
        },
        "ventura boulevard": {
            "latitude": "34.1467275",
            "closest_to": "santa clarita",
            "address": "Ventura Boulevard, Sherman Oaks, LA, Los Angeles County, California, 91423, United States of America",
            "locType": "primary",
            "blogLinks": [
                "http://www.greatamericancountry.com/living/at-home/10-great-neighborhoods-in-los-angeles"
            ],
            "longitude": "-118.4234198"
        }
    }
}