{
    "temecula": {
        "type": "city",
        "osm_id": "3866463",
        "class": "place",
        "importance": 0.66507963701587,
        "lat": "33.4946353",
        "lon": "-117.147366",
        "boundingbox": [
            "33.4321253",
            "33.554625",
            "-117.2066944",
            "-117.0548702"
        ],
        "display_name": "Temecula, Riverside County, California, United States of America",
        "licence": "Data \u00a9 OpenStreetMap contributors, ODbL 1.0. http://www.openstreetmap.org/copyright",
        "icon": "https://nominatim.openstreetmap.org/images/mapicons/poi_place_city.p.20.png",
        "place_id": "159718106",
        "osm_type": "relation"
    },
    "mammoth lakes": {
        "type": "administrative",
        "osm_id": "33114461",
        "class": "boundary",
        "importance": 0.67062928815144,
        "lat": "37.6432525",
        "lon": "-118.9668508",
        "boundingbox": [
            "37.580115",
            "37.659467",
            "-119.0613999",
            "-118.9370119"
        ],
        "display_name": "Mammoth Lakes, Mono County, California, United States of America",
        "licence": "Data \u00a9 OpenStreetMap contributors, ODbL 1.0. http://www.openstreetmap.org/copyright",
        "icon": "https://nominatim.openstreetmap.org/images/mapicons/poi_boundary_administrative.p.20.png",
        "place_id": "73282228",
        "osm_type": "way"
    },
    "mentions": {
        "korea": {
            "latitude": "32.742474",
            "closest_to": "temecula",
            "address": "Korea Road, Old Town, San Diego, San Diego County, California, 92140, United States of America",
            "locType": "residential",
            "blogLinks": [
                "http://www.mammothmountain.com/winter/plan-a-vacation/plan-a-vacation/getting-here"
            ],
            "longitude": "-117.2033459"
        },
        "fallbrook": {
            "latitude": "33.3764196",
            "closest_to": "temecula",
            "address": "Fallbrook, San Diego County, California, United States of America",
            "locType": "town",
            "blogLinks": [
                "https://en.wikipedia.org/wiki/U.S._Route_395_in_California"
            ],
            "longitude": "-117.2511465"
        },
        "mono lake": {
            "latitude": "38.0077189",
            "closest_to": "mammoth lakes",
            "address": "Mono Lake, Mono County, California, United States of America",
            "locType": "water",
            "blogLinks": [
                "http://www.katherinebelarmino.com/2016/10/things-to-do-in-mammoth-in-summer.html",
                "http://californiathroughmylens.com/highway-395-roadtrip",
                "https://en.wikipedia.org/wiki/U.S._Route_395_in_California",
                "http://www.mammothmountain.com/winter/plan-a-vacation/plan-a-vacation/getting-here",
                "http://www.sfgate.com/travel/article/Dog-friendly-California-destinations-3723227.php"
            ],
            "longitude": "-118.967033937845"
        },
        "oakhurst": {
            "latitude": "37.333178",
            "closest_to": "temecula",
            "address": "Oakhurst, Junction Drive, Oakhurst, Madera County, California, 93644, United States of America",
            "locType": "administrative",
            "blogLinks": [
                "http://www.myyosemitepark.com/maps/driving-itineraries/los-angeles-to-4-national-parks/"
            ],
            "longitude": "-119.657244022836"
        },
        "hot creek": {
            "latitude": "37.6732307",
            "closest_to": "temecula",
            "address": "Hot Creek, Mono County, California, United States of America",
            "locType": "stream",
            "blogLinks": [
                "http://www.katherinebelarmino.com/2016/10/things-to-do-in-mammoth-in-summer.html",
                "http://californiathroughmylens.com/highway-395-roadtrip"
            ],
            "longitude": "-118.813105"
        },
        "mount san gorgonio ca": {
            "latitude": "33.9121294",
            "closest_to": "temecula",
            "address": "San Gorgonio Avenue, Banning, Riverside County, California, 92220, United States of America",
            "locType": "secondary",
            "blogLinks": [
                "http://www.california-blog.com/"
            ],
            "longitude": "-116.8766731"
        },
        "long valley caldera": {
            "latitude": "37.6947003",
            "closest_to": "mammoth lakes",
            "address": "Long Valley Caldera, Mono County, California, United States of America",
            "locType": "volcano",
            "blogLinks": [
                "https://en.wikipedia.org/wiki/U.S._Route_395_in_California"
            ],
            "longitude": "-118.8969685"
        },
        "sierra nevada range": {
            "latitude": "33.9545792",
            "closest_to": "temecula",
            "address": "Via Sierra Nevada, Riverside, Riverside County, California, 92507, United States of America",
            "locType": "residential",
            "blogLinks": [
                "http://www.mammothmountain.com/winter/plan-a-vacation/plan-a-vacation/getting-here"
            ],
            "longitude": "-117.3273329"
        },
        "moreno valley ca": {
            "latitude": "33.937517",
            "closest_to": "temecula",
            "address": "Moreno Valley, Riverside County, California, United States of America",
            "locType": "city",
            "blogLinks": [
                "http://www.california-blog.com/"
            ],
            "longitude": "-117.2305943"
        },
        "santa monica state beach": {
            "latitude": "34.0101407",
            "closest_to": "temecula",
            "address": "Santa Monica State Beach, Santa Monica Beach Path, Santa Monica, Los Angeles County, California, 90401, United States of America",
            "locType": "nature_reserve",
            "blogLinks": [
                "http://www.myyosemitepark.com/maps/driving-itineraries/los-angeles-to-4-national-parks/"
            ],
            "longitude": "-118.498714745971"
        },
        "coarsegold": {
            "latitude": "37.2621687",
            "closest_to": "temecula",
            "address": "Coarsegold, Madera County, California, United States of America",
            "locType": "hamlet",
            "blogLinks": [
                "http://www.myyosemitepark.com/maps/driving-itineraries/los-angeles-to-4-national-parks/"
            ],
            "longitude": "-119.7009833"
        },
        "oakland": {
            "latitude": "37.8044557",
            "closest_to": "mammoth lakes",
            "address": "Oakland, Alameda County, California, United States of America",
            "locType": "city",
            "blogLinks": [
                "http://www.travelyosemite.com/discover/getting-here/"
            ],
            "longitude": "-122.2713562"
        },
        "golden state": {
            "latitude": "39.6712719",
            "closest_to": "mammoth lakes",
            "address": "Golden State Island, Butte County, California, United States of America",
            "locType": "island",
            "blogLinks": [
                "https://glampinghub.com/unitedstatesofamerica/pacificwest/california/"
            ],
            "longitude": "-121.9619226"
        },
        "kern county": {
            "latitude": "35.3145701",
            "closest_to": "temecula",
            "address": "Kern County, California, United States of America",
            "locType": "administrative",
            "blogLinks": [
                "https://en.wikipedia.org/wiki/U.S._Route_395_in_California"
            ],
            "longitude": "-118.7538221"
        },
        "colorado river": {
            "latitude": "33.58648635",
            "closest_to": "temecula",
            "address": "Colorado River, Riviera Drive, East Blythe, Riverside County, California, 92225, United States of America",
            "locType": "water",
            "blogLinks": [
                "https://en.wikipedia.org/wiki/U.S._Route_395_in_California"
            ],
            "longitude": "-114.542164096234"
        },
        "city hall": {
            "latitude": "32.84439345",
            "closest_to": "temecula",
            "address": "City Hall, Imperial, Imperial County, California, 92251, United States of America",
            "locType": "commercial",
            "blogLinks": [
                "http://www.sfgate.com/travel/article/Dog-friendly-California-destinations-3723227.php"
            ],
            "longitude": "-115.569543523702"
        },
        "death valley national park": {
            "latitude": "36.4914385",
            "closest_to": "temecula",
            "address": "Death Valley National Park, Lucky Wash Road, Skidoo, Inyo County, California, United States of America",
            "locType": "national_park",
            "blogLinks": [
                "http://www.myyosemitepark.com/maps/driving-itineraries/los-angeles-to-4-national-parks/"
            ],
            "longitude": "-117.102293507719"
        },
        "southern california": {
            "latitude": "34.0224149",
            "closest_to": "temecula",
            "address": "University of Southern California, Watt Way, Saint James Park, LA, Los Angeles County, California, 90089, United States of America",
            "locType": "university",
            "blogLinks": [
                "https://en.wikipedia.org/wiki/U.S._Route_395_in_California",
                "http://www.sfgate.com/travel/article/Dog-friendly-California-destinations-3723227.php"
            ],
            "longitude": "-118.286343973446"
        },
        "usa": {
            "latitude": "36.7014631",
            "closest_to": "temecula",
            "address": "California, United States of America",
            "locType": "administrative",
            "blogLinks": [
                "http://www.sfgate.com/travel/article/Dog-friendly-California-destinations-3723227.php"
            ],
            "longitude": "-118.7559973"
        },
        "fort bragg": {
            "latitude": "39.4447345",
            "closest_to": "mammoth lakes",
            "address": "Fort Bragg, Mendocino County, California, United States of America",
            "locType": "city",
            "blogLinks": [
                "https://www.pinterest.com/pin/239113061442323362/",
                "http://www.sfgate.com/travel/article/Dog-friendly-California-destinations-3723227.php"
            ],
            "longitude": "-123.802699105743"
        },
        "benton crossing road": {
            "latitude": "37.6401668",
            "closest_to": "temecula",
            "address": "Benton Crossing Road, Mono County, California, United States of America",
            "locType": "tertiary",
            "blogLinks": [
                "http://californiathroughmylens.com/highway-395-roadtrip"
            ],
            "longitude": "-118.6713025"
        },
        "colorado": {
            "latitude": "33.71351445",
            "closest_to": "temecula",
            "address": "Colorado, Walnut, Irvine, Orange County, California, 92606, United States of America",
            "locType": "residential",
            "blogLinks": [
                "https://en.wikipedia.org/wiki/U.S._Route_395_in_California"
            ],
            "longitude": "-117.791165718199"
        },
        "bishop creek": {
            "latitude": "37.3017791",
            "closest_to": "temecula",
            "address": "Bishop Creek, Inyo County, California, United States of America",
            "locType": "stream",
            "blogLinks": [
                "http://californiathroughmylens.com/highway-395-roadtrip"
            ],
            "longitude": "-118.5317704"
        },
        "arizona": {
            "latitude": "34.4631398",
            "closest_to": "temecula",
            "address": "Arizona, San Bernardino County, California, 92371, United States of America",
            "locType": "track",
            "blogLinks": [
                "https://www.pinterest.com/pin/239113061442323362/"
            ],
            "longitude": "-117.5060679"
        },
        "owens lake": {
            "latitude": "36.42402715",
            "closest_to": "temecula",
            "address": "Owens Lake, Inyo County, California, United States of America",
            "locType": "mud",
            "blogLinks": [
                "https://en.wikipedia.org/wiki/U.S._Route_395_in_California"
            ],
            "longitude": "-117.92691625138"
        },
        "san jose": {
            "latitude": "37.3361905",
            "closest_to": "mammoth lakes",
            "address": "San Jos\u00e9, Santa Clara County, California, United States of America",
            "locType": "city",
            "blogLinks": [
                "http://www.travelyosemite.com/discover/getting-here/"
            ],
            "longitude": "-121.8905832"
        },
        "junipero": {
            "latitude": "37.4234451",
            "closest_to": "mammoth lakes",
            "address": "Junipero, Bowdoin Lane, Stanford University, Santa Clara County, California, 94305, United States of America",
            "locType": "yes",
            "blogLinks": [
                "http://www.sfgate.com/travel/article/Dog-friendly-California-destinations-3723227.php"
            ],
            "longitude": "-122.162410764059"
        },
        "owens valley": {
            "latitude": "36.61562975",
            "closest_to": "temecula",
            "address": "Owens Valley, Lone Pine, Inyo County, California, 93545, United States of America",
            "locType": "desert",
            "blogLinks": [
                "https://en.wikipedia.org/wiki/U.S._Route_395_in_California"
            ],
            "longitude": "-118.109577818995"
        },
        "bodie state historic park": {
            "latitude": "38.2154734",
            "closest_to": "mammoth lakes",
            "address": "Bodie State Historic Park, Street, Bodie, Mono County, California, United States of America",
            "locType": "park",
            "blogLinks": [
                "http://www.katherinebelarmino.com/2016/10/things-to-do-in-mammoth-in-summer.html"
            ],
            "longitude": "-119.0109761"
        },
        "san francisco international airport": {
            "latitude": "37.622452",
            "closest_to": "mammoth lakes",
            "address": "San Francisco Airport, North Access Road, Lomita Park, San Mateo County, California, 94128, United States of America",
            "locType": "aerodrome",
            "blogLinks": [
                "http://www.travelyosemite.com/discover/getting-here/"
            ],
            "longitude": "-122.384071507814"
        },
        "denver": {
            "latitude": "33.6996403",
            "closest_to": "temecula",
            "address": "Denver, Heritage Park Apartments, El Camino Real, Irvine, Orange County, California, 92604, United States of America",
            "locType": "residential",
            "blogLinks": [
                "https://en.wikipedia.org/wiki/U.S._Route_395_in_California"
            ],
            "longitude": "-117.7762651"
        },
        "costa mesa": {
            "latitude": "33.6633386",
            "closest_to": "temecula",
            "address": "Costa Mesa, Orange County, California, United States of America",
            "locType": "city",
            "blogLinks": [
                "http://www.sfgate.com/travel/article/Dog-friendly-California-destinations-3723227.php"
            ],
            "longitude": "-117.9033169"
        },
        "mount palomar ca": {
            "latitude": "33.1278146",
            "closest_to": "temecula",
            "address": "California Bank & Trust, 2501, Palomar Airport Road, Carlsbad, San Diego County, California, 92011, United States of America",
            "locType": "bank",
            "blogLinks": [
                "http://www.california-blog.com/"
            ],
            "longitude": "-117.270809764613"
        },
        "inyokern": {
            "latitude": "35.6468991",
            "closest_to": "temecula",
            "address": "Inyokern, Kern County, California, United States of America",
            "locType": "hamlet",
            "blogLinks": [
                "https://en.wikipedia.org/wiki/U.S._Route_395_in_California"
            ],
            "longitude": "-117.8125673"
        },
        "alaska": {
            "latitude": "33.7147833",
            "closest_to": "temecula",
            "address": "Alaska, Walnut, Irvine, Orange County, California, 92606, United States of America",
            "locType": "residential",
            "blogLinks": [
                "https://glampinghub.com/unitedstatesofamerica/pacificwest/california/"
            ],
            "longitude": "-117.7917164"
        },
        "rock creek": {
            "latitude": "37.7523771",
            "closest_to": "temecula",
            "address": "Rock Creek, Mono County, California, United States of America",
            "locType": "stream",
            "blogLinks": [
                "https://www.tripadvisor.com/ShowTopic-g60791-i711-k4669227-Road_trip_from_LA_to_Mammoth_Lakes-Mammoth_Lakes_California.html",
                "https://en.wikipedia.org/wiki/U.S._Route_395_in_California"
            ],
            "longitude": "-118.3845004"
        },
        "badwater basin": {
            "latitude": "36.2302592",
            "closest_to": "temecula",
            "address": "Badwater Basin, Badwater Road, Inyo County, California, United States of America",
            "locType": "water",
            "blogLinks": [
                "http://www.myyosemitepark.com/maps/driving-itineraries/los-angeles-to-4-national-parks/"
            ],
            "longitude": "-116.767444033304"
        },
        "south china lake boulevard": {
            "latitude": "35.551143",
            "closest_to": "temecula",
            "address": "South China Lake Boulevard, Kern County, California, 93555, United States of America",
            "locType": "trunk",
            "blogLinks": [
                "https://en.wikipedia.org/wiki/U.S._Route_395_in_California"
            ],
            "longitude": "-117.7135499"
        },
        "california freeway": {
            "latitude": "34.0029948",
            "closest_to": "temecula",
            "address": "California, San Gabriel River Freeway, Pico Rivera, Los Angeles County, California, 90601, United States of America",
            "locType": "abandoned",
            "blogLinks": [
                "https://en.wikipedia.org/wiki/U.S._Route_395_in_California"
            ],
            "longitude": "-118.067515"
        },
        "nevada": {
            "latitude": "39.3540335",
            "closest_to": "mammoth lakes",
            "address": "Nevada County, California, United States of America",
            "locType": "administrative",
            "blogLinks": [
                "http://californiathroughmylens.com/highway-395-roadtrip",
                "https://www.pinterest.com/pin/239113061442323362/",
                "https://en.wikipedia.org/wiki/U.S._Route_395_in_California"
            ],
            "longitude": "-120.8089842"
        },
        "sierra nevada": {
            "latitude": "39.097593",
            "closest_to": "mammoth lakes",
            "address": "Sierra, Wolf, Nevada County, California, 95949, United States of America",
            "locType": "residential",
            "blogLinks": [
                "http://www.myyosemitepark.com/maps/driving-itineraries/los-angeles-to-4-national-parks/",
                "http://www.katherinebelarmino.com/2016/10/things-to-do-in-mammoth-in-summer.html",
                "https://en.wikipedia.org/wiki/U.S._Route_395_in_California"
            ],
            "longitude": "-121.1396689"
        },
        "morro bay ca": {
            "latitude": "35.3658075",
            "closest_to": "temecula",
            "address": "Morro Bay, San Luis Obispo County, California, United States of America",
            "locType": "city",
            "blogLinks": [
                "http://www.california-blog.com/"
            ],
            "longitude": "-120.8499012"
        },
        "monterey peninsula ca": {
            "latitude": "36.5878734",
            "closest_to": "mammoth lakes",
            "address": "Monterey Regional Airport, Airport Road, Seaside, Del Monte Heights, Monterey County, California, 93940, United States of America",
            "locType": "aerodrome",
            "blogLinks": [
                "http://www.california-blog.com/"
            ],
            "longitude": "-121.843618374407"
        },
        "mammoth lakes": {
            "latitude": "37.6432525",
            "closest_to": "mammoth lakes",
            "address": "Mammoth Lakes, Mono County, California, United States of America",
            "locType": "administrative",
            "blogLinks": [
                "http://www.visitmammoth.com/landing/no-small-adventure/",
                "http://www.katherinebelarmino.com/2016/10/things-to-do-in-mammoth-in-summer.html",
                "http://californiathroughmylens.com/highway-395-roadtrip",
                "http://www.myyosemitepark.com/maps/driving-itineraries/los-angeles-to-4-national-parks/",
                "https://www.pinterest.com/pin/239113061442323362/",
                "https://en.wikipedia.org/wiki/U.S._Route_395_in_California",
                "http://www.sfgate.com/travel/article/Dog-friendly-California-destinations-3723227.php"
            ],
            "longitude": "-118.9668508"
        },
        "indian wells valley": {
            "latitude": "33.7217965",
            "closest_to": "temecula",
            "address": "Indian Wells, Riverside County, California, United States of America",
            "locType": "town",
            "blogLinks": [
                "https://en.wikipedia.org/wiki/U.S._Route_395_in_California"
            ],
            "longitude": "-116.3383033"
        },
        "randsburg": {
            "latitude": "35.369361",
            "closest_to": "temecula",
            "address": "Randsburg, Redrock Randsburg Road, Old Garlock, Kern County, California, United States of America",
            "locType": "administrative",
            "blogLinks": [
                "http://californiathroughmylens.com/highway-395-roadtrip"
            ],
            "longitude": "-117.659854982562"
        },
        "tioga road highway ca": {
            "latitude": "37.6577485",
            "closest_to": "mammoth lakes",
            "address": "Tioga Road, Hayward, Alameda County, California, 94544, United States of America",
            "locType": "residential",
            "blogLinks": [
                "http://www.travelyosemite.com/discover/getting-here/"
            ],
            "longitude": "-122.0821668"
        },
        "old town": {
            "latitude": "35.142943",
            "closest_to": "temecula",
            "address": "Old Town, Golden Hills, Kern County, California, United States of America",
            "locType": "locality",
            "blogLinks": [
                "http://www.sfgate.com/travel/article/Dog-friendly-California-destinations-3723227.php"
            ],
            "longitude": "-118.4954422"
        },
        "huntington beach pier": {
            "latitude": "33.65460035",
            "closest_to": "temecula",
            "address": "Huntington Beach Pier, La Bolsa, Orange County, California, 92648, United States of America",
            "locType": "footway",
            "blogLinks": [
                "http://www.sfgate.com/travel/article/Dog-friendly-California-destinations-3723227.php"
            ],
            "longitude": "-118.004635687739"
        },
        "tamarack": {
            "latitude": "38.4388012",
            "closest_to": "mammoth lakes",
            "address": "Tamarack, Calaveras County, California, United States of America",
            "locType": "hamlet",
            "blogLinks": [
                "http://www.sfgate.com/travel/article/Dog-friendly-California-destinations-3723227.php"
            ],
            "longitude": "-120.076021"
        },
        "visalia": {
            "latitude": "36.3302284",
            "closest_to": "temecula",
            "address": "Visalia, Tulare County, California, United States of America",
            "locType": "city",
            "blogLinks": [
                "http://www.myyosemitepark.com/maps/driving-itineraries/los-angeles-to-4-national-parks/"
            ],
            "longitude": "-119.2920584"
        },
        "arrowhead lake": {
            "latitude": "36.8273793",
            "closest_to": "temecula",
            "address": "Arrowhead Lake, John Muir Trail, Fresno County, California, United States of America",
            "locType": "water",
            "blogLinks": [
                "http://www.visitmammoth.com/landing/no-small-adventure/"
            ],
            "longitude": "-118.41172724833"
        },
        "old mammoth road": {
            "latitude": "37.629039",
            "closest_to": "temecula",
            "address": "Old Mammoth Road, Mammoth Lakes, Mono County, California, 93546, United States of America",
            "locType": "secondary",
            "blogLinks": [
                "http://www.sfgate.com/travel/article/Dog-friendly-California-destinations-3723227.php"
            ],
            "longitude": "-118.9799199"
        },
        "los angeles international airport": {
            "latitude": "33.94211345",
            "closest_to": "temecula",
            "address": "Los Angeles International Airport, Gate 41, Westchester, Playa del Rey, LA, Los Angeles County, California, 90245, United States of America",
            "locType": "aerodrome",
            "blogLinks": [
                "http://www.travelyosemite.com/discover/getting-here/"
            ],
            "longitude": "-118.407057290249"
        },
        "south coast drive": {
            "latitude": "33.6910646",
            "closest_to": "temecula",
            "address": "South Coast Drive, Costa Mesa, Orange County, California, 92626, United States of America",
            "locType": "secondary",
            "blogLinks": [
                "http://www.sfgate.com/travel/article/Dog-friendly-California-destinations-3723227.php"
            ],
            "longitude": "-117.9064503"
        },
        "nevada highway": {
            "latitude": "39.3540335",
            "closest_to": "mammoth lakes",
            "address": "Nevada County, California, United States of America",
            "locType": "administrative",
            "blogLinks": [
                "https://en.wikipedia.org/wiki/U.S._Route_395_in_California"
            ],
            "longitude": "-120.8089842"
        },
        "mount san jacinto ca": {
            "latitude": "33.7839084",
            "closest_to": "temecula",
            "address": "San Jacinto, Riverside County, California, United States of America",
            "locType": "city",
            "blogLinks": [
                "http://www.california-blog.com/"
            ],
            "longitude": "-116.9586349"
        },
        "pebble beach ca": {
            "latitude": "36.5664874",
            "closest_to": "mammoth lakes",
            "address": "Pebble Beach, Monterey County, California, United States of America",
            "locType": "hamlet",
            "blogLinks": [
                "http://www.california-blog.com/"
            ],
            "longitude": "-121.9466112"
        },
        "mendocino coast": {
            "latitude": "39.4219269",
            "closest_to": "mammoth lakes",
            "address": "College of the Redwoods Mendocino Coast Campus, 1211, Del Mar Drive, Noyo, Mendocino County, California, 95437, United States of America",
            "locType": "college",
            "blogLinks": [
                "http://www.sfgate.com/travel/article/Dog-friendly-California-destinations-3723227.php"
            ],
            "longitude": "-123.811305914389"
        },
        "searles station": {
            "latitude": "35.4838485",
            "closest_to": "temecula",
            "address": "Searles, Kern County, California, United States of America",
            "locType": "hamlet",
            "blogLinks": [
                "https://en.wikipedia.org/wiki/U.S._Route_395_in_California"
            ],
            "longitude": "-117.6353382"
        },
        "mission bay ca": {
            "latitude": "37.7707742",
            "closest_to": "mammoth lakes",
            "address": "Mission Bay, SF, California, 94158, United States of America",
            "locType": "neighbourhood",
            "blogLinks": [
                "http://www.california-blog.com/"
            ],
            "longitude": "-122.3911711"
        },
        "ravendale": {
            "latitude": "40.7985091",
            "closest_to": "mammoth lakes",
            "address": "Ravendale, Lassen County, California, United States of America",
            "locType": "hamlet",
            "blogLinks": [
                "https://en.wikipedia.org/wiki/U.S._Route_395_in_California"
            ],
            "longitude": "-120.3652224"
        },
        "canada": {
            "latitude": "33.7298842",
            "closest_to": "temecula",
            "address": "La Canada, Lower Peters Canyon, Irvine, Orange County, California, 92602, United States of America",
            "locType": "residential",
            "blogLinks": [
                "https://en.wikipedia.org/wiki/U.S._Route_395_in_California"
            ],
            "longitude": "-117.7641381"
        },
        "san bernardino": {
            "latitude": "34.1083449",
            "closest_to": "temecula",
            "address": "San Bernardino, San Bernardino County, California, United States of America",
            "locType": "city",
            "blogLinks": [
                "https://en.wikipedia.org/wiki/U.S._Route_395_in_California"
            ],
            "longitude": "-117.2897651"
        },
        "trona": {
            "latitude": "35.7627322",
            "closest_to": "temecula",
            "address": "Trona, San Bernardino County, California, United States of America",
            "locType": "hamlet",
            "blogLinks": [
                "http://californiathroughmylens.com/highway-395-roadtrip"
            ],
            "longitude": "-117.3728345"
        },
        "us": {
            "latitude": "36.7014631",
            "closest_to": "temecula",
            "address": "California, United States of America",
            "locType": "administrative",
            "blogLinks": [
                "http://www.california-blog.com/",
                "http://www.mammothmountain.com/winter/plan-a-vacation/plan-a-vacation/getting-here",
                "http://californiathroughmylens.com/highway-395-roadtrip",
                "http://www.myyosemitepark.com/maps/driving-itineraries/los-angeles-to-4-national-parks/",
                "https://www.tripadvisor.com/ShowTopic-g60791-i711-k4669227-Road_trip_from_LA_to_Mammoth_Lakes-Mammoth_Lakes_California.html",
                "https://en.wikipedia.org/wiki/U.S._Route_395_in_California"
            ],
            "longitude": "-118.7559973"
        },
        "donner pass": {
            "latitude": "39.32283405",
            "closest_to": "mammoth lakes",
            "address": "Donner Lake, Donner Pass Road, Truckee, Nevada County, California, 96161, United States of America",
            "locType": "water",
            "blogLinks": [
                "https://en.wikipedia.org/wiki/U.S._Route_395_in_California"
            ],
            "longitude": "-120.269194802709"
        },
        "tioga road": {
            "latitude": "37.6577485",
            "closest_to": "mammoth lakes",
            "address": "Tioga Road, Hayward, Alameda County, California, 94544, United States of America",
            "locType": "residential",
            "blogLinks": [
                "http://www.myyosemitepark.com/maps/driving-itineraries/los-angeles-to-4-national-parks/",
                "http://www.travelyosemite.com/discover/getting-here/"
            ],
            "longitude": "-122.0821668"
        },
        "nevada state route 8a": {
            "latitude": "40.659622",
            "closest_to": "mammoth lakes",
            "address": "California, Imlay, Pershing County, Nevada, 89418, United States of America",
            "locType": "residential",
            "blogLinks": [
                "https://en.wikipedia.org/wiki/U.S._Route_395_in_California"
            ],
            "longitude": "-118.1493199"
        },
        "aurora": {
            "latitude": "37.65993",
            "closest_to": "mammoth lakes",
            "address": "Aurora, Stanislaus County, California, United States of America",
            "locType": "hamlet",
            "blogLinks": [
                "https://en.wikipedia.org/wiki/U.S._Route_395_in_California"
            ],
            "longitude": "-121.002712"
        },
        "pearsonville": {
            "latitude": "35.8167155",
            "closest_to": "temecula",
            "address": "Pearsonville, Sterling Road, Linnie, Inyo County, California, 93527, United States of America",
            "locType": "administrative",
            "blogLinks": [
                "http://californiathroughmylens.com/highway-395-roadtrip"
            ],
            "longitude": "-117.875045445043"
        },
        "mount whitney": {
            "latitude": "36.5784428",
            "closest_to": "temecula",
            "address": "Mount Whitney, Inyo County, California, United States of America",
            "locType": "peak",
            "blogLinks": [
                "https://en.wikipedia.org/wiki/U.S._Route_395_in_California",
                "http://www.mammothmountain.com/winter/plan-a-vacation/plan-a-vacation/getting-here"
            ],
            "longitude": "-118.2922848"
        },
        "kingsbury grade": {
            "latitude": "40.021386",
            "closest_to": "mammoth lakes",
            "address": "Kingsbury Grade, Twain, Plumas County, California, 95984, United States of America",
            "locType": "residential",
            "blogLinks": [
                "http://www.mammothmountain.com/winter/plan-a-vacation/plan-a-vacation/getting-here"
            ],
            "longitude": "-121.0740149"
        },
        "alabama hills cafe": {
            "latitude": "36.6042366",
            "closest_to": "temecula",
            "address": "Alabama Hills Cafe, West Post Street, Lone Pine, Inyo County, California, 93545, United States of America",
            "locType": "cafe",
            "blogLinks": [
                "http://californiathroughmylens.com/highway-395-roadtrip"
            ],
            "longitude": "-118.063058289756"
        },
        "hesperia": {
            "latitude": "34.4263886",
            "closest_to": "temecula",
            "address": "Hesperia, San Bernardino County, California, United States of America",
            "locType": "city",
            "blogLinks": [
                "http://californiathroughmylens.com/highway-395-roadtrip",
                "https://en.wikipedia.org/wiki/U.S._Route_395_in_California"
            ],
            "longitude": "-117.3008783"
        },
        "springhill": {
            "latitude": "33.9903508",
            "closest_to": "temecula",
            "address": "Springhill Place, Windsor Hills, View Park\u2013Windsor Hills, Los Angeles County, California, 90043, United States of America",
            "locType": "residential",
            "blogLinks": [
                "https://www.tripadvisor.co.uk/ShowTopic-g28926-i29-k6896750-Mammoth_Lakes_to_Morro_Bay-California.html"
            ],
            "longitude": "-118.3523395"
        },
        "convict lake": {
            "latitude": "37.58922555",
            "closest_to": "temecula",
            "address": "Convict Lake, Convict Lake Road, Whitmore Hot Springs, Mono County, California, United States of America",
            "locType": "water",
            "blogLinks": [
                "http://californiathroughmylens.com/highway-395-roadtrip"
            ],
            "longitude": "-118.859156847642"
        },
        "brussels": {
            "latitude": "34.3209021",
            "closest_to": "temecula",
            "address": "Brussels Avenue, Sylmar, LA, Los Angeles County, California, 91342, United States of America",
            "locType": "residential",
            "blogLinks": [
                "http://www.katherinebelarmino.com/2016/10/things-to-do-in-mammoth-in-summer.html"
            ],
            "longitude": "-118.4269567"
        },
        "new york": {
            "latitude": "34.0143928",
            "closest_to": "temecula",
            "address": "New York, West Covina, Los Angeles County, California, 91792, United States of America",
            "locType": "service",
            "blogLinks": [
                "http://www.katherinebelarmino.com/2016/10/things-to-do-in-mammoth-in-summer.html",
                "http://www.sfgate.com/travel/article/Dog-friendly-California-destinations-3723227.php"
            ],
            "longitude": "-117.8984509"
        },
        "north fresno": {
            "latitude": "36.748793",
            "closest_to": "temecula",
            "address": "Fresno, Fresno County, California, United States of America",
            "locType": "city",
            "blogLinks": [
                "https://www.tripadvisor.co.uk/ShowTopic-g28926-i29-k6896750-Mammoth_Lakes_to_Morro_Bay-California.html"
            ],
            "longitude": "-119.714839601149"
        },
        "bridgeport reservoir": {
            "latitude": "38.2954848",
            "closest_to": "mammoth lakes",
            "address": "Bridgeport Reservoir, Lakeside Drive, Bridgeport, Mono County, California, 93517, United States of America",
            "locType": "water",
            "blogLinks": [
                "https://en.wikipedia.org/wiki/U.S._Route_395_in_California"
            ],
            "longitude": "-119.226550374411"
        },
        "noyo harbor beach": {
            "latitude": "39.4293693",
            "closest_to": "mammoth lakes",
            "address": "Noyo Beach, North Harbor Drive, Noyo, Mendocino County, California, 95437, United States of America",
            "locType": "beach",
            "blogLinks": [
                "http://www.sfgate.com/travel/article/Dog-friendly-California-destinations-3723227.php"
            ],
            "longitude": "-123.8090412"
        },
        "bay area": {
            "latitude": "37.7884969",
            "closest_to": "mammoth lakes",
            "address": "San Francisco Bay Area, SF, California, United States of America",
            "locType": "region",
            "blogLinks": [
                "http://www.travelyosemite.com/discover/getting-here/"
            ],
            "longitude": "-122.3558472"
        },
        "mono lake ca": {
            "latitude": "38.0077189",
            "closest_to": "mammoth lakes",
            "address": "Mono Lake, Mono County, California, United States of America",
            "locType": "water",
            "blogLinks": [
                "http://www.california-blog.com/"
            ],
            "longitude": "-118.967033937845"
        },
        "las vegas": {
            "latitude": "36.17310935",
            "closest_to": "temecula",
            "address": "California Hotel, Sky Walk(Connection from Main Street to California, Cultural Corridor, Vegas Heights, Las Vegas, Clark County, Nevada, 89101, United States of America",
            "locType": "hotel",
            "blogLinks": [
                "http://www.travelyosemite.com/discover/getting-here/",
                "https://forum.virtualtourist.com/Las_Vegas-836630-5-10152549/Stop-over-between-Vegas-and-Lake-Tahoe.html"
            ],
            "longitude": "-115.144667930325"
        },
        "united states": {
            "latitude": "36.7014631",
            "closest_to": "temecula",
            "address": "California, United States of America",
            "locType": "administrative",
            "blogLinks": [
                "https://www.tripadvisor.com/Attractions-g60791-Activities-Mammoth_Lakes_California.html",
                "https://en.wikipedia.org/wiki/U.S._Route_395_in_California",
                "https://glampinghub.com/unitedstatesofamerica/pacificwest/california/"
            ],
            "longitude": "-118.7559973"
        },
        "park": {
            "latitude": "37.501904",
            "closest_to": "mammoth lakes",
            "address": "Park, Hornitos, Mariposa County, California, 3004, United States of America",
            "locType": "forest",
            "blogLinks": [
                "http://www.travelyosemite.com/discover/getting-here/"
            ],
            "longitude": "-120.238185637585"
        },
        "napa valley ca": {
            "latitude": "38.2972603",
            "closest_to": "mammoth lakes",
            "address": "California Boulevard, Napa, Napa County, California, 94558, United States of America",
            "locType": "secondary",
            "blogLinks": [
                "http://www.california-blog.com/"
            ],
            "longitude": "-122.3002947"
        },
        "little river inn": {
            "latitude": "39.27254895",
            "closest_to": "mammoth lakes",
            "address": "Little River Inn, Shoreline Highway, Little River, Mendocino County, California, 95456, United States of America",
            "locType": "yes",
            "blogLinks": [
                "http://www.sfgate.com/travel/article/Dog-friendly-California-destinations-3723227.php"
            ],
            "longitude": "-123.789635901164"
        },
        "poway road": {
            "latitude": "32.9466041",
            "closest_to": "temecula",
            "address": "Poway Road, San Diego, San Diego County, California, 92064, United States of America",
            "locType": "primary",
            "blogLinks": [
                "https://en.wikipedia.org/wiki/U.S._Route_395_in_California"
            ],
            "longitude": "-117.0918559"
        },
        "crowley lake": {
            "latitude": "37.564155",
            "closest_to": "temecula",
            "address": "Crowley Lake, Mono County, California, United States of America",
            "locType": "village",
            "blogLinks": [
                "https://en.wikipedia.org/wiki/U.S._Route_395_in_California"
            ],
            "longitude": "-118.7454081"
        },
        "genoa": {
            "latitude": "33.5248627",
            "closest_to": "temecula",
            "address": "Genoa, Laguna Niguel, Orange County, California, 92677, United States of America",
            "locType": "residential",
            "blogLinks": [
                "http://californiathroughmylens.com/highway-395-roadtrip"
            ],
            "longitude": "-117.6929703"
        },
        "nevada hot springs": {
            "latitude": "37.1092831",
            "closest_to": "mammoth lakes",
            "address": "Nevada Cabin, Gilroy Hot Springs Road, Santa Clara County, California, 95020, United States of America",
            "locType": "yes",
            "blogLinks": [
                "https://en.wikipedia.org/wiki/U.S._Route_395_in_California"
            ],
            "longitude": "-121.478983217626"
        },
        "grant grove": {
            "latitude": "36.2554945",
            "closest_to": "temecula",
            "address": "Grant, Inyo County, California, United States of America",
            "locType": "hamlet",
            "blogLinks": [
                "http://www.myyosemitepark.com/maps/driving-itineraries/los-angeles-to-4-national-parks/"
            ],
            "longitude": "-117.9939711"
        },
        "sacramento": {
            "latitude": "38.5815719",
            "closest_to": "mammoth lakes",
            "address": "Sacramento, Sacramento County, California, United States of America",
            "locType": "city",
            "blogLinks": [
                "https://en.wikipedia.org/wiki/U.S._Route_395_in_California",
                "http://www.travelyosemite.com/discover/getting-here/"
            ],
            "longitude": "-121.4943995"
        },
        "mammoth mountain": {
            "latitude": "37.6307692",
            "closest_to": "mammoth lakes",
            "address": "Mammoth Mountain, Mammoth Lakes, Mono County, California, United States of America",
            "locType": "peak",
            "blogLinks": [
                "http://www.katherinebelarmino.com/2016/10/things-to-do-in-mammoth-in-summer.html"
            ],
            "longitude": "-119.0326341"
        },
        "schoolhouse creek": {
            "latitude": "39.415138",
            "closest_to": "mammoth lakes",
            "address": "Schoolhouse Creek, Yuba County, California, United States of America",
            "locType": "stream",
            "blogLinks": [
                "http://www.sfgate.com/travel/article/Dog-friendly-California-destinations-3723227.php"
            ],
            "longitude": "-121.1280509"
        },
        "arch rock": {
            "latitude": "33.5875228",
            "closest_to": "temecula",
            "address": "Arch Rock, Newport Beach, Orange County, California, United States of America",
            "locType": "island",
            "blogLinks": [
                "http://www.travelyosemite.com/discover/getting-here/"
            ],
            "longitude": "-117.8678342"
        },
        "maturango museum": {
            "latitude": "35.629956",
            "closest_to": "temecula",
            "address": "Maturango Museum, East Las Flores Avenue, Ridgecrest, Kern County, California, 93555, United States of America",
            "locType": "museum",
            "blogLinks": [
                "http://www.myyosemitepark.com/maps/driving-itineraries/los-angeles-to-4-national-parks/"
            ],
            "longitude": "-117.6695076"
        },
        "china lake boulevard": {
            "latitude": "35.6507888",
            "closest_to": "temecula",
            "address": "China Lake, Kern County, California, United States of America",
            "locType": "hamlet",
            "blogLinks": [
                "https://en.wikipedia.org/wiki/U.S._Route_395_in_California"
            ],
            "longitude": "-117.6617299"
        },
        "mono county": {
            "latitude": "37.9533927",
            "closest_to": "mammoth lakes",
            "address": "Mono County, California, United States of America",
            "locType": "administrative",
            "blogLinks": [
                "http://californiathroughmylens.com/highway-395-roadtrip",
                "https://en.wikipedia.org/wiki/U.S._Route_395_in_California"
            ],
            "longitude": "-118.9398757"
        },
        "eastern california": {
            "latitude": "37.37088005",
            "closest_to": "temecula",
            "address": "Eastern Sierra Regional Airport, Airport Road, Bishop Trail Park, Inyo County, California, 93515, United States of America",
            "locType": "aerodrome",
            "blogLinks": [
                "https://en.wikipedia.org/wiki/U.S._Route_395_in_California"
            ],
            "longitude": "-118.365786577889"
        },
        "malibu": {
            "latitude": "33.7932142",
            "closest_to": "temecula",
            "address": "Malibu, Palm Springs, Riverside County, California, 92264, United States of America",
            "locType": "residential",
            "blogLinks": [
                "http://www.myyosemitepark.com/maps/driving-itineraries/los-angeles-to-4-national-parks/"
            ],
            "longitude": "-116.5023561"
        },
        "lake hodges": {
            "latitude": "33.0602755",
            "closest_to": "temecula",
            "address": "Lake Hodges, Avocado Highway, San Diego, San Diego County, California, 92029, United States of America",
            "locType": "water",
            "blogLinks": [
                "https://en.wikipedia.org/wiki/U.S._Route_395_in_California"
            ],
            "longitude": "-117.065107919797"
        },
        "yosemite valley": {
            "latitude": "37.734435",
            "closest_to": "mammoth lakes",
            "address": "Yosemite Valley, Mariposa County, California, United States of America",
            "locType": "town",
            "blogLinks": [
                "http://www.myyosemitepark.com/maps/driving-itineraries/los-angeles-to-4-national-parks/",
                "http://www.travelyosemite.com/discover/getting-here/"
            ],
            "longitude": "-119.6064673"
        },
        "kings canyon national park": {
            "latitude": "36.91527845",
            "closest_to": "temecula",
            "address": "Kings Canyon National Park, Coopet Creek Trail, Fresno County, California, United States of America",
            "locType": "national_park",
            "blogLinks": [
                "http://www.myyosemitepark.com/maps/driving-itineraries/los-angeles-to-4-national-parks/"
            ],
            "longitude": "-118.607655759626"
        },
        "quincy": {
            "latitude": "39.9309945",
            "closest_to": "mammoth lakes",
            "address": "Quincy, Buchanan Street, Quincy, Plumas County, California, 95971, United States of America",
            "locType": "administrative",
            "blogLinks": [
                "https://en.wikipedia.org/wiki/U.S._Route_395_in_California"
            ],
            "longitude": "-120.953573847289"
        },
        "escondido": {
            "latitude": "33.1216751",
            "closest_to": "temecula",
            "address": "Escondido, San Diego County, California, United States of America",
            "locType": "city",
            "blogLinks": [
                "https://en.wikipedia.org/wiki/U.S._Route_395_in_California"
            ],
            "longitude": "-117.0814848"
        },
        "surfrider beach": {
            "latitude": "34.0329862",
            "closest_to": "temecula",
            "address": "Surfrider Beach, Pacific Coast Highway, Malibu, Los Angeles County, California, 90265, United States of America",
            "locType": "beach",
            "blogLinks": [
                "http://www.myyosemitepark.com/maps/driving-itineraries/los-angeles-to-4-national-parks/"
            ],
            "longitude": "-118.6798114"
        },
        "june lake loop road": {
            "latitude": "37.830602",
            "closest_to": "mammoth lakes",
            "address": "June Lake Loop Road, Mono County, California, United States of America",
            "locType": "secondary",
            "blogLinks": [
                "https://en.wikipedia.org/wiki/U.S._Route_395_in_California"
            ],
            "longitude": "-119.1224879"
        },
        "mojave desert ca": {
            "latitude": "35.1456319",
            "closest_to": "temecula",
            "address": "Mojave Desert, Utility Road, San Bernardino County, California, United States of America",
            "locType": "desert",
            "blogLinks": [
                "http://www.california-blog.com/"
            ],
            "longitude": "-115.548963686646"
        },
        "fresno": {
            "latitude": "36.748793",
            "closest_to": "temecula",
            "address": "Fresno, Fresno County, California, United States of America",
            "locType": "city",
            "blogLinks": [
                "http://www.myyosemitepark.com/maps/driving-itineraries/los-angeles-to-4-national-parks/",
                "http://www.travelyosemite.com/discover/getting-here/",
                "https://www.tripadvisor.co.uk/ShowTopic-g28926-i29-k6896750-Mammoth_Lakes_to_Morro_Bay-California.html"
            ],
            "longitude": "-119.714839601149"
        },
        "china lake naws": {
            "latitude": "35.686008",
            "closest_to": "temecula",
            "address": "China Lake Naws (Armitage Field) Airport, Water Road, China Lake, Kern County, California, United States of America",
            "locType": "aerodrome",
            "blogLinks": [
                "https://en.wikipedia.org/wiki/U.S._Route_395_in_California"
            ],
            "longitude": "-117.6908749"
        },
        "little lake": {
            "latitude": "35.9366136",
            "closest_to": "temecula",
            "address": "Little Lake, Inyo County, California, United States of America",
            "locType": "hamlet",
            "blogLinks": [
                "https://en.wikipedia.org/wiki/U.S._Route_395_in_California"
            ],
            "longitude": "-117.9067407"
        },
        "tonopah": {
            "latitude": "34.2346349",
            "closest_to": "temecula",
            "address": "Tonopah Street, Pacoima, LA, Los Angeles County, California, 91331, United States of America",
            "locType": "residential",
            "blogLinks": [
                "https://en.wikipedia.org/wiki/U.S._Route_395_in_California",
                "https://forum.virtualtourist.com/Las_Vegas-836630-5-10152549/Stop-over-between-Vegas-and-Lake-Tahoe.html"
            ],
            "longitude": "-118.409136"
        },
        "america": {
            "latitude": "36.2573198",
            "closest_to": "temecula",
            "address": "America, Kings County, California, 93246, United States of America",
            "locType": "residential",
            "blogLinks": [
                "https://www.tripadvisor.co.uk/ShowTopic-g28926-i29-k6896750-Mammoth_Lakes_to_Morro_Bay-California.html",
                "http://www.sfgate.com/travel/article/Dog-friendly-California-destinations-3723227.php"
            ],
            "longitude": "-119.8948706"
        },
        "johannesburg": {
            "latitude": "35.3732015",
            "closest_to": "temecula",
            "address": "Johannesburg, Johannesburg Avenue, Kern County, California, 93528, United States of America",
            "locType": "administrative",
            "blogLinks": [
                "https://en.wikipedia.org/wiki/U.S._Route_395_in_California"
            ],
            "longitude": "-117.643287330498"
        },
        "gomez": {
            "latitude": "41.0359957",
            "closest_to": "mammoth lakes",
            "address": "Gomez, Shasta County, California, United States of America",
            "locType": "hamlet",
            "blogLinks": [
                "http://www.katherinebelarmino.com/2016/10/things-to-do-in-mammoth-in-summer.html"
            ],
            "longitude": "-121.5163724"
        },
        "state route 168": {
            "latitude": "37.484814",
            "closest_to": "temecula",
            "address": "CA 266, Mono County, California, United States of America",
            "locType": "secondary",
            "blogLinks": [
                "http://www.mammothmountain.com/winter/plan-a-vacation/plan-a-vacation/getting-here"
            ],
            "longitude": "-117.8736649"
        },
        "sierra county": {
            "latitude": "39.5849065",
            "closest_to": "mammoth lakes",
            "address": "Sierra County, California, United States of America",
            "locType": "administrative",
            "blogLinks": [
                "https://en.wikipedia.org/wiki/U.S._Route_395_in_California"
            ],
            "longitude": "-120.530573"
        },
        "carmel valley": {
            "latitude": "36.4796839",
            "closest_to": "mammoth lakes",
            "address": "Carmel Valley, Monterey County, California, United States of America",
            "locType": "village",
            "blogLinks": [
                "http://www.sfgate.com/travel/article/Dog-friendly-California-destinations-3723227.php"
            ],
            "longitude": "-121.7324475"
        },
        "big river": {
            "latitude": "34.137216",
            "closest_to": "temecula",
            "address": "Big River, Sierra Vista Road, Big River, San Bernardino County, California, 92242, United States of America",
            "locType": "administrative",
            "blogLinks": [
                "http://www.sfgate.com/travel/article/Dog-friendly-California-destinations-3723227.php"
            ],
            "longitude": "-114.359500064944"
        },
        "lassen national park": {
            "latitude": "40.49138385",
            "closest_to": "mammoth lakes",
            "address": "Lassen Volcanic National Park, Lassen Peak Highway, Shasta County, California, United States of America",
            "locType": "national_park",
            "blogLinks": [
                "http://californiathroughmylens.com/highway-395-roadtrip"
            ],
            "longitude": "-121.404335848657"
        },
        "merced": {
            "latitude": "37.3029568",
            "closest_to": "mammoth lakes",
            "address": "Merced, Merced County, California, United States of America",
            "locType": "city",
            "blogLinks": [
                "http://www.travelyosemite.com/discover/getting-here/"
            ],
            "longitude": "-120.4843268"
        },
        "furnace creek": {
            "latitude": "36.461604",
            "closest_to": "temecula",
            "address": "Furnace Creek, Inyo County, California, United States of America",
            "locType": "village",
            "blogLinks": [
                "http://californiathroughmylens.com/highway-395-roadtrip"
            ],
            "longitude": "-116.8662032"
        },
        "palos verdes peninsula ca": {
            "latitude": "33.77984925",
            "closest_to": "temecula",
            "address": "Palos Verdes Peninsula High School, Hawthorne Boulevard, Rolling Hills Estates, Los Angeles County, California, 90274, United States of America",
            "locType": "school",
            "blogLinks": [
                "http://www.california-blog.com/"
            ],
            "longitude": "-118.372196730215"
        },
        "tioga pass": {
            "latitude": "37.9109049",
            "closest_to": "mammoth lakes",
            "address": "Tioga Pass, Tuolumne County, California, United States of America",
            "locType": "yes",
            "blogLinks": [
                "http://www.myyosemitepark.com/maps/driving-itineraries/los-angeles-to-4-national-parks/",
                "http://californiathroughmylens.com/highway-395-roadtrip",
                "https://en.wikipedia.org/wiki/U.S._Route_395_in_California"
            ],
            "longitude": "-119.2578542"
        },
        "mariposa": {
            "latitude": "37.570148",
            "closest_to": "mammoth lakes",
            "address": "Mariposa County, California, United States of America",
            "locType": "administrative",
            "blogLinks": [
                "http://www.travelyosemite.com/discover/getting-here/"
            ],
            "longitude": "-119.9036591"
        },
        "garland ranch regional park": {
            "latitude": "36.5119059",
            "closest_to": "mammoth lakes",
            "address": "Garland Ranch Regional Park, River Meadow Road, Carmel Valley Manor, Monterey County, California, United States of America",
            "locType": "park",
            "blogLinks": [
                "http://www.sfgate.com/travel/article/Dog-friendly-California-destinations-3723227.php"
            ],
            "longitude": "-121.8224505"
        },
        "sierra": {
            "latitude": "39.5849065",
            "closest_to": "mammoth lakes",
            "address": "Sierra County, California, United States of America",
            "locType": "administrative",
            "blogLinks": [
                "https://en.wikipedia.org/wiki/U.S._Route_395_in_California"
            ],
            "longitude": "-120.530573"
        },
        "inyo county": {
            "latitude": "36.5595325",
            "closest_to": "temecula",
            "address": "Inyo County, California, United States of America",
            "locType": "administrative",
            "blogLinks": [
                "http://californiathroughmylens.com/highway-395-roadtrip",
                "https://en.wikipedia.org/wiki/U.S._Route_395_in_California"
            ],
            "longitude": "-117.4074711"
        },
        "mojave river": {
            "latitude": "34.810823",
            "closest_to": "temecula",
            "address": "Mojave River, San Bernardino County, California, United States of America",
            "locType": "river",
            "blogLinks": [
                "https://en.wikipedia.org/wiki/U.S._Route_395_in_California"
            ],
            "longitude": "-117.2140293"
        },
        "mackerricher state park": {
            "latitude": "39.4932207",
            "closest_to": "mammoth lakes",
            "address": "MacKerricher State Park, Mackerricher State Park Road, Cleone, Mendocino County, California, 95437, United States of America",
            "locType": "park",
            "blogLinks": [
                "https://www.pinterest.com/pin/239113061442323362/"
            ],
            "longitude": "-123.7936267"
        },
        "oroville": {
            "latitude": "39.5137752",
            "closest_to": "mammoth lakes",
            "address": "Oroville, Butte County, California, United States of America",
            "locType": "city",
            "blogLinks": [
                "https://en.wikipedia.org/wiki/U.S._Route_395_in_California"
            ],
            "longitude": "-121.5563589"
        },
        "huntington beach": {
            "latitude": "33.6783336",
            "closest_to": "temecula",
            "address": "Huntington Beach, Orange County, California, United States of America",
            "locType": "city",
            "blogLinks": [
                "http://www.sfgate.com/travel/article/Dog-friendly-California-destinations-3723227.php"
            ],
            "longitude": "-118.0000165"
        },
        "tamarack lodge": {
            "latitude": "38.439079",
            "closest_to": "mammoth lakes",
            "address": "Tamarack Lodge, CA 4, Cottage Springs, Calaveras County, California, United States of America",
            "locType": "hotel",
            "blogLinks": [
                "http://www.sfgate.com/travel/article/Dog-friendly-California-destinations-3723227.php"
            ],
            "longitude": "-120.076021"
        },
        "john muir trail": {
            "latitude": "37.1465167",
            "closest_to": "temecula",
            "address": "John Muir Trail, Fresno County, California, United States of America",
            "locType": "footway",
            "blogLinks": [
                "http://www.sfgate.com/travel/article/Dog-friendly-California-destinations-3723227.php"
            ],
            "longitude": "-118.6960466"
        },
        "mammoth yosemite airport": {
            "latitude": "37.6248165",
            "closest_to": "temecula",
            "address": "Mammoth Yosemite Airport, US 395, South Landing, Mono County, California, United States of America",
            "locType": "aerodrome",
            "blogLinks": [
                "https://en.wikipedia.org/wiki/U.S._Route_395_in_California"
            ],
            "longitude": "-118.8408336"
        },
        "the june lake": {
            "latitude": "37.7807507",
            "closest_to": "mammoth lakes",
            "address": "June Lake, Mono County, California, United States of America",
            "locType": "town",
            "blogLinks": [
                "https://en.wikipedia.org/wiki/U.S._Route_395_in_California"
            ],
            "longitude": "-119.080801214763"
        },
        "lax": {
            "latitude": "33.94211345",
            "closest_to": "temecula",
            "address": "Los Angeles International Airport, Gate 41, Westchester, Playa del Rey, LA, Los Angeles County, California, 90245, United States of America",
            "locType": "aerodrome",
            "blogLinks": [
                "http://www.mammothmountain.com/winter/plan-a-vacation/plan-a-vacation/getting-here"
            ],
            "longitude": "-118.407057290249"
        },
        "lone pine": {
            "latitude": "36.583176",
            "closest_to": "temecula",
            "address": "Lone Pine, Tuttle Creek Road, Alabama Hills, Inyo County, California, 93545, United States of America",
            "locType": "administrative",
            "blogLinks": [
                "http://californiathroughmylens.com/highway-395-roadtrip",
                "https://www.tripadvisor.com/ShowTopic-g60791-i711-k4669227-Road_trip_from_LA_to_Mammoth_Lakes-Mammoth_Lakes_California.html",
                "https://en.wikipedia.org/wiki/U.S._Route_395_in_California"
            ],
            "longitude": "-118.078359194897"
        },
        "bridgeport": {
            "latitude": "38.255757",
            "closest_to": "mammoth lakes",
            "address": "Bridgeport, Mono County, California, United States of America",
            "locType": "village",
            "blogLinks": [
                "http://californiathroughmylens.com/highway-395-roadtrip",
                "https://en.wikipedia.org/wiki/U.S._Route_395_in_California"
            ],
            "longitude": "-119.2312664"
        },
        "cartago": {
            "latitude": "36.3160425",
            "closest_to": "temecula",
            "address": "Cartago, US 395, Cartago, Inyo County, California, United States of America",
            "locType": "administrative",
            "blogLinks": [
                "https://en.wikipedia.org/wiki/U.S._Route_395_in_California"
            ],
            "longitude": "-118.025758368858"
        },
        "tuolumne meadows": {
            "latitude": "37.8741952",
            "closest_to": "mammoth lakes",
            "address": "Tuolumne Meadows, Tuolumne County, California, United States of America",
            "locType": "suburb",
            "blogLinks": [
                "http://californiathroughmylens.com/highway-395-roadtrip",
                "http://www.travelyosemite.com/discover/getting-here/"
            ],
            "longitude": "-119.3575555"
        },
        "alturas": {
            "latitude": "41.487123",
            "closest_to": "mammoth lakes",
            "address": "Alturas, Modoc County, California, United States of America",
            "locType": "city",
            "blogLinks": [
                "https://en.wikipedia.org/wiki/U.S._Route_395_in_California"
            ],
            "longitude": "-120.542327"
        },
        "pacific": {
            "latitude": "38.7601815",
            "closest_to": "mammoth lakes",
            "address": "Pacific, El Dorado County, California, United States of America",
            "locType": "hamlet",
            "blogLinks": [
                "https://glampinghub.com/unitedstatesofamerica/pacificwest/california/"
            ],
            "longitude": "-120.507146"
        },
        "sonoma": {
            "latitude": "38.5110803",
            "closest_to": "mammoth lakes",
            "address": "Sonoma County, California, United States of America",
            "locType": "administrative",
            "blogLinks": [
                "https://glampinghub.com/unitedstatesofamerica/pacificwest/california/"
            ],
            "longitude": "-122.8473387"
        },
        "coleville": {
            "latitude": "38.5662988",
            "closest_to": "mammoth lakes",
            "address": "Coleville, Mono County, California, United States of America",
            "locType": "hamlet",
            "blogLinks": [
                "https://en.wikipedia.org/wiki/U.S._Route_395_in_California"
            ],
            "longitude": "-119.5071118"
        },
        "baja": {
            "latitude": "33.632613",
            "closest_to": "temecula",
            "address": "Baja, Newport Center, Newport Beach, Orange County, California, 92660, United States of America",
            "locType": "residential",
            "blogLinks": [
                "http://www.katherinebelarmino.com/2016/10/things-to-do-in-mammoth-in-summer.html"
            ],
            "longitude": "-117.8813349"
        },
        "u.s.s.": {
            "latitude": "36.7014631",
            "closest_to": "temecula",
            "address": "California, United States of America",
            "locType": "administrative",
            "blogLinks": [
                "http://www.roadsideamerica.com/location/ca/all"
            ],
            "longitude": "-118.7559973"
        },
        "dc": {
            "latitude": "34.0838451",
            "closest_to": "temecula",
            "address": "Dc Martens, Melrose Avenue, Park La Brea, Hollywood, LA, Los Angeles County, California, 90069, United States of America",
            "locType": "shoes",
            "blogLinks": [
                "https://en.wikipedia.org/wiki/U.S._Route_395_in_California"
            ],
            "longitude": "-118.3558096"
        },
        "california-nevada": {
            "latitude": "36.17310935",
            "closest_to": "temecula",
            "address": "California Hotel, Sky Walk(Connection from Main Street to California, Cultural Corridor, Vegas Heights, Las Vegas, Clark County, Nevada, 89101, United States of America",
            "locType": "hotel",
            "blogLinks": [
                "https://en.wikipedia.org/wiki/U.S._Route_395_in_California"
            ],
            "longitude": "-115.144667930325"
        },
        "south lake tahoe": {
            "latitude": "38.929125",
            "closest_to": "mammoth lakes",
            "address": "South Lake Tahoe, El Dorado County, California, United States of America",
            "locType": "city",
            "blogLinks": [
                "http://www.visitmammoth.com/landing/no-small-adventure/"
            ],
            "longitude": "-119.987846390157"
        },
        "susanville municipal airport": {
            "latitude": "40.3758",
            "closest_to": "mammoth lakes",
            "address": "Susanville Municipal Airport, Waldron Lane, Johnstonville, Lassen County, California, 96130, United States of America",
            "locType": "aerodrome",
            "blogLinks": [
                "https://en.wikipedia.org/wiki/U.S._Route_395_in_California"
            ],
            "longitude": "-120.5729999"
        },
        "dog beach": {
            "latitude": "32.7552506",
            "closest_to": "temecula",
            "address": "Dog Beach, Ocean Beach Bike Path, Pacific Beach, San Diego, San Diego County, California, 92109, United States of America",
            "locType": "beach",
            "blogLinks": [
                "http://www.sfgate.com/travel/article/Dog-friendly-California-destinations-3723227.php"
            ],
            "longitude": "-117.2529536"
        },
        "la quintas": {
            "latitude": "32.980484",
            "closest_to": "temecula",
            "address": "Las Quintas, San Diego County, California, 92130, United States of America",
            "locType": "residential",
            "blogLinks": [
                "http://www.sfgate.com/travel/article/Dog-friendly-California-destinations-3723227.php"
            ],
            "longitude": "-117.1852719"
        },
        "olancha": {
            "latitude": "36.270251",
            "closest_to": "temecula",
            "address": "Olancha, US 395, Grant, Inyo County, California, 93549, United States of America",
            "locType": "administrative",
            "blogLinks": [
                "http://californiathroughmylens.com/highway-395-roadtrip",
                "https://en.wikipedia.org/wiki/U.S._Route_395_in_California"
            ],
            "longitude": "-117.999811836627"
        },
        "rialto": {
            "latitude": "34.1064001",
            "closest_to": "temecula",
            "address": "Rialto, San Bernardino County, California, United States of America",
            "locType": "city",
            "blogLinks": [
                "http://www.roadsideamerica.com/location/ca/all"
            ],
            "longitude": "-117.3703234"
        },
        "northspur": {
            "latitude": "39.4226654",
            "closest_to": "mammoth lakes",
            "address": "Northspur, Mendocino County, California, United States of America",
            "locType": "hamlet",
            "blogLinks": [
                "http://www.sfgate.com/travel/article/Dog-friendly-California-destinations-3723227.php"
            ],
            "longitude": "-123.5519568"
        },
        "goldenwest street": {
            "latitude": "33.7235879",
            "closest_to": "temecula",
            "address": "Goldenwest Street, Huntington Beach, Orange County, California, 92647, United States of America",
            "locType": "secondary",
            "blogLinks": [
                "http://www.sfgate.com/travel/article/Dog-friendly-California-destinations-3723227.php"
            ],
            "longitude": "-118.0066489"
        },
        "northern california": {
            "latitude": "32.7349196",
            "closest_to": "temecula",
            "address": "Northern Frontier, San Diego, San Diego County, California, United States of America",
            "locType": "locality",
            "blogLinks": [
                "http://www.sfgate.com/travel/article/Dog-friendly-California-destinations-3723227.php"
            ],
            "longitude": "-117.1545973"
        },
        "westin monache resort": {
            "latitude": "37.6492545",
            "closest_to": "mammoth lakes",
            "address": "The Westin Monache Resort, Monache Connector, Mammoth Lakes, Mono County, California, 93546, United States of America",
            "locType": "hotel",
            "blogLinks": [
                "http://www.katherinebelarmino.com/2016/10/things-to-do-in-mammoth-in-summer.html",
                "https://glampinghub.com/unitedstatesofamerica/pacificwest/california/"
            ],
            "longitude": "-118.9862589"
        },
        "old town san diego": {
            "latitude": "32.7542167",
            "closest_to": "temecula",
            "address": "Old Town San Diego, San Diego County, California, United States of America",
            "locType": "hamlet",
            "blogLinks": [
                "http://www.california-blog.com/"
            ],
            "longitude": "-117.1969792"
        },
        "chicago": {
            "latitude": "37.7850531",
            "closest_to": "mammoth lakes",
            "address": "Chicago, Woodstock, Alameda, Alameda County, California, 94501, United States of America",
            "locType": "residential",
            "blogLinks": [
                "https://en.wikipedia.org/wiki/U.S._Route_395_in_California"
            ],
            "longitude": "-122.2872948"
        },
        "bakersfield": {
            "latitude": "35.3738712",
            "closest_to": "temecula",
            "address": "Bakersfield, Kern County, California, United States of America",
            "locType": "city",
            "blogLinks": [
                "http://www.myyosemitepark.com/maps/driving-itineraries/los-angeles-to-4-national-parks/",
                "https://www.tripadvisor.co.uk/ShowTopic-g28926-i29-k6896750-Mammoth_Lakes_to_Morro_Bay-California.html"
            ],
            "longitude": "-119.0194638"
        },
        "mount baldy ca": {
            "latitude": "34.2361168",
            "closest_to": "temecula",
            "address": "Mount Baldy, Los Angeles County, California, United States of America",
            "locType": "hamlet",
            "blogLinks": [
                "http://www.california-blog.com/"
            ],
            "longitude": "-117.6600552"
        },
        "eastern sierra": {
            "latitude": "37.37088005",
            "closest_to": "temecula",
            "address": "Eastern Sierra Regional Airport, Airport Road, Bishop Trail Park, Inyo County, California, 93515, United States of America",
            "locType": "aerodrome",
            "blogLinks": [
                "http://www.travelyosemite.com/discover/getting-here/"
            ],
            "longitude": "-118.365786577889"
        },
        "hallelujah junction": {
            "latitude": "39.7753813",
            "closest_to": "mammoth lakes",
            "address": "Hallelujah Junction, Lassen County, California, United States of America",
            "locType": "hamlet",
            "blogLinks": [
                "https://en.wikipedia.org/wiki/U.S._Route_395_in_California"
            ],
            "longitude": "-120.0396755"
        },
        "anderson valley": {
            "latitude": "39.1117345",
            "closest_to": "mammoth lakes",
            "address": "L L Anderson 1030 Dam, Placer County, California, United States of America",
            "locType": "dam",
            "blogLinks": [
                "http://www.sfgate.com/travel/article/Dog-friendly-California-destinations-3723227.php"
            ],
            "longitude": "-120.4700107"
        },
        "panamint valley road": {
            "latitude": "36.257055",
            "closest_to": "temecula",
            "address": "Panamint Valley Road, Inyo County, California, United States of America",
            "locType": "secondary",
            "blogLinks": [
                "http://www.myyosemitepark.com/maps/driving-itineraries/los-angeles-to-4-national-parks/"
            ],
            "longitude": "-117.3555359"
        },
        "napa": {
            "latitude": "38.2971367",
            "closest_to": "mammoth lakes",
            "address": "Napa, Napa County, California, United States of America",
            "locType": "city",
            "blogLinks": [
                "https://glampinghub.com/unitedstatesofamerica/pacificwest/california/"
            ],
            "longitude": "-122.2855292"
        },
        "south": {
            "latitude": "33.3054766",
            "closest_to": "temecula",
            "address": "South, Los Angeles County, California, United States of America",
            "locType": "peak",
            "blogLinks": [
                "http://californiathroughmylens.com/highway-395-roadtrip"
            ],
            "longitude": "-118.3432299"
        },
        "reds meadow valley": {
            "latitude": "37.61979385",
            "closest_to": "mammoth lakes",
            "address": "Reds Meadow Campground, Minaret Summit Road, Madera County, California, United States of America",
            "locType": "camp_site",
            "blogLinks": [
                "http://www.katherinebelarmino.com/2016/10/things-to-do-in-mammoth-in-summer.html"
            ],
            "longitude": "-119.074871416416"
        },
        "antelope valley": {
            "latitude": "34.67743",
            "closest_to": "temecula",
            "address": "Antelope Valley College, West Avenue K, Lancaster, Los Angeles County, California, 93536, United States of America",
            "locType": "college",
            "blogLinks": [
                "https://en.wikipedia.org/wiki/U.S._Route_395_in_California"
            ],
            "longitude": "-118.1865629"
        },
        "morongo valley": {
            "latitude": "34.0537585",
            "closest_to": "temecula",
            "address": "Morongo Valley, Vista Drive, Morongo Valley, San Bernardino County, California, 92256, United States of America",
            "locType": "administrative",
            "blogLinks": [
                "http://www.california-blog.com/"
            ],
            "longitude": "-116.596723958419"
        },
        "alabama hills": {
            "latitude": "36.5677117",
            "closest_to": "temecula",
            "address": "Alabama Hills, Inyo County, California, United States of America",
            "locType": "hamlet",
            "blogLinks": [
                "http://californiathroughmylens.com/highway-395-roadtrip",
                "https://www.tripadvisor.com/ShowTopic-g60791-i711-k4669227-Road_trip_from_LA_to_Mammoth_Lakes-Mammoth_Lakes_California.html"
            ],
            "longitude": "-118.0898096"
        },
        "follow highway us": {
            "latitude": "34.201273",
            "closest_to": "temecula",
            "address": "Follow Your Heart Market & Cafe, Sherman Way, Canoga Park, LA, Los Angeles County, California, 91307, United States of America",
            "locType": "convenience",
            "blogLinks": [
                "http://www.travelyosemite.com/discover/getting-here/"
            ],
            "longitude": "-118.6039044"
        },
        "long valley creek": {
            "latitude": "40.0695365",
            "closest_to": "mammoth lakes",
            "address": "Long Valley Creek, Lassen County, California, United States of America",
            "locType": "stream",
            "blogLinks": [
                "https://en.wikipedia.org/wiki/U.S._Route_395_in_California"
            ],
            "longitude": "-120.1445488"
        },
        "los angeles aqueduct": {
            "latitude": "36.6516297",
            "closest_to": "temecula",
            "address": "Los Angeles Aqueduct, Inyo County, California, United States of America",
            "locType": "canal",
            "blogLinks": [
                "https://en.wikipedia.org/wiki/U.S._Route_395_in_California"
            ],
            "longitude": "-118.0956309"
        },
        "mojave desert": {
            "latitude": "35.1456319",
            "closest_to": "temecula",
            "address": "Mojave Desert, Utility Road, San Bernardino County, California, United States of America",
            "locType": "desert",
            "blogLinks": [
                "https://en.wikipedia.org/wiki/U.S._Route_395_in_California"
            ],
            "longitude": "-115.548963686646"
        },
        "lake loop": {
            "latitude": "33.330509",
            "closest_to": "temecula",
            "address": "The Loop, Pauma Valley, San Diego County, California, 92061, United States of America",
            "locType": "residential",
            "blogLinks": [
                "http://www.katherinebelarmino.com/2016/10/things-to-do-in-mammoth-in-summer.html"
            ],
            "longitude": "-116.9821009"
        },
        "dog city": {
            "latitude": "36.80497705",
            "closest_to": "temecula",
            "address": "Dog Park, West Alamos Avenue, Highway City, Fresno County, California, 93722, United States of America",
            "locType": "park",
            "blogLinks": [
                "http://www.sfgate.com/travel/article/Dog-friendly-California-destinations-3723227.php"
            ],
            "longitude": "-119.868647148633"
        },
        "california state parks": {
            "latitude": "38.4366423",
            "closest_to": "mammoth lakes",
            "address": "California State Parks, Adobe Canyon Road, Kenwood, Sonoma County, California, 95452, United States of America",
            "locType": "theatre",
            "blogLinks": [
                "https://en.wikipedia.org/wiki/U.S._Route_395_in_California"
            ],
            "longitude": "-122.5126798"
        },
        "seapoint avenue": {
            "latitude": "33.6810436",
            "closest_to": "temecula",
            "address": "Seapoint Street, Huntington Beach, Orange County, California, 92648, United States of America",
            "locType": "secondary",
            "blogLinks": [
                "http://www.sfgate.com/travel/article/Dog-friendly-California-destinations-3723227.php"
            ],
            "longitude": "-118.0309938"
        },
        "monterey bay aquarium ca": {
            "latitude": "36.61809095",
            "closest_to": "mammoth lakes",
            "address": "MBA, 886, Cannery Row, Monterey, Monterey County, California, 93940, United States of America",
            "locType": "aquarium",
            "blogLinks": [
                "http://www.california-blog.com/"
            ],
            "longitude": "-121.901680002002"
        },
        "monrovia": {
            "latitude": "34.1483499",
            "closest_to": "temecula",
            "address": "Monrovia, Los Angeles County, California, United States of America",
            "locType": "city",
            "blogLinks": [
                "http://www.california-blog.com/"
            ],
            "longitude": "-118.0014516"
        },
        "pomerado road": {
            "latitude": "33.0204731",
            "closest_to": "temecula",
            "address": "Pomerado Road, San Diego, San Diego County, California, 92064, United States of America",
            "locType": "primary",
            "blogLinks": [
                "https://en.wikipedia.org/wiki/U.S._Route_395_in_California"
            ],
            "longitude": "-117.0610217"
        },
        "newport beach ca": {
            "latitude": "33.6170092",
            "closest_to": "temecula",
            "address": "Newport Beach, Orange County, California, United States of America",
            "locType": "city",
            "blogLinks": [
                "http://www.california-blog.com/"
            ],
            "longitude": "-117.92944"
        },
        "la": {
            "latitude": "36.7014631",
            "closest_to": "temecula",
            "address": "California, United States of America",
            "locType": "administrative",
            "blogLinks": [
                "http://www.sfgate.com/travel/article/Dog-friendly-California-destinations-3723227.php",
                "http://californiathroughmylens.com/highway-395-roadtrip",
                "https://www.tripadvisor.com/ShowTopic-g60791-i711-k4669227-Road_trip_from_LA_to_Mammoth_Lakes-Mammoth_Lakes_California.html",
                "https://forum.virtualtourist.com/Las_Vegas-836630-5-10152549/Stop-over-between-Vegas-and-Lake-Tahoe.html"
            ],
            "longitude": "-118.7559973"
        },
        "curry village": {
            "latitude": "37.7368702",
            "closest_to": "mammoth lakes",
            "address": "Half Dome Village, Yosemite Valley, Mariposa County, California, United States of America",
            "locType": "suburb",
            "blogLinks": [
                "http://californiathroughmylens.com/highway-395-roadtrip"
            ],
            "longitude": "-119.5726635"
        },
        "palm springs air museum ca": {
            "latitude": "33.83250375",
            "closest_to": "temecula",
            "address": "Palm Springs Air Museum, 745, North Gene Autry Trail, Palm Springs, Riverside County, California, 92262, United States of America",
            "locType": "museum",
            "blogLinks": [
                "http://www.california-blog.com/"
            ],
            "longitude": "-116.504677958796"
        },
        "death valley": {
            "latitude": "36.42404725",
            "closest_to": "temecula",
            "address": "Death Valley, Timbisha, Inyo County, California, 92328, United States of America",
            "locType": "desert",
            "blogLinks": [
                "http://californiathroughmylens.com/highway-395-roadtrip",
                "https://en.wikipedia.org/wiki/U.S._Route_395_in_California",
                "http://www.mammothmountain.com/winter/plan-a-vacation/plan-a-vacation/getting-here",
                "https://glampinghub.com/unitedstatesofamerica/pacificwest/california/"
            ],
            "longitude": "-116.914043572057"
        },
        "los angeles": {
            "latitude": "34.0543942",
            "closest_to": "temecula",
            "address": "LA, Los Angeles County, California, United States of America",
            "locType": "city",
            "blogLinks": [
                "http://www.myyosemitepark.com/maps/driving-itineraries/los-angeles-to-4-national-parks/",
                "http://www.katherinebelarmino.com/2016/10/things-to-do-in-mammoth-in-summer.html",
                "https://www.tripadvisor.com/ShowTopic-g60791-i711-k4669227-Road_trip_from_LA_to_Mammoth_Lakes-Mammoth_Lakes_California.html",
                "https://en.wikipedia.org/wiki/U.S._Route_395_in_California",
                "http://www.travelyosemite.com/discover/getting-here/"
            ],
            "longitude": "-118.2439408"
        },
        "massachusetts": {
            "latitude": "32.728622",
            "closest_to": "temecula",
            "address": "Massachusetts Avenue, Lemon Grove, San Diego County, California, 91941:91945, United States of America",
            "locType": "secondary",
            "blogLinks": [
                "https://en.wikipedia.org/wiki/U.S._Route_395_in_California"
            ],
            "longitude": "-117.0430219"
        },
        "highway ca": {
            "latitude": "36.9588561",
            "closest_to": "mammoth lakes",
            "address": "highway, East Cliff Drive, Seabright, Opal Cliffs, Santa Cruz County, California, 95062, United States of America",
            "locType": "stop",
            "blogLinks": [
                "http://www.travelyosemite.com/discover/getting-here/"
            ],
            "longitude": "-121.967498"
        },
        "yellowstone": {
            "latitude": "34.0671665",
            "closest_to": "temecula",
            "address": "Yellowstone Street, University Hills, Boyle Heights, LA, Los Angeles County, California, 90032-3813, United States of America",
            "locType": "residential",
            "blogLinks": [
                "http://californiathroughmylens.com/highway-395-roadtrip"
            ],
            "longitude": "-118.1827535"
        },
        "oregon": {
            "latitude": "33.7123207",
            "closest_to": "temecula",
            "address": "Oregon, Walnut, Irvine, Orange County, California, 92606, United States of America",
            "locType": "residential",
            "blogLinks": [
                "http://californiathroughmylens.com/highway-395-roadtrip",
                "https://en.wikipedia.org/wiki/U.S._Route_395_in_California"
            ],
            "longitude": "-117.7911567"
        },
        "ojai valley": {
            "latitude": "34.4480495",
            "closest_to": "temecula",
            "address": "Ojai, Ventura County, California, United States of America",
            "locType": "city",
            "blogLinks": [
                "http://www.california-blog.com/"
            ],
            "longitude": "-119.2428889"
        },
        "long beach": {
            "latitude": "33.78538945",
            "closest_to": "temecula",
            "address": "Long Beach, Los Angeles County, California, United States of America",
            "locType": "city",
            "blogLinks": [
                "https://en.wikipedia.org/wiki/U.S._Route_395_in_California"
            ],
            "longitude": "-118.158049215311"
        },
        "honey lake": {
            "latitude": "40.23087665",
            "closest_to": "mammoth lakes",
            "address": "Honey Lake, Highway 395, Lassen County, California, United States of America",
            "locType": "water",
            "blogLinks": [
                "https://en.wikipedia.org/wiki/U.S._Route_395_in_California"
            ],
            "longitude": "-120.371659022941"
        },
        "base camp cafe": {
            "latitude": "37.6476194",
            "closest_to": "mammoth lakes",
            "address": "Base Camp Cafe, Frontage Road, Mammoth Lakes, Mono County, California, 93546, United States of America",
            "locType": "restaurant",
            "blogLinks": [
                "http://www.sfgate.com/travel/article/Dog-friendly-California-destinations-3723227.php"
            ],
            "longitude": "-118.9713452"
        },
        "mendocino": {
            "latitude": "39.3176491",
            "closest_to": "mammoth lakes",
            "address": "Mendocino County, California, United States of America",
            "locType": "administrative",
            "blogLinks": [
                "http://www.sfgate.com/travel/article/Dog-friendly-California-destinations-3723227.php"
            ],
            "longitude": "-123.4126398"
        },
        "monterey county": {
            "latitude": "36.2231079",
            "closest_to": "mammoth lakes",
            "address": "Monterey County, California, United States of America",
            "locType": "administrative",
            "blogLinks": [
                "http://www.sfgate.com/travel/article/Dog-friendly-California-destinations-3723227.php"
            ],
            "longitude": "-121.3877427"
        },
        "modoc county": {
            "latitude": "41.5450487",
            "closest_to": "mammoth lakes",
            "address": "Modoc County, California, United States of America",
            "locType": "administrative",
            "blogLinks": [
                "https://en.wikipedia.org/wiki/U.S._Route_395_in_California"
            ],
            "longitude": "-120.7435997"
        },
        "beverly": {
            "latitude": "37.735364",
            "closest_to": "mammoth lakes",
            "address": "Beverly, Ripon, San Joaquin County, California, 95366, United States of America",
            "locType": "residential",
            "blogLinks": [
                "https://www.tripadvisor.com/ShowTopic-g60791-i711-k4669227-Road_trip_from_LA_to_Mammoth_Lakes-Mammoth_Lakes_California.html"
            ],
            "longitude": "-121.1200909"
        },
        "orange county": {
            "latitude": "33.7500378",
            "closest_to": "temecula",
            "address": "Orange County, California, United States of America",
            "locType": "administrative",
            "blogLinks": [
                "http://californiathroughmylens.com/highway-395-roadtrip",
                "http://www.sfgate.com/travel/article/Dog-friendly-California-destinations-3723227.php"
            ],
            "longitude": "-117.870493"
        },
        "beckwourth pass": {
            "latitude": "39.7907307",
            "closest_to": "mammoth lakes",
            "address": "Beckwourth Pass, CA 70, Reno Junction, Lassen County, California, United States of America",
            "locType": "saddle",
            "blogLinks": [
                "https://en.wikipedia.org/wiki/U.S._Route_395_in_California"
            ],
            "longitude": "-120.1083993"
        },
        "forest": {
            "latitude": "39.4912848",
            "closest_to": "mammoth lakes",
            "address": "Forest, Sierra County, California, United States of America",
            "locType": "hamlet",
            "blogLinks": [
                "http://www.sfgate.com/travel/article/Dog-friendly-California-destinations-3723227.php"
            ],
            "longitude": "-120.8530021"
        },
        "north lake ca": {
            "latitude": "37.76958295",
            "closest_to": "mammoth lakes",
            "address": "North Lake, Chain of Lakes Drive East, Sunset District, SF, California, 94122, United States of America",
            "locType": "water",
            "blogLinks": [
                "http://www.california-blog.com/"
            ],
            "longitude": "-122.501983281136"
        },
        "granada hills": {
            "latitude": "34.2647247",
            "closest_to": "temecula",
            "address": "Granada Hills, Northridge, LA, Los Angeles County, California, 91344, United States of America",
            "locType": "neighbourhood",
            "blogLinks": [
                "http://www.roadsideamerica.com/location/ca/all"
            ],
            "longitude": "-118.5231414"
        },
        "topaz lake": {
            "latitude": "38.67535995",
            "closest_to": "mammoth lakes",
            "address": "Topaz Lake, US 395, Mono County, California, 96133, United States of America",
            "locType": "water",
            "blogLinks": [
                "https://en.wikipedia.org/wiki/U.S._Route_395_in_California"
            ],
            "longitude": "-119.539277195995"
        },
        "san pedro": {
            "latitude": "33.7358518",
            "closest_to": "temecula",
            "address": "San Pedro, LA, Los Angeles County, California, United States of America",
            "locType": "suburb",
            "blogLinks": [
                "http://www.myyosemitepark.com/maps/driving-itineraries/los-angeles-to-4-national-parks/"
            ],
            "longitude": "-118.2922933"
        },