{
    "pasadena": {
        "type": "city",
        "osm_id": "3529725",
        "class": "place",
        "importance": 0.7778961552687,
        "lat": "34.1476452",
        "lon": "-118.1444778",
        "boundingbox": [
            "34.1172023",
            "34.251905",
            "-118.1981389",
            "-118.0654789"
        ],
        "display_name": "Pasadena, Los Angeles County, California, United States of America",
        "licence": "Data \u00a9 OpenStreetMap contributors, ODbL 1.0. http://www.openstreetmap.org/copyright",
        "icon": "https://nominatim.openstreetmap.org/images/mapicons/poi_place_city.p.20.png",
        "place_id": "159486921",
        "osm_type": "relation"
    },
    "mentions": {
        "highway 101": {
            "latitude": "32.9967358",
            "closest_to": "pasadena",
            "address": "Highway 101, Solana Beach, San Diego County, California, 92075, United States of America",
            "locType": "primary",
            "blogLinks": [
                "https://blog.trekaroo.com/california-dreaming-road-trip-from-san-francisco-to-los-angeles/",
                "http://traveltips.usatoday.com/fun-things-los-angeles-san-francisco-14664.html",
                "https://www.orbitz.com/blog/2010/02/california-vacation-monterey-paso-robles-wine-country/"
            ],
            "longitude": "-117.2731974"
        },
        "sunset strip": {
            "latitude": "33.7224763",
            "closest_to": "pasadena",
            "address": "Sunset Strip, Happy Wanderer, Indio, Riverside County, California, 92201, United States of America",
            "locType": "living_street",
            "blogLinks": [
                "http://www.travbuddy.com/California-popular-cities-p85"
            ],
            "longitude": "-116.1940439"
        },
        "hawaii": {
            "latitude": "36.8347819",
            "closest_to": "pasadena",
            "address": "Hawaii, Fresno County, California, 93650, United States of America",
            "locType": "service",
            "blogLinks": [
                "https://blog.trekaroo.com/california-dreaming-road-trip-from-san-francisco-to-los-angeles/"
            ],
            "longitude": "-119.7966952"
        },
        "pacific coast highway": {
            "latitude": "33.6595127",
            "closest_to": "pasadena",
            "address": "Pacific Coast Highway, Huntington Beach, Orange County, California, 92648, United States of America",
            "locType": "primary",
            "blogLinks": [
                "http://traveltips.usatoday.com/fun-things-los-angeles-san-francisco-14664.html",
                "http://www.hopper.com/articles/291/five-great-stops-between-los-angeles-and-san-francisco-on-the-pacific-coast-highway"
            ],
            "longitude": "-118.0051687"
        },
        "carmel-by-the-sea": {
            "latitude": "36.5552387",
            "closest_to": "monterey",
            "address": "Carmel-by-the-Sea, Monterey County, California, United States of America",
            "locType": "city",
            "blogLinks": [
                "http://gocalifornia.about.com/od/cacoast/ss/la-to-sf-on-highway-one.htm",
                "http://www.hopper.com/articles/291/five-great-stops-between-los-angeles-and-san-francisco-on-the-pacific-coast-highway"
            ],
            "longitude": "-121.9232878"
        },
        "oakhurst": {
            "latitude": "37.333178",
            "closest_to": "pasadena",
            "address": "Oakhurst, Junction Drive, Oakhurst, Madera County, California, 93644, United States of America",
            "locType": "administrative",
            "blogLinks": [
                "http://www.travbuddy.com/California-popular-cities-p85"
            ],
            "longitude": "-119.657244022836"
        },
        "shell beach": {
            "latitude": "35.1552532",
            "closest_to": "pasadena",
            "address": "Shell Beach, San Luis Obispo County, California, United States of America",
            "locType": "village",
            "blogLinks": [
                "https://www.tripadvisor.com/ShowTopic-g32894-i392-k4315982-Between_monterey_and_los_angeles-Pismo_Beach_San_Luis_Obispo_County_California.html"
            ],
            "longitude": "-120.6723948"
        },
        "mount san gorgonio ca": {
            "latitude": "33.9121294",
            "closest_to": "pasadena",
            "address": "San Gorgonio Avenue, Banning, Riverside County, California, 92220, United States of America",
            "locType": "secondary",
            "blogLinks": [
                "http://www.california-blog.com/"
            ],
            "longitude": "-116.8766731"
        },
        "us hwy 101": {
            "latitude": "32.9967358",
            "closest_to": "pasadena",
            "address": "Highway 101, Solana Beach, San Diego County, California, 92075, United States of America",
            "locType": "primary",
            "blogLinks": [
                "http://gocalifornia.about.com/od/cacoast/ss/la-to-sf-on-highway-one.htm"
            ],
            "longitude": "-117.2731974"
        },
        "mission bay ca": {
            "latitude": "37.7707742",
            "closest_to": "monterey",
            "address": "Mission Bay, SF, California, 94158, United States of America",
            "locType": "neighbourhood",
            "blogLinks": [
                "http://www.california-blog.com/"
            ],
            "longitude": "-122.3911711"
        },
        "san francisco maritime national historical park": {
            "latitude": "37.8065013",
            "closest_to": "monterey",
            "address": "San Francisco Maritime National Historical Park, Beach Street, Russian Hill, SF, California, 94109, United States of America",
            "locType": "park",
            "blogLinks": [
                "https://en.wikipedia.org/wiki/List_of_National_Historic_Landmarks_in_California"
            ],
            "longitude": "-122.4233938"
        },
        "las angeles": {
            "latitude": "33.9995929",
            "closest_to": "pasadena",
            "address": "California, Obregon Street, West Whittier, Rosemead, Los Angeles County, California, 90606, United States of America",
            "locType": "abandoned",
            "blogLinks": [
                "http://www.travbuddy.com/California-popular-cities-p85"
            ],
            "longitude": "-118.0668337"
        },
        "presidio of san diego": {
            "latitude": "32.7551266",
            "closest_to": "pasadena",
            "address": "Presidio Drive, Old Town, San Diego, San Diego County, California, 92103, United States of America",
            "locType": "residential",
            "blogLinks": [
                "https://en.wikipedia.org/wiki/List_of_National_Historic_Landmarks_in_California"
            ],
            "longitude": "-117.1903213"
        },
        "bixby bridge": {
            "latitude": "36.3710197",
            "closest_to": "pasadena",
            "address": "Bixby Creek Bridge, Notleys Landing, Monterey County, California, 93923, United States of America",
            "locType": "primary",
            "blogLinks": [
                "http://gocalifornia.about.com/od/cacoast/ss/la-to-sf-on-highway-one.htm"
            ],
            "longitude": "-121.9017572"
        },
        "moreno valley ca": {
            "latitude": "33.937517",
            "closest_to": "pasadena",
            "address": "Moreno Valley, Riverside County, California, United States of America",
            "locType": "city",
            "blogLinks": [
                "http://www.california-blog.com/"
            ],
            "longitude": "-117.2305943"
        },
        "pacific coast": {
            "latitude": "33.8047323",
            "closest_to": "pasadena",
            "address": "Pacific Coast, Florista Street, Los Alamitos, Orange County, California, 90720, United States of America",
            "locType": "yes",
            "blogLinks": [
                "https://en.wikipedia.org/wiki/List_of_National_Historic_Landmarks_in_California"
            ],
            "longitude": "-118.063517668143"
        },
        "colorado river": {
            "latitude": "33.58648635",
            "closest_to": "pasadena",
            "address": "Colorado River, Riviera Drive, East Blythe, Riverside County, California, 92225, United States of America",
            "locType": "water",
            "blogLinks": [
                "https://en.wikipedia.org/wiki/List_of_National_Historic_Landmarks_in_California"
            ],
            "longitude": "-114.542164096234"
        },
        "great highway": {
            "latitude": "37.7353903",
            "closest_to": "monterey",
            "address": "Great Highway, SF, California, 94132, United States of America",
            "locType": "primary",
            "blogLinks": [
                "http://gocalifornia.about.com/od/cacoast/ss/la-to-sf-on-highway-one.htm"
            ],
            "longitude": "-122.5066727"
        },
        "berkeley": {
            "latitude": "37.8708393",
            "closest_to": "monterey",
            "address": "Berkeley, Alameda County, California, United States of America",
            "locType": "city",
            "blogLinks": [
                "http://www.travbuddy.com/California-popular-cities-p85"
            ],
            "longitude": "-122.2728638"
        },
        "southern california": {
            "latitude": "34.0224149",
            "closest_to": "pasadena",
            "address": "University of Southern California, Watt Way, Saint James Park, LA, Los Angeles County, California, 90089, United States of America",
            "locType": "university",
            "blogLinks": [
                "https://blog.trekaroo.com/california-dreaming-road-trip-from-san-francisco-to-los-angeles/",
                "http://www.hopper.com/articles/291/five-great-stops-between-los-angeles-and-san-francisco-on-the-pacific-coast-highway",
                "http://www.travbuddy.com/California-popular-cities-p85"
            ],
            "longitude": "-118.286343973446"
        },
        "los angeles county": {
            "latitude": "34.3155072",
            "closest_to": "pasadena",
            "address": "Los Angeles County, California, United States of America",
            "locType": "administrative",
            "blogLinks": [
                "http://www.travbuddy.com/California-popular-cities-p85"
            ],
            "longitude": "-118.2096813"
        },
        "indian island": {
            "latitude": "38.940176",
            "closest_to": "monterey",
            "address": "Indian Island, Lake County, California, United States of America",
            "locType": "island",
            "blogLinks": [
                "https://en.wikipedia.org/wiki/List_of_National_Historic_Landmarks_in_California"
            ],
            "longitude": "-122.644707"
        },
        "del monte avenue": {
            "latitude": "32.742191",
            "closest_to": "pasadena",
            "address": "Del Monte Avenue, Old Town, San Diego, San Diego County, California, 92107, United States of America",
            "locType": "residential",
            "blogLinks": [
                "http://gocalifornia.about.com/od/cacoast/ss/la-to-sf-on-highway-one.htm"
            ],
            "longitude": "-117.2497789"
        },
        "old town san diego": {
            "latitude": "32.7542167",
            "closest_to": "pasadena",
            "address": "Old Town San Diego, San Diego County, California, United States of America",
            "locType": "hamlet",
            "blogLinks": [
                "http://www.california-blog.com/"
            ],
            "longitude": "-117.1969792"
        },
        "santa rosa street": {
            "latitude": "34.1399806",
            "closest_to": "pasadena",
            "address": "Santa Rosa Street, San Bernardino, San Bernardino County, California, 92346, United States of America",
            "locType": "residential",
            "blogLinks": [
                "https://www.tripadvisor.com/ShowTopic-g32737-i159-k1369299-Los_Angeles_to_Monterey_via_Hwy_101_1_concerns-Monterey_Monterey_Peninsula_California.html"
            ],
            "longitude": "-117.1945227"
        },
        "barstow": {
            "latitude": "34.8957684",
            "closest_to": "pasadena",
            "address": "Barstow, San Bernardino County, California, United States of America",
            "locType": "administrative",
            "blogLinks": [
                "http://www.travbuddy.com/California-popular-cities-p85"
            ],
            "longitude": "-117.0172076"
        },
        "san luis obispo": {
            "latitude": "35.2827525",
            "closest_to": "pasadena",
            "address": "San Luis Obispo, San Luis Obispo County, California, United States of America",
            "locType": "city",
            "blogLinks": [
                "http://traveltips.usatoday.com/fun-things-los-angeles-san-francisco-14664.html",
                "http://gocalifornia.about.com/od/cacoast/ss/la-to-sf-on-highway-one.htm",
                "https://www.tripadvisor.com/ShowTopic-g32737-i159-k1369299-Los_Angeles_to_Monterey_via_Hwy_101_1_concerns-Monterey_Monterey_Peninsula_California.html"
            ],
            "longitude": "-120.6596155"
        },
        "san jose": {
            "latitude": "37.3361905",
            "closest_to": "monterey",
            "address": "San Jos\u00e9, Santa Clara County, California, United States of America",
            "locType": "city",
            "blogLinks": [
                "http://www.travbuddy.com/California-popular-cities-p85"
            ],
            "longitude": "-121.8905832"
        },
        "king city": {
            "latitude": "36.2127439",
            "closest_to": "pasadena",
            "address": "King City, Monterey County, California, United States of America",
            "locType": "city",
            "blogLinks": [
                "http://traveltips.usatoday.com/fun-things-los-angeles-san-francisco-14664.html"
            ],
            "longitude": "-121.1260286"
        },
        "western united states": {
            "latitude": "36.615671",
            "closest_to": "pasadena",
            "address": "Western, San Benito County, California, United States of America",
            "locType": "residential",
            "blogLinks": [
                "https://blog.trekaroo.com/california-dreaming-road-trip-from-san-francisco-to-los-angeles/"
            ],
            "longitude": "-121.0670829"
        },
        "santa cruz": {
            "latitude": "36.9735903",
            "closest_to": "monterey",
            "address": "Santa Cruz, Santa Cruz County, California, United States of America",
            "locType": "city",
            "blogLinks": [
                "https://www.orbitz.com/blog/2010/02/california-vacation-monterey-paso-robles-wine-country/",
                "http://traveltips.usatoday.com/fun-things-los-angeles-san-francisco-14664.html",
                "http://gocalifornia.about.com/od/cacoast/ss/la-to-sf-on-highway-one.htm",
                "http://www.travbuddy.com/California-popular-cities-p85"
            ],
            "longitude": "-122.0260569"
        },
        "ocean beach": {
            "latitude": "32.7477784",
            "closest_to": "pasadena",
            "address": "Ocean Beach, San Diego, San Diego County, California, United States of America",
            "locType": "region",
            "blogLinks": [
                "http://gocalifornia.about.com/od/cacoast/ss/la-to-sf-on-highway-one.htm"
            ],
            "longitude": "-117.249321"
        },
        "morro rock ca": {
            "latitude": "35.369669",
            "closest_to": "pasadena",
            "address": "Morro Rock, Morro Bay, San Luis Obispo County, California, United States of America",
            "locType": "peak",
            "blogLinks": [
                "http://www.california-blog.com/"
            ],
            "longitude": "-120.8676993"
        },
        "santa cruz beach boardwalk": {
            "latitude": "36.96446855",
            "closest_to": "monterey",
            "address": "Santa Cruz Beach Boardwalk, Boardwalk, Beach & Boardwalk District (Commercial), Seabright, Santa Cruz, Santa Cruz County, California, 1982, United States of America",
            "locType": "attraction",
            "blogLinks": [
                "http://gocalifornia.about.com/od/cacoast/ss/la-to-sf-on-highway-one.htm"
            ],
            "longitude": "-122.016027247326"
        },
        "hollywood": {
            "latitude": "34.1028268",
            "closest_to": "pasadena",
            "address": "Hollywood, LA, Los Angeles County, California, United States of America",
            "locType": "suburb",
            "blogLinks": [
                "https://www.tripadvisor.com/ShowTopic-g32737-i159-k1369299-Los_Angeles_to_Monterey_via_Hwy_101_1_concerns-Monterey_Monterey_Peninsula_California.html"
            ],
            "longitude": "-118.3299898"
        },
        "san francisco bay area of california": {
            "latitude": "37.7884969",
            "closest_to": "monterey",
            "address": "San Francisco Bay Area, SF, California, United States of America",
            "locType": "region",
            "blogLinks": [
                "http://www.travbuddy.com/California-popular-cities-p85"
            ],
            "longitude": "-122.3558472"
        },
        "san francisco bay": {
            "latitude": "37.708264",
            "closest_to": "monterey",
            "address": "San Francisco Bay, Ferry Landing, Alameda, Alameda County, California, 94502, United States of America",
            "locType": "bay",
            "blogLinks": [
                "https://en.wikipedia.org/wiki/List_of_National_Historic_Landmarks_in_California",
                "http://www.travbuddy.com/California-popular-cities-p85"
            ],
            "longitude": "-122.2802469"
        },
        "mount palomar ca": {
            "latitude": "33.1278146",
            "closest_to": "pasadena",
            "address": "California Bank & Trust, 2501, Palomar Airport Road, Carlsbad, San Diego County, California, 92011, United States of America",
            "locType": "bank",
            "blogLinks": [
                "http://www.california-blog.com/"
            ],
            "longitude": "-117.270809764613"
        },
        "alta california": {
            "latitude": "37.3964868",
            "closest_to": "monterey",
            "address": "Alta California, 20421, Geer Avenue, Irwin, Merced County, California, 95324, United States of America",
            "locType": "house",
            "blogLinks": [
                "https://en.wikipedia.org/wiki/List_of_National_Historic_Landmarks_in_California"
            ],
            "longitude": "-120.8579018"
        },
        "pfeiffer state park": {
            "latitude": "36.25330545",
            "closest_to": "pasadena",
            "address": "Pfeiffer Big Sur State Park, Valley View Trail, Big Sur, Monterey County, California, United States of America",
            "locType": "park",
            "blogLinks": [
                "https://www.tripadvisor.com/ShowTopic-g32737-i159-k1369299-Los_Angeles_to_Monterey_via_Hwy_101_1_concerns-Monterey_Monterey_Peninsula_California.html"
            ],
            "longitude": "-121.783295208903"
        },
        "monterey presidio": {
            "latitude": "36.63696865",
            "closest_to": "monterey",
            "address": "Presidio of Monterey, Seaside, Monterey County, California, 93955, United States of America",
            "locType": "military",
            "blogLinks": [
                "https://en.wikipedia.org/wiki/List_of_National_Historic_Landmarks_in_California"
            ],
            "longitude": "-121.823572839106"
        },
        "west": {
            "latitude": "33.9492548",
            "closest_to": "pasadena",
            "address": "W, Service road S, Westchester, Playa del Rey, LA, Los Angeles County, California, 90245, United States of America",
            "locType": "taxiway",
            "blogLinks": [
                "http://southpasadenareview.com/"
            ],
            "longitude": "-118.4108078"
        },
        "south coast plaza": {
            "latitude": "33.6907283",
            "closest_to": "pasadena",
            "address": "South Coast Plaza, Bear Street, Costa Mesa, Orange County, California, 92704, United States of America",
            "locType": "mall",
            "blogLinks": [
                "http://www.travbuddy.com/California-popular-cities-p85"
            ],
            "longitude": "-117.889168433903"
        },
        "oceano": {
            "latitude": "35.0988648",
            "closest_to": "pasadena",
            "address": "Oceano, San Luis Obispo County, California, United States of America",
            "locType": "administrative",
            "blogLinks": [
                "https://www.tripadvisor.com/ShowTopic-g32894-i392-k4315982-Between_monterey_and_los_angeles-Pismo_Beach_San_Luis_Obispo_County_California.html"
            ],
            "longitude": "-120.612393"
        },
        "sunset drive": {
            "latitude": "34.5027471",
            "closest_to": "pasadena",
            "address": "Sunset Drive, Victorville, San Bernardino County, California, 92395, United States of America",
            "locType": "residential",
            "blogLinks": [
                "http://gocalifornia.about.com/od/cacoast/ss/la-to-sf-on-highway-one.htm"
            ],
            "longitude": "-117.2974891"
        },
        "american riviera": {
            "latitude": "38.576666",
            "closest_to": "monterey",
            "address": "American River Drive, La Riviera, Sacramento County, California, 95608, United States of America",
            "locType": "tertiary",
            "blogLinks": [
                "http://www.hopper.com/articles/291/five-great-stops-between-los-angeles-and-san-francisco-on-the-pacific-coast-highway"
            ],
            "longitude": "-121.3602199"
        },
        "pacific grove": {
            "latitude": "36.6174432",
            "closest_to": "monterey",
            "address": "Pacific Grove, Monterey County, California, United States of America",
            "locType": "city",
            "blogLinks": [
                "https://blog.trekaroo.com/california-dreaming-road-trip-from-san-francisco-to-los-angeles/",
                "http://gocalifornia.about.com/od/cacoast/ss/la-to-sf-on-highway-one.htm"
            ],
            "longitude": "-121.9155905"
        },
        "west coast": {
            "latitude": "34.0222263",
            "closest_to": "pasadena",
            "address": "West Coast, Motor Avenue, Palms, LA, Los Angeles County, California, 90034-5702, United States of America",
            "locType": "plumber",
            "blogLinks": [
                "https://www.orbitz.com/blog/2010/02/california-vacation-monterey-paso-robles-wine-country/",
                "https://en.wikipedia.org/wiki/List_of_National_Historic_Landmarks_in_California"
            ],
            "longitude": "-118.4051087"
        },
        "monterey state historic park": {
            "latitude": "36.6037129",
            "closest_to": "monterey",
            "address": "Monterey State Historic Park, Decatur Street, Monterey, Monterey County, California, 93944, United States of America",
            "locType": "park",
            "blogLinks": [
                "https://en.wikipedia.org/wiki/List_of_National_Historic_Landmarks_in_California"
            ],
            "longitude": "-121.89495898106"
        },
        "hermosa beach": {
            "latitude": "33.86428",
            "closest_to": "pasadena",
            "address": "Hermosa Beach, Los Angeles County, California, United States of America",
            "locType": "city",
            "blogLinks": [
                "http://www.travbuddy.com/California-popular-cities-p85"
            ],
            "longitude": "-118.3959099"
        },
        "morro bay ca": {
            "latitude": "35.3658075",
            "closest_to": "pasadena",
            "address": "Morro Bay, San Luis Obispo County, California, United States of America",
            "locType": "city",
            "blogLinks": [
                "http://www.california-blog.com/"
            ],
            "longitude": "-120.8499012"
        },
        "monterey peninsula ca": {
            "latitude": "36.5878734",
            "closest_to": "pasadena",
            "address": "Monterey Regional Airport, Airport Road, Seaside, Del Monte Heights, Monterey County, California, 93940, United States of America",
            "locType": "aerodrome",
            "blogLinks": [
                "http://www.california-blog.com/"
            ],
            "longitude": "-121.843618374407"
        },
        "houston": {
            "latitude": "34.4422871",
            "closest_to": "pasadena",
            "address": "Houston, Plum Canyon, Canyon Country, Los Angeles County, California, 91351, United States of America",
            "locType": "residential",
            "blogLinks": [
                "https://en.wikipedia.org/wiki/List_of_National_Historic_Landmarks_in_California"
            ],
            "longitude": "-118.4777157"
        },
        "el dorado county": {
            "latitude": "38.7574137",
            "closest_to": "monterey",
            "address": "El Dorado County, California, United States of America",
            "locType": "administrative",
            "blogLinks": [
                "http://www.travbuddy.com/California-popular-cities-p85"
            ],
            "longitude": "-120.5276128"
        },
        "national park": {
            "latitude": "37.7488554",
            "closest_to": "pasadena",
            "address": "Yosemite, Village Drive, Yosemite Village, Yosemite Valley, Mariposa County, California, United States of America",
            "locType": "attraction",
            "blogLinks": [
                "https://en.wikipedia.org/wiki/List_of_National_Historic_Landmarks_in_California"
            ],
            "longitude": "-119.5893389"
        },
        "cambria": {
            "latitude": "35.5641381",
            "closest_to": "pasadena",
            "address": "Cambria, San Luis Obispo County, California, United States of America",
            "locType": "administrative",
            "blogLinks": [
                "https://blog.trekaroo.com/california-dreaming-road-trip-from-san-francisco-to-los-angeles/",
                "http://gocalifornia.about.com/od/cacoast/ss/la-to-sf-on-highway-one.htm",
                "https://www.tripadvisor.com/ShowTopic-g32737-i159-k1369299-Los_Angeles_to_Monterey_via_Hwy_101_1_concerns-Monterey_Monterey_Peninsula_California.html"
            ],
            "longitude": "-121.0807467"
        },
        "pfeiffer big sur state park": {
            "latitude": "36.25330545",
            "closest_to": "pasadena",
            "address": "Pfeiffer Big Sur State Park, Valley View Trail, Big Sur, Monterey County, California, United States of America",
            "locType": "park",
            "blogLinks": [
                "https://blog.trekaroo.com/california-dreaming-road-trip-from-san-francisco-to-los-angeles/"
            ],
            "longitude": "-121.783295208903"
        },
        "south pasadena": {
            "latitude": "34.1133062",
            "closest_to": "pasadena",
            "address": "South Pasadena, Los Angeles County, California, United States of America",
            "locType": "administrative",
            "blogLinks": [
                "http://southpasadenareview.com/"
            ],
            "longitude": "-118.147829"
        },
        "vallejo": {
            "latitude": "38.1040864",
            "closest_to": "monterey",
            "address": "Vallejo, Solano County, California, United States of America",
            "locType": "city",
            "blogLinks": [
                "http://www.travbuddy.com/California-popular-cities-p85"
            ],
            "longitude": "-122.2566366"
        },
        "pebble beach ca": {
            "latitude": "36.5664874",
            "closest_to": "monterey",
            "address": "Pebble Beach, Monterey County, California, United States of America",
            "locType": "hamlet",
            "blogLinks": [
                "http://www.california-blog.com/"
            ],
            "longitude": "-121.9466112"
        },
        "san marino": {
            "latitude": "34.1215947",
            "closest_to": "pasadena",
            "address": "San Marino, Los Angeles County, California, United States of America",
            "locType": "town",
            "blogLinks": [
                "http://southpasadenareview.com/"
            ],
            "longitude": "-118.1057393"
        },
        "santa barbara": {
            "latitude": "34.4221319",
            "closest_to": "pasadena",
            "address": "Santa Barbara, Santa Barbara County, California, United States of America",
            "locType": "city",
            "blogLinks": [
                "https://www.tripadvisor.com/ShowTopic-g32737-i159-k1369299-Los_Angeles_to_Monterey_via_Hwy_101_1_concerns-Monterey_Monterey_Peninsula_California.html",
                "https://blog.trekaroo.com/california-dreaming-road-trip-from-san-francisco-to-los-angeles/",
                "https://www.tripadvisor.com/ShowTopic-g32894-i392-k4315982-Between_monterey_and_los_angeles-Pismo_Beach_San_Luis_Obispo_County_California.html",
                "http://traveltips.usatoday.com/fun-things-los-angeles-san-francisco-14664.html",
                "http://www.hopper.com/articles/291/five-great-stops-between-los-angeles-and-san-francisco-on-the-pacific-coast-highway",
                "https://en.wikipedia.org/wiki/List_of_National_Historic_Landmarks_in_California"
            ],
            "longitude": "-119.7026672"
        },
        "san juan capistrano": {
            "latitude": "33.5016932",
            "closest_to": "pasadena",
            "address": "San Juan Capistrano, Orange County, California, United States of America",
            "locType": "city",
            "blogLinks": [
                "http://www.travbuddy.com/California-popular-cities-p85"
            ],
            "longitude": "-117.6625508"
        },
        "monterey peninsula": {
            "latitude": "36.5878734",
            "closest_to": "pasadena",
            "address": "Monterey Regional Airport, Airport Road, Seaside, Del Monte Heights, Monterey County, California, 93940, United States of America",
            "locType": "aerodrome",
            "blogLinks": [
                "https://blog.trekaroo.com/california-dreaming-road-trip-from-san-francisco-to-los-angeles/",
                "https://www.orbitz.com/blog/2010/02/california-vacation-monterey-paso-robles-wine-country/",
                "http://gocalifornia.about.com/od/cacoast/ss/la-to-sf-on-highway-one.htm",
                "https://www.tripadvisor.com/ShowTopic-g32737-i159-k1369299-Los_Angeles_to_Monterey_via_Hwy_101_1_concerns-Monterey_Monterey_Peninsula_California.html"
            ],
            "longitude": "-121.843618374407"
        },
        "ano nuevo": {
            "latitude": "37.142919",
            "closest_to": "monterey",
            "address": "Ano Nuevo Creek, Santa Cruz County, California, United States of America",
            "locType": "stream",
            "blogLinks": [
                "http://gocalifornia.about.com/od/cacoast/ss/la-to-sf-on-highway-one.htm"
            ],
            "longitude": "-122.2862076"
        },
        "peachy canyon": {
            "latitude": "35.623755",
            "closest_to": "pasadena",
            "address": "Peachy Canyon Road, Paso Robles, San Luis Obispo County, California, 93446, United States of America",
            "locType": "residential",
            "blogLinks": [
                "https://www.orbitz.com/blog/2010/02/california-vacation-monterey-paso-robles-wine-country/"
            ],
            "longitude": "-120.7354539"
        },
        "pasadena san francisco": {
            "latitude": "37.70964",
            "closest_to": "monterey",
            "address": "Pasadena Street, SF, California, 94134, United States of America",
            "locType": "residential",
            "blogLinks": [
                "http://www.distancesfrom.com/us/distance-from-Pasadena-to-San-Francisco-via-Monterey/DistanceHistory/34960493.aspx"
            ],
            "longitude": "-122.4185515"
        },
        "monterey regional airport": {
            "latitude": "36.5878734",
            "closest_to": "pasadena",
            "address": "Monterey Regional Airport, Airport Road, Seaside, Del Monte Heights, Monterey County, California, 93940, United States of America",
            "locType": "aerodrome",
            "blogLinks": [
                "https://www.seemonterey.com/"
            ],
            "longitude": "-121.843618374407"
        },
        "pebble beach": {
            "latitude": "36.5664874",
            "closest_to": "monterey",
            "address": "Pebble Beach, Monterey County, California, United States of America",
            "locType": "hamlet",
            "blogLinks": [
                "https://www.orbitz.com/blog/2010/02/california-vacation-monterey-paso-robles-wine-country/",
                "http://gocalifornia.about.com/od/cacoast/ss/la-to-sf-on-highway-one.htm"
            ],
            "longitude": "-121.9466112"
        },
        "san francisco bay area": {
            "latitude": "37.7884969",
            "closest_to": "monterey",
            "address": "San Francisco Bay Area, SF, California, United States of America",
            "locType": "region",
            "blogLinks": [
                "http://www.travbuddy.com/California-popular-cities-p85"
            ],
            "longitude": "-122.3558472"
        },
        "petaluma adobe state historic park": {
            "latitude": "38.2565081",
            "closest_to": "monterey",
            "address": "Petaluma Adobe State Historic Park, Old Adobe Road, Sonoma County, California, 94954, United States of America",
            "locType": "park",
            "blogLinks": [
                "https://en.wikipedia.org/wiki/List_of_National_Historic_Landmarks_in_California"
            ],
            "longitude": "-122.583415289597"
        },
        "brussels": {
            "latitude": "34.3209021",
            "closest_to": "pasadena",
            "address": "Brussels Avenue, Sylmar, LA, Los Angeles County, California, 91342, United States of America",
            "locType": "residential",
            "blogLinks": [
                "http://gocalifornia.about.com/od/cacoast/ss/la-to-sf-on-highway-one.htm"
            ],
            "longitude": "-118.4269567"
        },
        "bay street": {
            "latitude": "33.9748875",
            "closest_to": "pasadena",
            "address": "Bay Street, Del Rey, Playa Vista, LA, Los Angeles County, California, 90094, United States of America",
            "locType": "residential",
            "blogLinks": [
                "http://gocalifornia.about.com/od/cacoast/ss/la-to-sf-on-highway-one.htm"
            ],
            "longitude": "-118.4274015"
        },
        "carlsbad": {
            "latitude": "33.1580933",
            "closest_to": "pasadena",
            "address": "Carlsbad, San Diego County, California, United States of America",
            "locType": "city",
            "blogLinks": [
                "https://blog.trekaroo.com/california-dreaming-road-trip-from-san-francisco-to-los-angeles/",
                "http://www.travbuddy.com/California-popular-cities-p85"
            ],
            "longitude": "-117.3505938"
        },
        "mono lake ca": {
            "latitude": "38.0077189",
            "closest_to": "monterey",
            "address": "Mono Lake, Mono County, California, United States of America",
            "locType": "water",
            "blogLinks": [
                "http://www.california-blog.com/"
            ],
            "longitude": "-118.967033937845"
        },
        "soledad": {
            "latitude": "36.4269452",
            "closest_to": "pasadena",
            "address": "Soledad, Monterey County, California, United States of America",
            "locType": "city",
            "blogLinks": [
                "https://www.orbitz.com/blog/2010/02/california-vacation-monterey-paso-robles-wine-country/",
                "http://traveltips.usatoday.com/fun-things-los-angeles-san-francisco-14664.html",
                "https://www.seemonterey.com/"
            ],
            "longitude": "-121.3272146"
        },
        "napa valley ca": {
            "latitude": "38.2972603",
            "closest_to": "monterey",
            "address": "California Boulevard, Napa, Napa County, California, 94558, United States of America",
            "locType": "secondary",
            "blogLinks": [
                "http://www.california-blog.com/"
            ],
            "longitude": "-122.3002947"
        },
        "santa clara county": {
            "latitude": "37.2333253",
            "closest_to": "monterey",
            "address": "Santa Clara County, California, United States of America",
            "locType": "administrative",
            "blogLinks": [
                "http://www.travbuddy.com/California-popular-cities-p85"
            ],
            "longitude": "-121.6846348"
        },
        "monterey": {
            "latitude": "36.5844165",
            "closest_to": "pasadena",
            "address": "Monterey, Monterey County, California, United States of America",
            "locType": "city",
            "blogLinks": [
                "https://www.tripadvisor.com/Hotels-g32737-Monterey_Monterey_Peninsula_California-Hotels.html",
                "http://gocalifornia.about.com/od/cacoast/ss/la-to-sf-on-highway-one.htm",
                "https://www.tripadvisor.com/ShowTopic-g32737-i159-k1369299-Los_Angeles_to_Monterey_via_Hwy_101_1_concerns-Monterey_Monterey_Peninsula_California.html",
                "http://www.distancesfrom.com/us/distance-from-Pasadena-to-San-Francisco-via-Monterey/DistanceHistory/34960493.aspx",
                "https://www.seemonterey.com/things-to-do/attractions/",
                "https://www.seemonterey.com/",
                "https://www.orbitz.com/blog/2010/02/california-vacation-monterey-paso-robles-wine-country/",
                "http://www.travbuddy.com/California-popular-cities-p85",
                "https://blog.trekaroo.com/california-dreaming-road-trip-from-san-francisco-to-los-angeles/",
                "http://traveltips.usatoday.com/fun-things-los-angeles-san-francisco-14664.html",
                "https://en.wikipedia.org/wiki/List_of_National_Historic_Landmarks_in_California",
                "http://www.hopper.com/articles/291/five-great-stops-between-los-angeles-and-san-francisco-on-the-pacific-coast-highway"
            ],
            "longitude": "-121.866792846206"
        },
        "watsonville": {
            "latitude": "36.9092773",
            "closest_to": "monterey",
            "address": "Watsonville, Santa Cruz County, California, United States of America",
            "locType": "city",
            "blogLinks": [
                "http://gocalifornia.about.com/od/cacoast/ss/la-to-sf-on-highway-one.htm"
            ],
            "longitude": "-121.752907"
        },
        "barnsdall art park": {
            "latitude": "34.1004417",
            "closest_to": "pasadena",
            "address": "Barnsdall Art Park, Upper Road, Little Armenia, LA, Los Angeles County, California, 90027, United States of America",
            "locType": "park",
            "blogLinks": [
                "https://en.wikipedia.org/wiki/List_of_National_Historic_Landmarks_in_California"
            ],
            "longitude": "-118.294214664916"
        },
        "big sur": {
            "latitude": "36.270241",
            "closest_to": "pasadena",
            "address": "Big Sur, Monterey County, California, United States of America",
            "locType": "village",
            "blogLinks": [
                "http://gocalifornia.about.com/od/cacoast/ss/la-to-sf-on-highway-one.htm"
            ],
            "longitude": "-121.8074544"
        },
        "sacramento": {
            "latitude": "38.5815719",
            "closest_to": "monterey",
            "address": "Sacramento, Sacramento County, California, United States of America",
            "locType": "city",
            "blogLinks": [
                "https://en.wikipedia.org/wiki/List_of_National_Historic_Landmarks_in_California"
            ],
            "longitude": "-121.4943995"
        },
        "pasadena": {
            "latitude": "34.1476452",
            "closest_to": "pasadena",
            "address": "Pasadena, Los Angeles County, California, United States of America",
            "locType": "city",
            "blogLinks": [
                "http://www.distancesfrom.com/us/distance-from-Pasadena-to-San-Francisco-via-Monterey/DistanceHistory/34960493.aspx"
            ],
            "longitude": "-118.1444778"
        },
        "san simeon": {
            "latitude": "35.6438587",
            "closest_to": "pasadena",
            "address": "San Simeon, San Luis Obispo County, California, United States of America",
            "locType": "hamlet",
            "blogLinks": [
                "http://traveltips.usatoday.com/fun-things-los-angeles-san-francisco-14664.html",
                "http://gocalifornia.about.com/od/cacoast/ss/la-to-sf-on-highway-one.htm",
                "http://www.hopper.com/articles/291/five-great-stops-between-los-angeles-and-san-francisco-on-the-pacific-coast-highway",
                "http://www.travbuddy.com/California-popular-cities-p85"
            ],
            "longitude": "-121.1907532"
        },
        "montecito": {
            "latitude": "34.4364435",
            "closest_to": "pasadena",
            "address": "Montecito, East Valley Lane, Montecito, Santa Barbara County, California, 93108, United States of America",
            "locType": "administrative",
            "blogLinks": [
                "https://www.tripadvisor.com/ShowTopic-g32737-i159-k1369299-Los_Angeles_to_Monterey_via_Hwy_101_1_concerns-Monterey_Monterey_Peninsula_California.html"
            ],
            "longitude": "-119.622205630583"
        },
        "castroville": {
            "latitude": "36.7657904",
            "closest_to": "monterey",
            "address": "Castroville, Monterey County, California, United States of America",
            "locType": "administrative",
            "blogLinks": [
                "http://gocalifornia.about.com/od/cacoast/ss/la-to-sf-on-highway-one.htm"
            ],
            "longitude": "-121.7580049"
        },
        "pismo beach": {
            "latitude": "35.1427533",
            "closest_to": "pasadena",
            "address": "Pismo Beach, San Luis Obispo County, California, United States of America",
            "locType": "city",
            "blogLinks": [
                "https://www.tripadvisor.com/ShowTopic-g32737-i159-k1369299-Los_Angeles_to_Monterey_via_Hwy_101_1_concerns-Monterey_Monterey_Peninsula_California.html",
                "http://www.distancesfrom.com/us/distance-from-Pasadena-to-San-Francisco-via-Monterey/DistanceHistory/34960493.aspx",
                "https://blog.trekaroo.com/california-dreaming-road-trip-from-san-francisco-to-los-angeles/",
                "https://www.tripadvisor.com/ShowTopic-g32894-i392-k4315982-Between_monterey_and_los_angeles-Pismo_Beach_San_Luis_Obispo_County_California.html",
                "http://traveltips.usatoday.com/fun-things-los-angeles-san-francisco-14664.html",
                "http://www.hopper.com/articles/291/five-great-stops-between-los-angeles-and-san-francisco-on-the-pacific-coast-highway"
            ],
            "longitude": "-120.6412826"
        },
        "chase palm park": {
            "latitude": "34.41527625",
            "closest_to": "pasadena",
            "address": "Chase Palm Park, East Cabrillo Boulevard, Santa Barbara, Santa Barbara County, California, 93103, United States of America",
            "locType": "park",
            "blogLinks": [
                "https://blog.trekaroo.com/california-dreaming-road-trip-from-san-francisco-to-los-angeles/"
            ],
            "longitude": "-119.679267670006"
        },
        "marina": {
            "latitude": "36.6900785",
            "closest_to": "monterey",
            "address": "Marina, Monterey County, California, United States of America",
            "locType": "city",
            "blogLinks": [
                "http://gocalifornia.about.com/od/cacoast/ss/la-to-sf-on-highway-one.htm",
                "https://www.seemonterey.com/"
            ],
            "longitude": "-121.800639730262"
        },
        "san juan bautista historic district": {
            "latitude": "36.8460482",
            "closest_to": "pasadena",
            "address": "San Juan Bautista Historic District, Polk Street, San Juan Bautista, San Benito County, California, 95045-0000, United States of America",
            "locType": "park",
            "blogLinks": [
                "https://en.wikipedia.org/wiki/List_of_National_Historic_Landmarks_in_California"
            ],
            "longitude": "-121.5366084"
        },
        "mojave desert ca": {
            "latitude": "35.1456319",
            "closest_to": "pasadena",
            "address": "Mojave Desert, Utility Road, San Bernardino County, California, United States of America",
            "locType": "desert",
            "blogLinks": [
                "http://www.california-blog.com/"
            ],
            "longitude": "-115.548963686646"
        },
        "calistoga": {
            "latitude": "38.582615",
            "closest_to": "monterey",
            "address": "Calistoga, Napa County, California, United States of America",
            "locType": "city",
            "blogLinks": [
                "http://www.travbuddy.com/California-popular-cities-p85"
            ],
            "longitude": "-122.583325948608"
        },
        "pearl harbor": {
            "latitude": "37.788139",
            "closest_to": "monterey",
            "address": "Pearl Harbor Road, Woodstock, Alameda, Alameda County, California, 94501, United States of America",
            "locType": "residential",
            "blogLinks": [
                "https://en.wikipedia.org/wiki/List_of_National_Historic_Landmarks_in_California"
            ],
            "longitude": "-122.2948823"
        },
        "los osos": {
            "latitude": "35.3107214",
            "closest_to": "pasadena",
            "address": "Los Osos, San Luis Obispo County, California, United States of America",
            "locType": "village",
            "blogLinks": [
                "https://www.tripadvisor.com/ShowTopic-g32894-i392-k4315982-Between_monterey_and_los_angeles-Pismo_Beach_San_Luis_Obispo_County_California.html"
            ],
            "longitude": "-120.8323486"
        },
        "long beach": {
            "latitude": "33.78538945",
            "closest_to": "pasadena",
            "address": "Long Beach, Los Angeles County, California, United States of America",
            "locType": "city",
            "blogLinks": [
                "http://www.travbuddy.com/California-popular-cities-p85"
            ],
            "longitude": "-118.158049215311"
        },
        "californio": {
            "latitude": "37.5744603",
            "closest_to": "monterey",
            "address": "Californio, Centerville District, Fremont, Alameda County, California, 94587, United States of America",
            "locType": "path",
            "blogLinks": [
                "https://en.wikipedia.org/wiki/List_of_National_Historic_Landmarks_in_California"
            ],
            "longitude": "-122.0116874"
        },
        "california-nevada": {
            "latitude": "36.17310935",
            "closest_to": "pasadena",
            "address": "California Hotel, Sky Walk(Connection from Main Street to California, Cultural Corridor, Vegas Heights, Las Vegas, Clark County, Nevada, 89101, United States of America",
            "locType": "hotel",
            "blogLinks": [
                "http://www.travbuddy.com/California-popular-cities-p85"
            ],
            "longitude": "-115.144667930325"
        },
        "madonna inn": {
            "latitude": "35.2673282",
            "closest_to": "pasadena",
            "address": "Madonna Inn, 100, Madonna Road, San Luis Obispo, San Luis Obispo County, California, 93405, United States of America",
            "locType": "hotel",
            "blogLinks": [
                "http://traveltips.usatoday.com/fun-things-los-angeles-san-francisco-14664.html"
            ],
            "longitude": "-120.674725246222"
        },
        "mendocino woodlands state park": {
            "latitude": "39.32969965",
            "closest_to": "monterey",
            "address": "Mendocino Woodlands State Park, Woodlands Area Trail, Mendocino County, California, United States of America",
            "locType": "park",
            "blogLinks": [
                "https://en.wikipedia.org/wiki/List_of_National_Historic_Landmarks_in_California"
            ],
            "longitude": "-123.700470782358"
        },
        "santa barbara mission": {
            "latitude": "34.4662154",
            "closest_to": "pasadena",
            "address": "KDB-FM (Santa Barbara), Gibraltar Road, Santa Barbara County, California, 93103, United States of America",
            "locType": "tower",
            "blogLinks": [
                "http://traveltips.usatoday.com/fun-things-los-angeles-san-francisco-14664.html"
            ],
            "longitude": "-119.6779962"
        },
        "san diego county": {
            "latitude": "32.9637838",
            "closest_to": "pasadena",
            "address": "San Diego County, California, United States of America",
            "locType": "administrative",
            "blogLinks": [
                "http://www.travbuddy.com/California-popular-cities-p85"
            ],
            "longitude": "-116.7706276"
        },
        "pebble beach golf course": {
            "latitude": "36.56413635",
            "closest_to": "monterey",
            "address": "Pebble Beach Golf Course, Live Oak Meadow Road, Del Monte Forest, Monterey County, California, 93953, United States of America",
            "locType": "golf_course",
            "blogLinks": [
                "http://traveltips.usatoday.com/fun-things-los-angeles-san-francisco-14664.html"
            ],
            "longitude": "-121.937790801787"
        },
        "union square": {
            "latitude": "37.78794125",
            "closest_to": "monterey",
            "address": "Union Square, Post Street, Chinatown, SF, California, 94115, United States of America",
            "locType": "park",
            "blogLinks": [
                "http://gocalifornia.about.com/od/cacoast/ss/la-to-sf-on-highway-one.htm"
            ],
            "longitude": "-122.407502671706"
        },
        "muscle beach": {
            "latitude": "33.985446",
            "closest_to": "pasadena",
            "address": "Muscle Beach, Ocean Front Walk, Venice, LA, Los Angeles County, California, 90292, United States of America",
            "locType": "sports_centre",
            "blogLinks": [
                "http://www.travbuddy.com/California-popular-cities-p85"
            ],
            "longitude": "-118.4725820875"
        },
        "pacifica": {
            "latitude": "37.6138253",
            "closest_to": "monterey",
            "address": "Pacifica, San Mateo County, California, United States of America",
            "locType": "city",
            "blogLinks": [
                "http://gocalifornia.about.com/od/cacoast/ss/la-to-sf-on-highway-one.htm"
            ],
            "longitude": "-122.4869193"
        },
        "arkansas": {
            "latitude": "37.7867077",
            "closest_to": "monterey",
            "address": "Arkansas, Woodstock, Alameda, Alameda County, California, 94501, United States of America",
            "locType": "residential",
            "blogLinks": [
                "https://en.wikipedia.org/wiki/List_of_National_Historic_Landmarks_in_California"
            ],
            "longitude": "-122.2896721"
        },
        "golden gate bridge": {
            "latitude": "37.8302809",
            "closest_to": "monterey",
            "address": "Golden Gate Bridge, Waldo, Marin County, California, 94965, United States of America",
            "locType": "motorway",
            "blogLinks": [
                "http://gocalifornia.about.com/od/cacoast/ss/la-to-sf-on-highway-one.htm"
            ],
            "longitude": "-122.4798473"
        },
        "palos verdes peninsula ca": {
            "latitude": "33.77984925",
            "closest_to": "pasadena",
            "address": "Palos Verdes Peninsula High School, Hawthorne Boulevard, Rolling Hills Estates, Los Angeles County, California, 90274, United States of America",
            "locType": "school",
            "blogLinks": [
                "http://www.california-blog.com/"
            ],
            "longitude": "-118.372196730215"
        },
        "usa": {
            "latitude": "36.7014631",
            "closest_to": "pasadena",
            "address": "California, United States of America",
            "locType": "administrative",
            "blogLinks": [
                "http://www.distancesfrom.com/us/distance-from-Pasadena-to-San-Francisco-via-Monterey/DistanceHistory/34960493.aspx"
            ],
            "longitude": "-118.7559973"
        },
        "arizona": {
            "latitude": "34.4631398",
            "closest_to": "pasadena",
            "address": "Arizona, San Bernardino County, California, 92371, United States of America",
            "locType": "track",
            "blogLinks": [
                "https://en.wikipedia.org/wiki/List_of_National_Historic_Landmarks_in_California"
            ],
            "longitude": "-117.5060679"
        },
        "sharp park road": {
            "latitude": "37.637371",
            "closest_to": "monterey",
            "address": "Sharp Park Road, San Bruno, San Mateo County, California, 94044, United States of America",
            "locType": "secondary",
            "blogLinks": [
                "http://gocalifornia.about.com/od/cacoast/ss/la-to-sf-on-highway-one.htm"
            ],
            "longitude": "-122.4666153"
        },
        "mount san jacinto ca": {
            "latitude": "33.7839084",
            "closest_to": "pasadena",
            "address": "San Jacinto, Riverside County, California, United States of America",
            "locType": "city",
            "blogLinks": [
                "http://www.california-blog.com/"
            ],
            "longitude": "-116.9586349"
        },
        "monterey bay": {
            "latitude": "36.7999557",
            "closest_to": "monterey",
            "address": "Monterey Bay, Monterey County, California, United States of America",
            "locType": "bay",
            "blogLinks": [
                "https://blog.trekaroo.com/california-dreaming-road-trip-from-san-francisco-to-los-angeles/",
                "https://www.orbitz.com/blog/2010/02/california-vacation-monterey-paso-robles-wine-country/",
                "http://www.hopper.com/articles/291/five-great-stops-between-los-angeles-and-san-francisco-on-the-pacific-coast-highway",
                "http://www.travbuddy.com/California-popular-cities-p85"
            ],
            "longitude": "-121.9010667"
        },
        "huntington beach": {
            "latitude": "33.6783336",
            "closest_to": "pasadena",
            "address": "Huntington Beach, Orange County, California, United States of America",
            "locType": "city",
            "blogLinks": [
                "http://www.travbuddy.com/California-popular-cities-p85"
            ],
            "longitude": "-118.0000165"
        },
        "solano county": {
            "latitude": "38.2218938",
            "closest_to": "monterey",
            "address": "Solano County, California, United States of America",
            "locType": "administrative",
            "blogLinks": [
                "http://www.travbuddy.com/California-popular-cities-p85"
            ],
            "longitude": "-121.9163554"
        },
        "santa cruz mountains.the": {
            "latitude": "37.2188403",
            "closest_to": "monterey",
            "address": "Santa Cruz Mountains, Santa Clara County, California, United States of America",
            "locType": "mountain_range",
            "blogLinks": [
                "http://www.travbuddy.com/California-popular-cities-p85"
            ],
            "longitude": "-122.0712855"
        },
        "venice": {
            "latitude": "33.995044",
            "closest_to": "pasadena",
            "address": "Venice, LA, Los Angeles County, California, United States of America",
            "locType": "suburb",
            "blogLinks": [
                "http://www.travbuddy.com/California-popular-cities-p85"
            ],
            "longitude": "-118.4668874"
        },
        "us": {
            "latitude": "36.7014631",
            "closest_to": "pasadena",
            "address": "California, United States of America",
            "locType": "administrative",
            "blogLinks": [
                "https://www.orbitz.com/blog/2010/02/california-vacation-monterey-paso-robles-wine-country/",
                "https://en.wikipedia.org/wiki/List_of_National_Historic_Landmarks_in_California",
                "http://gocalifornia.about.com/od/cacoast/ss/la-to-sf-on-highway-one.htm",
                "http://www.travbuddy.com/California-popular-cities-p85"
            ],
            "longitude": "-118.7559973"
        },
        "san simeon state park": {
            "latitude": "35.594453",
            "closest_to": "pasadena",
            "address": "San Simeon State Park, Leimert, San Luis Obispo County, California, 93428, United States of America",
            "locType": "residential",
            "blogLinks": [
                "http://gocalifornia.about.com/od/cacoast/ss/la-to-sf-on-highway-one.htm"
            ],
            "longitude": "-121.1231409"
        },
        "oxnard": {
            "latitude": "34.1976308",
            "closest_to": "pasadena",
            "address": "Oxnard, Ventura County, California, United States of America",
            "locType": "city",
            "blogLinks": [
                "http://traveltips.usatoday.com/fun-things-los-angeles-san-francisco-14664.html",
                "https://www.tripadvisor.com/ShowTopic-g32737-i159-k1369299-Los_Angeles_to_Monterey_via_Hwy_101_1_concerns-Monterey_Monterey_Peninsula_California.html"
            ],
            "longitude": "-119.1803817"
        },
        "santa monica": {
            "latitude": "34.0195598",
            "closest_to": "pasadena",
            "address": "Santa Monica, Los Angeles County, California, United States of America",
            "locType": "city",
            "blogLinks": [
                "http://www.travbuddy.com/California-popular-cities-p85"
            ],
            "longitude": "-118.4869738"
        },
        "cal poly": {
            "latitude": "35.30440705",
            "closest_to": "pasadena",
            "address": "Cal Poly, Mount Bishop Road, Paso Robles, San Luis Obispo County, California, 93407, United States of America",
            "locType": "parking",
            "blogLinks": [
                "http://gocalifornia.about.com/od/cacoast/ss/la-to-sf-on-highway-one.htm"
            ],
            "longitude": "-120.670126285884"
        },
        "solvang": {
            "latitude": "34.5958572",
            "closest_to": "pasadena",
            "address": "Solvang, Santa Barbara County, California, United States of America",
            "locType": "city",
            "blogLinks": [
                "https://blog.trekaroo.com/california-dreaming-road-trip-from-san-francisco-to-los-angeles/",
                "https://www.tripadvisor.com/ShowTopic-g32737-i159-k1369299-Los_Angeles_to_Monterey_via_Hwy_101_1_concerns-Monterey_Monterey_Peninsula_California.html"
            ],
            "longitude": "-120.1390893"
        },
        "pacific": {
            "latitude": "38.7601815",
            "closest_to": "monterey",
            "address": "Pacific, El Dorado County, California, United States of America",
            "locType": "hamlet",
            "blogLinks": [
                "https://en.wikipedia.org/wiki/List_of_National_Historic_Landmarks_in_California",
                "http://www.travbuddy.com/California-popular-cities-p85"
            ],
            "longitude": "-120.507146"
        },
        "los angeles": {
            "latitude": "34.0543942",
            "closest_to": "pasadena",
            "address": "LA, Los Angeles County, California, United States of America",
            "locType": "city",
            "blogLinks": [
                "http://gocalifornia.about.com/od/cacoast/ss/la-to-sf-on-highway-one.htm",
                "https://www.tripadvisor.com/ShowTopic-g32737-i159-k1369299-Los_Angeles_to_Monterey_via_Hwy_101_1_concerns-Monterey_Monterey_Peninsula_California.html",
                "http://www.travbuddy.com/California-popular-cities-p85",
                "https://blog.trekaroo.com/california-dreaming-road-trip-from-san-francisco-to-los-angeles/",
                "http://traveltips.usatoday.com/fun-things-los-angeles-san-francisco-14664.html",
                "https://en.wikipedia.org/wiki/List_of_National_Historic_Landmarks_in_California",
                "http://www.hopper.com/articles/291/five-great-stops-between-los-angeles-and-san-francisco-on-the-pacific-coast-highway"
            ],
            "longitude": "-118.2439408"
        },
        "san luis obispo county": {
            "latitude": "35.3540209",
            "closest_to": "pasadena",
            "address": "San Luis Obispo County, California, United States of America",
            "locType": "administrative",
            "blogLinks": [
                "http://www.hopper.com/articles/291/five-great-stops-between-los-angeles-and-san-francisco-on-the-pacific-coast-highway",
                "http://www.travbuddy.com/California-popular-cities-p85"
            ],
            "longitude": "-120.3757162"
        },
        "newport beach": {
            "latitude": "33.6170092",
            "closest_to": "pasadena",
            "address": "Newport Beach, Orange County, California, United States of America",
            "locType": "city",
            "blogLinks": [
                "http://www.travbuddy.com/California-popular-cities-p85"
            ],
            "longitude": "-117.92944"
        },
        "central coast": {
            "latitude": "35.3611193",
            "closest_to": "pasadena",
            "address": "Central Coast Street, Bakersfield, Kern County, California, 93314, United States of America",
            "locType": "residential",
            "blogLinks": [
                "https://blog.trekaroo.com/california-dreaming-road-trip-from-san-francisco-to-los-angeles/",
                "https://www.seemonterey.com/",
                "https://www.tripadvisor.com/ShowTopic-g32737-i159-k1369299-Los_Angeles_to_Monterey_via_Hwy_101_1_concerns-Monterey_Monterey_Peninsula_California.html"
            ],
            "longitude": "-119.1665989"
        },
        "ojai valley": {
            "latitude": "34.4480495",
            "closest_to": "pasadena",
            "address": "Ojai, Ventura County, California, United States of America",
            "locType": "city",
            "blogLinks": [
                "http://www.california-blog.com/"
            ],
            "longitude": "-119.2428889"
        },
        "south lake tahoe": {
            "latitude": "38.929125",
            "closest_to": "monterey",
            "address": "South Lake Tahoe, El Dorado County, California, United States of America",
            "locType": "city",
            "blogLinks": [
                "http://www.travbuddy.com/California-popular-cities-p85"
            ],
            "longitude": "-119.987846390157"
        },
        "monterey bay aquarium": {
            "latitude": "36.61809095",
            "closest_to": "monterey",
            "address": "MBA, 886, Cannery Row, Monterey, Monterey County, California, 93940, United States of America",
            "locType": "aquarium",
            "blogLinks": [
                "http://gocalifornia.about.com/od/cacoast/ss/la-to-sf-on-highway-one.htm",
                "http://www.california-blog.com/",
                "https://www.orbitz.com/blog/2010/02/california-vacation-monterey-paso-robles-wine-country/",
                "https://blog.trekaroo.com/california-dreaming-road-trip-from-san-francisco-to-los-angeles/",
                "http://traveltips.usatoday.com/fun-things-los-angeles-san-francisco-14664.html",
                "http://www.hopper.com/articles/291/five-great-stops-between-los-angeles-and-san-francisco-on-the-pacific-coast-highway"
            ],
            "longitude": "-121.901680002002"
        },
        "calico": {
            "latitude": "35.6327332",
            "closest_to": "pasadena",
            "address": "Calico, Kern County, California, United States of America",
            "locType": "locality",
            "blogLinks": [
                "http://www.travbuddy.com/California-popular-cities-p85"
            ],
            "longitude": "-119.206496"
        },
        "hearst castle": {
            "latitude": "35.6853689",
            "closest_to": "pasadena",
            "address": "Hearst Castle, 750, Hearst Castle Road, San Simeon, San Luis Obispo County, California, 93452, United States of America",
            "locType": "museum",
            "blogLinks": [
                "http://traveltips.usatoday.com/fun-things-los-angeles-san-francisco-14664.html",
                "http://gocalifornia.about.com/od/cacoast/ss/la-to-sf-on-highway-one.htm"
            ],
            "longitude": "-121.167587299509"
        },
        "camarillo": {
            "latitude": "34.2163939",
            "closest_to": "pasadena",
            "address": "Camarillo, Ventura County, California, United States of America",
            "locType": "city",
            "blogLinks": [
                "https://www.tripadvisor.com/ShowTopic-g32737-i159-k1369299-Los_Angeles_to_Monterey_via_Hwy_101_1_concerns-Monterey_Monterey_Peninsula_California.html"
            ],
            "longitude": "-119.0376023"
        },
        "sonoma pueblo": {
            "latitude": "34.2897295",
            "closest_to": "pasadena",
            "address": "Sonoma Way, Porter Ranch, LA, Los Angeles County, California, 91326, United States of America",
            "locType": "residential",
            "blogLinks": [
                "https://en.wikipedia.org/wiki/List_of_National_Historic_Landmarks_in_California"
            ],
            "longitude": "-118.5531494"
        },
        "mount baldy ca": {
            "latitude": "34.2361168",
            "closest_to": "pasadena",
            "address": "Mount Baldy, Los Angeles County, California, United States of America",
            "locType": "hamlet",
            "blogLinks": [
                "http://www.california-blog.com/"
            ],
            "longitude": "-117.6600552"
        },
        "sand city": {
            "latitude": "36.6171819",
            "closest_to": "monterey",
            "address": "Sand City, Monterey County, California, United States of America",
            "locType": "city",
            "blogLinks": [
                "https://www.seemonterey.com/"
            ],
            "longitude": "-121.8482854"
        },
        "presidio park": {
            "latitude": "32.7572722",
            "closest_to": "pasadena",
            "address": "Presidio Park, Cosoy Way, Old Town, San Diego, San Diego County, California, 92103, United States of America",
            "locType": "park",
            "blogLinks": [
                "https://en.wikipedia.org/wiki/List_of_National_Historic_Landmarks_in_California"
            ],
            "longitude": "-117.1944791"
        },
        "gilroy": {
            "latitude": "37.0065078",
            "closest_to": "monterey",
            "address": "Gilroy, Santa Clara County, California, United States of America",
            "locType": "city",
            "blogLinks": [
                "http://traveltips.usatoday.com/fun-things-los-angeles-san-francisco-14664.html"
            ],
            "longitude": "-121.5631722"
        },
        "buellton": {
            "latitude": "34.6134727",
            "closest_to": "pasadena",
            "address": "Buellton, Santa Barbara County, California, United States of America",
            "locType": "city",
            "blogLinks": [
                "http://traveltips.usatoday.com/fun-things-los-angeles-san-francisco-14664.html"
            ],
            "longitude": "-120.1936691"
        },
        "sweeney ridge": {
            "latitude": "37.60933145",
            "closest_to": "monterey",
            "address": "Sweeney Ridge (GGNRA), Sweeney Ridge Trail, Pacifica, San Mateo County, California, 94044, United States of America",
            "locType": "park",
            "blogLinks": [
                "https://en.wikipedia.org/wiki/List_of_National_Historic_Landmarks_in_California"
            ],
            "longitude": "-122.463853421956"
        },
        "del rey oaks": {
            "latitude": "36.5932934",
            "closest_to": "pasadena",
            "address": "Del Rey Oaks, Monterey County, California, United States of America",
            "locType": "city",
            "blogLinks": [
                "https://www.seemonterey.com/"
            ],
            "longitude": "-121.8349514"
        },
        "los alamos": {
            "latitude": "34.7379311",
            "closest_to": "pasadena",
            "address": "Los Alamos, Bell Street, Los Alamos, Santa Barbara County, California, 93455, United States of America",
            "locType": "administrative",
            "blogLinks": [
                "https://www.tripadvisor.com/ShowTopic-g32737-i159-k1369299-Los_Angeles_to_Monterey_via_Hwy_101_1_concerns-Monterey_Monterey_Peninsula_California.html"
            ],
            "longitude": "-120.26591036241"
        },
        "morongo valley": {
            "latitude": "34.0537585",
            "closest_to": "pasadena",
            "address": "Morongo Valley, Vista Drive, Morongo Valley, San Bernardino County, California, 92256, United States of America",
            "locType": "administrative",
            "blogLinks": [
                "http://www.california-blog.com/"
            ],
            "longitude": "-116.596723958419"
        },
        "pinnacles national park": {
            "latitude": "36.4862515",
            "closest_to": "pasadena",
            "address": "Pinnacles National Park, Pinnacles Road, San Benito County, California, United States of America",
            "locType": "national_park",
            "blogLinks": [
                "https://www.seemonterey.com/"
            ],
            "longitude": "-121.171140689253"
        },
        "lake cachuma": {
            "latitude": "34.576971",
            "closest_to": "pasadena",
            "address": "Lake Cachuma, San Marcos Pass Road, Santa Barbara County, California, 93105, United States of America",
            "locType": "water",
            "blogLinks": [
                "https://www.tripadvisor.com/ShowTopic-g32737-i159-k1369299-Los_Angeles_to_Monterey_via_Hwy_101_1_concerns-Monterey_Monterey_Peninsula_California.html"
            ],
            "longitude": "-119.945991073866"
        },
        "grover beach": {
            "latitude": "35.1209452",
            "closest_to": "pasadena",
            "address": "Grover Beach, San Luis Obispo County, California, United States of America",
            "locType": "city",
            "blogLinks": [
                "https://www.tripadvisor.com/ShowTopic-g32894-i392-k4315982-Between_monterey_and_los_angeles-Pismo_Beach_San_Luis_Obispo_County_California.html"
            ],
            "longitude": "-120.6218375"
        },
        "pescadero": {
            "latitude": "37.2516018",
            "closest_to": "monterey",
            "address": "Pescadero, San Mateo County, California, United States of America",
            "locType": "village",
            "blogLinks": [
                "http://gocalifornia.about.com/od/cacoast/ss/la-to-sf-on-highway-one.htm"
            ],
            "longitude": "-122.3821926"
        },
        "moonstone beach": {
            "latitude": "35.573855",
            "closest_to": "pasadena",
            "address": "Moonstone Beach, Cambria, San Luis Obispo County, California, CA 93428, United States of America",
            "locType": "path",
            "blogLinks": [
                "http://gocalifornia.about.com/od/cacoast/ss/la-to-sf-on-highway-one.htm"
            ],
            "longitude": "-121.1128747"
        },
        "ventura": {
            "latitude": "34.4458248",
            "closest_to": "pasadena",
            "address": "Ventura County, California, United States of America",
            "locType": "administrative",
            "blogLinks": [
                "http://traveltips.usatoday.com/fun-things-los-angeles-san-francisco-14664.html",
                "https://www.tripadvisor.com/ShowTopic-g32737-i159-k1369299-Los_Angeles_to_Monterey_via_Hwy_101_1_concerns-Monterey_Monterey_Peninsula_California.html"
            ],
            "longitude": "-119.0779358"
        },
        "los angeles maritime museum": {
            "latitude": "33.7389075",
            "closest_to": "pasadena",
            "address": "Los Angeles Maritime Museum, Sampson Way, San Pedro, LA, Los Angeles County, California, 90731, United States of America",
            "locType": "museum",
            "blogLinks": [
                "https://en.wikipedia.org/wiki/List_of_National_Historic_Landmarks_in_California"
            ],
            "longitude": "-118.278682"
        },
        "mojave desert": {
            "latitude": "35.1456319",
            "closest_to": "pasadena",
            "address": "Mojave Desert, Utility Road, San Bernardino County, California, United States of America",
            "locType": "desert",
            "blogLinks": [
                "https://en.wikipedia.org/wiki/List_of_National_Historic_Landmarks_in_California"
            ],
            "longitude": "-115.548963686646"
        },
        "gorda": {
            "latitude": "35.8761475",
            "closest_to": "pasadena",
            "address": "Gorda, Monterey County, California, 93920, United States of America",
            "locType": "hamlet",
            "blogLinks": [
                "http://gocalifornia.about.com/od/cacoast/ss/la-to-sf-on-highway-one.htm"
            ],
            "longitude": "-121.4461212"
        },
        "forest ave.": {
            "latitude": "34.0473414",
            "closest_to": "pasadena",
            "address": "Forest Avenue, Brooklyn Heights, Boyle Heights, LA, Los Angeles County, California, 90033, United States of America",
            "locType": "residential",
            "blogLinks": [
                "http://gocalifornia.about.com/od/cacoast/ss/la-to-sf-on-highway-one.htm"
            ],
            "longitude": "-118.1999635"
        },
        "santa maria": {
            "latitude": "34.9531295",
            "closest_to": "pasadena",
            "address": "Santa Maria, Santa Barbara County, California, United States of America",
            "locType": "city",
            "blogLinks": [
                "https://www.tripadvisor.com/ShowTopic-g32737-i159-k1369299-Los_Angeles_to_Monterey_via_Hwy_101_1_concerns-Monterey_Monterey_Peninsula_California.html"
            ],
            "longitude": "-120.4358576"
        },
        "elkhorn slough": {
            "latitude": "36.8147351",
            "closest_to": "monterey",
            "address": "Elkhorn Slough, Monterey County, California, United States of America",
            "locType": "stream",
            "blogLinks": [
                "http://gocalifornia.about.com/od/cacoast/ss/la-to-sf-on-highway-one.htm"
            ],
            "longitude": "-121.7504063"
        },
        "monrovia": {
            "latitude": "34.1483499",
            "closest_to": "pasadena",
            "address": "Monrovia, Los Angeles County, California, United States of America",
            "locType": "city",
            "blogLinks": [
                "http://www.california-blog.com/"
            ],
            "longitude": "-118.0014516"
        },
        "west hollywood": {
            "latitude": "34.0900091",
            "closest_to": "pasadena",
            "address": "West Hollywood, Los Angeles County, California, United States of America",
            "locType": "city",
            "blogLinks": [
                "http://www.travbuddy.com/California-popular-cities-p85"
            ],
            "longitude": "-118.3617442"
        },
        "montana de oro state park": {
            "latitude": "35.2714109",
            "closest_to": "pasadena",
            "address": "Montana de Oro State Park, San Luis Obispo County, California, United States of America",
            "locType": "track",
            "blogLinks": [
                "https://blog.trekaroo.com/california-dreaming-road-trip-from-san-francisco-to-los-angeles/"
            ],
            "longitude": "-120.8888312"
        },
        "newport beach ca": {
            "latitude": "33.6170092",
            "closest_to": "pasadena",
            "address": "Newport Beach, Orange County, California, United States of America",
            "locType": "city",
            "blogLinks": [
                "http://www.california-blog.com/"
            ],
            "longitude": "-117.92944"
        },
        "la": {
            "latitude": "36.7014631",
            "closest_to": "pasadena",
            "address": "California, United States of America",
            "locType": "administrative",
            "blogLinks": [
                "http://gocalifornia.about.com/od/cacoast/ss/la-to-sf-on-highway-one.htm",
                "https://www.tripadvisor.com/ShowTopic-g32737-i159-k1369299-Los_Angeles_to_Monterey_via_Hwy_101_1_concerns-Monterey_Monterey_Peninsula_California.html",
                "http://www.california-blog.com/",
                "https://www.seemonterey.com/",
                "https://blog.trekaroo.com/california-dreaming-road-trip-from-san-francisco-to-los-angeles/",
                "https://www.tripadvisor.com/ShowTopic-g32894-i392-k4315982-Between_monterey_and_los_angeles-Pismo_Beach_San_Luis_Obispo_County_California.html",
                "http://traveltips.usatoday.com/fun-things-los-angeles-san-francisco-14664.html"
            ],
            "longitude": "-118.7559973"
        },
        "palm springs air museum ca": {
            "latitude": "33.83250375",
            "closest_to": "pasadena",
            "address": "Palm Springs Air Museum, 745, North Gene Autry Trail, Palm Springs, Riverside County, California, 92262, United States of America",
            "locType": "museum",
            "blogLinks": [
                "http://www.california-blog.com/"
            ],
            "longitude": "-116.504677958796"
        },
        "sandusky county": {
            "latitude": "39.4898877",
            "closest_to": "monterey",
            "address": "Sandusky Creek, Sierra County, California, United States of America",
            "locType": "stream",
            "blogLinks": [
                "http://www.travbuddy.com/California-popular-cities-p85"
            ],
            "longitude": "-120.8679252"
        },
        "massachusetts": {
            "latitude": "32.728622",
            "closest_to": "pasadena",
            "address": "Massachusetts Avenue, Lemon Grove, San Diego County, California, 91941:91945, United States of America",
            "locType": "secondary",
            "blogLinks": [
                "http://southpasadenareview.com/"
            ],
            "longitude": "-117.0430219"
        },
        "pescadero beach": {
            "latitude": "37.2621666",
            "closest_to": "monterey",
            "address": "Pescadero Beach, South Cabrillo Highway, Pescadero, San Mateo County, California, United States of America",
            "locType": "beach",
            "blogLinks": [
                "http://gocalifornia.about.com/od/cacoast/ss/la-to-sf-on-highway-one.htm"
            ],
            "longitude": "-122.4133084"
        },
        "oregon": {
            "latitude": "33.7123207",
            "closest_to": "pasadena",
            "address": "Oregon, Walnut, Irvine, Orange County, California, 92606, United States of America",
            "locType": "residential",
            "blogLinks": [
                "https://en.wikipedia.org/wiki/List_of_National_Historic_Landmarks_in_California"
            ],
            "longitude": "-117.7911567"
        },
        "northern california": {
            "latitude": "32.7349196",
            "closest_to": "pasadena",
            "address": "Northern Frontier, San Diego, San Diego County, California, United States of America",
            "locType": "locality",
            "blogLinks": [
                "https://blog.trekaroo.com/california-dreaming-road-trip-from-san-francisco-to-los-angeles/",
                "https://en.wikipedia.org/wiki/List_of_National_Historic_Landmarks_in_California",
                "https://www.orbitz.com/blog/2010/02/california-vacation-monterey-paso-robles-wine-country/"
            ],
            "longitude": "-117.1545973"
        },
        "norway": {
            "latitude": "38.8246295",
            "closest_to": "monterey",
            "address": "Little Norway, El Dorado County, California, United States of America",
            "locType": "hamlet",
            "blogLinks": [
                "https://blog.trekaroo.com/california-dreaming-road-trip-from-san-francisco-to-los-angeles/"
            ],
            "longitude": "-120.0365723"
        },
        "half moon bay": {
            "latitude": "37.4635519",
            "closest_to": "monterey",
            "address": "Half Moon Bay, San Mateo County, California, United States of America",
            "locType": "city",
            "blogLinks": [
                "http://gocalifornia.about.com/od/cacoast/ss/la-to-sf-on-highway-one.htm"
            ],
            "longitude": "-122.4285861"
        },
        "nashua rd.": {
            "latitude": "37.993246",
            "closest_to": "monterey",
            "address": "Nashua Road, Knox Hill, Rancho Sonora Estates, Tuolumne County, California, 95370, United States of America",
            "locType": "residential",
            "blogLinks": [
                "http://gocalifornia.about.com/od/cacoast/ss/la-to-sf-on-highway-one.htm"
            ],
            "longitude": "-120.4060179"
        },
        "lighthouse field state beach": {
            "latitude": "36.95173995",
            "closest_to": "monterey",
            "address": "Lighthouse Field State Beach, West Cliff Multipurpose Cycleway, Westside, Santa Cruz, Santa Cruz County, California, 95061, United States of America",
            "locType": "national_park",
            "blogLinks": [
                "http://gocalifornia.about.com/od/cacoast/ss/la-to-sf-on-highway-one.htm"
            ],
            "longitude": "-122.029146273176"
        },
        "mendocino": {
            "latitude": "39.3176491",
            "closest_to": "monterey",
            "address": "Mendocino County, California, United States of America",
            "locType": "administrative",
            "blogLinks": [
                "https://www.orbitz.com/blog/2010/02/california-vacation-monterey-paso-robles-wine-country/"
            ],
            "longitude": "-123.4126398"
        },
        "monterey county": {
            "latitude": "36.2231079",
            "closest_to": "pasadena",
            "address": "Monterey County, California, United States of America",
            "locType": "administrative",
            "blogLinks": [
                "https://www.tripadvisor.com/Hotels-g32737-Monterey_Monterey_Peninsula_California-Hotels.html",
                "http://gocalifornia.about.com/od/cacoast/ss/la-to-sf-on-highway-one.htm",
                "https://www.seemonterey.com/"
            ],
            "longitude": "-121.3877427"
        },
        "japan": {
            "latitude": "34.0833889",
            "closest_to": "pasadena",
            "address": "Japan LA, Melrose Avenue, Park La Brea, Hollywood, LA, Los Angeles County, California, 90069, United States of America",
            "locType": "clothes",
            "blogLinks": [
                "https://en.wikipedia.org/wiki/List_of_National_Historic_Landmarks_in_California"
            ],
            "longitude": "-118.3494693"
        },
        "w. cliff drive": {
            "latitude": "36.9619839",
            "closest_to": "monterey",
            "address": "West Cliff Drive, Beach & Boardwalk District (Commercial), Downtown, Santa Cruz, Santa Cruz County, California, 95060, United States of America",
            "locType": "secondary",
            "blogLinks": [
                "http://gocalifornia.about.com/od/cacoast/ss/la-to-sf-on-highway-one.htm"
            ],
            "longitude": "-122.025308"
        },
        "orange county": {
            "latitude": "33.7500378",
            "closest_to": "pasadena",
            "address": "Orange County, California, United States of America",
            "locType": "administrative",
            "blogLinks": [
                "http://www.travbuddy.com/California-popular-cities-p85"
            ],
            "longitude": "-117.870493"
        },
        "north lake ca": {
            "latitude": "37.76958295",
            "closest_to": "monterey",
            "address": "North Lake, Chain of Lakes Drive East, Sunset District, SF, California, 94122, United States of America",
            "locType": "water",
            "blogLinks": [
                "http://www.california-blog.com/"
            ],
            "longitude": "-122.501983281136"
        },
        "angel island state park": {
            "latitude": "37.8629304",
            "closest_to": "monterey",
            "address": "Angel Island State Park, Perimeter Road, Tiburon, Marin County, California, 94920, United States of America",
            "locType": "park",
            "blogLinks": [
                "https://en.wikipedia.org/wiki/List_of_National_Historic_Landmarks_in_California"
            ],
            "longitude": "-122.430363458873"
        },
        "julia pfeiffer burns state park": {
            "latitude": "36.16998345",
            "closest_to": "pasadena",
            "address": "Julia Pfeiffer Burns State Park, Ewoldsen trail, Monterey County, California, United States of America",
            "locType": "park",
            "blogLinks": [
                "http://gocalifornia.about.com/od/cacoast/ss/la-to-sf-on-highway-one.htm"
            ],
            "longitude": "-121.665388254615"
        },
        "oakland": {
            "latitude": "37.8044557",
            "closest_to": "monterey",
            "address": "Oakland, Alameda County, California, United States of America",
            "locType": "city",
            "blogLinks": [
                "https://en.wikipedia.org/wiki/List_of_National_Historic_Landmarks_in_California",
                "http://www.travbuddy.com/California-popular-cities-p85"
            ],
            "longitude": "-122.2713562"
        },
        "san diego": {
            "latitude": "32.7174209",
            "closest_to": "pasadena",
            "address": "San Diego, San Diego County, California, United States of America",
            "locType": "city",
            "blogLinks": [
                "http://traveltips.usatoday.com/fun-things-los-angeles-san-francisco-14664.html",
                "https://en.wikipedia.org/wiki/List_of_National_Historic_Landmarks_in_California",
                "http://www.travbuddy.com/California-popular-cities-p85"
            ],
            "longitude": "-117.1627713"
        },
        "old sacramento state historic park": {
            "latitude": "38.5891509",
            "closest_to": "monterey",
            "address": "Old Sacramento State Historic Park, Sacramento River Parkway, Sacramento, Sacramento County, California, 95814, United States of America",
            "locType": "park",
            "blogLinks": [
                "https://en.wikipedia.org/wiki/List_of_National_Historic_Landmarks_in_California"
            ],
            "longitude": "-121.505013401895"
        },
        "america": {
            "latitude": "36.2573198",
            "closest_to": "pasadena",
            "address": "America, Kings County, California, 93246, United States of America",
            "locType": "residential",
            "blogLinks": [
                "http://traveltips.usatoday.com/fun-things-los-angeles-san-francisco-14664.html"
            ],
            "longitude": "-119.8948706"
        },
        "california coast": {
            "latitude": "32.7586361",
            "closest_to": "pasadena",
            "address": "California Coast Credit Union, Park Boulevard, Hillcrest, San Diego, San Diego County, California, 92116, United States of America",
            "locType": "bank",
            "blogLinks": [
                "https://blog.trekaroo.com/california-dreaming-road-trip-from-san-francisco-to-los-angeles/",
                "http://traveltips.usatoday.com/fun-things-los-angeles-san-francisco-14664.html"
            ],
            "longitude": "-117.1464145"
        },
        "northeast": {
            "latitude": "39.364929",
            "closest_to": "monterey",
            "address": "North East, Mendocino County, California, United States of America",
            "locType": "residential",
            "blogLinks": [
                "http://southpasadenareview.com/"
            ],
            "longitude": "-123.2002249"
        },
        "sonoma": {
            "latitude": "38.5110803",
            "closest_to": "monterey",
            "address": "Sonoma County, California, United States of America",
            "locType": "administrative",
            "blogLinks": [
                "https://www.orbitz.com/blog/2010/02/california-vacation-monterey-paso-robles-wine-country/"
            ],
            "longitude": "-122.8473387"
        },
        "avila beach": {
            "latitude": "35.1799752",
            "closest_to": "pasadena",
            "address": "Avila Beach, San Luis Obispo County, California, United States of America",
            "locType": "hamlet",
            "blogLinks": [
                "https://www.tripadvisor.com/ShowTopic-g32894-i392-k4315982-Between_monterey_and_los_angeles-Pismo_Beach_San_Luis_Obispo_County_California.html"
            ],
            "longitude": "-120.7318417"
        },
        "geary blvd": {
            "latitude": "37.7818883",
            "closest_to": "monterey",
            "address": "Geary Boulevard, Jordan Park, SF, California, 94118, United States of America",
            "locType": "primary",
            "blogLinks": [
                "http://gocalifornia.about.com/od/cacoast/ss/la-to-sf-on-highway-one.htm"
            ],
            "longitude": "-122.4514522"
        },
        "big bear lake": {
            "latitude": "34.253293",
            "closest_to": "pasadena",
            "address": "Big Bear Lake, Lagunita Lane, Big Bear Lake, San Bernardino County, California, 92315, United States of America",
            "locType": "water",
            "blogLinks": [
                "http://www.travbuddy.com/California-popular-cities-p85"
            ],
            "longitude": "-116.932209587315"
        },
        "silicon valley": {
            "latitude": "37.4105333",
            "closest_to": "monterey",
            "address": "Carnegie Mellon Silicon Valley, South Akron Road, Santa Clara County, California, 94035-0016, United States of America",
            "locType": "school",
            "blogLinks": [
                "http://www.travbuddy.com/California-popular-cities-p85"
            ],
            "longitude": "-122.0597491"
        },
        "san luis obispo.morro bay": {
            "latitude": "35.3469188",
            "closest_to": "pasadena",
            "address": "Morro Bay Museum of Natural History, 20, Morro Bay State Park Road, Morro Bay, San Luis Obispo County, California, 93442, United States of America",
            "locType": "museum",
            "blogLinks": [
                "http://gocalifornia.about.com/od/cacoast/ss/la-to-sf-on-highway-one.htm"
            ],
            "longitude": "-120.8443454"
        },
        "ontario": {
            "latitude": "34.065846",
            "closest_to": "pasadena",
            "address": "Ontario, San Bernardino County, California, United States of America",
            "locType": "city",
            "blogLinks": [
                "http://www.california-blog.com/"
            ],
            "longitude": "-117.6484303"
        },
        "kern river": {
            "latitude": "36.6816956",
            "closest_to": "pasadena",
            "address": "Kern River, Tulare County, California, United States of America",
            "locType": "river",
            "blogLinks": [
                "http://www.california-blog.com/"
            ],
            "longitude": "-118.4124188"
        },
        "pacific ocean": {
            "latitude": "36.16305775",
            "closest_to": "pasadena",
            "address": "Pacific Ocean, Cabrillo Highway, Monterey County, California, 93920, United States of America",
            "locType": "cliff",
            "blogLinks": [
                "http://www.hopper.com/articles/291/five-great-stops-between-los-angeles-and-san-francisco-on-the-pacific-coast-highway",
                "https://www.tripadvisor.com/ShowTopic-g32737-i159-k1369299-Los_Angeles_to_Monterey_via_Hwy_101_1_concerns-Monterey_Monterey_Peninsula_California.html",
                "http://www.travbuddy.com/California-popular-cities-p85"
            ],
            "longitude": "-121.678715787326"
        },
        "san francisco": {
            "latitude": "37.7792808",
            "closest_to": "monterey",
            "address": "SF, California, United States of America",
            "locType": "city",
            "blogLinks": [
                "http://gocalifornia.about.com/od/cacoast/ss/la-to-sf-on-highway-one.htm",
                "http://www.distancesfrom.com/us/distance-from-Pasadena-to-San-Francisco-via-Monterey/DistanceHistory/34960493.aspx",
                "https://www.orbitz.com/blog/2010/02/california-vacation-monterey-paso-robles-wine-country/",
                "http://www.travbuddy.com/California-popular-cities-p85",
                "https://blog.trekaroo.com/california-dreaming-road-trip-from-san-francisco-to-los-angeles/",
                "http://traveltips.usatoday.com/fun-things-los-angeles-san-francisco-14664.html",
                "https://en.wikipedia.org/wiki/List_of_National_Historic_Landmarks_in_California",
                "http://www.hopper.com/articles/291/five-great-stops-between-los-angeles-and-san-francisco-on-the-pacific-coast-highway"
            ],
            "longitude": "-122.4192362"
        },
        "california trail": {
            "latitude": "34.1159292",
            "closest_to": "pasadena",
            "address": "California Trail, Sylvia Park, Los Angeles County, California, 90290, United States of America",
            "locType": "residential",
            "blogLinks": [
                "https://en.wikipedia.org/wiki/List_of_National_Historic_Landmarks_in_California"
            ],
            "longitude": "-118.5920458"
        },
        "arroyo seco": {
            "latitude": "34.1129526",
            "closest_to": "pasadena",
            "address": "Arroyo Seco, LA, Los Angeles County, California, United States of America",
            "locType": "drain",
            "blogLinks": [
                "https://www.tripadvisor.com/Hotels-g32737-Monterey_Monterey_Peninsula_California-Hotels.html"
            ],
            "longitude": "-118.176531"
        },