{
    "temecula": {
        "type": "city",
        "osm_id": "3866463",
        "class": "place",
        "importance": 0.66507963701587,
        "lat": "33.4946353",
        "lon": "-117.147366",
        "boundingbox": [
            "33.4321253",
            "33.554625",
            "-117.2066944",
            "-117.0548702"
        ],
        "display_name": "Temecula, Riverside County, California, United States of America",
        "licence": "Data \u00a9 OpenStreetMap contributors, ODbL 1.0. http://www.openstreetmap.org/copyright",
        "icon": "https://nominatim.openstreetmap.org/images/mapicons/poi_place_city.p.20.png",
        "place_id": "159718106",
        "osm_type": "relation"
    },
    "riverside": {
        "type": "city",
        "osm_id": "98628503",
        "class": "place",
        "importance": 0.72980766319189,
        "lat": "33.9533546",
        "lon": "-117.3961622",
        "boundingbox": [
            "33.8724207",
            "34.0192691",
            "-117.5237611",
            "-117.2741721"
        ],
        "display_name": "Riverside, Riverside County, California, United States of America",
        "licence": "Data \u00a9 OpenStreetMap contributors, ODbL 1.0. http://www.openstreetmap.org/copyright",
        "icon": "https://nominatim.openstreetmap.org/images/mapicons/poi_place_city.p.20.png",
        "place_id": "85715402",
        "osm_type": "way"
    },
    "mentions": {
        "loma linda": {
            "latitude": "34.075626",
            "closest_to": "riverside",
            "address": "Loma Linda, San Bernardino County, California, United States of America",
            "locType": "city",
            "blogLinks": [
                "http://www.bestplaces.net/city/california/temecula"
            ],
            "longitude": "-117.25204765"
        },
        "old town temecula": {
            "latitude": "33.49487155",
            "closest_to": "temecula",
            "address": "Old Town Temecula, 5th Street, Villa Del Sol, Old Town, Temecula, Riverside County, California, 92590, United States of America",
            "locType": "attraction",
            "blogLinks": [
                "http://dogtrekker.com/Destination/inland-empire"
            ],
            "longitude": "-117.149796716459"
        },
        "irvine": {
            "latitude": "33.6856969",
            "closest_to": "riverside",
            "address": "Irvine, Orange County, California, United States of America",
            "locType": "city",
            "blogLinks": [
                "http://www.safewise.com/blog/safest-cities-california-2016/"
            ],
            "longitude": "-117.8259818"
        },
        "temecula valley wine country": {
            "latitude": "33.5334975",
            "closest_to": "temecula",
            "address": "Temecula Valley Wine Country, Valle de los Caballos, Riverside County, California, United States of America",
            "locType": "suburb",
            "blogLinks": [
                "http://www.temeculawines.org/"
            ],
            "longitude": "-117.0334856"
        },
        "carlsbad": {
            "latitude": "33.1580933",
            "closest_to": "temecula",
            "address": "Carlsbad, San Diego County, California, United States of America",
            "locType": "city",
            "blogLinks": [
                "http://www.safewise.com/blog/safest-cities-california-2016/"
            ],
            "longitude": "-117.3505938"
        },
        "oceanside": {
            "latitude": "33.1958696",
            "closest_to": "temecula",
            "address": "Oceanside, San Diego County, California, United States of America",
            "locType": "city",
            "blogLinks": [
                "http://www.temeculawines.org/plan-your-trip/",
                "https://www.trulia.com/voices/Home_Buying/Is_Temecula_or_Oceanside_a_better_place_to_live_-105543"
            ],
            "longitude": "-117.3794833"
        },
        "temecula valley": {
            "latitude": "33.4481335",
            "closest_to": "temecula",
            "address": "U.S. Mormon Battalion Trail, Temecula Valley, CA 79, Aguanga, Riverside County, California, United States of America",
            "locType": "memorial",
            "blogLinks": [
                "http://www.temeculawines.org/plan-your-trip/",
                "http://www.temeculawines.org/",
                "http://www.riversidecvb.com/uniquely_riverside/landmarks_attractions.aspx"
            ],
            "longitude": "-116.8917787"
        },
        "murrieta": {
            "latitude": "33.560832",
            "closest_to": "temecula",
            "address": "Murrieta, Riverside County, California, United States of America",
            "locType": "city",
            "blogLinks": [
                "http://www.kpbs.org/news/2012/may/31/temecula-still-worth-commute/",
                "https://www.trulia.com/voices/Home_Buying/Is_Temecula_or_Oceanside_a_better_place_to_live_-105543",
                "http://www.safewise.com/blog/safest-cities-california-2016/"
            ],
            "longitude": "-117.2106563"
        },
        "rubidoux": {
            "latitude": "33.994015",
            "closest_to": "riverside",
            "address": "Rubidoux, Pacific Avenue, Rubidoux, Jurupa Valley, Riverside County, California, 92509, United States of America",
            "locType": "administrative",
            "blogLinks": [
                "http://www.riversidecvb.com/uniquely_riverside/landmarks_attractions.aspx"
            ],
            "longitude": "-117.423740584529"
        },
        "chino hills": {
            "latitude": "33.9926803",
            "closest_to": "riverside",
            "address": "Chino Hills, San Bernardino County, California, United States of America",
            "locType": "city",
            "blogLinks": [
                "http://www.bestplaces.net/city/california/temecula",
                "http://www.safewise.com/blog/safest-cities-california-2016/"
            ],
            "longitude": "-117.7600559"
        },
        "orange county": {
            "latitude": "33.7500378",
            "closest_to": "riverside",
            "address": "Orange County, California, United States of America",
            "locType": "administrative",
            "blogLinks": [
                "http://www.temeculawines.org/",
                "https://www.trulia.com/voices/Home_Buying/Is_Temecula_or_Oceanside_a_better_place_to_live_-105543"
            ],
            "longitude": "-117.870493"
        },
        "harveston": {
            "latitude": "33.5375189",
            "closest_to": "temecula",
            "address": "Harveston, Temecula, Riverside County, California, United States of America",
            "locType": "administrative",
            "blogLinks": [
                "http://patch.com/california/temecula"
            ],
            "longitude": "-117.160975939759"
        },
        "san bernardino": {
            "latitude": "34.1083449",
            "closest_to": "riverside",
            "address": "San Bernardino, San Bernardino County, California, United States of America",
            "locType": "city",
            "blogLinks": [
                "http://www.bestplaces.net/city/california/temecula"
            ],
            "longitude": "-117.2897651"
        },
        "laguna hills": {
            "latitude": "33.5948758",
            "closest_to": "temecula",
            "address": "Laguna Hills, Orange County, California, United States of America",
            "locType": "city",
            "blogLinks": [
                "http://www.safewise.com/blog/safest-cities-california-2016/"
            ],
            "longitude": "-117.6882066"
        },
        "temecula": {
            "latitude": "33.4946353",
            "closest_to": "temecula",
            "address": "Temecula, Riverside County, California, United States of America",
            "locType": "city",
            "blogLinks": [
                "https://www.pinterest.com/temecularealtor/temecula-fun-things-to-do/",
                "http://www.bestplaces.net/city/california/temecula",
                "https://www.trulia.com/voices/Home_Buying/Is_Temecula_or_Oceanside_a_better_place_to_live_-105543",
                "http://dogtrekker.com/Destination/inland-empire",
                "http://www.kpbs.org/news/2012/may/31/temecula-still-worth-commute/",
                "http://patch.com/california/temecula"
            ],
            "longitude": "-117.147366"
        },
        "temecula california": {
            "latitude": "33.4946353",
            "closest_to": "temecula",
            "address": "Temecula, Riverside County, California, United States of America",
            "locType": "city",
            "blogLinks": [
                "https://www.pinterest.com/temecularealtor/temecula-fun-things-to-do/"
            ],
            "longitude": "-117.147366"
        },
        "encinitas": {
            "latitude": "33.0369867",
            "closest_to": "temecula",
            "address": "Encinitas, San Diego County, California, United States of America",
            "locType": "city",
            "blogLinks": [
                "http://www.safewise.com/blog/safest-cities-california-2016/"
            ],
            "longitude": "-117.2919817"
        },
        "tustin": {
            "latitude": "33.7458511",
            "closest_to": "riverside",
            "address": "Tustin, Orange County, California, United States of America",
            "locType": "city",
            "blogLinks": [
                "http://www.temeculawines.org/"
            ],
            "longitude": "-117.8261659"
        },
        "placentia": {
            "latitude": "33.8714814",
            "closest_to": "riverside",
            "address": "Placentia, Orange County, California, United States of America",
            "locType": "city",
            "blogLinks": [
                "http://www.safewise.com/blog/safest-cities-california-2016/"
            ],
            "longitude": "-117.8617336"
        },
        "riverside": {
            "latitude": "33.9533546",
            "closest_to": "temecula",
            "address": "Riverside, Riverside County, California, United States of America",
            "locType": "city",
            "blogLinks": [
                "https://www.pinterest.com/temecularealtor/temecula-fun-things-to-do/",
                "http://www.bestplaces.net/city/california/temecula"
            ],
            "longitude": "-117.3961622"
        },
        "ontario": {
            "latitude": "34.065846",
            "closest_to": "riverside",
            "address": "Ontario, San Bernardino County, California, United States of America",
            "locType": "city",
            "blogLinks": [
                "http://www.bestplaces.net/city/california/temecula"
            ],
            "longitude": "-117.6484303"
        },
        "hemet": {
            "latitude": "33.778562",
            "closest_to": "temecula",
            "address": "Hemet, Riverside County, California, United States of America",
            "locType": "city",
            "blogLinks": [
                "https://www.trulia.com/voices/Home_Buying/Is_Temecula_or_Oceanside_a_better_place_to_live_-105543"
            ],
            "longitude": "-117.035766536246"
        }
    }
}