{
    "santa monica": {
        "type": "city",
        "osm_id": "3353288",
        "class": "place",
        "importance": 0.84972348720023,
        "lat": "34.0195598",
        "lon": "-118.4869738",
        "boundingbox": [
            "33.9666583",
            "34.05056",
            "-118.5513434",
            "-118.4434259"
        ],
        "display_name": "Santa Monica, Los Angeles County, California, United States of America",
        "licence": "Data \u00a9 OpenStreetMap contributors, ODbL 1.0. http://www.openstreetmap.org/copyright",
        "icon": "https://nominatim.openstreetmap.org/images/mapicons/poi_place_city.p.20.png",
        "place_id": "159526581",
        "osm_type": "relation"
    },
    "mentions": {
        "hollywood boulevard": {
            "latitude": "34.1016312",
            "closest_to": "santa monica",
            "address": "Hollywood Boulevard, Hollywood, LA, Los Angeles County, California, 90028, United States of America",
            "locType": "secondary",
            "blogLinks": [
                "http://www.urbantravelblog.com/guide/los-angeles/"
            ],
            "longitude": "-118.32684"
        },
        "highway 101": {
            "latitude": "32.9967358",
            "closest_to": "santa monica",
            "address": "Highway 101, Solana Beach, San Diego County, California, 92075, United States of America",
            "locType": "primary",
            "blogLinks": [
                "http://travelblog.viator.com/road-trip-san-francisco-los-angeles/"
            ],
            "longitude": "-117.2731974"
        },
        "florence": {
            "latitude": "33.9752173",
            "closest_to": "santa monica",
            "address": "Florence, LA, Los Angeles County, California, United States of America",
            "locType": "suburb",
            "blogLinks": [
                "http://www.trippy.com/question/California-Road-Trip-from-Los-Angeles-to-Vancouver---Spots-I-cant-miss"
            ],
            "longitude": "-118.2659105"
        },
        "san luis obispo museum of art": {
            "latitude": "35.2795773",
            "closest_to": "sausalito",
            "address": "San Luis Obispo Museum of Art, 1010, Broad Street, San Luis Obispo, San Luis Obispo County, California, 93401, United States of America",
            "locType": "museum",
            "blogLinks": [
                "http://travelblog.viator.com/road-trip-san-francisco-los-angeles/"
            ],
            "longitude": "-120.6649345"
        },
        "irvine": {
            "latitude": "33.6856969",
            "closest_to": "santa monica",
            "address": "Irvine, Orange County, California, United States of America",
            "locType": "city",
            "blogLinks": [
                "https://blog.trekaroo.com/grand-california-road-trip/"
            ],
            "longitude": "-117.8259818"
        },
        "pacific coast highway": {
            "latitude": "33.6595127",
            "closest_to": "santa monica",
            "address": "Pacific Coast Highway, Huntington Beach, Orange County, California, 92648, United States of America",
            "locType": "primary",
            "blogLinks": [
                "http://www.hopper.com/articles/291/five-great-stops-between-los-angeles-and-san-francisco-on-the-pacific-coast-highway",
                "https://blog.trekaroo.com/grand-california-road-trip/",
                "http://www.urbantravelblog.com/guide/los-angeles/"
            ],
            "longitude": "-118.0051687"
        },
        "carmel-by-the-sea": {
            "latitude": "36.5552387",
            "closest_to": "sausalito",
            "address": "Carmel-by-the-Sea, Monterey County, California, United States of America",
            "locType": "city",
            "blogLinks": [
                "http://travelblog.viator.com/road-trip-san-francisco-los-angeles/",
                "http://www.hopper.com/articles/291/five-great-stops-between-los-angeles-and-san-francisco-on-the-pacific-coast-highway"
            ],
            "longitude": "-121.9232878"
        },
        "norco": {
            "latitude": "33.9323307",
            "closest_to": "santa monica",
            "address": "Norco, Riverside County, California, 92860, United States of America",
            "locType": "city",
            "blogLinks": [
                "http://www.roadsideamerica.com/location/ca"
            ],
            "longitude": "-117.55089"
        },
        "san francisco bay": {
            "latitude": "37.708264",
            "closest_to": "sausalito",
            "address": "San Francisco Bay, Ferry Landing, Alameda, Alameda County, California, 94502, United States of America",
            "locType": "bay",
            "blogLinks": [
                "https://www.tripadvisor.com/ShowTopic-g33052-i158-k7463589-Santa_Monica_vs_Sausalito-Santa_Monica_California.html",
                "https://br.pinterest.com/pin/394135404858972175"
            ],
            "longitude": "-122.2802469"
        },
        "sunset strip": {
            "latitude": "33.7224763",
            "closest_to": "santa monica",
            "address": "Sunset Strip, Happy Wanderer, Indio, Riverside County, California, 92201, United States of America",
            "locType": "living_street",
            "blogLinks": [
                "https://www.virtualtourist.com/travel/North_America/United_States_of_America/California/Things_To_Do-California-TG-C-1.html"
            ],
            "longitude": "-116.1940439"
        },
        "woodland hills": {
            "latitude": "34.1683386",
            "closest_to": "sausalito",
            "address": "Woodland Hills, LA, Los Angeles County, California, United States of America",
            "locType": "suburb",
            "blogLinks": [
                "http://www.roadsideamerica.com/location/ca"
            ],
            "longitude": "-118.6059196"
        },
        "comstock saloon": {
            "latitude": "37.7969638",
            "closest_to": "sausalito",
            "address": "Comstock Saloon, 155, Columbus Avenue, Chinatown, SF, California, 94133, United States of America",
            "locType": "bar",
            "blogLinks": [
                "http://therealmbahousewife.blogspot.com/2013/03/pch-roadtrip-from-la-to-san-francisco.html"
            ],
            "longitude": "-122.4056425"
        },
        "lemoore": {
            "latitude": "36.3007835",
            "closest_to": "sausalito",
            "address": "Lemoore, Kings County, California, United States of America",
            "locType": "city",
            "blogLinks": [
                "http://www.roadsideamerica.com/location/ca"
            ],
            "longitude": "-119.7829106"
        },
        "cotati": {
            "latitude": "38.3266798",
            "closest_to": "sausalito",
            "address": "Cotati, Sonoma County, California, United States of America",
            "locType": "city",
            "blogLinks": [
                "http://www.roadsideamerica.com/location/ca"
            ],
            "longitude": "-122.706844"
        },
        "palmdale": {
            "latitude": "34.5793131",
            "closest_to": "sausalito",
            "address": "Palmdale, Los Angeles County, California, United States of America",
            "locType": "city",
            "blogLinks": [
                "http://www.roadsideamerica.com/location/ca"
            ],
            "longitude": "-118.1171107"
        },
        "lake isabella": {
            "latitude": "35.637646",
            "closest_to": "sausalito",
            "address": "Lake Isabella, Keyesville Road, Kern County, California, 93240, United States of America",
            "locType": "administrative",
            "blogLinks": [
                "https://www.virtualtourist.com/travel/North_America/United_States_of_America/California/Things_To_Do-California-TG-C-1.html"
            ],
            "longitude": "-118.484657714814"
        },
        "portland": {
            "latitude": "33.8979116",
            "closest_to": "santa monica",
            "address": "Portland, Riverside, Riverside County, California, 92508, United States of America",
            "locType": "residential",
            "blogLinks": [
                "http://www.trippy.com/question/California-Road-Trip-from-Los-Angeles-to-Vancouver---Spots-I-cant-miss"
            ],
            "longitude": "-117.3105194"
        },
        "oakland": {
            "latitude": "37.8044557",
            "closest_to": "sausalito",
            "address": "Oakland, Alameda County, California, United States of America",
            "locType": "city",
            "blogLinks": [
                "https://www.virtualtourist.com/travel/North_America/United_States_of_America/California/Things_To_Do-California-TG-C-1.html"
            ],
            "longitude": "-122.2713562"
        },
        "venice beach": {
            "latitude": "33.9862012",
            "closest_to": "santa monica",
            "address": "Venice Beach, Venice Beach Bike Path, Venice, LA, Los Angeles County, California, 90405, United States of America",
            "locType": "police",
            "blogLinks": [
                "http://www.trippy.com/question/California-Road-Trip-from-Los-Angeles-to-Vancouver---Spots-I-cant-miss",
                "http://www.urbantravelblog.com/guide/los-angeles/"
            ],
            "longitude": "-118.4739815"
        },
        "golden state": {
            "latitude": "39.6712719",
            "closest_to": "sausalito",
            "address": "Golden State Island, Butte County, California, United States of America",
            "locType": "island",
            "blogLinks": [
                "https://blog.trekaroo.com/grand-california-road-trip/"
            ],
            "longitude": "-121.9619226"
        },
        "mcway falls trail": {
            "latitude": "36.1578211",
            "closest_to": "sausalito",
            "address": "McWay Falls, Monterey County, California, United States of America",
            "locType": "waterfall",
            "blogLinks": [
                "http://travelblog.viator.com/road-trip-san-francisco-los-angeles/"
            ],
            "longitude": "-121.6723957"
        },
        "death valley national park": {
            "latitude": "36.4914385",
            "closest_to": "sausalito",
            "address": "Death Valley National Park, Lucky Wash Road, Skidoo, Inyo County, California, United States of America",
            "locType": "national_park",
            "blogLinks": [
                "http://www.roadsideamerica.com/location/ca"
            ],
            "longitude": "-117.102293507719"
        },
        "tonga": {
            "latitude": "32.579494",
            "closest_to": "santa monica",
            "address": "Via Tonga, Otay Mesa West, San Ysidro, San Diego, San Diego County, California, 92154, United States of America",
            "locType": "residential",
            "blogLinks": [
                "http://www.roadsideamerica.com/location/ca"
            ],
            "longitude": "-117.0612559"
        },
        "berkeley": {
            "latitude": "37.8708393",
            "closest_to": "sausalito",
            "address": "Berkeley, Alameda County, California, United States of America",
            "locType": "city",
            "blogLinks": [
                "http://www.roadsideamerica.com/location/ca"
            ],
            "longitude": "-122.2728638"
        },
        "southern california": {
            "latitude": "34.0224149",
            "closest_to": "santa monica",
            "address": "University of Southern California, Watt Way, Saint James Park, LA, Los Angeles County, California, 90089, United States of America",
            "locType": "university",
            "blogLinks": [
                "http://www.hopper.com/articles/291/five-great-stops-between-los-angeles-and-san-francisco-on-the-pacific-coast-highway",
                "https://blog.trekaroo.com/grand-california-road-trip/"
            ],
            "longitude": "-118.286343973446"
        },
        "coachella": {
            "latitude": "33.6795519",
            "closest_to": "santa monica",
            "address": "Coachella, Riverside County, California, United States of America",
            "locType": "administrative",
            "blogLinks": [
                "https://www.virtualtourist.com/travel/North_America/United_States_of_America/California/Things_To_Do-California-TG-C-1.html"
            ],
            "longitude": "-116.1763379"
        },
        "guadalupe": {
            "latitude": "29.0350656",
            "closest_to": "santa monica",
            "address": "Isla Guadalupe, Ensenada, Baja California, M\u00e9xico",
            "locType": "island",
            "blogLinks": [
                "http://www.roadsideamerica.com/location/ca"
            ],
            "longitude": "-118.269896818344"
        },
        "santa clara": {
            "latitude": "37.3541132",
            "closest_to": "sausalito",
            "address": "Santa Clara, Santa Clara County, California, United States of America",
            "locType": "city",
            "blogLinks": [
                "http://www.roadsideamerica.com/location/ca"
            ],
            "longitude": "-121.9551743"
        },
        "inglewood": {
            "latitude": "33.9616801",
            "closest_to": "santa monica",
            "address": "Inglewood, Los Angeles County, California, United States of America",
            "locType": "city",
            "blogLinks": [
                "http://www.roadsideamerica.com/location/ca"
            ],
            "longitude": "-118.353131"
        },
        "sonoma valley": {
            "latitude": "38.29331315",
            "closest_to": "sausalito",
            "address": "Sonoma Valley Chevron, 540, West Napa Street, Sonoma, Sonoma County, California, 95476, United States of America",
            "locType": "fuel",
            "blogLinks": [
                "http://therealmbahousewife.blogspot.com/2013/03/pch-roadtrip-from-la-to-san-francisco.html"
            ],
            "longitude": "-122.469385770353"
        },
        "san jose": {
            "latitude": "37.3361905",
            "closest_to": "sausalito",
            "address": "San Jos\u00e9, Santa Clara County, California, United States of America",
            "locType": "city",
            "blogLinks": [
                "http://www.roadsideamerica.com/location/ca",
                "http://therealmbahousewife.blogspot.com/2013/03/pch-roadtrip-from-la-to-san-francisco.html"
            ],
            "longitude": "-121.8905832"
        },
        "utah": {
            "latitude": "37.413408",
            "closest_to": "sausalito",
            "address": "Utah, Rovana, Inyo County, California, United States of America",
            "locType": "residential",
            "blogLinks": [
                "http://www.trippy.com/question/California-Road-Trip-from-Los-Angeles-to-Vancouver---Spots-I-cant-miss"
            ],
            "longitude": "-118.6125359"
        },
        "bodie state historic park": {
            "latitude": "38.2154734",
            "closest_to": "sausalito",
            "address": "Bodie State Historic Park, Street, Bodie, Mono County, California, United States of America",
            "locType": "park",
            "blogLinks": [
                "http://www.roadsideamerica.com/location/ca"
            ],
            "longitude": "-119.0109761"
        },
        "la art walk": {
            "latitude": "37.722341",
            "closest_to": "sausalito",
            "address": "Art, Centennial Walk, Saint Francis Wood, SF, California, 94132, United States of America",
            "locType": "yes",
            "blogLinks": [
                "http://www.urbantravelblog.com/guide/los-angeles/"
            ],
            "longitude": "-122.4803462"
        },
        "mentone": {
            "latitude": "34.05884",
            "closest_to": "santa monica",
            "address": "Mentone, Reservoir Canal Road, Crafton, San Bernardino County, California, 92374, United States of America",
            "locType": "administrative",
            "blogLinks": [
                "http://www.roadsideamerica.com/location/ca"
            ],
            "longitude": "-117.109606374724"
        },
        "ty warner sea center": {
            "latitude": "34.4104258",
            "closest_to": "sausalito",
            "address": "Santa Barbara Museum of Natural History Sea Center, 211, Stearns Wharf, Santa Barbara, Santa Barbara County, California, 93101, United States of America",
            "locType": "aquarium",
            "blogLinks": [
                "https://blog.trekaroo.com/grand-california-road-trip/"
            ],
            "longitude": "-119.685686"
        },
        "hollywood": {
            "latitude": "34.1028268",
            "closest_to": "santa monica",
            "address": "Hollywood, LA, Los Angeles County, California, United States of America",
            "locType": "suburb",
            "blogLinks": [
                "http://www.roadsideamerica.com/location/ca",
                "http://www.urbantravelblog.com/guide/los-angeles/"
            ],
            "longitude": "-118.3299898"
        },
        "america": {
            "latitude": "36.2573198",
            "closest_to": "sausalito",
            "address": "America, Kings County, California, 93246, United States of America",
            "locType": "residential",
            "blogLinks": [
                "https://www.virtualtourist.com/travel/North_America/United_States_of_America/California/Things_To_Do-California-TG-C-1.html",
                "http://travelblog.viator.com/road-trip-san-francisco-los-angeles/",
                "http://www.roadsideamerica.com/location/ca",
                "http://www.urbantravelblog.com/guide/los-angeles/"
            ],
            "longitude": "-119.8948706"
        },
        "cahuenga boulevard": {
            "latitude": "34.1594703",
            "closest_to": "sausalito",
            "address": "Cahuenga Boulevard, La Paco, North Hollywood, LA, Los Angeles County, California, 91602, United States of America",
            "locType": "secondary",
            "blogLinks": [
                "http://www.urbantravelblog.com/guide/los-angeles/"
            ],
            "longitude": "-118.3615338"
        },
        "costa mesa": {
            "latitude": "33.6633386",
            "closest_to": "santa monica",
            "address": "Costa Mesa, Orange County, California, United States of America",
            "locType": "city",
            "blogLinks": [
                "http://www.roadsideamerica.com/location/ca"
            ],
            "longitude": "-117.9033169"
        },
        "india": {
            "latitude": "32.72025735",
            "closest_to": "santa monica",
            "address": "Star of India, North Harbor Drive, Hillcrest, San Diego, San Diego County, California, 92106, United States of America",
            "locType": "attraction",
            "blogLinks": [
                "http://www.trippy.com/question/California-Road-Trip-from-Los-Angeles-to-Vancouver---Spots-I-cant-miss"
            ],
            "longitude": "-117.173543004762"
        },
        "nob hill": {
            "latitude": "37.7932622",
            "closest_to": "sausalito",
            "address": "Nob Hill, SF, California, United States of America",
            "locType": "peak",
            "blogLinks": [
                "http://therealmbahousewife.blogspot.com/2013/03/pch-roadtrip-from-la-to-san-francisco.html"
            ],
            "longitude": "-122.4152489"
        },
        "santa monica pier north": {
            "latitude": "34.0104809",
            "closest_to": "santa monica",
            "address": "Santa Monica Pier, Santa Monica, Los Angeles County, California, CA 90401, United States of America",
            "locType": "service",
            "blogLinks": [
                "http://blog.sfgate.com/cmcginnis/2016/04/20/new-sleeper-service-between-sf-la/"
            ],
            "longitude": "-118.4960541"
        },
        "europe": {
            "latitude": "37.3491727",
            "closest_to": "sausalito",
            "address": "Europe Court, Santa Clara, Santa Clara County, California, 95051, United States of America",
            "locType": "residential",
            "blogLinks": [
                "http://therealmbahousewife.blogspot.com/2013/03/pch-roadtrip-from-la-to-san-francisco.html"
            ],
            "longitude": "-121.9980641"
        },
        "pismo state beach": {
            "latitude": "35.1061627",
            "closest_to": "sausalito",
            "address": "Pismo State Beach, San Luis Obispo County, California, United States of America",
            "locType": "national_park",
            "blogLinks": [
                "http://www.trippy.com/question/California-Road-Trip-from-Los-Angeles-to-Vancouver---Spots-I-cant-miss"
            ],
            "longitude": "-120.62834686522"
        },
        "west coast": {
            "latitude": "34.0222263",
            "closest_to": "santa monica",
            "address": "West Coast, Motor Avenue, Palms, LA, Los Angeles County, California, 90034-5702, United States of America",
            "locType": "plumber",
            "blogLinks": [
                "https://www.virtualtourist.com/travel/North_America/United_States_of_America/California/Things_To_Do-California-TG-C-1.html",
                "http://www.urbantravelblog.com/guide/los-angeles/"
            ],
            "longitude": "-118.4051087"
        },
        "san luis obispo": {
            "latitude": "35.2827525",
            "closest_to": "sausalito",
            "address": "San Luis Obispo, San Luis Obispo County, California, United States of America",
            "locType": "city",
            "blogLinks": [
                "http://travelblog.viator.com/road-trip-san-francisco-los-angeles/",
                "http://therealmbahousewife.blogspot.com/2013/03/pch-roadtrip-from-la-to-san-francisco.html"
            ],
            "longitude": "-120.6596155"
        },
        "fresno": {
            "latitude": "36.748793",
            "closest_to": "sausalito",
            "address": "Fresno, Fresno County, California, United States of America",
            "locType": "city",
            "blogLinks": [
                "https://www.virtualtourist.com/travel/North_America/United_States_of_America/California/Things_To_Do-California-TG-C-1.html",
                "http://www.roadsideamerica.com/location/ca"
            ],
            "longitude": "-119.714839601149"
        },
        "healdsburg": {
            "latitude": "38.6106812",
            "closest_to": "sausalito",
            "address": "Healdsburg, Sonoma County, California, United States of America",
            "locType": "city",
            "blogLinks": [
                "http://www.roadsideamerica.com/location/ca"
            ],
            "longitude": "-122.8701379"
        },
        "fairmont hotel": {
            "latitude": "37.7923686",
            "closest_to": "sausalito",
            "address": "The Fairmont San Francisco Hotel, 950, Mason Street, Chinatown, SF, California, 94108, United States of America",
            "locType": "hotel",
            "blogLinks": [
                "http://www.urbantravelblog.com/guide/los-angeles/"
            ],
            "longitude": "-122.410029997904"
        },
        "indio": {
            "latitude": "33.7192808",
            "closest_to": "santa monica",
            "address": "Indio, Riverside County, California, United States of America",
            "locType": "city",
            "blogLinks": [
                "http://www.roadsideamerica.com/location/ca"
            ],
            "longitude": "-116.2188053"
        },
        "califia": {
            "latitude": "34.4290422",
            "closest_to": "sausalito",
            "address": "Califia Court, Santa Barbara County, California, 93111, United States of America",
            "locType": "residential",
            "blogLinks": [
                "http://www.roadsideamerica.com/location/ca"
            ],
            "longitude": "-119.8065791"
        },
        "east beach": {
            "latitude": "37.8061771",
            "closest_to": "sausalito",
            "address": "East Beach, Mason Street, Presidio Heights, SF, California, 94129, United States of America",
            "locType": "beach",
            "blogLinks": [
                "https://blog.trekaroo.com/grand-california-road-trip/"
            ],
            "longitude": "-122.452368017781"
        },
        "san quentin": {
            "latitude": "37.9413133",
            "closest_to": "sausalito",
            "address": "San Quentin, Marin County, California, United States of America",
            "locType": "hamlet",
            "blogLinks": [
                "http://www.roadsideamerica.com/location/ca"
            ],
            "longitude": "-122.4849738"
        },
        "fremont": {
            "latitude": "37.5482697",
            "closest_to": "sausalito",
            "address": "Fremont, Alameda County, California, United States of America",
            "locType": "city",
            "blogLinks": [
                "https://www.virtualtourist.com/travel/North_America/United_States_of_America/California/Things_To_Do-California-TG-C-1.html"
            ],
            "longitude": "-121.9885718"
        },
        "simi valley": {
            "latitude": "34.2694474",
            "closest_to": "sausalito",
            "address": "Simi Valley, Ventura County, California, United States of America",
            "locType": "city",
            "blogLinks": [
                "http://www.roadsideamerica.com/location/ca"
            ],
            "longitude": "-118.7814819"
        },
        "jerusalem": {
            "latitude": "40.5175442",
            "closest_to": "sausalito",
            "address": "Jerusalem Creek, Shasta County, California, United States of America",
            "locType": "stream",
            "blogLinks": [
                "http://www.roadsideamerica.com/location/ca"
            ],
            "longitude": "-122.7581059"
        },
        "santa cruz": {
            "latitude": "36.9735903",
            "closest_to": "sausalito",
            "address": "Santa Cruz, Santa Cruz County, California, United States of America",
            "locType": "city",
            "blogLinks": [
                "http://www.roadsideamerica.com/location/ca"
            ],
            "longitude": "-122.0260569"
        },
        "east los angeles": {
            "latitude": "34.0239015",
            "closest_to": "santa monica",
            "address": "East Los Angeles, Belvedere Gardens, Los Angeles County, California, United States of America",
            "locType": "suburb",
            "blogLinks": [
                "http://www.roadsideamerica.com/location/ca"
            ],
            "longitude": "-118.1720156"
        },
        "modesto": {
            "latitude": "37.6390972",
            "closest_to": "sausalito",
            "address": "Modesto, Stanislaus County, California, United States of America",
            "locType": "city",
            "blogLinks": [
                "http://therealmbahousewife.blogspot.com/2013/03/pch-roadtrip-from-la-to-san-francisco.html"
            ],
            "longitude": "-120.9968781"
        },
        "valencia": {
            "latitude": "34.1466768",
            "closest_to": "santa monica",
            "address": "Valencia, San Bernardino County, California, United States of America",
            "locType": "hamlet",
            "blogLinks": [
                "http://therealmbahousewife.blogspot.com/2013/03/pch-roadtrip-from-la-to-san-francisco.html"
            ],
            "longitude": "-117.2725426"
        },
        "american riviera": {
            "latitude": "38.576666",
            "closest_to": "sausalito",
            "address": "American River Drive, La Riviera, Sacramento County, California, 95608, United States of America",
            "locType": "tertiary",
            "blogLinks": [
                "http://travelblog.viator.com/road-trip-san-francisco-los-angeles/",
                "http://www.hopper.com/articles/291/five-great-stops-between-los-angeles-and-san-francisco-on-the-pacific-coast-highway"
            ],
            "longitude": "-121.3602199"
        },
        "benicia": {
            "latitude": "38.049365",
            "closest_to": "sausalito",
            "address": "Benicia, Solano County, California, United States of America",
            "locType": "administrative",
            "blogLinks": [
                "https://www.virtualtourist.com/travel/North_America/United_States_of_America/California/Things_To_Do-California-TG-C-1.html"
            ],
            "longitude": "-122.1585776"
        },
        "santa ynez": {
            "latitude": "34.608637",
            "closest_to": "sausalito",
            "address": "Santa Ynez, Stadium Place, Santa Ynez, Santa Barbara County, California, 93463, United States of America",
            "locType": "administrative",
            "blogLinks": [
                "http://therealmbahousewife.blogspot.com/2013/03/pch-roadtrip-from-la-to-san-francisco.html"
            ],
            "longitude": "-120.104677321497"
        },
        "glendale": {
            "latitude": "34.1423455",
            "closest_to": "santa monica",
            "address": "Glendale, Los Angeles County, California, United States of America",
            "locType": "city",
            "blogLinks": [
                "http://www.roadsideamerica.com/location/ca"
            ],
            "longitude": "-118.248367"
        },
        "yermo": {
            "latitude": "34.9049849",
            "closest_to": "santa monica",
            "address": "Yermo, San Bernardino County, California, United States of America",
            "locType": "hamlet",
            "blogLinks": [
                "http://www.roadsideamerica.com/location/ca"
            ],
            "longitude": "-116.8203126"
        },
        "turlock": {
            "latitude": "37.4946568",
            "closest_to": "sausalito",
            "address": "Turlock, Stanislaus County, California, United States of America",
            "locType": "city",
            "blogLinks": [
                "http://www.roadsideamerica.com/location/ca"
            ],
            "longitude": "-120.846594"
        },
        "san francisco de solano": {
            "latitude": "38.21389995",
            "closest_to": "sausalito",
            "address": "California Missions Museum, Arnold Drive, McGill, Sonoma County, California, United States of America",
            "locType": "museum",
            "blogLinks": [
                "https://www.virtualtourist.com/travel/North_America/United_States_of_America/California/Things_To_Do-California-TG-C-1.html"
            ],
            "longitude": "-122.458560315194"
        },
        "santa barbara": {
            "latitude": "34.4221319",
            "closest_to": "sausalito",
            "address": "Santa Barbara, Santa Barbara County, California, United States of America",
            "locType": "city",
            "blogLinks": [
                "http://www.trippy.com/question/California-Road-Trip-from-Los-Angeles-to-Vancouver---Spots-I-cant-miss",
                "http://travelblog.viator.com/road-trip-san-francisco-los-angeles/",
                "http://www.hopper.com/articles/291/five-great-stops-between-los-angeles-and-san-francisco-on-the-pacific-coast-highway",
                "https://blog.trekaroo.com/grand-california-road-trip/",
                "http://therealmbahousewife.blogspot.com/2013/03/pch-roadtrip-from-la-to-san-francisco.html"
            ],
            "longitude": "-119.7026672"
        },
        "oceanside": {
            "latitude": "33.1958696",
            "closest_to": "santa monica",
            "address": "Oceanside, San Diego County, California, United States of America",
            "locType": "city",
            "blogLinks": [
                "https://www.virtualtourist.com/travel/North_America/United_States_of_America/California/Things_To_Do-California-TG-C-1.html"
            ],
            "longitude": "-117.3794833"
        },
        "buellton": {
            "latitude": "34.6134727",
            "closest_to": "sausalito",
            "address": "Buellton, Santa Barbara County, California, United States of America",
            "locType": "city",
            "blogLinks": [
                "http://www.roadsideamerica.com/location/ca"
            ],
            "longitude": "-120.1936691"
        },
        "santa monica pier": {
            "latitude": "34.0104809",
            "closest_to": "santa monica",
            "address": "Santa Monica Pier, Santa Monica, Los Angeles County, California, CA 90401, United States of America",
            "locType": "service",
            "blogLinks": [
                "http://www.trippy.com/question/California-Road-Trip-from-Los-Angeles-to-Vancouver---Spots-I-cant-miss"
            ],
            "longitude": "-118.4960541"
        },
        "emeryville": {
            "latitude": "37.8314089",
            "closest_to": "sausalito",
            "address": "Emeryville, Alameda County, California, United States of America",
            "locType": "administrative",
            "blogLinks": [
                "http://www.roadsideamerica.com/location/ca"
            ],
            "longitude": "-122.2865265"
        },
        "placerville": {
            "latitude": "38.7296252",
            "closest_to": "sausalito",
            "address": "Placerville, El Dorado County, California, United States of America",
            "locType": "city",
            "blogLinks": [
                "http://www.roadsideamerica.com/location/ca"
            ],
            "longitude": "-120.7985459"
        },
        "fulton mall": {
            "latitude": "36.73552975",
            "closest_to": "sausalito",
            "address": "Fulton Mall, Fresno County, California, 93701, United States of America",
            "locType": "commercial",
            "blogLinks": [
                "https://www.virtualtourist.com/travel/North_America/United_States_of_America/California/Things_To_Do-California-TG-C-1.html"
            ],
            "longitude": "-119.791520463653"
        },
        "lodi": {
            "latitude": "38.097198",
            "closest_to": "sausalito",
            "address": "Lodi, San Joaquin County, California, United States of America",
            "locType": "city",
            "blogLinks": [
                "http://therealmbahousewife.blogspot.com/2013/03/pch-roadtrip-from-la-to-san-francisco.html"
            ],
            "longitude": "-121.387849546574"
        },
        "glendora": {
            "latitude": "34.1361187",
            "closest_to": "santa monica",
            "address": "Glendora, Los Angeles County, California, United States of America",
            "locType": "city",
            "blogLinks": [
                "http://www.roadsideamerica.com/location/ca"
            ],
            "longitude": "-117.8653389"
        },
        "san pedro": {
            "latitude": "33.7358518",
            "closest_to": "santa monica",
            "address": "San Pedro, LA, Los Angeles County, California, United States of America",
            "locType": "suburb",
            "blogLinks": [
                "http://www.roadsideamerica.com/location/ca"
            ],
            "longitude": "-118.2922933"
        },
        "monterey": {
            "latitude": "36.5844165",
            "closest_to": "sausalito",
            "address": "Monterey, Monterey County, California, United States of America",
            "locType": "city",
            "blogLinks": [
                "http://therealmbahousewife.blogspot.com/2013/03/pch-roadtrip-from-la-to-san-francisco.html",
                "http://www.trippy.com/question/California-Road-Trip-from-Los-Angeles-to-Vancouver---Spots-I-cant-miss",
                "https://blog.trekaroo.com/grand-california-road-trip/",
                "http://www.distancesfrom.com/us/flight-distance-from-Santa-Monica-to-Sausalito/FlightHistory/33120056.aspx"
            ],
            "longitude": "-121.866792846206"
        },
        "old town": {
            "latitude": "35.142943",
            "closest_to": "sausalito",
            "address": "Old Town, Golden Hills, Kern County, California, United States of America",
            "locType": "locality",
            "blogLinks": [
                "https://blog.trekaroo.com/grand-california-road-trip/"
            ],
            "longitude": "-118.4954422"
        },
        "golden gate": {
            "latitude": "37.8190177",
            "closest_to": "sausalito",
            "address": "Golden Gate, Golden Gate Bridge, Waldo, Marin County, California, 94965, United States of America",
            "locType": "strait",
            "blogLinks": [
                "http://therealmbahousewife.blogspot.com/2013/03/pch-roadtrip-from-la-to-san-francisco.html"
            ],
            "longitude": "-122.4793972"
        },
        "echo park": {
            "latitude": "34.074",
            "closest_to": "santa monica",
            "address": "Echo Park, Angelino Heights, LA, Los Angeles County, California, 90026, United States of America",
            "locType": "neighbourhood",
            "blogLinks": [
                "http://www.urbantravelblog.com/guide/los-angeles/"
            ],
            "longitude": "-118.2608734"
        },
        "cabrillo boulevard": {
            "latitude": "34.0121457",
            "closest_to": "santa monica",
            "address": "Cabrillo Boulevard, Mar Vista, LA, Los Angeles County, California, 90066, United States of America",
            "locType": "residential",
            "blogLinks": [
                "https://blog.trekaroo.com/grand-california-road-trip/"
            ],
            "longitude": "-118.4470019"
        },
        "new york": {
            "latitude": "34.0143928",
            "closest_to": "santa monica",
            "address": "New York, West Covina, Los Angeles County, California, 91792, United States of America",
            "locType": "service",
            "blogLinks": [
                "http://www.urbantravelblog.com/guide/los-angeles/"
            ],
            "longitude": "-117.8984509"
        },
        "san jacinto": {
            "latitude": "33.7839084",
            "closest_to": "santa monica",
            "address": "San Jacinto, Riverside County, California, United States of America",
            "locType": "city",
            "blogLinks": [
                "https://www.virtualtourist.com/travel/North_America/United_States_of_America/California/Things_To_Do-California-TG-C-1.html"
            ],
            "longitude": "-116.9586349"
        },
        "point reyes station": {
            "latitude": "38.087933",
            "closest_to": "sausalito",
            "address": "Point Reyes Station, Tomales Bay, Bivalve, Marin County, California, 94948, United States of America",
            "locType": "census",
            "blogLinks": [
                "http://www.trippy.com/question/California-Road-Trip-from-Los-Angeles-to-Vancouver---Spots-I-cant-miss"
            ],
            "longitude": "-122.814380617941"
        },
        "redwood city": {
            "latitude": "37.4852152",
            "closest_to": "sausalito",
            "address": "Redwood City, San Mateo County, California, United States of America",
            "locType": "city",
            "blogLinks": [
                "http://www.roadsideamerica.com/location/ca"
            ],
            "longitude": "-122.2363547"
        },
        "glacier point": {
            "latitude": "37.499192",
            "closest_to": "sausalito",
            "address": "Glacier Point, Darrah, Mariposa County, California, 95338, United States of America",
            "locType": "residential",
            "blogLinks": [
                "https://www.virtualtourist.com/travel/North_America/United_States_of_America/California/Things_To_Do-California-TG-C-1.html"
            ],
            "longitude": "-119.8282379"
        },
        "california science center": {
            "latitude": "34.0159757",
            "closest_to": "santa monica",
            "address": "California Science Center, 700, Exposition Park Drive, Jefferson, LA, Los Angeles County, California, 90037, United States of America",
            "locType": "museum",
            "blogLinks": [
                "https://blog.trekaroo.com/grand-california-road-trip/"
            ],
            "longitude": "-118.286286870567"
        },
        "hollywood sign": {
            "latitude": "34.1340991",
            "closest_to": "santa monica",
            "address": "Hollywood Sign, Mount Lee Drive, Hollywood Hills, LA, Los Angeles County, California, 90068, United States of America",
            "locType": "attraction",
            "blogLinks": [
                "http://www.urbantravelblog.com/guide/los-angeles/"
            ],
            "longitude": "-118.3216522"
        },
        "san rafael": {
            "latitude": "37.9735346",
            "closest_to": "sausalito",
            "address": "San Rafael, Marin County, California, United States of America",
            "locType": "city",
            "blogLinks": [
                "http://www.roadsideamerica.com/location/ca"
            ],
            "longitude": "-122.5310873"
        },
        "las vegas": {
            "latitude": "36.17310935",
            "closest_to": "santa monica",
            "address": "California Hotel, Sky Walk(Connection from Main Street to California, Cultural Corridor, Vegas Heights, Las Vegas, Clark County, Nevada, 89101, United States of America",
            "locType": "hotel",
            "blogLinks": [
                "http://www.distancesfrom.com/us/distance-from-Sausalito-to-Las-Vegas-via-Yosemite-Valley-Visitors-Center-Santa-Monica-San-Diego/DistanceHistory/26212509.aspx",
                "https://blog.trekaroo.com/grand-california-road-trip/"
            ],
            "longitude": "-115.144667930325"
        },
        "los alamos": {
            "latitude": "34.7379311",
            "closest_to": "sausalito",
            "address": "Los Alamos, Bell Street, Los Alamos, Santa Barbara County, California, 93455, United States of America",
            "locType": "administrative",
            "blogLinks": [
                "http://travelblog.viator.com/road-trip-san-francisco-los-angeles/"
            ],
            "longitude": "-120.26591036241"
        },
        "los feliz": {
            "latitude": "34.10815355",
            "closest_to": "santa monica",
            "address": "Los Feliz, Little Armenia, LA, Los Angeles County, California, 90027, United States of America",
            "locType": "neighbourhood",
            "blogLinks": [
                "http://www.urbantravelblog.com/guide/los-angeles/"
            ],
            "longitude": "-118.289935811004"
        },
        "mammoth creek": {
            "latitude": "37.6055761",
            "closest_to": "sausalito",
            "address": "Mammoth Creek, Mammoth Lakes, Mono County, California, United States of America",
            "locType": "stream",
            "blogLinks": [
                "https://www.virtualtourist.com/travel/North_America/United_States_of_America/California/Things_To_Do-California-TG-C-1.html"
            ],
            "longitude": "-119.0090048"
        },
        "state street": {
            "latitude": "34.1572853",
            "closest_to": "santa monica",
            "address": "State Street, San Bernardino, San Bernardino County, California, 92407, United States of America",
            "locType": "secondary",
            "blogLinks": [
                "https://blog.trekaroo.com/grand-california-road-trip/"
            ],
            "longitude": "-117.3347322"
        },
        "san fran": {
            "latitude": "35.142465",
            "closest_to": "sausalito",
            "address": "Golden Hills, Kern County, California, United States of America",
            "locType": "village",
            "blogLinks": [
                "http://therealmbahousewife.blogspot.com/2013/03/pch-roadtrip-from-la-to-san-francisco.html"
            ],
            "longitude": "-118.4903642"
        },
        "mission santa barbara": {
            "latitude": "34.4383725",
            "closest_to": "sausalito",
            "address": "Mission Santa Barbara, 2201, Laguna Street, Santa Barbara, Santa Barbara County, California, 93105, United States of America",
            "locType": "place_of_worship",
            "blogLinks": [
                "https://blog.trekaroo.com/grand-california-road-trip/"
            ],
            "longitude": "-119.713226705403"
        },
        "big sur": {
            "latitude": "36.270241",
            "closest_to": "sausalito",
            "address": "Big Sur, Monterey County, California, United States of America",
            "locType": "village",
            "blogLinks": [
                "http://www.trippy.com/question/California-Road-Trip-from-Los-Angeles-to-Vancouver---Spots-I-cant-miss",
                "http://www.distancesfrom.com/us/travel-time-from-Santa-Monica-to-Sausalito-via-Big-Sur/TravelTimeHistory/33120056.aspx"
            ],
            "longitude": "-121.8074544"
        },
        "sacramento": {
            "latitude": "38.5815719",
            "closest_to": "sausalito",
            "address": "Sacramento, Sacramento County, California, United States of America",
            "locType": "city",
            "blogLinks": [
                "https://www.virtualtourist.com/travel/North_America/United_States_of_America/California/Things_To_Do-California-TG-C-1.html"
            ],
            "longitude": "-121.4943995"
        },
        "channel islands national park": {
            "latitude": "34.248597",
            "closest_to": "sausalito",
            "address": "Channel Islands National Park, Spinnaker Drive, Ventura, Ventura County, California, 93006, United States of America",
            "locType": "national_park",
            "blogLinks": [
                "https://blog.trekaroo.com/grand-california-road-trip/"
            ],
            "longitude": "-119.266377755078"
        },
        "pasadena": {
            "latitude": "34.1476452",
            "closest_to": "santa monica",
            "address": "Pasadena, Los Angeles County, California, United States of America",
            "locType": "city",
            "blogLinks": [
                "http://www.roadsideamerica.com/location/ca"
            ],
            "longitude": "-118.1444778"
        },
        "san simeon": {
            "latitude": "35.6438587",
            "closest_to": "sausalito",
            "address": "San Simeon, San Luis Obispo County, California, United States of America",
            "locType": "hamlet",
            "blogLinks": [
                "http://www.hopper.com/articles/291/five-great-stops-between-los-angeles-and-san-francisco-on-the-pacific-coast-highway",
                "http://www.roadsideamerica.com/location/ca",
                "http://therealmbahousewife.blogspot.com/2013/03/pch-roadtrip-from-la-to-san-francisco.html"
            ],
            "longitude": "-121.1907532"
        },
        "marin headlands": {
            "latitude": "37.856162",
            "closest_to": "sausalito",
            "address": "Marin Headlands (GGNRA), Old Springs Trail, Marin City, Marin County, California, 94941, United States of America",
            "locType": "park",
            "blogLinks": [
                "https://www.tripadvisor.com/ShowTopic-g33052-i158-k7463589-Santa_Monica_vs_Sausalito-Santa_Monica_California.html"
            ],
            "longitude": "-122.534327312107"
        },
        "sunol": {
            "latitude": "37.5943781",
            "closest_to": "sausalito",
            "address": "Sunol, Alameda County, California, United States of America",
            "locType": "hamlet",
            "blogLinks": [
                "http://www.roadsideamerica.com/location/ca"
            ],
            "longitude": "-121.8885682"
        },
        "hollywood blvd": {
            "latitude": "34.1016312",
            "closest_to": "santa monica",
            "address": "Hollywood Boulevard, Hollywood, LA, Los Angeles County, California, 90028, United States of America",
            "locType": "secondary",
            "blogLinks": [
                "https://www.virtualtourist.com/travel/North_America/United_States_of_America/California/Things_To_Do-California-TG-C-1.html"
            ],
            "longitude": "-118.32684"
        },
        "carmel valley ranch": {
            "latitude": "36.51756",
            "closest_to": "sausalito",
            "address": "Carmel Valley Ranch, Club House Road, Rancho Tierra Grande, Monterey County, California, United States of America",
            "locType": "hotel",
            "blogLinks": [
                "https://blog.trekaroo.com/grand-california-road-trip/"
            ],
            "longitude": "-121.79927851435"
        },
        "oregon": {
            "latitude": "33.7123207",
            "closest_to": "santa monica",
            "address": "Oregon, Walnut, Irvine, Orange County, California, 92606, United States of America",
            "locType": "residential",
            "blogLinks": [
                "http://www.trippy.com/question/California-Road-Trip-from-Los-Angeles-to-Vancouver---Spots-I-cant-miss"
            ],
            "longitude": "-117.7911567"
        },
        "woodbridge": {
            "latitude": "38.1540849",
            "closest_to": "sausalito",
            "address": "Woodbridge, San Joaquin County, California, United States of America",
            "locType": "hamlet",
            "blogLinks": [
                "http://therealmbahousewife.blogspot.com/2013/03/pch-roadtrip-from-la-to-san-francisco.html"
            ],
            "longitude": "-121.3013369"
        },
        "castroville": {
            "latitude": "36.7657904",
            "closest_to": "sausalito",
            "address": "Castroville, Monterey County, California, United States of America",
            "locType": "administrative",
            "blogLinks": [
                "http://www.roadsideamerica.com/location/ca"
            ],
            "longitude": "-121.7580049"
        },
        "malibu": {
            "latitude": "33.7932142",
            "closest_to": "santa monica",
            "address": "Malibu, Palm Springs, Riverside County, California, 92264, United States of America",
            "locType": "residential",
            "blogLinks": [
                "http://www.roadsideamerica.com/location/ca",
                "http://www.urbantravelblog.com/guide/los-angeles/",
                "http://therealmbahousewife.blogspot.com/2013/03/pch-roadtrip-from-la-to-san-francisco.html"
            ],
            "longitude": "-116.5023561"
        },
        "silver lake": {
            "latitude": "34.0896518",
            "closest_to": "santa monica",
            "address": "Silver Lake, Angelino Heights, LA, Los Angeles County, California, 90026, United States of America",
            "locType": "neighbourhood",
            "blogLinks": [
                "http://www.urbantravelblog.com/guide/los-angeles/"
            ],
            "longitude": "-118.2693734"
        },
        "pebble": {
            "latitude": "33.6678374",
            "closest_to": "santa monica",
            "address": "Pebble, Woodbridge, Irvine, Orange County, California, 92604, United States of America",
            "locType": "residential",
            "blogLinks": [
                "https://www.virtualtourist.com/travel/North_America/United_States_of_America/California/Things_To_Do-California-TG-C-1.html"
            ],
            "longitude": "-117.7975199"
        },
        "garberville": {
            "latitude": "40.1005685",
            "closest_to": "sausalito",
            "address": "Garberville, Humboldt County, California, United States of America",
            "locType": "village",
            "blogLinks": [
                "http://www.roadsideamerica.com/location/ca"
            ],
            "longitude": "-123.7961393"
        },
        "marina": {
            "latitude": "36.6900785",
            "closest_to": "sausalito",
            "address": "Marina, Monterey County, California, United States of America",
            "locType": "city",
            "blogLinks": [
                "http://therealmbahousewife.blogspot.com/2013/03/pch-roadtrip-from-la-to-san-francisco.html"
            ],
            "longitude": "-121.800639730262"
        },
        "sebastopol": {
            "latitude": "38.4021359",
            "closest_to": "sausalito",
            "address": "Sebastopol, Sonoma County, California, United States of America",
            "locType": "city",
            "blogLinks": [
                "http://www.roadsideamerica.com/location/ca"
            ],
            "longitude": "-122.8238805"
        },
        "la jolla cove": {
            "latitude": "32.85051835",
            "closest_to": "santa monica",
            "address": "La Jolla Cove, Coast Boulevard, La Jolla, San Diego, San Diego County, California, 92037, United States of America",
            "locType": "beach",
            "blogLinks": [
                "https://www.virtualtourist.com/travel/North_America/United_States_of_America/California/Things_To_Do-California-TG-C-1.html"
            ],
            "longitude": "-117.273024234204"
        },
        "ventura": {
            "latitude": "34.4458248",
            "closest_to": "sausalito",
            "address": "Ventura County, California, United States of America",
            "locType": "administrative",
            "blogLinks": [
                "http://travelblog.viator.com/road-trip-san-francisco-los-angeles/"
            ],
            "longitude": "-119.0779358"
        },
        "santa cruz wharf": {
            "latitude": "36.9604473",
            "closest_to": "sausalito",
            "address": "Santa Cruz Bay Company, Municipal Wharf, Beach & Boardwalk District (Commercial), Downtown, Santa Cruz, Santa Cruz County, California, 95060, United States of America",
            "locType": "gift",
            "blogLinks": [
                "https://www.virtualtourist.com/travel/North_America/United_States_of_America/California/Things_To_Do-California-TG-C-1.html"
            ],
            "longitude": "-122.0205393"
        },
        "haight-ashbury": {
            "latitude": "37.7700462",
            "closest_to": "sausalito",
            "address": "Haight-Ashbury, SF, California, 94117, United States of America",
            "locType": "neighbourhood",
            "blogLinks": [
                "http://therealmbahousewife.blogspot.com/2013/03/pch-roadtrip-from-la-to-san-francisco.html"
            ],
            "longitude": "-122.4470138"
        },
        "madonna inn": {
            "latitude": "35.2673282",
            "closest_to": "sausalito",
            "address": "Madonna Inn, 100, Madonna Road, San Luis Obispo, San Luis Obispo County, California, 93405, United States of America",
            "locType": "hotel",
            "blogLinks": [
                "http://therealmbahousewife.blogspot.com/2013/03/pch-roadtrip-from-la-to-san-francisco.html"
            ],
            "longitude": "-120.674725246222"
        },
        "arcata": {
            "latitude": "40.8665166",
            "closest_to": "sausalito",
            "address": "Arcata, Humboldt County, California, United States of America",
            "locType": "city",
            "blogLinks": [
                "http://www.roadsideamerica.com/location/ca"
            ],
            "longitude": "-124.0828395"
        },
        "forestville": {
            "latitude": "38.4833405",
            "closest_to": "sausalito",
            "address": "Forestville, Trenton Road, Trenton, Sonoma County, California, 95436, United States of America",
            "locType": "administrative",
            "blogLinks": [
                "http://www.roadsideamerica.com/location/ca"
            ],
            "longitude": "-122.861584174866"
        },
        "north hollywood": {
            "latitude": "34.1729044",
            "closest_to": "sausalito",
            "address": "North Hollywood, LA, Los Angeles County, California, United States of America",
            "locType": "suburb",
            "blogLinks": [
                "http://www.roadsideamerica.com/location/ca"
            ],
            "longitude": "-118.374037"
        },
        "rogue river": {
            "latitude": "35.309311",
            "closest_to": "sausalito",
            "address": "Rogue River Drive, Bakersfield, Kern County, California, 93313, United States of America",
            "locType": "residential",
            "blogLinks": [
                "http://www.trippy.com/question/California-Road-Trip-from-Los-Angeles-to-Vancouver---Spots-I-cant-miss"
            ],
            "longitude": "-119.0813299"
        },
        "pismo beach": {
            "latitude": "35.1427533",
            "closest_to": "sausalito",
            "address": "Pismo Beach, San Luis Obispo County, California, United States of America",
            "locType": "city",
            "blogLinks": [
                "http://www.hopper.com/articles/291/five-great-stops-between-los-angeles-and-san-francisco-on-the-pacific-coast-highway",
                "http://therealmbahousewife.blogspot.com/2013/03/pch-roadtrip-from-la-to-san-francisco.html"
            ],
            "longitude": "-120.6412826"
        },
        "hollywood reservoir": {
            "latitude": "34.12171985",
            "closest_to": "santa monica",
            "address": "Hollywood Reservoir, Hollywood Hills, LA, Los Angeles County, California, 90068, United States of America",
            "locType": "reservoir",
            "blogLinks": [
                "http://www.urbantravelblog.com/guide/los-angeles/"
            ],
            "longitude": "-118.333225101976"
        },
        "barstow": {
            "latitude": "34.8957684",
            "closest_to": "santa monica",
            "address": "Barstow, San Bernardino County, California, United States of America",
            "locType": "administrative",
            "blogLinks": [
                "http://www.roadsideamerica.com/location/ca"
            ],
            "longitude": "-117.0172076"
        },
        "fort irwin": {
            "latitude": "35.2627527",
            "closest_to": "santa monica",
            "address": "Fort Irwin, San Bernardino County, California, United States of America",
            "locType": "hamlet",
            "blogLinks": [
                "http://www.roadsideamerica.com/location/ca"
            ],
            "longitude": "-116.6847523"
        },
        "golden gate bridge": {
            "latitude": "37.8302809",
            "closest_to": "sausalito",
            "address": "Golden Gate Bridge, Waldo, Marin County, California, 94965, United States of America",
            "locType": "motorway",
            "blogLinks": [
                "https://www.pinterest.com/pin/265501340502501862/",
                "https://blog.trekaroo.com/grand-california-road-trip/",
                "http://therealmbahousewife.blogspot.com/2013/03/pch-roadtrip-from-la-to-san-francisco.html"
            ],
            "longitude": "-122.4798473"
        },
        "alcatraz": {
            "latitude": "37.8267283",
            "closest_to": "sausalito",
            "address": "Alcatraz Island, SF, California, United States of America",
            "locType": "island",
            "blogLinks": [
                "https://blog.trekaroo.com/grand-california-road-trip/"
            ],
            "longitude": "-122.422746492409"
        },
        "usa": {
            "latitude": "36.7014631",
            "closest_to": "sausalito",
            "address": "California, United States of America",
            "locType": "administrative",
            "blogLinks": [
                "http://www.distancesfrom.com/us/travel-time-from-Santa-Monica-to-Sausalito-via-Big-Sur/TravelTimeHistory/33120056.aspx",
                "http://www.distancesfrom.com/us/distance-from-Sausalito-to-Santa-Monica/DistanceHistory/26212488.aspx",
                "http://www.distancesfrom.com/us/distance-from-Sausalito-to-Las-Vegas-via-Yosemite-Valley-Visitors-Center-Santa-Monica-San-Diego/DistanceHistory/26212509.aspx",
                "https://blog.trekaroo.com/grand-california-road-trip/",
                "http://www.distancesfrom.com/us/flight-distance-from-Santa-Monica-to-Sausalito/FlightHistory/33120056.aspx"
            ],
            "longitude": "-118.7559973"
        },
        "astoria": {
            "latitude": "33.6521919",
            "closest_to": "santa monica",
            "address": "Astoria, Palmia, Mission Viejo, Orange County, California, 92692, United States of America",
            "locType": "residential",
            "blogLinks": [
                "http://www.trippy.com/question/California-Road-Trip-from-Los-Angeles-to-Vancouver---Spots-I-cant-miss"
            ],
            "longitude": "-117.6278767"
        },
        "guerneville": {
            "latitude": "38.5116609",
            "closest_to": "sausalito",
            "address": "Guerneville, Orchard Road, El Bonita, Sonoma County, California, 95446, United States of America",
            "locType": "administrative",
            "blogLinks": [
                "http://www.roadsideamerica.com/location/ca"
            ],
            "longitude": "-122.987128549631"
        },
        "vancouver": {
            "latitude": "34.824773",
            "closest_to": "santa monica",
            "address": "Vancouver, San Bernardino County, California, United States of America",
            "locType": "residential",
            "blogLinks": [
                "http://www.trippy.com/question/California-Road-Trip-from-Los-Angeles-to-Vancouver---Spots-I-cant-miss"
            ],
            "longitude": "-117.4634669"
        },
        "el captain": {
            "latitude": "39.9234913",
            "closest_to": "sausalito",
            "address": "Captain Jones Rapids, Tehama County, California, United States of America",
            "locType": "rapids",
            "blogLinks": [
                "https://www.virtualtourist.com/travel/North_America/United_States_of_America/California/Things_To_Do-California-TG-C-1.html"
            ],
            "longitude": "-122.0827639"
        },
        "monterey bay": {
            "latitude": "36.7999557",
            "closest_to": "sausalito",
            "address": "Monterey Bay, Monterey County, California, United States of America",
            "locType": "bay",
            "blogLinks": [
                "http://travelblog.viator.com/road-trip-san-francisco-los-angeles/",
                "http://www.hopper.com/articles/291/five-great-stops-between-los-angeles-and-san-francisco-on-the-pacific-coast-highway"
            ],
            "longitude": "-121.9010667"
        },
        "mammoth lakes": {
            "latitude": "37.6432525",
            "closest_to": "sausalito",
            "address": "Mammoth Lakes, Mono County, California, United States of America",
            "locType": "administrative",
            "blogLinks": [
                "https://www.virtualtourist.com/travel/North_America/United_States_of_America/California/Things_To_Do-California-TG-C-1.html"
            ],
            "longitude": "-118.9668508"
        },
        "huntington beach": {
            "latitude": "33.6783336",
            "closest_to": "santa monica",
            "address": "Huntington Beach, Orange County, California, United States of America",
            "locType": "city",
            "blogLinks": [
                "https://www.virtualtourist.com/travel/North_America/United_States_of_America/California/Things_To_Do-California-TG-C-1.html",
                "https://blog.trekaroo.com/grand-california-road-trip/",
                "http://www.roadsideamerica.com/location/ca"
            ],
            "longitude": "-118.0000165"
        },
        "kettleman city": {
            "latitude": "36.008937",
            "closest_to": "sausalito",
            "address": "Kettleman City, 7th Street, Kettleman City, Kings County, California, 93239, United States of America",
            "locType": "administrative",
            "blogLinks": [
                "http://www.roadsideamerica.com/location/ca"
            ],
            "longitude": "-119.962676860725"
        },
        "venice": {
            "latitude": "33.995044",
            "closest_to": "santa monica",
            "address": "Venice, LA, Los Angeles County, California, United States of America",
            "locType": "suburb",
            "blogLinks": [
                "https://br.pinterest.com/pin/394135404858972175",
                "http://www.roadsideamerica.com/location/ca",
                "http://www.urbantravelblog.com/guide/los-angeles/"
            ],
            "longitude": "-118.4668874"
        },
        "palm springs tramway": {
            "latitude": "33.85839515",
            "closest_to": "santa monica",
            "address": "Palm Springs Visitors Center, 2901, Tramway Road, Palm Springs, Riverside County, California, 92262, United States of America",
            "locType": "information",
            "blogLinks": [
                "https://www.virtualtourist.com/travel/North_America/United_States_of_America/California/Things_To_Do-California-TG-C-1.html"
            ],
            "longitude": "-116.558183152534"
        },
        "us": {
            "latitude": "36.7014631",
            "closest_to": "sausalito",
            "address": "California, United States of America",
            "locType": "administrative",
            "blogLinks": [
                "http://www.trippy.com/question/California-Road-Trip-from-Los-Angeles-to-Vancouver---Spots-I-cant-miss",
                "https://www.virtualtourist.com/travel/North_America/United_States_of_America/California/Things_To_Do-California-TG-C-1.html",
                "https://blog.trekaroo.com/grand-california-road-trip/"
            ],
            "longitude": "-118.7559973"
        },
        "boonville": {
            "latitude": "39.0091667",
            "closest_to": "sausalito",
            "address": "Boonville, Mendocino County, California, 95415, United States of America",
            "locType": "village",
            "blogLinks": [
                "http://www.roadsideamerica.com/location/ca"
            ],
            "longitude": "-123.366111"
        },
        "santa fe springs": {
            "latitude": "33.9482434",
            "closest_to": "santa monica",
            "address": "Santa Fe Springs, Los Angeles County, California, United States of America",
            "locType": "city",
            "blogLinks": [
                "http://www.roadsideamerica.com/location/ca"
            ],
            "longitude": "-118.0676102"
        },
        "maritime museum of san diego": {
            "latitude": "32.7209274",
            "closest_to": "santa monica",
            "address": "Maritime Museum of San Diego, North Harbor Drive, Hillcrest, San Diego, San Diego County, California, 92106, United States of America",
            "locType": "museum",
            "blogLinks": [
                "https://blog.trekaroo.com/grand-california-road-trip/"
            ],
            "longitude": "-117.1738105"
        },
        "sausalito": {
            "latitude": "37.8590272",
            "closest_to": "sausalito",
            "address": "Sausalito, Marin County, California, United States of America",
            "locType": "administrative",
            "blogLinks": [
                "http://www.distancesfrom.com/us/distance-from-Sausalito-to-Las-Vegas-via-Yosemite-Valley-Visitors-Center-Santa-Monica-San-Diego/DistanceHistory/26212509.aspx",
                "http://www.distancesfrom.com/us/distance-from-Sausalito-to-Santa-Monica/DistanceHistory/26212488.aspx",
                "http://www.trippy.com/question/California-Road-Trip-from-Los-Angeles-to-Vancouver---Spots-I-cant-miss",
                "https://www.virtualtourist.com/travel/North_America/United_States_of_America/California/Things_To_Do-California-TG-C-1.html",
                "http://www.distancesfrom.com/us/flight-distance-from-Santa-Monica-to-Sausalito/FlightHistory/33120056.aspx",
                "http://www.distancesfrom.com/us/travel-time-from-Santa-Monica-to-Sausalito-via-Big-Sur/TravelTimeHistory/33120056.aspx",
                "https://www.tripadvisor.com/ShowTopic-g33052-i158-k7463589-Santa_Monica_vs_Sausalito-Santa_Monica_California.html"
            ],
            "longitude": "-122.4854693"
        },
        "lone pine": {
            "latitude": "36.583176",
            "closest_to": "sausalito",
            "address": "Lone Pine, Tuttle Creek Road, Alabama Hills, Inyo County, California, 93545, United States of America",
            "locType": "administrative",
            "blogLinks": [
                "https://www.virtualtourist.com/travel/North_America/United_States_of_America/California/Things_To_Do-California-TG-C-1.html"
            ],
            "longitude": "-118.078359194897"
        },
        "santa monica": {
            "latitude": "34.0195598",
            "closest_to": "santa monica",
            "address": "Santa Monica, Los Angeles County, California, United States of America",
            "locType": "city",
            "blogLinks": [
                "http://www.urbantravelblog.com/guide/los-angeles/",
                "http://www.distancesfrom.com/us/distance-from-Sausalito-to-Santa-Monica/DistanceHistory/26212488.aspx",
                "http://www.hopper.com/articles/291/five-great-stops-between-los-angeles-and-san-francisco-on-the-pacific-coast-highway",
                "http://www.distancesfrom.com/us/flight-distance-from-Santa-Monica-to-Sausalito/FlightHistory/33120056.aspx",
                "http://therealmbahousewife.blogspot.com/2013/03/pch-roadtrip-from-la-to-san-francisco.html",
                "http://www.distancesfrom.com/us/travel-time-from-Santa-Monica-to-Sausalito-via-Big-Sur/TravelTimeHistory/33120056.aspx",
                "https://www.tripadvisor.com/ShowTopic-g33052-i158-k7463589-Santa_Monica_vs_Sausalito-Santa_Monica_California.html",
                "http://travelblog.viator.com/road-trip-san-francisco-los-angeles/"
            ],
            "longitude": "-118.4869738"
        },
        "west beach": {
            "latitude": "34.4114406",
            "closest_to": "sausalito",
            "address": "West Beach, Stearns Wharf, Santa Barbara, Santa Barbara County, California, 93103, United States of America",
            "locType": "beach",
            "blogLinks": [
                "https://blog.trekaroo.com/grand-california-road-trip/"
            ],
            "longitude": "-119.688942969453"
        },
        "winchester blvd": {
            "latitude": "37.2573553",
            "closest_to": "sausalito",
            "address": "Winchester Boulevard, Los Gatos, Santa Clara County, California, 95030, United States of America",
            "locType": "primary",
            "blogLinks": [
                "https://www.virtualtourist.com/travel/North_America/United_States_of_America/California/Things_To_Do-California-TG-C-1.html"
            ],
            "longitude": "-121.965075"
        },
        "ft. bragg": {
            "latitude": "39.4447345",
            "closest_to": "sausalito",
            "address": "Fort Bragg, Mendocino County, California, United States of America",
            "locType": "city",
            "blogLinks": [
                "http://www.trippy.com/question/California-Road-Trip-from-Los-Angeles-to-Vancouver---Spots-I-cant-miss"
            ],
            "longitude": "-123.802699105743"
        },
        "seattle": {
            "latitude": "41.9641881",
            "closest_to": "sausalito",
            "address": "Seattle, Dorris, Siskiyou County, California, 96023, United States of America",
            "locType": "residential",
            "blogLinks": [
                "http://www.trippy.com/question/California-Road-Trip-from-Los-Angeles-to-Vancouver---Spots-I-cant-miss"
            ],
            "longitude": "-121.9226289"
        },
        "chase palm park": {
            "latitude": "34.41527625",
            "closest_to": "sausalito",
            "address": "Chase Palm Park, East Cabrillo Boulevard, Santa Barbara, Santa Barbara County, California, 93103, United States of America",
            "locType": "park",
            "blogLinks": [
                "https://blog.trekaroo.com/grand-california-road-trip/"
            ],
            "longitude": "-119.679267670006"
        },
        "pacific": {
            "latitude": "38.7601815",
            "closest_to": "sausalito",
            "address": "Pacific, El Dorado County, California, United States of America",
            "locType": "hamlet",
            "blogLinks": [
                "http://www.trippy.com/question/California-Road-Trip-from-Los-Angeles-to-Vancouver---Spots-I-cant-miss",
                "http://travelblog.viator.com/road-trip-san-francisco-los-angeles/",
                "https://blog.trekaroo.com/grand-california-road-trip/"
            ],
            "longitude": "-120.507146"
        },
        "san luis obispo county": {
            "latitude": "35.3540209",
            "closest_to": "sausalito",
            "address": "San Luis Obispo County, California, United States of America",
            "locType": "administrative",
            "blogLinks": [
                "http://www.hopper.com/articles/291/five-great-stops-between-los-angeles-and-san-francisco-on-the-pacific-coast-highway"
            ],
            "longitude": "-120.3757162"
        },
        "burbank": {
            "latitude": "34.1816482",
            "closest_to": "sausalito",
            "address": "Burbank, Los Angeles County, California, United States of America",
            "locType": "city",
            "blogLinks": [
                "http://www.roadsideamerica.com/location/ca"
            ],
            "longitude": "-118.3258553"
        },
        "los angele": {
            "latitude": "34.5856335",
            "closest_to": "sausalito",
            "address": "Angele Trumpet Court, Palmdale, Los Angeles County, California, 93550, United States of America",
            "locType": "residential",
            "blogLinks": [
                "http://www.roadsideamerica.com/location/ca"
            ],
            "longitude": "-118.0798688"
        },
        "london": {
            "latitude": "36.4760619",
            "closest_to": "sausalito",
            "address": "London, Tulare County, California, United States of America",
            "locType": "village",
            "blogLinks": [
                "http://www.roadsideamerica.com/location/ca",
                "http://www.urbantravelblog.com/guide/los-angeles/"
            ],
            "longitude": "-119.4431784"
        },
        "newport beach": {
            "latitude": "33.6170092",
            "closest_to": "santa monica",
            "address": "Newport Beach, Orange County, California, United States of America",
            "locType": "city",
            "blogLinks": [
                "http://www.roadsideamerica.com/location/ca"
            ],
            "longitude": "-117.92944"
        },
        "central coast": {
            "latitude": "35.3611193",
            "closest_to": "sausalito",
            "address": "Central Coast Street, Bakersfield, Kern County, California, 93314, United States of America",
            "locType": "residential",
            "blogLinks": [
                "http://travelblog.viator.com/road-trip-san-francisco-los-angeles/"
            ],
            "longitude": "-119.1665989"
        },
        "south lake tahoe": {
            "latitude": "38.929125",
            "closest_to": "sausalito",
            "address": "South Lake Tahoe, El Dorado County, California, United States of America",
            "locType": "city",
            "blogLinks": [
                "https://www.virtualtourist.com/travel/North_America/United_States_of_America/California/Things_To_Do-California-TG-C-1.html",
                "http://www.roadsideamerica.com/location/ca"
            ],
            "longitude": "-119.987846390157"
        },
        "sylmar": {
            "latitude": "34.3076252",
            "closest_to": "sausalito",
            "address": "Sylmar, LA, Los Angeles County, California, United States of America",
            "locType": "suburb",
            "blogLinks": [
                "http://www.roadsideamerica.com/location/ca"
            ],
            "longitude": "-118.4492147"
        },
        "monterey bay aquarium": {
            "latitude": "36.61809095",
            "closest_to": "sausalito",
            "address": "MBA, 886, Cannery Row, Monterey, Monterey County, California, 93940, United States of America",
            "locType": "aquarium",
            "blogLinks": [
                "http://travelblog.viator.com/road-trip-san-francisco-los-angeles/",
                "http://www.hopper.com/articles/291/five-great-stops-between-los-angeles-and-san-francisco-on-the-pacific-coast-highway",
                "http://therealmbahousewife.blogspot.com/2013/03/pch-roadtrip-from-la-to-san-francisco.html"
            ],
            "longitude": "-121.901680002002"
        },
        "tokyo": {
            "latitude": "34.0431787",
            "closest_to": "santa monica",
            "address": "Southern California Institute of Architecture, 960, East 3rd Street, Arts District, Little Tokyo Historic District, LA, Los Angeles County, California, 90013, United States of America",
            "locType": "school",
            "blogLinks": [
                "http://www.urbantravelblog.com/guide/los-angeles/"
            ],
            "longitude": "-118.2328066"
        },
        "venice beach hostel": {
            "latitude": "33.9867471",
            "closest_to": "santa monica",
            "address": "Venice Beach Hostel, W Washington Boulevard, Venice, LA, Los Angeles County, California, 90292, United States of America",
            "locType": "hostel",
            "blogLinks": [
                "http://www.urbantravelblog.com/guide/los-angeles/"
            ],
            "longitude": "-118.4541753"
        },
        "hearst castle": {
            "latitude": "35.6853689",
            "closest_to": "sausalito",
            "address": "Hearst Castle, 750, Hearst Castle Road, San Simeon, San Luis Obispo County, California, 93452, United States of America",
            "locType": "museum",
            "blogLinks": [
                "http://www.trippy.com/question/California-Road-Trip-from-Los-Angeles-to-Vancouver---Spots-I-cant-miss"
            ],
            "longitude": "-121.167587299509"
        },
        "chicago": {
            "latitude": "37.7850531",
            "closest_to": "sausalito",
            "address": "Chicago, Woodstock, Alameda, Alameda County, California, 94501, United States of America",
            "locType": "residential",
            "blogLinks": [
                "http://therealmbahousewife.blogspot.com/2013/03/pch-roadtrip-from-la-to-san-francisco.html"
            ],
            "longitude": "-122.2872948"
        },
        "apple valley": {
            "latitude": "34.5008311",
            "closest_to": "santa monica",
            "address": "Apple Valley, San Bernardino County, California, United States of America",
            "locType": "administrative",
            "blogLinks": [
                "http://www.roadsideamerica.com/location/ca"
            ],
            "longitude": "-117.1858758"
        },
        "buena park": {
            "latitude": "33.870413",
            "closest_to": "santa monica",
            "address": "Buena Park, Orange County, California, United States of America",
            "locType": "city",
            "blogLinks": [
                "http://www.roadsideamerica.com/location/ca"
            ],
            "longitude": "-117.9962164"
        },
        "san carlos": {
            "latitude": "37.4982065",
            "closest_to": "sausalito",
            "address": "San Carlos, San Mateo County, California, United States of America",
            "locType": "city",
            "blogLinks": [
                "http://www.roadsideamerica.com/location/ca"
            ],
            "longitude": "-122.266149723864"
        },
        "napa": {
            "latitude": "38.2971367",
            "closest_to": "sausalito",
            "address": "Napa, Napa County, California, United States of America",
            "locType": "city",
            "blogLinks": [
                "http://therealmbahousewife.blogspot.com/2013/03/pch-roadtrip-from-la-to-san-francisco.html"
            ],
            "longitude": "-122.2855292"
        },
        "sierra mar": {
            "latitude": "36.229692",
            "closest_to": "sausalito",
            "address": "Sierra Mar, Bill's Trail, Posts, Monterey County, California, United States of America",
            "locType": "restaurant",
            "blogLinks": [
                "http://therealmbahousewife.blogspot.com/2013/03/pch-roadtrip-from-la-to-san-francisco.html"
            ],
            "longitude": "-121.77167575"
        },
        "broadway": {
            "latitude": "37.7958391",
            "closest_to": "sausalito",
            "address": "Broadway, Russian Hill, SF, California, 94109;94115, United States of America",
            "locType": "primary",
            "blogLinks": [
                "http://therealmbahousewife.blogspot.com/2013/03/pch-roadtrip-from-la-to-san-francisco.html"
            ],
            "longitude": "-122.4226908"
        },
        "santa clarita": {
            "latitude": "34.3916641",
            "closest_to": "sausalito",
            "address": "Santa Clarita, Los Angeles County, California, United States of America",
            "locType": "city",
            "blogLinks": [
                "http://www.roadsideamerica.com/location/ca"
            ],
            "longitude": "-118.5425859"
        },
        "emerald bay": {
            "latitude": "38.9599078",
            "closest_to": "sausalito",
            "address": "Emerald Bay, El Dorado County, California, United States of America",
            "locType": "hamlet",
            "blogLinks": [
                "https://www.virtualtourist.com/travel/North_America/United_States_of_America/California/Things_To_Do-California-TG-C-1.html"
            ],
            "longitude": "-120.0979629"
        },
        "trona": {
            "latitude": "35.7627322",
            "closest_to": "sausalito",
            "address": "Trona, San Bernardino County, California, United States of America",
            "locType": "hamlet",
            "blogLinks": [
                "http://www.roadsideamerica.com/location/ca"
            ],
            "longitude": "-117.3728345"
        },
        "balboa park": {
            "latitude": "37.72494875",
            "closest_to": "sausalito",
            "address": "Balboa Park, Sergeant John V Young Lane, Ingleside, SF, California, 94112, United States of America",
            "locType": "park",
            "blogLinks": [
                "https://blog.trekaroo.com/grand-california-road-trip/"
            ],
            "longitude": "-122.444804424152"
        },
        "san luis": {
            "latitude": "32.4962137",
            "closest_to": "santa monica",
            "address": "California Street, Bienestar Estates, San Luis, Yuma County, Arizona, 85336, United States of America",
            "locType": "residential",
            "blogLinks": [
                "https://www.virtualtourist.com/travel/North_America/United_States_of_America/California/Things_To_Do-California-TG-C-1.html"
            ],
            "longitude": "-114.7643625"
        },
        "tulelake": {
            "latitude": "41.9559885",
            "closest_to": "sausalito",
            "address": "Tulelake, Siskiyou County, California, United States of America",
            "locType": "city",
            "blogLinks": [
                "http://www.roadsideamerica.com/location/ca"
            ],
            "longitude": "-121.4774915"
        },
        "willow creek": {
            "latitude": "40.9395774",
            "closest_to": "sausalito",
            "address": "Willow Creek, Humboldt County, California, United States of America",
            "locType": "hamlet",
            "blogLinks": [
                "http://www.roadsideamerica.com/location/ca"
            ],
            "longitude": "-123.6314411"
        },
        "palo alto": {
            "latitude": "37.442156",
            "closest_to": "sausalito",
            "address": "Palo Alto, Santa Clara County, California, United States of America",
            "locType": "city",
            "blogLinks": [
                "http://www.roadsideamerica.com/location/ca"
            ],
            "longitude": "-122.1634471"
        },
        "hopland": {
            "latitude": "38.9729542",
            "closest_to": "sausalito",
            "address": "Hopland, Mendocino County, California, United States of America",
            "locType": "hamlet",
            "blogLinks": [
                "http://www.roadsideamerica.com/location/ca"
            ],
            "longitude": "-123.1163917"
        },
        "golden gate park": {
            "latitude": "37.7693681",
            "closest_to": "sausalito",
            "address": "Golden Gate Park, Overlook Drive, Richmond District, SF, California, 94122, United States of America",
            "locType": "park",
            "blogLinks": [
                "https://blog.trekaroo.com/grand-california-road-trip/",
                "http://therealmbahousewife.blogspot.com/2013/03/pch-roadtrip-from-la-to-san-francisco.html"
            ],
            "longitude": "-122.482183611177"
        },
        "temecula": {
            "latitude": "33.4946353",
            "closest_to": "santa monica",
            "address": "Temecula, Riverside County, California, United States of America",
            "locType": "city",
            "blogLinks": [
                "http://www.roadsideamerica.com/location/ca"
            ],
            "longitude": "-117.147366"
        },
        "neptune": {
            "latitude": "33.7953668",
            "closest_to": "santa monica",
            "address": "Neptune, Palm Springs, Riverside County, California, 92264, United States of America",
            "locType": "residential",
            "blogLinks": [
                "http://therealmbahousewife.blogspot.com/2013/03/pch-roadtrip-from-la-to-san-francisco.html"
            ],
            "longitude": "-116.5067839"
        },
        "exposition park": {
            "latitude": "34.01496305",
            "closest_to": "santa monica",
            "address": "Exposition Park, Exposition Park Drive, Jefferson, LA, Los Angeles County, California, 90037, United States of America",
            "locType": "park",
            "blogLinks": [
                "https://blog.trekaroo.com/grand-california-road-trip/"
            ],
            "longitude": "-118.287178776841"
        },
        "santa lucia mountain": {
            "latitude": "34.4379129",
            "closest_to": "sausalito",
            "address": "Santa Lucia, Santa Barbara County, California, 93111, United States of America",
            "locType": "residential",
            "blogLinks": [
                "http://travelblog.viator.com/road-trip-san-francisco-los-angeles/"
            ],
            "longitude": "-119.8003246"
        },
        "la": {
            "latitude": "36.7014631",
            "closest_to": "sausalito",
            "address": "California, United States of America",
            "locType": "administrative",
            "blogLinks": [
                "http://www.trippy.com/question/California-Road-Trip-from-Los-Angeles-to-Vancouver---Spots-I-cant-miss",
                "https://www.tripadvisor.com/ShowTopic-g33052-i158-k7463589-Santa_Monica_vs_Sausalito-Santa_Monica_California.html",
                "https://blog.trekaroo.com/grand-california-road-trip/",
                "http://www.urbantravelblog.com/guide/los-angeles/",
                "http://therealmbahousewife.blogspot.com/2013/03/pch-roadtrip-from-la-to-san-francisco.html"
            ],
            "longitude": "-118.7559973"
        },
        "union square": {
            "latitude": "37.78794125",
            "closest_to": "sausalito",
            "address": "Union Square, Post Street, Chinatown, SF, California, 94115, United States of America",
            "locType": "park",
            "blogLinks": [
                "http://therealmbahousewife.blogspot.com/2013/03/pch-roadtrip-from-la-to-san-francisco.html"
            ],
            "longitude": "-122.407502671706"
        },
        "owens river valley": {
            "latitude": "37.4100005",
            "closest_to": "sausalito",
            "address": "Owens River, Inyo County, California, United States of America",
            "locType": "river",
            "blogLinks": [
                "http://www.urbantravelblog.com/guide/los-angeles/"
            ],
            "longitude": "-118.3819013"
        },
        "monterey county": {
            "latitude": "36.2231079",
            "closest_to": "sausalito",
            "address": "Monterey County, California, United States of America",
            "locType": "administrative",
            "blogLinks": [
                "http://travelblog.viator.com/road-trip-san-francisco-los-angeles/"
            ],
            "longitude": "-121.3877427"
        },
        "solvang": {
            "latitude": "34.5958572",
            "closest_to": "sausalito",
            "address": "Solvang, Santa Barbara County, California, United States of America",
            "locType": "city",
            "blogLinks": [
                "http://therealmbahousewife.blogspot.com/2013/03/pch-roadtrip-from-la-to-san-francisco.html"
            ],
            "longitude": "-120.1390893"
        },
        "ocean beach": {
            "latitude": "32.7477784",
            "closest_to": "santa monica",
            "address": "Ocean Beach, San Diego, San Diego County, California, United States of America",
            "locType": "region",
            "blogLinks": [
                "http://travelblog.viator.com/road-trip-san-francisco-los-angeles/"
            ],
            "longitude": "-117.249321"
        },
        "coronado bridge": {
            "latitude": "32.6904606",
            "closest_to": "santa monica",
            "address": "San Diego-Coronado Bridge, San Diego, San Diego County, California, 92118, United States of America",
            "locType": "motorway",
            "blogLinks": [
                "https://blog.trekaroo.com/grand-california-road-trip/"
            ],
            "longitude": "-117.1524863"
        },
        "chinatown": {
            "latitude": "37.7999301",
            "closest_to": "sausalito",
            "address": "Chinatown, Oakland, Alameda County, California, ca, United States of America",
            "locType": "neighbourhood",
            "blogLinks": [
                "https://blog.trekaroo.com/grand-california-road-trip/"
            ],
            "longitude": "-122.2702385"
        },
        "northern california": {
            "latitude": "32.7349196",
            "closest_to": "santa monica",
            "address": "Northern Frontier, San Diego, San Diego County, California, United States of America",
            "locType": "locality",
            "blogLinks": [
                "http://www.trippy.com/question/California-Road-Trip-from-Los-Angeles-to-Vancouver---Spots-I-cant-miss",
                "http://www.distancesfrom.com/us/travel-time-from-Santa-Monica-to-Sausalito-via-Big-Sur/TravelTimeHistory/33120056.aspx",
                "https://blog.trekaroo.com/grand-california-road-trip/"
            ],
            "longitude": "-117.1545973"
        },
        "viking garden": {
            "latitude": "33.7687836",
            "closest_to": "santa monica",
            "address": "Viking Circle, Garden Grove, Orange County, California, 92843, United States of America",
            "locType": "residential",
            "blogLinks": [
                "http://therealmbahousewife.blogspot.com/2013/03/pch-roadtrip-from-la-to-san-francisco.html"
            ],
            "longitude": "-117.9253327"
        },
        "boudin bakery": {
            "latitude": "37.808455",
            "closest_to": "sausalito",
            "address": "Boudin Bakery, 160, Jefferson Street, Russian Hill, SF, California, 94133, United States of America",
            "locType": "bakery",
            "blogLinks": [
                "http://therealmbahousewife.blogspot.com/2013/03/pch-roadtrip-from-la-to-san-francisco.html"
            ],
            "longitude": "-122.4149089"
        },
        "santa cruz beach boardwalk": {
            "latitude": "36.96446855",
            "closest_to": "sausalito",
            "address": "Santa Cruz Beach Boardwalk, Boardwalk, Beach & Boardwalk District (Commercial), Seabright, Santa Cruz, Santa Cruz County, California, 1982, United States of America",
            "locType": "attraction",
            "blogLinks": [
                "http://travelblog.viator.com/road-trip-san-francisco-los-angeles/"
            ],
            "longitude": "-122.016027247326"
        },
        "embarcadero": {
            "latitude": "37.7928455",
            "closest_to": "sausalito",
            "address": "Embarcadero, Market Street, Financial District, SF, California, 94111, United States of America",
            "locType": "station",
            "blogLinks": [
                "https://blog.trekaroo.com/grand-california-road-trip/"
            ],
            "longitude": "-122.396892"
        },
        "orange county": {
            "latitude": "33.7500378",
            "closest_to": "santa monica",
            "address": "Orange County, California, United States of America",
            "locType": "administrative",
            "blogLinks": [
                "https://blog.trekaroo.com/grand-california-road-trip/",
                "http://therealmbahousewife.blogspot.com/2013/03/pch-roadtrip-from-la-to-san-francisco.html"
            ],
            "longitude": "-117.870493"
        },
        "lake crowley": {
            "latitude": "37.61903895",
            "closest_to": "sausalito",
            "address": "Lake Crowley, Layton Springs Road, North Landing, Mono County, California, United States of America",
            "locType": "water",
            "blogLinks": [
                "https://www.virtualtourist.com/travel/North_America/United_States_of_America/California/Things_To_Do-California-TG-C-1.html"
            ],
            "longitude": "-118.731056945814"
        },
        "kern river valley": {
            "latitude": "36.6816956",
            "closest_to": "sausalito",
            "address": "Kern River, Tulare County, California, United States of America",
            "locType": "river",
            "blogLinks": [
                "https://www.virtualtourist.com/travel/North_America/United_States_of_America/California/Things_To_Do-California-TG-C-1.html"
            ],
            "longitude": "-118.4124188"
        },
        "nepenthe": {
            "latitude": "36.2218116",
            "closest_to": "sausalito",
            "address": "Nepenthe, 48510, Cabrillo Highway, Posts, Monterey County, California, 93920-9549, United States of America",
            "locType": "restaurant",
            "blogLinks": [
                "http://travelblog.viator.com/road-trip-san-francisco-los-angeles/"
            ],
            "longitude": "-121.7596564"
        },
        "hotel union square": {
            "latitude": "37.785799",
            "closest_to": "sausalito",
            "address": "Hotel Union Square, Powell Street, Chinatown, SF, California, 94133, United States of America",
            "locType": "hotel",
            "blogLinks": [
                "http://therealmbahousewife.blogspot.com/2013/03/pch-roadtrip-from-la-to-san-francisco.html"
            ],
            "longitude": "-122.4077409"
        },
        "aguanga": {
            "latitude": "33.4428094",
            "closest_to": "santa monica",
            "address": "Aguanga, Riverside County, California, United States of America",
            "locType": "hamlet",
            "blogLinks": [
                "http://www.roadsideamerica.com/location/ca"
            ],
            "longitude": "-116.8650234"
        },