{
    "badami": {
        "place_id": "6086961",
        "osm_id": "655135229",
        "icon": "https://nominatim.openstreetmap.org/images/mapicons/poi_place_town.p.20.png",
        "osm_type": "node",
        "licence": "Data \u00a9 OpenStreetMap contributors, ODbL 1.0. http://www.openstreetmap.org/copyright",
        "display_name": "Badami, Badami taluku, Bagalkote district, Karnataka, 587200, India",
        "type": "town",
        "lon": "75.6807865",
        "boundingbox": [
            "15.8803874",
            "15.9603874",
            "75.6407865",
            "75.7207865"
        ],
        "importance": 0.5,
        "lat": "15.9203874",
        "class": "place"
    },
    "mentions": {
        "subramanya": {
            "closest_to": "",
            "address": "Subramanya Arcade, Marenahalli, Bengaluru, Bangalore Urban, Karnataka, 560001, India",
            "longitude": "77.6015800913134",
            "latitude": "12.9251206",
            "blogLinks": [
                "https://en.wikipedia.org/wiki/Tourism_in_Karnataka"
            ],
            "locType": "commercial"
        },
        "northern india": {
            "closest_to": "",
            "address": "Northern Operating  Services Pvt Ltd, RMZ Ecospace, Internal Rd, RMZ Ecospace, Bellandur, Doddakannelli, Bangalore Urban, Karnataka, 560037, India",
            "longitude": "77.6804678",
            "latitude": "12.9257442",
            "blogLinks": [
                "http://www.holidaymonk.com/15-places-to-visit-in-karnataka/"
            ],
            "locType": "company"
        },
        "indus valley": {
            "closest_to": "",
            "address": "Indus Signature Apartments, Indiranagar, Bengaluru, Bangalore Urban, Karnataka, 560001, India",
            "longitude": "77.6334755668175",
            "latitude": "12.97332085",
            "blogLinks": [
                "http://www.indianholiday.com/travel-destinations/karnataka.html"
            ],
            "locType": "residential"
        },
        "maharashtra": {
            "closest_to": "",
            "address": "Bank of Maharashtra, 24th Main, K R Layout, Puttenahalli, Bengaluru, Bangalore Urban, Karnataka, 560001, India",
            "longitude": "77.5856013",
            "latitude": "12.9049455",
            "blogLinks": [
                "https://en.wikipedia.org/wiki/Tourism_in_Karnataka",
                "https://www.travelblog.org/Asia/India/Karnataka/Bangalore/Koramangala/blog-914055.html",
                "http://www.holidaymonk.com/15-places-to-visit-in-karnataka/"
            ],
            "locType": "bank"
        },
        "kamala": {
            "closest_to": "",
            "address": "Kamala Nehru Patashala (Emmanual English School), 5th A Cross Road, Yediyur, Thyagaraja Nagar, Bengaluru, Bangalore Urban, Karnataka, 560001, India",
            "longitude": "77.5664867",
            "latitude": "12.9339482",
            "blogLinks": [
                "https://en.wikipedia.org/wiki/Tourism_in_Karnataka"
            ],
            "locType": "school"
        },
        "bangalore": {
            "closest_to": "",
            "address": "Bengaluru, Bangalore Urban, Karnataka, 560001, India",
            "longitude": "77.5912997",
            "latitude": "12.9791198",
            "blogLinks": [
                "http://www.indianholiday.com/travel-destinations/karnataka.html",
                "https://www.quora.com/Visiting-and-Travel-in-India-What-are-some-of-the-best-places-to-visit-in-Southern-India",
                "https://www.travelblog.org/Asia/India/Karnataka/Bangalore/Koramangala/blog-914055.html",
                "http://www.nivalink.com/destination/badami",
                "https://en.wikipedia.org/wiki/Tourism_in_Karnataka",
                "https://www.tripoto.com/weekend-getaways/from-agumbe",
                "https://en.wikipedia.org/wiki/Agumbe",
                "http://traveltriangle.com/blog/road-trips-from-bangalore/"
            ],
            "locType": "city"
        },
        "china": {
            "closest_to": "",
            "address": "Highland China, Magrath Road, Tasker Town, Ashok Nagar, Bengaluru, Bangalore Urban, Karnataka, 560001, India",
            "longitude": "77.6074274",
            "latitude": "12.9708868",
            "blogLinks": [
                "http://traveltriangle.com/blog/road-trips-from-bangalore/"
            ],
            "locType": "restaurant"
        },
        "bannerghatta national park": {
            "closest_to": "",
            "address": "Bannerghatta National Park, Anekal Road, Begihalli, Bangalore Urban, Karnataka, 560076, India",
            "longitude": "77.5722783830694",
            "latitude": "12.77900335",
            "blogLinks": [
                "https://en.wikipedia.org/wiki/Tourism_in_Karnataka"
            ],
            "locType": "national_park"
        },
        "bidar district": {
            "closest_to": "",
            "address": "Bidar district, Karnataka, India",
            "longitude": "77.2496344350342",
            "latitude": "18.0158574",
            "blogLinks": [
                "https://en.wikipedia.org/wiki/Tourism_in_Karnataka"
            ],
            "locType": "administrative"
        },
        "hoysala": {
            "closest_to": "",
            "address": "Hoysala Nagar, Bengaluru, Bangalore Urban, Karnataka, 560001, India",
            "longitude": "77.6375990817051",
            "latitude": "12.97813815",
            "blogLinks": [
                "https://en.wikipedia.org/wiki/Tourism_in_Karnataka"
            ],
            "locType": "administrative"
        },
        "cauvery": {
            "closest_to": "",
            "address": "Cauvery, 1st Main Road, Lower Palace Orchard, Guttahalli, Bengaluru, Bangalore Urban, Karnataka, 560001, India",
            "longitude": "77.5832796015599",
            "latitude": "13.00262215",
            "blogLinks": [
                "http://traveltriangle.com/blog/road-trips-from-bangalore/"
            ],
            "locType": "cinema"
        },
        "mekedatu": {
            "closest_to": "",
            "address": "Mekedatu, SH92, Mahalli, Kanakapura taluk, Ramanagara district, Karnataka, India",
            "longitude": "77.4475194",
            "latitude": "12.2584997",
            "blogLinks": [
                "https://en.wikipedia.org/wiki/Tourism_in_Karnataka",
                "http://traveltriangle.com/blog/road-trips-from-bangalore/"
            ],
            "locType": "attraction"
        },
        "north karnataka": {
            "closest_to": "",
            "address": "N, Chaithanya Samarpan, Kadugodi, Kannamangala, Bangalore Urban, Karnataka, 560066, India",
            "longitude": "77.7660547",
            "latitude": "13.0217151",
            "blogLinks": [
                "https://en.wikipedia.org/wiki/Tourism_in_Karnataka",
                "https://www.travelblog.org/Asia/India/Karnataka/Bangalore/Koramangala/blog-914055.html",
                "http://www.holidaymonk.com/15-places-to-visit-in-karnataka/"
            ],
            "locType": "service"
        },
        "north goa": {
            "closest_to": "",
            "address": "Carnival De Goa, Bhaskaran Road, Gupta Layout, Halasuru, Bengaluru, Bangalore Urban, Karnataka, 560001, India",
            "longitude": "77.6200027",
            "latitude": "12.9750047",
            "blogLinks": [
                "https://www.tripoto.com/weekend-getaways/from-agumbe"
            ],
            "locType": "restaurant"
        },
        "chennai": {
            "closest_to": "",
            "address": "Karnataka Bank, Postal Colony 2nd Street, Postal Colony, Ashok Nagar, Chennai City Corporation Limits, Chennai district, Tamil Nadu, 600033, India",
            "longitude": "80.2197941",
            "latitude": "13.0365141",
            "blogLinks": [
                "https://en.wikipedia.org/wiki/Tourism_in_Karnataka",
                "https://www.quora.com/Visiting-and-Travel-in-India-What-are-some-of-the-best-places-to-visit-in-Southern-India"
            ],
            "locType": "bank"
        },
        "kerala": {
            "closest_to": "",
            "address": "New Life Kerala Mess, Sai Baba Mandira Road, Mottappanapalaya, Indiranagar, Bengaluru, Bangalore Urban, Karnataka, 560001, India",
            "longitude": "77.6382683",
            "latitude": "12.9726449",
            "blogLinks": [
                "https://www.quora.com/Visiting-and-Travel-in-India-What-are-some-of-the-best-places-to-visit-in-Southern-India",
                "http://traveltriangle.com/blog/road-trips-from-bangalore/",
                "http://www.holidaymonk.com/15-places-to-visit-in-karnataka/"
            ],
            "locType": "restaurant"
        },
        "malayalam": {
            "closest_to": "",
            "address": "Lowry Adventist Malayalam Church, A Narayanapura Main Road, Darga Mohalla, Udaya Nagar, A Narayanapura, Bangalore Urban, Karnataka, 560016, India",
            "longitude": "77.6774283",
            "latitude": "12.9985726",
            "blogLinks": [
                "https://www.quora.com/Visiting-and-Travel-in-India-What-are-some-of-the-best-places-to-visit-in-Southern-India"
            ],
            "locType": "place_of_worship"
        },
        "palani": {
            "closest_to": "",
            "address": "Palani, Neelasandra Bazaar Street, Austin Town BDA Layout, Neelasandra, Bengaluru, Bangalore Urban, Karnataka, 560001, India",
            "longitude": "77.6168951",
            "latitude": "12.9537341",
            "blogLinks": [
                "https://www.tripoto.com/weekend-getaways/from-agumbe"
            ],
            "locType": "recycling"
        },
        "madurai": {
            "closest_to": "",
            "address": "Madurai Idly Shop, 5th Main Road, Teachers Colony, HSR Layout, Bengaluru, Bangalore Urban, Karnataka, 560001, India",
            "longitude": "77.6320535",
            "latitude": "12.9185419",
            "blogLinks": [
                "https://www.tripoto.com/weekend-getaways/from-agumbe"
            ],
            "locType": "restaurant"
        },
        "southern india": {
            "closest_to": "",
            "address": "Survey Of India - Southern Zone, Madivala, Bengaluru, Bangalore Urban, Karnataka, 560001, India",
            "longitude": "77.6227757667762",
            "latitude": "12.92588785",
            "blogLinks": [
                "https://www.quora.com/Visiting-and-Travel-in-India-What-are-some-of-the-best-places-to-visit-in-Southern-India",
                "http://traveltriangle.com/blog/road-trips-from-bangalore/",
                "http://www.holidaymonk.com/15-places-to-visit-in-karnataka/"
            ],
            "locType": "commercial"
        },
        "vishnu": {
            "closest_to": "",
            "address": "Vishnu Residency Apartments, Thubarahalli, Siddapura, Bangalore Urban, Karnataka, 560066, India",
            "longitude": "77.7198022157059",
            "latitude": "12.95388635",
            "blogLinks": [
                "https://en.wikipedia.org/wiki/Tourism_in_Karnataka"
            ],
            "locType": "residential"
        },
        "east": {
            "closest_to": "",
            "address": "East, 43, Velankani Drive, Electronics City Phase 1, Doddathoguru, Bangalore Urban, Karnataka, 560100, India",
            "longitude": "77.6601401",
            "latitude": "12.8504319",
            "blogLinks": [
                "https://en.wikipedia.org/wiki/Tourism_in_Karnataka"
            ],
            "locType": "restaurant"
        },
        "kanakapura road": {
            "closest_to": "",
            "address": "Kanakapura Road, Rajotsava Nagar, Kaderenahalli, Bengaluru, Bangalore Urban, Karnataka, 560001, India",
            "longitude": "77.5733483",
            "latitude": "12.9064528",
            "blogLinks": [
                "https://en.wikipedia.org/wiki/Tourism_in_Karnataka"
            ],
            "locType": "trunk"
        },
        "karnataka chitrakala parishath": {
            "closest_to": "",
            "address": "Karnataka Chitrakala Parishath, Kumara Krupa Road, Chakravarty Layout, High Grounds, Bengaluru, Bangalore Urban, Karnataka, 560001, India",
            "longitude": "77.5808003010098",
            "latitude": "12.98925415",
            "blogLinks": [
                "http://www.indianholiday.com/travel-destinations/karnataka.html"
            ],
            "locType": "college"
        },
        "kalyani": {
            "closest_to": "",
            "address": "Kalyani, Neeladri Road, Electronics City Phase 1, Bettadasana Pura, Bangalore Urban, Karnataka, 560100, India",
            "longitude": "77.6286090192686",
            "latitude": "12.8406466",
            "blogLinks": [
                "https://en.wikipedia.org/wiki/Tourism_in_Karnataka"
            ],
            "locType": "water"
        },
        "andhra": {
            "closest_to": "",
            "address": "Karnataka, West Mada Street, Srivari Temple, Tirumala, Chittoor, Andhra Pradesh, 517504, India",
            "longitude": "79.3452447",
            "latitude": "13.6841958",
            "blogLinks": [
                "https://www.quora.com/Visiting-and-Travel-in-India-What-are-some-of-the-best-places-to-visit-in-Southern-India"
            ],
            "locType": "hotel"
        },
        "bannerghatta": {
            "closest_to": "",
            "address": "Bannerghatta, Bangalore Urban, Karnataka, India",
            "longitude": "77.5789509",
            "latitude": "12.813337",
            "blogLinks": [
                "https://en.wikipedia.org/wiki/Tourism_in_Karnataka"
            ],
            "locType": "village"
        },
        "siddheshwara": {
            "closest_to": "",
            "address": "Siddheshwara Medicals, Judicial Layout, Allalasandra, Bangalore, 7th Main Road, Judicial Layout, Bengaluru, Bangalore Urban, Karnataka, 560001, India",
            "longitude": "77.5876527",
            "latitude": "13.0797146",
            "blogLinks": [
                "https://en.wikipedia.org/wiki/Tourism_in_Karnataka"
            ],
            "locType": "pharmacy"
        },
        "banashankari temple": {
            "closest_to": "",
            "address": "Banashankari Temple, Kanakapura Road, JP Nagar 1st Phase, Kaderenahalli, Bengaluru, Bangalore Urban, Karnataka, 560001, India",
            "longitude": "77.5731752886765",
            "latitude": "12.91568785",
            "blogLinks": [
                "http://www.indianholiday.com/travel-destinations/karnataka.html",
                "https://en.wikipedia.org/wiki/Tourism_in_Karnataka"
            ],
            "locType": "place_of_worship"
        },
        "pondicherry": {
            "closest_to": "",
            "address": "Karnataka Bank, Mission Street, Grand Bazaar, Puducherry, Puducherry district, Puducherry, 605001, India",
            "longitude": "79.831569",
            "latitude": "11.9365727",
            "blogLinks": [
                "http://traveltriangle.com/blog/road-trips-from-bangalore/"
            ],
            "locType": "bank"
        },
        "avalabetta": {
            "closest_to": "",
            "address": "Avalabetta, Chikkaballapura taluk, Chikkaballapura district, Karnataka, India",
            "longitude": "77.6730413",
            "latitude": "13.5775096",
            "blogLinks": [
                "http://traveltriangle.com/blog/road-trips-from-bangalore/"
            ],
            "locType": "peak"
        },
        "malgudi": {
            "closest_to": "",
            "address": "Malgudi Southern Cuisine, 3, Outer Ring Road, Ananda Nagara, Doddanekundi, Garudacharpalya, Bangalore Urban, Karnataka, 560037, India",
            "longitude": "77.7017267",
            "latitude": "12.9651193",
            "blogLinks": [
                "http://www.nivalink.com/destination/badami",
                "http://traveltriangle.com/blog/road-trips-from-bangalore/"
            ],
            "locType": "restaurant"
        },
        "bangalore city": {
            "closest_to": "",
            "address": "Bengaluru, Bangalore Urban, Karnataka, 560001, India",
            "longitude": "77.5912997",
            "latitude": "12.9791198",
            "blogLinks": [
                "http://www.indianholiday.com/travel-destinations/karnataka.html"
            ],
            "locType": "city"
        },
        "kadapa": {
            "closest_to": "",
            "address": "Kadapa - Madanapalle - Bengaluru New Line (u/c), Srinivaspur Mulbagal Road, Kadiripura, Mulubagilu taluk, Kolar district, Karnataka, 563131, India",
            "longitude": "78.3792674",
            "latitude": "13.1859851",
            "blogLinks": [
                "https://www.quora.com/Visiting-and-Travel-in-India-What-are-some-of-the-best-places-to-visit-in-Southern-India"
            ],
            "locType": "construction"
        },
        "west": {
            "closest_to": "",
            "address": "w, Balmuri Main Road, Hulimavu,, Bannerghatta Road, Mico Arekere Layout 1st Stage, Hulimavu, Bengaluru, Bangalore Urban, Karnataka, 560076, India",
            "longitude": "77.5960999",
            "latitude": "12.8759384",
            "blogLinks": [
                "https://en.wikipedia.org/wiki/Agumbe"
            ],
            "locType": "clothes"
        },
        "nataraja": {
            "closest_to": "",
            "address": "Nataraja, Sirur Park Road, Vyalikaval, Seshadripuram, Bengaluru, Bangalore Urban, Karnataka, 560001, India",
            "longitude": "77.5730381173154",
            "latitude": "12.9900332",
            "blogLinks": [
                "https://www.travelblog.org/Asia/India/Karnataka/Bangalore/Koramangala/blog-914055.html"
            ],
            "locType": "cinema"
        },
        "bengal": {
            "closest_to": "",
            "address": "Bengal Lamps, Konadasapura, Bangalore Urban, Karnataka, 560066, India",
            "longitude": "77.7517038151245",
            "latitude": "13.0492646",
            "blogLinks": [
                "https://www.travelblog.org/Asia/India/Karnataka/Bangalore/Koramangala/blog-914055.html"
            ],
            "locType": "industrial"
        },
        "japanese garden": {
            "closest_to": "",
            "address": "Hae Kum Gang (Korean/Japanese), 20, Castle Street, Shantala Nagar, Ashok Nagar, Bengaluru, Bangalore Urban, Karnataka, 560001, India",
            "longitude": "77.6055915",
            "latitude": "12.9655328",
            "blogLinks": [
                "https://www.tripoto.com/weekend-getaways/from-agumbe"
            ],
            "locType": "restaurant"
        },
        "goa": {
            "closest_to": "",
            "address": "Carnival De Goa, Bhaskaran Road, Gupta Layout, Halasuru, Bengaluru, Bangalore Urban, Karnataka, 560001, India",
            "longitude": "77.6200027",
            "latitude": "12.9750047",
            "blogLinks": [
                "https://en.wikipedia.org/wiki/Tourism_in_Karnataka",
                "https://www.tripoto.com/weekend-getaways/from-agumbe"
            ],
            "locType": "restaurant"
        },
        "kanyakumari": {
            "closest_to": "",
            "address": "RTO Karnataka, Srinagar - Kanyakumari Highway, Paragodu, Bagepalli taluk, Chikkaballapura district, Karnataka, 561207, India",
            "longitude": "77.7596024",
            "latitude": "13.7972948",
            "blogLinks": [
                "https://www.quora.com/Visiting-and-Travel-in-India-What-are-some-of-the-best-places-to-visit-in-Southern-India"
            ],
            "locType": "yes"
        },
        "nilgiris": {
            "closest_to": "",
            "address": "Nilgiris, Brigade Road, Tasker Town, Ashok Nagar, Bengaluru, Bangalore Urban, Karnataka, 560001, India",
            "longitude": "77.6069792",
            "latitude": "12.9725052",
            "blogLinks": [
                "https://en.wikipedia.org/wiki/Tourism_in_Karnataka",
                "http://traveltriangle.com/blog/road-trips-from-bangalore/"
            ],
            "locType": "supermarket"
        },
        "south karnataka": {
            "closest_to": "",
            "address": "s, Vijayapura, Devanahalli taluk, Bangalore Rural, Karnataka, 562135, India",
            "longitude": "77.8040874",
            "latitude": "13.2942848",
            "blogLinks": [
                "https://en.wikipedia.org/wiki/Tourism_in_Karnataka",
                "http://www.holidaymonk.com/15-places-to-visit-in-karnataka/"
            ],
            "locType": "residential"
        },
        "andhra pradesh": {
            "closest_to": "",
            "address": "Karnataka, West Mada Street, Srivari Temple, Tirumala, Chittoor, Andhra Pradesh, 517504, India",
            "longitude": "79.3452447",
            "latitude": "13.6841958",
            "blogLinks": [
                "https://www.quora.com/Visiting-and-Travel-in-India-What-are-some-of-the-best-places-to-visit-in-Southern-India",
                "http://www.holidaymonk.com/15-places-to-visit-in-karnataka/"
            ],
            "locType": "hotel"
        },
        "gavi": {
            "closest_to": "",
            "address": "Gavi Gangadhareshwara Temple, 3rd Main Road, Yediyur, Hanumantha Nagar, Bengaluru, Bangalore Urban, Karnataka, 560001, India",
            "longitude": "77.5628973",
            "latitude": "12.9481567",
            "blogLinks": [
                "https://www.quora.com/Visiting-and-Travel-in-India-What-are-some-of-the-best-places-to-visit-in-Southern-India"
            ],
            "locType": "place_of_worship"
        },
        "tamil nadu": {
            "closest_to": "",
            "address": "KARNATAKA BANK, Diwan Bhadur Road, Five Corner, RS Puram, Coimbatore, Coimbatore district, Tamil Nadu, 641001, India",
            "longitude": "76.9514152",
            "latitude": "11.0025894",
            "blogLinks": [
                "https://en.wikipedia.org/wiki/Tourism_in_Karnataka",
                "https://www.travelblog.org/Asia/India/Karnataka/Bangalore/Koramangala/blog-914055.html",
                "https://www.tripoto.com/weekend-getaways/from-agumbe",
                "http://www.holidaymonk.com/15-places-to-visit-in-karnataka/"
            ],
            "locType": "bank"
        },
        "garden city": {
            "closest_to": "",
            "address": "Karnataka Bank, Postal Colony 2nd Street, Postal Colony, Ashok Nagar, Chennai City Corporation Limits, Chennai district, Tamil Nadu, 600033, India",
            "longitude": "80.2197941",
            "latitude": "13.0365141",
            "blogLinks": [
                "https://www.tripoto.com/weekend-getaways/from-agumbe"
            ],
            "locType": "bank"
        },
        "south": {
            "closest_to": "",
            "address": "s, Vijayapura, Devanahalli taluk, Bangalore Rural, Karnataka, 562135, India",
            "longitude": "77.8040874",
            "latitude": "13.2942848",
            "blogLinks": [
                "https://en.wikipedia.org/wiki/Tourism_in_Karnataka",
                "https://www.quora.com/Visiting-and-Travel-in-India-What-are-some-of-the-best-places-to-visit-in-Southern-India",
                "http://traveltriangle.com/blog/road-trips-from-bangalore/"
            ],
            "locType": "residential"
        }
    },
    "agumbe": {
        "place_id": "8561493",
        "osm_id": "910403408",
        "icon": "https://nominatim.openstreetmap.org/images/mapicons/poi_place_village.p.20.png",
        "osm_type": "node",
        "licence": "Data \u00a9 OpenStreetMap contributors, ODbL 1.0. http://www.openstreetmap.org/copyright",
        "display_name": "Agumbe, Tirthahalli taluk, Shimoga district, Karnataka, 577411, India",
        "type": "village",
        "lon": "75.0965525",
        "boundingbox": [
            "13.4894998",
            "13.5294998",
            "75.0765525",
            "75.1165525"
        ],
        "importance": 0.475,
        "lat": "13.5094998",
        "class": "place"
    }
}