{
    "shimoga": {
        "icon": "https://nominatim.openstreetmap.org/images/mapicons/poi_place_city.p.20.png",
        "osm_type": "node",
        "boundingbox": [
            "13.7711723",
            "14.0911723",
            "75.409737",
            "75.729737"
        ],
        "display_name": "Shivamogga, Shivamogga taluku, Shimoga district, Karnataka, 577200, India",
        "class": "place",
        "osm_id": "245625473",
        "type": "city",
        "licence": "Data \u00a9 OpenStreetMap contributors, ODbL 1.0. http://www.openstreetmap.org/copyright",
        "lon": "75.569737",
        "lat": "13.9311723",
        "place_id": "639702",
        "importance": 0.55
    },
    "mentions": {
        "krishna": {
            "blogLinks": [
                "http://www.ashoklodge.com/?page_id=62"
            ],
            "locType": "river",
            "longitude": "77.0529845",
            "latitude": "16.5209569",
            "address": "Krishna, Shahapura taluku, Yadagiri district, Karnataka, India",
            "closest_to": ""
        },
        "coorg": {
            "blogLinks": [
                "http://travel.manoramaonline.com/travel/readers-discovery/agumbe-rainforest-misty-cherappunji-of-south-karnataka.html"
            ],
            "locType": "town",
            "longitude": "75.740031",
            "latitude": "12.4204003",
            "address": "Madikeri, Madikeri taluku, Kodagu, Karnataka, India",
            "closest_to": ""
        },
        "malgudi": {
            "blogLinks": [
                "http://travel.india.com/agumbe/",
                "https://www.tripadvisor.in/ShowUserReviews-g1156205-d9456495-r375911725-Belachikatte_Homestay-Shimoga_Karnataka.html",
                "https://www.tripoto.com/travel-guide/agumbe/places-to-visit",
                "https://www.tripoto.com/travel-guide/agumbe",
                "https://www.tripoto.com/trip/agumbe-rainforest-karnataka-the-hidden-malgudi-house-in-india-itinerary-57e2744100417"
            ],
            "locType": "restaurant",
            "longitude": "77.7017267",
            "latitude": "12.9651193",
            "address": "Malgudi Southern Cuisine, 3, Outer Ring Road, Ananda Nagara, Doddanekundi, Garudacharpalya, Bangalore Urban, Karnataka, 560037, India",
            "closest_to": ""
        },
        "mangaluru": {
            "blogLinks": [
                "http://travel.manoramaonline.com/travel/readers-discovery/agumbe-rainforest-misty-cherappunji-of-south-karnataka.html"
            ],
            "locType": "city",
            "longitude": "74.8430082",
            "latitude": "12.8698101",
            "address": "Mangaluru, Mangaluru taluk, Dakshina Kannada, Karnataka, 575001, India",
            "closest_to": ""
        },
        "hoysala": {
            "blogLinks": [
                "https://www.quora.com/What-are-the-places-to-visit-in-around-Shimoga-in-3-days"
            ],
            "locType": "administrative",
            "longitude": "77.6375990817051",
            "latitude": "12.97813815",
            "address": "Hoysala Nagar, Bengaluru, Bangalore Urban, Karnataka, 560001, India",
            "closest_to": ""
        },
        "channarayapatna": {
            "blogLinks": [
                "https://www.quora.com/What-are-the-places-to-visit-in-around-Shimoga-in-3-days"
            ],
            "locType": "village",
            "longitude": "77.797084",
            "latitude": "13.2455918",
            "address": "Channarayapatna, Devanahalli taluk, Bangalore Rural, Karnataka, India",
            "closest_to": ""
        },
        "karnataka": {
            "blogLinks": [
                "http://www.buzzntravel.com/places-to-visit-in-agumbe",
                "http://www.buzzntravel.com/tourist-places-in-agumbe",
                "https://www.tripoto.com/travel-guide/agumbe/places-to-visit",
                "https://www.tripoto.com/travel-guide/agumbe",
                "http://www.ashoklodge.com/?page_id=62",
                "https://www.tripadvisor.in/ShowUserReviews-g1156205-d9456495-r375911725-Belachikatte_Homestay-Shimoga_Karnataka.html",
                "https://en.wikipedia.org/wiki/Agumbe",
                "http://travel.manoramaonline.com/travel/readers-discovery/agumbe-rainforest-misty-cherappunji-of-south-karnataka.html",
                "http://travel.india.com/agumbe/",
                "http://www.tripfactory.com/places/agumbe-shimoga-273975",
                "http://wikitravel.org/en/Agumbe",
                "https://www.quora.com/What-are-the-places-to-visit-in-around-Shimoga-in-3-days"
            ],
            "locType": "atm",
            "longitude": "76.6639936",
            "latitude": "12.3084901",
            "address": "Karnataka, Shalivahana Road, Nazarbad, Mysuru, Mysuru taluk, Mysuru district, Karnataka, 570001, India",
            "closest_to": ""
        },
        "seeta river": {
            "blogLinks": [
                "http://wikitravel.org/en/Agumbe"
            ],
            "locType": "traffic_signals",
            "longitude": "77.5497906",
            "latitude": "12.938019",
            "address": "Seeta Circle, Aralu Mallige Parthsarathy Road, Banashankari 1st Stage, Bengaluru, Bangalore Urban, Karnataka, 560001, India",
            "closest_to": ""
        },
        "mangalore": {
            "blogLinks": [
                "https://en.wikipedia.org/wiki/Agumbe",
                "http://wikitravel.org/en/Agumbe",
                "http://www.onefivenine.com/india/Travel/Place/Agumbe"
            ],
            "locType": "city",
            "longitude": "74.8430082",
            "latitude": "12.8698101",
            "address": "Mangaluru, Mangaluru taluk, Dakshina Kannada, Karnataka, 575001, India",
            "closest_to": ""
        },
        "gudavi": {
            "blogLinks": [
                "https://www.quora.com/What-are-the-places-to-visit-in-around-Shimoga-in-3-days"
            ],
            "locType": "village",
            "longitude": "75.009649",
            "latitude": "14.4400296",
            "address": "Gudavi, Soraba taluk, Shimoga district, Karnataka, India",
            "closest_to": ""
        },
        "tumakuru": {
            "blogLinks": [
                "https://www.quora.com/What-are-the-places-to-visit-in-around-Shimoga-in-3-days"
            ],
            "locType": "county",
            "longitude": "77.0002445",
            "latitude": "13.4999406",
            "address": "Tumakuru, Tumkur district, Karnataka, India",
            "closest_to": ""
        },
        "sharavati river": {
            "blogLinks": [
                "https://www.quora.com/What-are-the-places-to-visit-in-around-Shimoga-in-3-days"
            ],
            "locType": "river",
            "longitude": "74.7647294",
            "latitude": "14.2360979",
            "address": "Sharavati, Sagara taluk, Shimoga district, Karnataka, India",
            "closest_to": ""
        },
        "kuvempu": {
            "blogLinks": [
                "https://en.wikipedia.org/wiki/Agumbe"
            ],
            "locType": "artwork",
            "longitude": "77.5064032",
            "latitude": "12.9560369",
            "address": "Kuvempu, Kengeri Main Road, ITI Layout, Jnana Bharathi, Nagadevanahalli, Bangalore Urban, Karnataka, 560056, India",
            "closest_to": ""
        },
        "malayalam": {
            "blogLinks": [
                "http://www.buzzntravel.com/tourist-places-in-agumbe"
            ],
            "locType": "place_of_worship",
            "longitude": "77.6774283",
            "latitude": "12.9985726",
            "address": "Lowry Adventist Malayalam Church, A Narayanapura Main Road, Darga Mohalla, Udaya Nagar, A Narayanapura, Bangalore Urban, Karnataka, 560016, India",
            "closest_to": ""
        },
        "jog falls": {
            "blogLinks": [
                "http://www.buzzntravel.com/places-to-visit-in-agumbe",
                "http://www.buzzntravel.com/tourist-places-in-agumbe",
                "http://www.holidayiq.com/Shimoga-Sightseeing-748.html"
            ],
            "locType": "locality",
            "longitude": "74.8128715",
            "latitude": "14.2276106",
            "address": "Jog Falls, Joga - Kargal, Sagara taluk, Shimoga district, Karnataka, India",
            "closest_to": ""
        },
        "sharavati": {
            "blogLinks": [
                "https://www.quora.com/What-are-the-places-to-visit-in-around-Shimoga-in-3-days"
            ],
            "locType": "river",
            "longitude": "74.7647294",
            "latitude": "14.2360979",
            "address": "Sharavati, Sagara taluk, Shimoga district, Karnataka, India",
            "closest_to": ""
        },
        "southern india": {
            "blogLinks": [
                "http://wikitravel.org/en/Agumbe"
            ],
            "locType": "commercial",
            "longitude": "77.6227757667762",
            "latitude": "12.92588785",
            "address": "Survey Of India - Southern Zone, Madivala, Bengaluru, Bangalore Urban, Karnataka, 560001, India",
            "closest_to": ""
        },
        "kumta": {
            "blogLinks": [
                "https://www.quora.com/What-are-the-places-to-visit-in-around-Shimoga-in-3-days"
            ],
            "locType": "town",
            "longitude": "74.4107617",
            "latitude": "14.4261647",
            "address": "Kumta, Kumata taluk, Uttara Kannada, Karnataka, India",
            "closest_to": ""
        },
        "sunset point": {
            "blogLinks": [
                "https://www.tripadvisor.in/ShowUserReviews-g1156205-d9456495-r375911725-Belachikatte_Homestay-Shimoga_Karnataka.html",
                "https://www.tripoto.com/travel-guide/agumbe/places-to-visit",
                "https://www.tripoto.com/travel-guide/agumbe"
            ],
            "locType": "viewpoint",
            "longitude": "76.4594093",
            "latitude": "15.3326761",
            "address": "Sunset Point, Hampi Kamalapura Road, Hampe, Hosapete taluk, Bellary district, Karnataka, 583239, India",
            "closest_to": ""
        },
        "uduppi": {
            "blogLinks": [
                "http://travel.manoramaonline.com/travel/readers-discovery/agumbe-rainforest-misty-cherappunji-of-south-karnataka.html"
            ],
            "locType": "restaurant",
            "longitude": "77.769089",
            "latitude": "12.983624",
            "address": "New Uduppi Hotel, Channasandra Main Road, Kadugodi, Channasandra, Bangalore Urban, Karnataka, 560067, India",
            "closest_to": ""
        },
        "kadur": {
            "blogLinks": [
                "https://www.quora.com/What-are-the-places-to-visit-in-around-Shimoga-in-3-days"
            ],
            "locType": "trunk",
            "longitude": "75.7820095",
            "latitude": "13.3283654",
            "address": "Mudigere-Kadur Road, Basavannahalli, Chikkamagaluru, Chikkamagaluru taluku, Chikkamagaluru district, Karnataka, 577101, India",
            "closest_to": ""
        },
        "mumbai": {
            "blogLinks": [
                "https://www.quora.com/What-are-the-places-to-visit-in-around-Shimoga-in-3-days"
            ],
            "locType": "restaurant",
            "longitude": "77.5718472",
            "latitude": "13.0002869",
            "address": "Mumbai Spice, 18/2, 10th Cross, Malleswaram, Vyalikaval, Malleswaram, Bengaluru, Bangalore Urban, Karnataka, 560003, India",
            "closest_to": ""
        },
        "banavasi road": {
            "blogLinks": [
                "https://www.quora.com/What-are-the-places-to-visit-in-around-Shimoga-in-3-days"
            ],
            "locType": "town",
            "longitude": "75.0129845",
            "latitude": "14.5389738",
            "address": "Banavasi, Shirasi taluk, Uttara Kannada, Karnataka, India",
            "closest_to": ""
        },
        "mirjan": {
            "blogLinks": [
                "https://www.quora.com/What-are-the-places-to-visit-in-around-Shimoga-in-3-days"
            ],
            "locType": "village",
            "longitude": "74.4249588",
            "latitude": "14.4910008",
            "address": "Mirjana, Kumata taluk, Uttara Kannada, Karnataka, 581440, India",
            "closest_to": ""
        },
        "sharavathi river": {
            "blogLinks": [
                "https://www.quora.com/What-are-the-places-to-visit-in-around-Shimoga-in-3-days"
            ],
            "locType": "yes",
            "longitude": "77.6216184337102",
            "latitude": "12.9464709",
            "address": "Sharavathi Block, National Games Village Road, Ambedkar Nagar, Ejipura, Bengaluru, Bangalore Urban, Karnataka, 560001, India",
            "closest_to": ""
        },
        "shringeri": {
            "blogLinks": [
                "https://en.wikipedia.org/wiki/Agumbe"
            ],
            "locType": "village",
            "longitude": "75.0621168",
            "latitude": "14.7221214",
            "address": "Shringeri, Hanagal taluk, Haveri district, Karnataka, India",
            "closest_to": ""
        },
        "river sharavathi": {
            "blogLinks": [
                "http://www.ashoklodge.com/?page_id=62"
            ],
            "locType": "river",
            "longitude": "77.5476521",
            "latitude": "12.967526",
            "address": "Vrishabavathi, Bengaluru, Bangalore Urban, Karnataka, 560001, India",
            "closest_to": ""
        },
        "west": {
            "blogLinks": [
                "https://en.wikipedia.org/wiki/Agumbe"
            ],
            "locType": "clothes",
            "longitude": "77.5960999",
            "latitude": "12.8759384",
            "address": "w, Balmuri Main Road, Hulimavu,, Bannerghatta Road, Mico Arekere Layout 1st Stage, Hulimavu, Bengaluru, Bangalore Urban, Karnataka, 560076, India",
            "closest_to": ""
        },
        "gujarat": {
            "blogLinks": [
                "http://www.holidayiq.com/Shimoga-Sightseeing-748.html",
                "https://www.quora.com/What-are-the-places-to-visit-in-around-Shimoga-in-3-days"
            ],
            "locType": "yes",
            "longitude": "75.1370469",
            "latitude": "15.3595169",
            "address": "Gujarat Bhavan, Casualty and Emergency, Ashok Nagar, Vidyanagar, Hubballi - \u0cb9\u0cc1\u0cac\u0ccd\u0cac\u0cb3\u0ccd\u0cb3\u0cbf, Hubballi taluku, Dharwad district, Karnataka, 580020, India",
            "closest_to": ""
        },
        "karantaka": {
            "blogLinks": [
                "http://www.ashoklodge.com/?page_id=62"
            ],
            "locType": "hospital",
            "longitude": "75.9173315988071",
            "latitude": "14.45753495",
            "address": "OBG & Paediatrics Block, Shamanur Road, K.T. Jambanna Nagara, Davanagere, Davanagere taluku, Davanagere district, Karnataka, 577004, India",
            "closest_to": ""
        },
        "kudle": {
            "blogLinks": [
                "https://www.quora.com/What-are-the-places-to-visit-in-around-Shimoga-in-3-days"
            ],
            "locType": "hotel",
            "longitude": "74.3178853",
            "latitude": "14.5290707",
            "address": "Kudle Ocean Front resort, Om beach road, Gokarna, Kumata taluk, Uttara Kannada, Karnataka, 581326, India",
            "closest_to": ""
        },
        "kshethra": {
            "blogLinks": [
                "http://www.ashoklodge.com/?page_id=62"
            ],
            "locType": "place_of_worship",
            "longitude": "77.5874931",
            "latitude": "12.9115451",
            "address": "Sathya Sai Seva Kshethra, 8th Cross Road, JP Nagar 2nd Phase, Bengaluru, Bangalore Urban, Karnataka, 560001, India",
            "closest_to": ""
        },
        "swami": {
            "blogLinks": [
                "https://www.tripoto.com/travel-guide/agumbe/places-to-visit",
                "https://www.tripoto.com/travel-guide/agumbe",
                "https://www.tripoto.com/trip/agumbe-rainforest-karnataka-the-hidden-malgudi-house-in-india-itinerary-57e2744100417"
            ],
            "locType": "station",
            "longitude": "77.6449595",
            "latitude": "12.9859442",
            "address": "Swami Vivekananda Road, Swamy Vivekananda Road (Old Madras Road), Sudgunte Palya, Baiyyappanahalli, Benniganahalli, Bangalore Urban, Karnataka, 560016, India",
            "closest_to": ""
        },
        "kumara": {
            "blogLinks": [
                "http://www.ashoklodge.com/?page_id=62"
            ],
            "locType": "peak",
            "longitude": "75.6865652",
            "latitude": "12.6623315",
            "address": "Kumara Parvatha, Somawarpet taluk, Kodagu, Karnataka, India",
            "closest_to": ""
        },
        "om beach": {
            "blogLinks": [
                "https://www.quora.com/What-are-the-places-to-visit-in-around-Shimoga-in-3-days"
            ],
            "locType": "beach",
            "longitude": "74.3254331800289",
            "latitude": "14.5190376",
            "address": "Om Beach, Om beach road, Gokarna, Kumata taluk, Uttara Kannada, Karnataka, 581326, India",
            "closest_to": ""
        },
        "hyderabad": {
            "blogLinks": [
                "https://www.quora.com/What-are-the-places-to-visit-in-around-Shimoga-in-3-days"
            ],
            "locType": "primary",
            "longitude": "77.5344002",
            "latitude": "17.9003114",
            "address": "Hyderabad Road, Old City, Bidar, Bidar taluku, Bidar district, Karnataka, 585400, India",
            "closest_to": ""
        },
        "rameshwara temple": {
            "blogLinks": [
                "https://www.quora.com/What-are-the-places-to-visit-in-around-Shimoga-in-3-days"
            ],
            "locType": "place_of_worship",
            "longitude": "77.5678621969321",
            "latitude": "12.99365815",
            "address": "Rameshwara Temple, Kranthikavi Sarvagnya Road, Rajajinagar 4th Block, Sriramapura, Bengaluru, Bangalore Urban, Karnataka, 560001, India",
            "closest_to": ""
        },
        "dakshin kannada of karnataka": {
            "blogLinks": [
                "http://www.onefivenine.com/india/Travel/Place/Agumbe"
            ],
            "locType": "restaurant",
            "longitude": "75.0309089",
            "latitude": "12.8827367",
            "address": "Dakshin Court, NH73, Kaikunje, Bantwal Cross Road, Bantwal taluk, Dakshina Kannada, Karnataka, India",
            "closest_to": ""
        },
        "kannada": {
            "blogLinks": [
                "https://www.tripoto.com/trip/agumbe-rainforest-karnataka-the-hidden-malgudi-house-in-india-itinerary-57e2744100417",
                "https://www.tripoto.com/travel-guide/agumbe/places-to-visit",
                "https://www.tripoto.com/travel-guide/agumbe",
                "http://wikitravel.org/en/Agumbe"
            ],
            "locType": "administrative",
            "longitude": "75.1008028650794",
            "latitude": "12.8114089",
            "address": "Dakshina Kannada, Karnataka, India",
            "closest_to": ""
        },
        "bangalore": {
            "blogLinks": [
                "https://www.tripoto.com/travel-guide/agumbe/places-to-visit",
                "http://www.onefivenine.com/india/Travel/Place/Agumbe",
                "https://en.wikipedia.org/wiki/Agumbe",
                "http://travel.india.com/agumbe/",
                "https://www.quora.com/What-are-the-places-to-visit-in-around-Shimoga-in-3-days",
                "http://wikitravel.org/en/Agumbe"
            ],
            "locType": "city",
            "longitude": "77.5912997",
            "latitude": "12.9791198",
            "address": "Bengaluru, Bangalore Urban, Karnataka, 560001, India",
            "closest_to": ""
        },
        "india bengaluru": {
            "blogLinks": [
                "https://www.quora.com/What-are-the-places-to-visit-in-around-Shimoga-in-3-days"
            ],
            "locType": "courthouse",
            "longitude": "77.5925914",
            "latitude": "12.977944",
            "address": "Karnataka High Court, Dr B R Ambedkar Veedhi, Shantala Nagar, Gandhinagar, Bengaluru, Bangalore Urban, Karnataka, 560001, India",
            "closest_to": ""
        }
    },
    "agumbe": {
        "icon": "https://nominatim.openstreetmap.org/images/mapicons/poi_place_village.p.20.png",
        "osm_type": "node",
        "boundingbox": [
            "13.4894998",
            "13.5294998",
            "75.0765525",
            "75.1165525"
        ],
        "display_name": "Agumbe, Tirthahalli taluk, Shimoga district, Karnataka, 577411, India",
        "class": "place",
        "osm_id": "910403408",
        "type": "village",
        "licence": "Data \u00a9 OpenStreetMap contributors, ODbL 1.0. http://www.openstreetmap.org/copyright",
        "lon": "75.0965525",
        "lat": "13.5094998",
        "place_id": "8561493",
        "importance": 0.475
    }
}