{
    "santa ana": {
        "class": "place",
        "licence": "Data \u00a9 OpenStreetMap contributors, ODbL 1.0. http://www.openstreetmap.org/copyright",
        "lon": "-117.8732212",
        "lat": "33.7494951",
        "boundingbox": [
            "33.6916541",
            "33.7840133",
            "-117.9439458",
            "-117.8303494"
        ],
        "importance": 0.80067109924196,
        "osm_type": "relation",
        "icon": "https://nominatim.openstreetmap.org/images/mapicons/poi_place_city.p.20.png",
        "osm_id": "2311446",
        "display_name": "Santa Ana, Orange County, California, United States of America",
        "type": "city",
        "place_id": "159122957"
    },
    "mentions": {
        "pescadero": {
            "closest_to": "",
            "locType": "village",
            "address": "Pescadero, San Mateo County, California, United States of America",
            "latitude": "37.2516018",
            "longitude": "-122.3821926",
            "blogLinks": [
                "http://blog.sfgate.com/getlost/2013/05/10/12-great-coastal-california-towns/"
            ]
        },
        "cambria": {
            "closest_to": "",
            "locType": "administrative",
            "address": "Cambria, San Luis Obispo County, California, United States of America",
            "latitude": "35.5641381",
            "longitude": "-121.0807467",
            "blogLinks": [
                "http://moon.com/2015/04/best-places-to-stay-on-a-california-coast-road-trip/",
                "http://blog.sfgate.com/getlost/2013/05/10/12-great-coastal-california-towns/"
            ]
        },
        "mount san gorgonio ca": {
            "closest_to": "",
            "locType": "secondary",
            "address": "San Gorgonio Avenue, Banning, Riverside County, California, 92220, United States of America",
            "latitude": "33.9121294",
            "longitude": "-116.8766731",
            "blogLinks": [
                "http://www.california-blog.com/"
            ]
        },
        "la jolla": {
            "closest_to": "",
            "locType": "suburb",
            "address": "La Jolla, San Diego, San Diego County, California, United States of America",
            "latitude": "32.8472711",
            "longitude": "-117.2742085",
            "blogLinks": [
                "http://blog.sfgate.com/getlost/2013/05/10/12-great-coastal-california-towns/"
            ]
        },
        "north lake ca": {
            "closest_to": "",
            "locType": "water",
            "address": "North Lake, Chain of Lakes Drive East, Sunset District, SF, California, 94122, United States of America",
            "latitude": "37.76958295",
            "longitude": "-122.501983281136",
            "blogLinks": [
                "http://www.california-blog.com/"
            ]
        },
        "usa": {
            "closest_to": "",
            "locType": "administrative",
            "address": "California, United States of America",
            "latitude": "36.7014631",
            "longitude": "-118.7559973",
            "blogLinks": [
                "http://www.yellowpages.com/santa-ana-ca/avalon-flooring-supplies"
            ]
        },
        "ojai valley": {
            "closest_to": "",
            "locType": "city",
            "address": "Ojai, Ventura County, California, United States of America",
            "latitude": "34.4480495",
            "longitude": "-119.2428889",
            "blogLinks": [
                "http://www.california-blog.com/"
            ]
        },
        "morro rock ca": {
            "closest_to": "",
            "locType": "peak",
            "address": "Morro Rock, Morro Bay, San Luis Obispo County, California, United States of America",
            "latitude": "35.369669",
            "longitude": "-120.8676993",
            "blogLinks": [
                "http://www.california-blog.com/"
            ]
        },
        "mission bay ca": {
            "closest_to": "",
            "locType": "neighbourhood",
            "address": "Mission Bay, SF, California, 94158, United States of America",
            "latitude": "37.7707742",
            "longitude": "-122.3911711",
            "blogLinks": [
                "http://www.california-blog.com/"
            ]
        },
        "san luis obispo": {
            "closest_to": "",
            "locType": "city",
            "address": "San Luis Obispo, San Luis Obispo County, California, United States of America",
            "latitude": "35.2827525",
            "longitude": "-120.6596155",
            "blogLinks": [
                "http://moon.com/2015/04/best-places-to-stay-on-a-california-coast-road-trip/"
            ]
        },
        "bakersfield": {
            "closest_to": "",
            "locType": "city",
            "address": "Bakersfield, Kern County, California, United States of America",
            "latitude": "35.3738712",
            "longitude": "-119.0194638",
            "blogLinks": [
                "http://moon.com/2015/04/best-places-to-stay-on-a-california-coast-road-trip/"
            ]
        },
        "mount san jacinto ca": {
            "closest_to": "",
            "locType": "city",
            "address": "San Jacinto, Riverside County, California, United States of America",
            "latitude": "33.7839084",
            "longitude": "-116.9586349",
            "blogLinks": [
                "http://www.california-blog.com/"
            ]
        },
        "california": {
            "closest_to": "",
            "locType": "village",
            "address": "California, Santander, Colombia",
            "latitude": "7.3480915",
            "longitude": "-72.945787",
            "blogLinks": [
                "http://www.yellowpages.com/santa-ana-ca/avalon-flooring-supplies",
                "http://blog.sfgate.com/getlost/2013/05/10/12-great-coastal-california-towns/",
                "http://moon.com/2015/04/best-places-to-stay-on-a-california-coast-road-trip/",
                "http://www.avaloncommunities.com/southern-california",
                "http://www.california-blog.com/",
                "https://en.wikipedia.org/wiki/Avalon,_California",
                "https://www.ooklnet.com/web/places_to_visit_in/Avalon,CA/US"
            ]
        },
        "pismo": {
            "closest_to": "",
            "locType": "residential",
            "address": "Pismo, La Paz, Baja California Sur, 23206, M\u00e9xico",
            "latitude": "24.1378257",
            "longitude": "-110.3437034",
            "blogLinks": [
                "http://blog.sfgate.com/getlost/2013/05/10/12-great-coastal-california-towns/"
            ]
        },
        "santa barbara mission": {
            "closest_to": "",
            "locType": "tower",
            "address": "KDB-FM (Santa Barbara), Gibraltar Road, Santa Barbara County, California, 93103, United States of America",
            "latitude": "34.4662154",
            "longitude": "-119.6779962",
            "blogLinks": [
                "http://moon.com/2015/04/best-places-to-stay-on-a-california-coast-road-trip/"
            ]
        },
        "morro rock": {
            "closest_to": "",
            "locType": "peak",
            "address": "Morro Rock, Morro Bay, San Luis Obispo County, California, United States of America",
            "latitude": "35.369669",
            "longitude": "-120.8676993",
            "blogLinks": [
                "http://blog.sfgate.com/getlost/2013/05/10/12-great-coastal-california-towns/"
            ]
        },
        "old town san diego": {
            "closest_to": "",
            "locType": "hamlet",
            "address": "Old Town San Diego, San Diego County, California, United States of America",
            "latitude": "32.7542167",
            "longitude": "-117.1969792",
            "blogLinks": [
                "http://www.california-blog.com/"
            ]
        },
        "marina": {
            "closest_to": "",
            "locType": "city",
            "address": "Marina, Monterey County, California, United States of America",
            "latitude": "36.6900785",
            "longitude": "-121.800639730262",
            "blogLinks": [
                "https://www.househunt.com/property/OC16189997/2304-E-Avalon-Avenue-Santa-Ana-CA-92705/"
            ]
        },
        "san francisco": {
            "closest_to": "",
            "locType": "city",
            "address": "SF, California, United States of America",
            "latitude": "37.7792808",
            "longitude": "-122.4192362",
            "blogLinks": [
                "http://moon.com/2015/04/best-places-to-stay-on-a-california-coast-road-trip/",
                "http://blog.sfgate.com/getlost/2013/05/10/12-great-coastal-california-towns/"
            ]
        },
        "avila beach": {
            "closest_to": "",
            "locType": "hamlet",
            "address": "Avila Beach, San Luis Obispo County, California, United States of America",
            "latitude": "35.1799752",
            "longitude": "-120.7318417",
            "blogLinks": [
                "http://blog.sfgate.com/getlost/2013/05/10/12-great-coastal-california-towns/"
            ]
        },
        "us": {
            "closest_to": "",
            "locType": "administrative",
            "address": "California, United States of America",
            "latitude": "36.7014631",
            "longitude": "-118.7559973",
            "blogLinks": [
                "https://en.wikipedia.org/wiki/Avalon,_California"
            ]
        },
        "santa cruz beach boardwalk": {
            "closest_to": "",
            "locType": "attraction",
            "address": "Santa Cruz Beach Boardwalk, Boardwalk, Beach & Boardwalk District (Commercial), Seabright, Santa Cruz, Santa Cruz County, California, 1982, United States of America",
            "latitude": "36.96446855",
            "longitude": "-122.016027247326",
            "blogLinks": [
                "http://moon.com/2015/04/best-places-to-stay-on-a-california-coast-road-trip/"
            ]
        },
        "moonstone beach": {
            "closest_to": "",
            "locType": "path",
            "address": "Moonstone Beach, Cambria, San Luis Obispo County, California, CA 93428, United States of America",
            "latitude": "35.573855",
            "longitude": "-121.1128747",
            "blogLinks": [
                "http://moon.com/2015/04/best-places-to-stay-on-a-california-coast-road-trip/",
                "http://blog.sfgate.com/getlost/2013/05/10/12-great-coastal-california-towns/"
            ]
        },
        "mount palomar ca": {
            "closest_to": "",
            "locType": "bank",
            "address": "California Bank & Trust, 2501, Palomar Airport Road, Carlsbad, San Diego County, California, 92011, United States of America",
            "latitude": "33.1278146",
            "longitude": "-117.270809764613",
            "blogLinks": [
                "http://www.california-blog.com/"
            ]
        },
        "san simeon": {
            "closest_to": "",
            "locType": "hamlet",
            "address": "San Simeon, San Luis Obispo County, California, United States of America",
            "latitude": "35.6438587",
            "longitude": "-121.1907532",
            "blogLinks": [
                "http://moon.com/2015/04/best-places-to-stay-on-a-california-coast-road-trip/"
            ]
        },
        "mono lake ca": {
            "closest_to": "",
            "locType": "water",
            "address": "Mono Lake, Mono County, California, United States of America",
            "latitude": "38.0077189",
            "longitude": "-118.967033937845",
            "blogLinks": [
                "http://www.california-blog.com/"
            ]
        },
        "napa valley ca": {
            "closest_to": "",
            "locType": "secondary",
            "address": "California Boulevard, Napa, Napa County, California, 94558, United States of America",
            "latitude": "38.2972603",
            "longitude": "-122.3002947",
            "blogLinks": [
                "http://www.california-blog.com/"
            ]
        },
        "america": {
            "closest_to": "",
            "locType": "residential",
            "address": "America, Kings County, California, 93246, United States of America",
            "latitude": "36.2573198",
            "longitude": "-119.8948706",
            "blogLinks": [
                "http://moon.com/2015/04/best-places-to-stay-on-a-california-coast-road-trip/"
            ]
        },
        "santa cruz": {
            "closest_to": "",
            "locType": "city",
            "address": "Santa Cruz, Santa Cruz County, California, United States of America",
            "latitude": "36.9735903",
            "longitude": "-122.0260569",
            "blogLinks": [
                "http://moon.com/2015/04/best-places-to-stay-on-a-california-coast-road-trip/"
            ]
        },
        "pacific islander": {
            "closest_to": "",
            "locType": "clinic",
            "address": "DBH: Asian Pacific Islander Program, Latino Team, S.E.E.S. Program, South Barton Avenue, Fresno County, California, 93702, United States of America",
            "latitude": "36.7366176",
            "longitude": "-119.7504685",
            "blogLinks": [
                "https://en.wikipedia.org/wiki/Avalon,_California"
            ]
        },
        "morro bay ca": {
            "closest_to": "",
            "locType": "city",
            "address": "Morro Bay, San Luis Obispo County, California, United States of America",
            "latitude": "35.3658075",
            "longitude": "-120.8499012",
            "blogLinks": [
                "http://www.california-blog.com/"
            ]
        },
        "united states": {
            "closest_to": "",
            "locType": "administrative",
            "address": "California, United States of America",
            "latitude": "36.7014631",
            "longitude": "-118.7559973",
            "blogLinks": [
                "https://en.wikipedia.org/wiki/Avalon,_California",
                "https://www.tripadvisor.com/Tourism-g33043-Santa_Ana_California-Vacations.html"
            ]
        },
        "monterey peninsula ca": {
            "closest_to": "",
            "locType": "aerodrome",
            "address": "Monterey Regional Airport, Airport Road, Seaside, Del Monte Heights, Monterey County, California, 93940, United States of America",
            "latitude": "36.5878734",
            "longitude": "-121.843618374407",
            "blogLinks": [
                "http://www.california-blog.com/"
            ]
        },
        "monterey bay aquarium ca": {
            "closest_to": "",
            "locType": "aquarium",
            "address": "MBA, 886, Cannery Row, Monterey, Monterey County, California, 93940, United States of America",
            "latitude": "36.61809095",
            "longitude": "-121.901680002002",
            "blogLinks": [
                "http://www.california-blog.com/"
            ]
        },
        "monterey": {
            "closest_to": "",
            "locType": "city",
            "address": "Monterey, Monterey County, California, United States of America",
            "latitude": "36.5844165",
            "longitude": "-121.866792846206",
            "blogLinks": [
                "https://www.ooklnet.com/web/places_to_visit_in/Avalon,CA/US"
            ]
        },
        "u.s.": {
            "closest_to": "",
            "locType": "hamlet",
            "address": "La California, Municipio de Las Rosas, Departamento Belgrano, Sta. Fe, Argentina",
            "latitude": "-32.5446226",
            "longitude": "-61.5489543",
            "blogLinks": [
                "https://en.wikipedia.org/wiki/Avalon,_California",
                "https://www.ooklnet.com/web/places_to_visit_in/Avalon,CA/US",
                "http://www.toyotaplace.com/blog/"
            ]
        },
        "santa barbara": {
            "closest_to": "",
            "locType": "city",
            "address": "Santa Barbara, Santa Barbara County, California, United States of America",
            "latitude": "34.4221319",
            "longitude": "-119.7026672",
            "blogLinks": [
                "http://moon.com/2015/04/best-places-to-stay-on-a-california-coast-road-trip/"
            ]
        },
        "california coast": {
            "closest_to": "",
            "locType": "bank",
            "address": "California Coast Credit Union, Park Boulevard, Hillcrest, San Diego, San Diego County, California, 92116, United States of America",
            "latitude": "32.7586361",
            "longitude": "-117.1464145",
            "blogLinks": [
                "http://moon.com/2015/04/best-places-to-stay-on-a-california-coast-road-trip/"
            ]
        },
        "ca": {
            "closest_to": "",
            "locType": "postcode",
            "address": "Piedmont, Alameda County, California, ca, United States of America",
            "latitude": "37.8242285466918",
            "longitude": "-122.232613735941",
            "blogLinks": [
                "http://www.movoto.com/santa-ana-ca/1001-e-avalon-ave-santa-ana-ca-92706-202_cv14001900/",
                "http://www.movoto.com/santa-ana-ca/2304-e-avalon-ave-santa-ana-ca-92705/pid_oh892x538g/for-sale/"
            ]
        },
        "palm springs air museum ca": {
            "closest_to": "",
            "locType": "museum",
            "address": "Palm Springs Air Museum, 745, North Gene Autry Trail, Palm Springs, Riverside County, California, 92262, United States of America",
            "latitude": "33.83250375",
            "longitude": "-116.504677958796",
            "blogLinks": [
                "http://www.california-blog.com/"
            ]
        },
        "morro bay": {
            "closest_to": "",
            "locType": "city",
            "address": "Morro Bay, San Luis Obispo County, California, United States of America",
            "latitude": "35.3658075",
            "longitude": "-120.8499012",
            "blogLinks": [
                "http://blog.sfgate.com/getlost/2013/05/10/12-great-coastal-california-towns/"
            ]
        },
        "pismo beach": {
            "closest_to": "",
            "locType": "city",
            "address": "Pismo Beach, San Luis Obispo County, California, United States of America",
            "latitude": "35.1427533",
            "longitude": "-120.6412826",
            "blogLinks": [
                "http://blog.sfgate.com/getlost/2013/05/10/12-great-coastal-california-towns/"
            ]
        },
        "moreno valley ca": {
            "closest_to": "",
            "locType": "city",
            "address": "Moreno Valley, Riverside County, California, United States of America",
            "latitude": "33.937517",
            "longitude": "-117.2305943",
            "blogLinks": [
                "http://www.california-blog.com/"
            ]
        },
        "central coast": {
            "closest_to": "",
            "locType": "residential",
            "address": "Central Coast Street, Bakersfield, Kern County, California, 93314, United States of America",
            "latitude": "35.3611193",
            "longitude": "-119.1665989",
            "blogLinks": [
                "http://moon.com/2015/04/best-places-to-stay-on-a-california-coast-road-trip/",
                "http://blog.sfgate.com/getlost/2013/05/10/12-great-coastal-california-towns/"
            ]
        },
        "michigan": {
            "closest_to": "",
            "locType": "village",
            "address": "California, Branch County, Michigan, United States of America",
            "latitude": "41.7964383",
            "longitude": "-84.883294",
            "blogLinks": [
                "https://en.wikipedia.org/wiki/Avalon,_California"
            ]
        },
        "virginia": {
            "closest_to": "",
            "locType": "hamlet",
            "address": "California, Rockbridge County, Virginia, United States of America",
            "latitude": "37.9090178",
            "longitude": "-79.5869878",
            "blogLinks": [
                "https://en.wikipedia.org/wiki/Avalon,_California"
            ]
        },
        "ventura": {
            "closest_to": "",
            "locType": "administrative",
            "address": "Ventura County, California, United States of America",
            "latitude": "34.4458248",
            "longitude": "-119.0779358",
            "blogLinks": [
                "http://blog.sfgate.com/getlost/2013/05/10/12-great-coastal-california-towns/"
            ]
        },
        "highway 101": {
            "closest_to": "",
            "locType": "primary",
            "address": "Highway 101, Solana Beach, San Diego County, California, 92075, United States of America",
            "latitude": "32.9967358",
            "longitude": "-117.2731974",
            "blogLinks": [
                "http://moon.com/2015/04/best-places-to-stay-on-a-california-coast-road-trip/"
            ]
        },
        "pebble beach ca": {
            "closest_to": "",
            "locType": "hamlet",
            "address": "Pebble Beach, Monterey County, California, United States of America",
            "latitude": "36.5664874",
            "longitude": "-121.9466112",
            "blogLinks": [
                "http://www.california-blog.com/"
            ]
        },
        "la": {
            "closest_to": "",
            "locType": "administrative",
            "address": "California, United States of America",
            "latitude": "36.7014631",
            "longitude": "-118.7559973",
            "blogLinks": [
                "https://mytravellingitchyfeet.wordpress.com/2012/04/29/travel-guide-santa-ana-cagayan-2/",
                "http://blog.sfgate.com/getlost/2013/05/10/12-great-coastal-california-towns/"
            ]
        },
        "city hall": {
            "closest_to": "",
            "locType": "commercial",
            "address": "City Hall, Imperial, Imperial County, California, 92251, United States of America",
            "latitude": "32.84439345",
            "longitude": "-115.569543523702",
            "blogLinks": [
                "https://en.wikipedia.org/wiki/Avalon,_California"
            ]
        },
        "mojave desert ca": {
            "closest_to": "",
            "locType": "desert",
            "address": "Mojave Desert, Utility Road, San Bernardino County, California, United States of America",
            "latitude": "35.1456319",
            "longitude": "-115.548963686646",
            "blogLinks": [
                "http://www.california-blog.com/"
            ]
        },
        "carmel": {
            "closest_to": "",
            "locType": "residential",
            "address": "Carmel, Roseville, Placer County, California, 95747, United States of America",
            "latitude": "38.75511285",
            "longitude": "-121.353308848273",
            "blogLinks": [
                "http://moon.com/2015/04/best-places-to-stay-on-a-california-coast-road-trip/"
            ]
        },
        "los angeles county": {
            "closest_to": "",
            "locType": "administrative",
            "address": "Los Angeles County, California, United States of America",
            "latitude": "34.3155072",
            "longitude": "-118.2096813",
            "blogLinks": [
                "https://en.wikipedia.org/wiki/Avalon,_California"
            ]
        },
        "channel islands national park": {
            "closest_to": "",
            "locType": "national_park",
            "address": "Channel Islands National Park, Spinnaker Drive, Ventura, Ventura County, California, 93006, United States of America",
            "latitude": "34.248597",
            "longitude": "-119.266377755078",
            "blogLinks": [
                "http://blog.sfgate.com/getlost/2013/05/10/12-great-coastal-california-towns/"
            ]
        },
        "united kingdom": {
            "closest_to": "",
            "locType": "village",
            "address": "California, Birmingham, West Midlands, England, UK",
            "latitude": "52.4422729",
            "longitude": "-1.9796882",
            "blogLinks": [
                "http://www.visitcatalinaisland.com/activities-adventures"
            ]
        },
        "morongo valley": {
            "closest_to": "",
            "locType": "administrative",
            "address": "Morongo Valley, Vista Drive, Morongo Valley, San Bernardino County, California, 92256, United States of America",
            "latitude": "34.0537585",
            "longitude": "-116.596723958419",
            "blogLinks": [
                "http://www.california-blog.com/"
            ]
        },
        "beach": {
            "closest_to": "",
            "locType": "service",
            "address": "Beach, Pismo Beach Senior Mobile Home Park, Pismo Beach, San Luis Obispo County, California, 93449, United States of America",
            "latitude": "35.13738",
            "longitude": "-120.6345489",
            "blogLinks": [
                "https://mytravellingitchyfeet.wordpress.com/2012/04/29/avalon-beach-club/"
            ]
        },
        "mediterranean": {
            "closest_to": "",
            "locType": "residential",
            "address": "Mediterranean, Palm Desert, Riverside County, California, 92211, United States of America",
            "latitude": "33.7439509",
            "longitude": "-116.3534838",
            "blogLinks": [
                "https://en.wikipedia.org/wiki/Avalon,_California"
            ]
        },
        "monterey bay aquarium": {
            "closest_to": "",
            "locType": "aquarium",
            "address": "MBA, 886, Cannery Row, Monterey, Monterey County, California, 93940, United States of America",
            "latitude": "36.61809095",
            "longitude": "-121.901680002002",
            "blogLinks": [
                "http://moon.com/2015/04/best-places-to-stay-on-a-california-coast-road-trip/"
            ]
        },
        "kern river": {
            "closest_to": "",
            "locType": "river",
            "address": "Kern River, Tulare County, California, United States of America",
            "latitude": "36.6816956",
            "longitude": "-118.4124188",
            "blogLinks": [
                "http://www.california-blog.com/"
            ]
        },
        "texas": {
            "closest_to": "",
            "locType": "residential",
            "address": "California, Baytown, Harris County, Texas, 77520, United States of America",
            "latitude": "29.7181118",
            "longitude": "-94.997906",
            "blogLinks": [
                "http://www.toyotaplace.com/blog/"
            ]
        },
        "sonoma county": {
            "closest_to": "",
            "locType": "administrative",
            "address": "Sonoma County, California, United States of America",
            "latitude": "38.5110803",
            "longitude": "-122.8473387",
            "blogLinks": [
                "http://blog.sfgate.com/getlost/2013/05/10/12-great-coastal-california-towns/"
            ]
        }
    },
    "avalon": {
        "type": "city",
        "class": "place",
        "lat": "33.34221",
        "lon": "-118.3272611",
        "licence": "Data \u00a9 OpenStreetMap contributors, ODbL 1.0. http://www.openstreetmap.org/copyright",
        "osm_type": "relation",
        "importance": 0.59676353508209,
        "boundingbox": [
            "33.317583",
            "33.356566",
            "-118.3466549",
            "-118.3073689"
        ],
        "icon": "https://nominatim.openstreetmap.org/images/mapicons/poi_place_city.p.20.png",
        "osm_id": "6169443",
        "display_name": "Avalon, Los Angeles County, California, United States of America",
        "place_id": "159849240"
    }
}