{
    "mentions": {
        "fairmont san jose": {
            "blogLinks": [
                "http://www.latimes.com/local/crime/"
            ],
            "address": "The Fairmont San Jose, 170, South 1st Street, Historic District, Japantown, San Jos\u00e9, Santa Clara County, California, 95113, United States of America",
            "longitude": -121.888707174917,
            "locType": "hotel",
            "latitude": 37.333028,
            "closest_to": ""
        },
        "mission bay": {
            "blogLinks": [
                "http://wikitravel.org/en/San_Diego"
            ],
            "address": "Mission Bay, SF, California, 94158, United States of America",
            "longitude": -122.3911711,
            "locType": "neighbourhood",
            "latitude": 37.7707742,
            "closest_to": ""
        },
        "l.a.": {
            "blogLinks": [
                "http://www.latimes.com/local/crime/",
                "http://wikitravel.org/en/San_Diego"
            ],
            "address": "California, Provincia Abel Iturralde, LPZ, Bolivia",
            "longitude": -67.9369134,
            "locType": "hamlet",
            "latitude": -13.8305494,
            "closest_to": ""
        },
        "solano county": {
            "blogLinks": [
                "http://www.travbuddy.com/California-popular-cities-p85"
            ],
            "address": "Solano County, California, United States of America",
            "longitude": -121.9163554,
            "locType": "administrative",
            "latitude": 38.2218938,
            "closest_to": ""
        },
        "eureka": {
            "blogLinks": [
                "http://www.travbuddy.com/California-popular-cities-p85"
            ],
            "address": "Eureka, Humboldt County, California, United States of America",
            "longitude": -124.1636728,
            "locType": "city",
            "latitude": 40.8020712,
            "closest_to": ""
        },
        "america": {
            "blogLinks": [
                "http://wikitravel.org/en/San_Diego"
            ],
            "address": "America, Kings County, California, 93246, United States of America",
            "longitude": -119.8948706,
            "locType": "residential",
            "latitude": 36.2573198,
            "closest_to": ""
        },
        "carmel": {
            "blogLinks": [
                "http://www.travbuddy.com/California-popular-cities-p85"
            ],
            "address": "Carmel, Roseville, Placer County, California, 95747, United States of America",
            "longitude": -121.353308848273,
            "locType": "residential",
            "latitude": 38.75511285,
            "closest_to": ""
        },
        "san ysidro blvd": {
            "blogLinks": [
                "http://wikitravel.org/en/San_Diego"
            ],
            "address": "San Ysidro, San Diego, San Diego County, California, United States of America",
            "longitude": -117.0430812,
            "locType": "suburb",
            "latitude": 32.5520013,
            "closest_to": ""
        },
        "' the channel islands national park": {
            "blogLinks": [
                "https://en.wikipedia.org/wiki/Channel_Islands_of_California"
            ],
            "address": "Channel Islands National Park, Spinnaker Drive, Ventura, Ventura County, California, 93006, United States of America",
            "longitude": -119.266377755078,
            "locType": "national_park",
            "latitude": 34.248597,
            "closest_to": ""
        },
        "oakland": {
            "blogLinks": [
                "http://www.travbuddy.com/California-popular-cities-p85"
            ],
            "address": "Oakland, Alameda County, California, United States of America",
            "longitude": -122.2713562,
            "locType": "city",
            "latitude": 37.8044557,
            "closest_to": ""
        },
        "santa barbara islands": {
            "blogLinks": [
                "https://en.wikipedia.org/wiki/Channel_Islands_of_California"
            ],
            "address": "Santa Cruz Hall, 548, Channel Islands Road, Isla Vista, Santa Barbara County, California, 93106, United States of America",
            "longitude": -119.843454706356,
            "locType": "yes",
            "latitude": 34.4098841,
            "closest_to": ""
        },
        "channel islands national park": {
            "blogLinks": [
                "https://en.wikipedia.org/wiki/Channel_Islands_of_California"
            ],
            "address": "Channel Islands National Park, Spinnaker Drive, Ventura, Ventura County, California, 93006, United States of America",
            "longitude": -119.266377755078,
            "locType": "national_park",
            "latitude": 34.248597,
            "closest_to": ""
        },
        "desert queen mine": {
            "blogLinks": [
                "http://www.californiaoutdoorplayground.com/San-Bernardino-Tourism-Blog/August-2015/Top-4-Historic-Places-To-Visit-In-San-Bernardino-C.aspx"
            ],
            "address": "Desert Queen Mine, Pacific Crest Trail, San Diego County, California, United States of America",
            "longitude": -116.5197396,
            "locType": "quarry",
            "latitude": 33.0556004,
            "closest_to": ""
        },
        "mission bay ca": {
            "blogLinks": [
                "http://www.california-blog.com/"
            ],
            "address": "Mission Bay, SF, California, 94158, United States of America",
            "longitude": -122.3911711,
            "locType": "neighbourhood",
            "latitude": 37.7707742,
            "closest_to": ""
        },
        "tempe": {
            "blogLinks": [
                "http://wikitravel.org/en/San_Diego"
            ],
            "address": "California, Tempe Cascade, Maricopa County, Arizona, 8, United States of America",
            "longitude": -111.8872863,
            "locType": "service",
            "latitude": 33.4248191,
            "closest_to": ""
        },
        "las vegas strip": {
            "blogLinks": [
                "http://wikitravel.org/en/San_Diego"
            ],
            "address": "California Pizza Kitchen, South Las Vegas Boulevard, Hughes Center, Paradise, Clark County, Nevada, 89123, United States of America",
            "longitude": -115.173775796208,
            "locType": "restaurant",
            "latitude": 36.12050715,
            "closest_to": ""
        },
        "imperial valley": {
            "blogLinks": [
                "http://wikitravel.org/en/San_Diego"
            ],
            "address": "Imperial County, California, United States of America",
            "longitude": -115.3595665,
            "locType": "administrative",
            "latitude": 33.0305487,
            "closest_to": ""
        },
        "san francisco bay area of california": {
            "blogLinks": [
                "http://www.travbuddy.com/California-popular-cities-p85"
            ],
            "address": "San Francisco Bay Area, SF, California, United States of America",
            "longitude": -122.3558472,
            "locType": "region",
            "latitude": 37.7884969,
            "closest_to": ""
        },
        "sandusky county": {
            "blogLinks": [
                "http://www.travbuddy.com/California-popular-cities-p85"
            ],
            "address": "Sandusky Creek, Sierra County, California, United States of America",
            "longitude": -120.8679252,
            "locType": "stream",
            "latitude": 39.4898877,
            "closest_to": ""
        },
        "calico": {
            "blogLinks": [
                "http://www.travbuddy.com/California-popular-cities-p85",
                "http://www.californiaoutdoorplayground.com/San-Bernardino-Tourism-Blog/August-2015/Top-4-Historic-Places-To-Visit-In-San-Bernardino-C.aspx"
            ],
            "address": "Calico, Kern County, California, United States of America",
            "longitude": -119.206496,
            "locType": "locality",
            "latitude": 35.6327332,
            "closest_to": ""
        },
        "berkeley": {
            "blogLinks": [
                "http://www.travbuddy.com/California-popular-cities-p85"
            ],
            "address": "Berkeley, Alameda County, California, United States of America",
            "longitude": -122.2728638,
            "locType": "city",
            "latitude": 37.8708393,
            "closest_to": ""
        },
        "california": {
            "blogLinks": [
                "https://en.wikipedia.org/wiki/Channel_Islands_of_California",
                "http://www.yellowpages.com/downtown-san-bernardino-san-bernardino-ca/avalon-apartments",
                "http://www.california-blog.com/",
                "http://www.yellowpages.com/san-bernardino-ca/avalon-motel",
                "http://www.californiaoutdoorplayground.com/San-Bernardino-Tourism-Blog/August-2015/Top-4-Historic-Places-To-Visit-In-San-Bernardino-C.aspx",
                "http://www.tuugo.us/Companies/avalon-building-maintenance_9929254/0310001509404",
                "http://www.yellowpages.com/san-bernardino-ca/avalon",
                "http://www.yellowpages.com/san-bernardino-ca/avalon-park-apartments",
                "http://www.yellowpages.com/san-bernardino-ca/avalon-hotel-and-conference-center",
                "http://wikitravel.org/en/San_Diego",
                "http://www.travbuddy.com/California-popular-cities-p85",
                "http://www.sbsun.com/article/zz/20120830/NEWS/120839590"
            ],
            "address": "California, Santander, Colombia",
            "longitude": -72.945787,
            "locType": "village",
            "latitude": 7.3480915,
            "closest_to": ""
        },
        "utah": {
            "blogLinks": [
                "http://wikitravel.org/en/San_Diego"
            ],
            "address": "Utah, Rovana, Inyo County, California, United States of America",
            "longitude": -118.6125359,
            "locType": "residential",
            "latitude": 37.413408,
            "closest_to": ""
        },
        "mojave desert": {
            "blogLinks": [
                "http://www.californiaoutdoorplayground.com/San-Bernardino-Tourism-Blog/August-2015/Top-4-Historic-Places-To-Visit-In-San-Bernardino-C.aspx"
            ],
            "address": "Mojave Desert, Utility Road, San Bernardino County, California, United States of America",
            "longitude": -115.548963686646,
            "locType": "desert",
            "latitude": 35.1456319,
            "closest_to": ""
        },
        "california-nevada": {
            "blogLinks": [
                "http://www.travbuddy.com/California-popular-cities-p85"
            ],
            "address": "California Hotel, Sky Walk(Connection from Main Street to California, Cultural Corridor, Vegas Heights, Las Vegas, Clark County, Nevada, 89101, United States of America",
            "longitude": -115.144667930325,
            "locType": "hotel",
            "latitude": 36.17310935,
            "closest_to": ""
        },
        "tecate": {
            "blogLinks": [
                "http://wikitravel.org/en/San_Diego"
            ],
            "address": "Tecate, Baja California, M\u00e9xico",
            "longitude": -116.273657068655,
            "locType": "administrative",
            "latitude": 32.43593355,
            "closest_to": ""
        },
        "san miguel": {
            "blogLinks": [
                "https://en.wikipedia.org/wiki/Channel_Islands_of_California"
            ],
            "address": "San Miguel, San Luis Obispo County, California, United States of America",
            "longitude": -120.6962825,
            "locType": "village",
            "latitude": 35.7524679,
            "closest_to": ""
        },
        "chula vista": {
            "blogLinks": [
                "http://wikitravel.org/en/San_Diego"
            ],
            "address": "Chula Vista, San Diego County, California, United States of America",
            "longitude": -117.0841954,
            "locType": "city",
            "latitude": 32.6400541,
            "closest_to": ""
        },
        "el paso": {
            "blogLinks": [
                "http://wikitravel.org/en/San_Diego"
            ],
            "address": "El Paso, Clovis, Fresno County, California, 93611, United States of America",
            "longitude": -119.6823199,
            "locType": "residential",
            "latitude": 36.8487922,
            "closest_to": ""
        },
        "italy": {
            "blogLinks": [
                "http://wikitravel.org/en/San_Diego"
            ],
            "address": "California, MB, LOM, Italia",
            "longitude": 9.3130453,
            "locType": "village",
            "latitude": 45.659844,
            "closest_to": ""
        },
        "monterey bay aquarium ca": {
            "blogLinks": [
                "http://www.california-blog.com/"
            ],
            "address": "MBA, 886, Cannery Row, Monterey, Monterey County, California, 93940, United States of America",
            "longitude": -121.901680002002,
            "locType": "aquarium",
            "latitude": 36.61809095,
            "closest_to": ""
        },
        "campo": {
            "blogLinks": [
                "http://wikitravel.org/en/San_Diego"
            ],
            "address": "El Campo, Marin County, California, United States of America",
            "longitude": -122.4652506,
            "locType": "hamlet",
            "latitude": 37.8974258,
            "closest_to": ""
        },
        "kumeyaay": {
            "blogLinks": [
                "http://wikitravel.org/en/San_Diego"
            ],
            "address": "Kumeyaay Highway, Titus, San Diego County, California, 91934, United States of America",
            "longitude": -116.1858258,
            "locType": "motorway",
            "latitude": 32.6464696,
            "closest_to": ""
        },
        "az": {
            "blogLinks": [
                "http://wikitravel.org/en/San_Diego"
            ],
            "address": "California, Gold Canyon RV & Golf Resort, San Tan Valley, Pinal County, Arizona, 85219, United States of America",
            "longitude": -111.4698532,
            "locType": "service",
            "latitude": 33.3547482,
            "closest_to": ""
        },
        "hilton garden": {
            "blogLinks": [
                "http://www.yellowpages.com/san-bernardino-ca/avalon-hotel-and-conference-center",
                "http://www.yellowpages.com/san-bernardino-ca/avalon-motel"
            ],
            "address": "Hilton Creek, Mono County, California, United States of America",
            "longitude": -118.753706,
            "locType": "stream",
            "latitude": 37.5597391,
            "closest_to": ""
        },
        "pacific rim": {
            "blogLinks": [
                "http://wikitravel.org/en/San_Diego"
            ],
            "address": "Pacific Rim, 1021, I Street, Arcata, Humboldt County, California, 95518-4448, United States of America",
            "longitude": -124.0877889,
            "locType": "restaurant",
            "latitude": 40.8702874,
            "closest_to": ""
        },
        "mono lake ca": {
            "blogLinks": [
                "http://www.california-blog.com/"
            ],
            "address": "Mono Lake, Mono County, California, United States of America",
            "longitude": -118.967033937845,
            "locType": "water",
            "latitude": 38.0077189,
            "closest_to": ""
        },
        "x99s channel islands": {
            "blogLinks": [
                "https://en.wikipedia.org/wiki/Channel_Islands_of_California"
            ],
            "address": "Channel, Lathrop, San Joaquin County, California, 95330, United States of America",
            "longitude": -121.3109347,
            "locType": "residential",
            "latitude": 37.7897726,
            "closest_to": ""
        },
        "denmark": {
            "blogLinks": [
                "http://wikitravel.org/en/San_Diego"
            ],
            "address": "California, Lodsgade, Frederikshavn, Frederikshavn Kommune, Region Nordjylland, 9900, Danmark",
            "longitude": 10.5361043,
            "locType": "cafe",
            "latitude": 57.4379493,
            "closest_to": ""
        },
        "tijuana": {
            "blogLinks": [
                "http://wikitravel.org/en/San_Diego"
            ],
            "address": "Tijuana, Baja California, M\u00e9xico",
            "longitude": -116.9641656,
            "locType": "city",
            "latitude": 32.5008626,
            "closest_to": ""
        },
        "laurel street": {
            "blogLinks": [
                "http://wikitravel.org/en/San_Diego"
            ],
            "address": "Laurel Street, Hillcrest, San Diego, San Diego County, California, 92101, United States of America",
            "longitude": -117.1594735,
            "locType": "secondary",
            "latitude": 32.7313904,
            "closest_to": ""
        },
        "santee": {
            "blogLinks": [
                "http://wikitravel.org/en/San_Diego"
            ],
            "address": "Santee, San Diego County, California, United States of America",
            "longitude": -116.9739166,
            "locType": "city",
            "latitude": 32.8383828,
            "closest_to": ""
        },
        "idaho": {
            "blogLinks": [
                "http://wikitravel.org/en/San_Diego"
            ],
            "address": "Idaho, Rovana, Inyo County, California, United States of America",
            "longitude": -118.6119669,
            "locType": "residential",
            "latitude": 37.413354,
            "closest_to": ""
        },
        "black 's beach": {
            "blogLinks": [
                "http://wikitravel.org/en/San_Diego"
            ],
            "address": "Black Sea Avenue, Salton Sea Beach, Imperial County, California, United States of America",
            "longitude": -115.9938426,
            "locType": "residential",
            "latitude": 33.3358674,
            "closest_to": ""
        },
        "melbourne": {
            "blogLinks": [
                "http://www.tuugo.us/Companies/avalon-building-maintenance_9929254/0310001509404"
            ],
            "address": "Melbourne, Mendocino County, California, United States of America",
            "longitude": -123.6508452,
            "locType": "hamlet",
            "latitude": 39.2832292,
            "closest_to": ""
        },
        "' channel islands national park": {
            "blogLinks": [
                "https://en.wikipedia.org/wiki/Channel_Islands_of_California",
                "http://www.latimes.com/local/crime/"
            ],
            "address": "Channel Islands National Park, Spinnaker Drive, Ventura, Ventura County, California, 93006, United States of America",
            "longitude": -119.266377755078,
            "locType": "national_park",
            "latitude": 34.248597,
            "closest_to": ""
        },
        "vallejo": {
            "blogLinks": [
                "http://www.travbuddy.com/California-popular-cities-p85"
            ],
            "address": "Vallejo, Solano County, California, United States of America",
            "longitude": -122.2566366,
            "locType": "city",
            "latitude": 38.1040864,
            "closest_to": ""
        },
        "west broadway": {
            "blogLinks": [
                "http://wikitravel.org/en/San_Diego"
            ],
            "address": "West Broadway, Hillcrest, San Diego, San Diego County, California, 92101, United States of America",
            "longitude": -117.167374,
            "locType": "secondary",
            "latitude": 32.7157697,
            "closest_to": ""
        },
        "ca": {
            "blogLinks": [
                "http://www.yellowpages.com/san-bernardino-ca/avalon-hotel-and-conference-center"
            ],
            "address": "Piedmont, Alameda County, California, ca, United States of America",
            "longitude": -122.232613735941,
            "locType": "postcode",
            "latitude": 37.8242285466918,
            "closest_to": ""
        },
        "montana": {
            "blogLinks": [
                "http://wikitravel.org/en/San_Diego"
            ],
            "address": "Montana, Rovana, Inyo County, California, United States of America",
            "longitude": -118.6129969,
            "locType": "residential",
            "latitude": 37.413991,
            "closest_to": ""
        },
        "san francisco bay": {
            "blogLinks": [
                "http://www.travbuddy.com/California-popular-cities-p85"
            ],
            "address": "San Francisco Bay, Ferry Landing, Alameda, Alameda County, California, 94502, United States of America",
            "longitude": -122.2802469,
            "locType": "bay",
            "latitude": 37.708264,
            "closest_to": ""
        },
        "san luis obispo county": {
            "blogLinks": [
                "http://www.travbuddy.com/California-popular-cities-p85"
            ],
            "address": "San Luis Obispo County, California, United States of America",
            "longitude": -120.3757162,
            "locType": "administrative",
            "latitude": 35.3540209,
            "closest_to": ""
        },
        "calistoga": {
            "blogLinks": [
                "http://www.travbuddy.com/California-popular-cities-p85"
            ],
            "address": "Calistoga, Napa County, California, United States of America",
            "longitude": -122.583325948608,
            "locType": "city",
            "latitude": 38.582615,
            "closest_to": ""
        },
        "germany": {
            "blogLinks": [
                "http://wikitravel.org/en/San_Diego"
            ],
            "address": "California, Lassallestra\u00dfe, M\u00fclheim, K\u00f6ln, Regierungsbezirk K\u00f6ln, Nordrhein-Westfalen, 50667-51149, Deutschland",
            "longitude": 7.009217,
            "locType": "beauty",
            "latitude": 50.9590814,
            "closest_to": ""
        },
        "napa valley ca": {
            "blogLinks": [
                "http://www.california-blog.com/"
            ],
            "address": "California Boulevard, Napa, Napa County, California, 94558, United States of America",
            "longitude": -122.3002947,
            "locType": "secondary",
            "latitude": 38.2972603,
            "closest_to": ""
        },
        "oakhurst": {
            "blogLinks": [
                "http://www.travbuddy.com/California-popular-cities-p85"
            ],
            "address": "Oakhurst, Junction Drive, Oakhurst, Madera County, California, 93644, United States of America",
            "longitude": -119.657244022836,
            "locType": "administrative",
            "latitude": 37.333178,
            "closest_to": ""
        },
        "ventura county": {
            "blogLinks": [
                "https://en.wikipedia.org/wiki/Channel_Islands_of_California"
            ],
            "address": "Ventura County, California, United States of America",
            "longitude": -119.0779358,
            "locType": "administrative",
            "latitude": 34.4458248,
            "closest_to": ""
        },
        "silicon valley": {
            "blogLinks": [
                "http://www.travbuddy.com/California-popular-cities-p85",
                "http://www.tuugo.us/Companies/avalon-building-maintenance_9929254/0310001509404"
            ],
            "address": "Carnegie Mellon Silicon Valley, South Akron Road, Santa Clara County, California, 94035-0016, United States of America",
            "longitude": -122.0597491,
            "locType": "school",
            "latitude": 37.4105333,
            "closest_to": ""
        },
        "sonoma": {
            "blogLinks": [
                "http://www.latimes.com/local/crime/"
            ],
            "address": "Sonoma County, California, United States of America",
            "longitude": -122.8473387,
            "locType": "administrative",
            "latitude": 38.5110803,
            "closest_to": ""
        },
        "new zealand": {
            "blogLinks": [
                "http://wikitravel.org/en/San_Diego"
            ],
            "address": "California Drive, Totara Park, Upper Hutt, Upper Hutt City, Wellington, 5371, New Zealand/Aotearoa",
            "longitude": 175.0832904,
            "locType": "tertiary",
            "latitude": -41.1069272,
            "closest_to": ""
        },
        "san francisco bay area": {
            "blogLinks": [
                "http://www.travbuddy.com/California-popular-cities-p85",
                "http://wikitravel.org/en/San_Diego"
            ],
            "address": "San Francisco Bay Area, SF, California, United States of America",
            "longitude": -122.3558472,
            "locType": "region",
            "latitude": 37.7884969,
            "closest_to": ""
        },
        "half moon bay state beach": {
            "blogLinks": [
                "https://en.wikipedia.org/wiki/Channel_Islands_of_California"
            ],
            "address": "Half Moon Bay State Beach, Venice Boulevard, Half Moon Bay, San Mateo County, California, 94019, United States of America",
            "longitude": -122.449789014662,
            "locType": "beach",
            "latitude": 37.47903115,
            "closest_to": ""
        },
        "qualcomm stadium": {
            "blogLinks": [
                "http://wikitravel.org/en/San_Diego"
            ],
            "address": "Qualcomm Stadium, Qualcomm Way, Mission Valley, San Diego, San Diego County, California, 92123, United States of America",
            "longitude": -117.1196206,
            "locType": "station",
            "latitude": 32.7810139,
            "closest_to": ""
        },
        "northern san diego county": {
            "blogLinks": [
                "http://wikitravel.org/en/San_Diego"
            ],
            "address": "Northern Frontier, San Diego, San Diego County, California, United States of America",
            "longitude": -117.1545973,
            "locType": "locality",
            "latitude": 32.7349196,
            "closest_to": ""
        },
        "newfoundland": {
            "blogLinks": [
                "http://www.tuugo.us/Companies/avalon-building-maintenance_9929254/0310001509404"
            ],
            "address": "Newfoundland Drive, Sunnyvale, Santa Clara County, California, 94087, United States of America",
            "longitude": -122.0424484,
            "locType": "residential",
            "latitude": 37.3462412,
            "closest_to": ""
        },
        "broadway": {
            "blogLinks": [
                "http://wikitravel.org/en/San_Diego"
            ],
            "address": "Broadway, Russian Hill, SF, California, 94109;94115, United States of America",
            "longitude": -122.4226908,
            "locType": "primary",
            "latitude": 37.7958391,
            "closest_to": ""
        },
        "downtown": {
            "blogLinks": [
                "http://wikitravel.org/en/San_Diego"
            ],
            "address": "Downtown, Oakland, Alameda County, California, 94612, United States of America",
            "longitude": -122.2715243,
            "locType": "neighbourhood",
            "latitude": 37.8036295,
            "closest_to": ""
        },
        "monterey bay": {
            "blogLinks": [
                "http://www.travbuddy.com/California-popular-cities-p85",
                "http://wikitravel.org/en/San_Diego"
            ],
            "address": "Monterey Bay, Monterey County, California, United States of America",
            "longitude": -121.9010667,
            "locType": "bay",
            "latitude": 36.7999557,
            "closest_to": ""
        },
        "san quentin": {
            "blogLinks": [
                "http://www.californiaoutdoorplayground.com/San-Bernardino-Tourism-Blog/August-2015/Top-4-Historic-Places-To-Visit-In-San-Bernardino-C.aspx"
            ],
            "address": "San Quentin, Marin County, California, United States of America",
            "longitude": -122.4849738,
            "locType": "hamlet",
            "latitude": 37.9413133,
            "closest_to": ""
        },
        "humboldt county": {
            "blogLinks": [
                "http://www.travbuddy.com/California-popular-cities-p85"
            ],
            "address": "Humboldt County, California, United States of America",
            "longitude": -123.8997733,
            "locType": "administrative",
            "latitude": 40.5997415,
            "closest_to": ""
        },
        "la": {
            "blogLinks": [
                "http://www.yellowpages.com/san-bernardino-ca/avalon-hotel-and-conference-center",
                "http://www.sbsun.com/article/zz/20120830/NEWS/120839590"
            ],
            "address": "California, United States of America",
            "longitude": -118.7559973,
            "locType": "administrative",
            "latitude": 36.7014631,
            "closest_to": ""
        },
        "san bernardino county": {
            "blogLinks": [
                "http://www.california-blog.com/",
                "http://www.californiaoutdoorplayground.com/San-Bernardino-Tourism-Blog/August-2015/Top-4-Historic-Places-To-Visit-In-San-Bernardino-C.aspx",
                "http://www.sbsun.com/article/zz/20120830/NEWS/120839590"
            ],
            "address": "San Bernardino County, California, United States of America",
            "longitude": -116.0833143,
            "locType": "administrative",
            "latitude": 34.8253019,
            "closest_to": ""
        },
        "alabama": {
            "blogLinks": [
                "http://www.yellowpages.com/san-bernardino-ca/avalon-hotel-and-conference-center"
            ],
            "address": "Alabama, Rovana, Inyo County, California, United States of America",
            "longitude": -118.6109719,
            "locType": "residential",
            "latitude": 37.413435,
            "closest_to": ""
        },
        "san francisco": {
            "blogLinks": [
                "http://www.latimes.com/local/crime/",
                "http://www.travbuddy.com/California-popular-cities-p85",
                "http://wikitravel.org/en/San_Diego"
            ],
            "address": "SF, California, United States of America",
            "longitude": -122.4192362,
            "locType": "city",
            "latitude": 37.7792808,
            "closest_to": ""
        },
        "south lake tahoe": {
            "blogLinks": [
                "http://www.travbuddy.com/California-popular-cities-p85"
            ],
            "address": "South Lake Tahoe, El Dorado County, California, United States of America",
            "longitude": -119.987846390157,
            "locType": "city",
            "latitude": 38.929125,
            "closest_to": ""
        },
        "san manuel": {
            "blogLinks": [
                "http://www.yellowpages.com/san-bernardino-ca/avalon-motel"
            ],
            "address": "California, Manuel alvarez (San Antonio, Los Hoyos), Cajeme, Sonora, 85019, M\u00e9xico",
            "longitude": -109.9453315,
            "locType": "primary",
            "latitude": 27.5536826,
            "closest_to": ""
        },
        "spain": {
            "blogLinks": [
                "http://wikitravel.org/en/San_Diego"
            ],
            "address": "La California, Mor\u00f3n de la Frontera, Sevilla, Andaluc\u00eda, Espa\u00f1a",
            "longitude": -5.4610806,
            "locType": "locality",
            "latitude": 37.1412332,
            "closest_to": ""
        },
        "la mesa": {
            "blogLinks": [
                "http://wikitravel.org/en/San_Diego"
            ],
            "address": "La Mesa, San Diego County, California, United States of America",
            "longitude": -117.0230838,
            "locType": "city",
            "latitude": 32.7678288,
            "closest_to": ""
        },
        "sacramento": {
            "blogLinks": [
                "http://wikitravel.org/en/San_Diego"
            ],
            "address": "Sacramento, Sacramento County, California, United States of America",
            "longitude": -121.4943995,
            "locType": "city",
            "latitude": 38.5815719,
            "closest_to": ""
        },
        "pacific ocean": {
            "blogLinks": [
                "https://en.wikipedia.org/wiki/Channel_Islands_of_California",
                "http://www.travbuddy.com/California-popular-cities-p85",
                "http://wikitravel.org/en/San_Diego"
            ],
            "address": "Pacific Ocean, Cabrillo Highway, Monterey County, California, 93920, United States of America",
            "longitude": -121.678715787326,
            "locType": "cliff",
            "latitude": 36.16305775,
            "closest_to": ""
        },
        "morro bay ca": {
            "blogLinks": [
                "http://www.california-blog.com/"
            ],
            "address": "Morro Bay, San Luis Obispo County, California, United States of America",
            "longitude": -120.8499012,
            "locType": "city",
            "latitude": 35.3658075,
            "closest_to": ""
        },
        "gaslamp quarter": {
            "blogLinks": [
                "http://wikitravel.org/en/San_Diego"
            ],
            "address": "Gaslamp Quarter, San Diego County, California, United States of America",
            "longitude": -117.1597028,
            "locType": "hamlet",
            "latitude": 32.7109444,
            "closest_to": ""
        },
        "us": {
            "blogLinks": [
                "https://en.wikipedia.org/wiki/Channel_Islands_of_California",
                "http://www.travbuddy.com/California-popular-cities-p85",
                "http://wikitravel.org/en/San_Diego"
            ],
            "address": "California, United States of America",
            "longitude": -118.7559973,
            "locType": "administrative",
            "latitude": 36.7014631,
            "closest_to": ""
        },
        "imperial beach": {
            "blogLinks": [
                "http://wikitravel.org/en/San_Diego"
            ],
            "address": "Imperial Beach, San Diego County, California, United States of America",
            "longitude": -117.1130848,
            "locType": "city",
            "latitude": 32.5839444,
            "closest_to": ""
        },
        "el dorado county": {
            "blogLinks": [
                "http://www.travbuddy.com/California-popular-cities-p85"
            ],
            "address": "El Dorado County, California, United States of America",
            "longitude": -120.5276128,
            "locType": "administrative",
            "latitude": 38.7574137,
            "closest_to": ""
        },
        "pittsburgh": {
            "blogLinks": [
                "http://www.tuugo.us/Companies/avalon-building-maintenance_9929254/0310001509404"
            ],
            "address": "Pittsburgh Hill, Yuba County, California, United States of America",
            "longitude": -121.1002348,
            "locType": "peak",
            "latitude": 39.5151683,
            "closest_to": ""
        },
        "texas": {
            "blogLinks": [
                "http://www.sbsun.com/article/zz/20120830/NEWS/120839590"
            ],
            "address": "California, Baytown, Harris County, Texas, 77520, United States of America",
            "longitude": -94.997906,
            "locType": "residential",
            "latitude": 29.7181118,
            "closest_to": ""
        },
        "lompoc": {
            "blogLinks": [
                "https://en.wikipedia.org/wiki/Channel_Islands_of_California"
            ],
            "address": "Lompoc, Santa Barbara County, California, United States of America",
            "longitude": -120.4579408,
            "locType": "city",
            "latitude": 34.6391501,
            "closest_to": ""
        },
        "san diego bay": {
            "blogLinks": [
                "http://wikitravel.org/en/San_Diego"
            ],
            "address": "San Diego Bay, Leyte Road, Crown Island, Coronado, San Diego County, California, 92118, United States of America",
            "longitude": -117.1341977,
            "locType": "bay",
            "latitude": 32.6500534,
            "closest_to": ""
        },
        "south bay": {
            "blogLinks": [
                "http://www.travbuddy.com/California-popular-cities-p85"
            ],
            "address": "South Bay, Sea Cliff Avenue, Seacliff, SF, California, 94121, United States of America",
            "longitude": -122.4927499,
            "locType": "bay",
            "latitude": 37.794096,
            "closest_to": ""
        },
        "san simeon": {
            "blogLinks": [
                "http://www.travbuddy.com/California-popular-cities-p85"
            ],
            "address": "San Simeon, San Luis Obispo County, California, United States of America",
            "longitude": -121.1907532,
            "locType": "hamlet",
            "latitude": 35.6438587,
            "closest_to": ""
        },
        "nevada": {
            "blogLinks": [
                "http://wikitravel.org/en/San_Diego"
            ],
            "address": "Nevada County, California, United States of America",
            "longitude": -120.8089842,
            "locType": "administrative",
            "latitude": 39.3540335,
            "closest_to": ""
        },
        "bear lake": {
            "blogLinks": [
                "http://www.yellowpages.com/san-bernardino-ca/avalon"
            ],
            "address": "Bear Lake, Riverview, Johnstown, San Diego County, California, 92021, United States of America",
            "longitude": -116.8849329,
            "locType": "residential",
            "latitude": 32.852283,
            "closest_to": ""
        },
        "old town": {
            "blogLinks": [
                "http://wikitravel.org/en/San_Diego"
            ],
            "address": "Old Town, Golden Hills, Kern County, California, United States of America",
            "longitude": -118.4954422,
            "locType": "locality",
            "latitude": 35.142943,
            "closest_to": ""
        },
        "petco park": {
            "blogLinks": [
                "http://wikitravel.org/en/San_Diego"
            ],
            "address": "Petco Park, 100, Park Boulevard, Hillcrest, San Diego, San Diego County, California, 92101, United States of America",
            "longitude": -117.156886653262,
            "locType": "stadium",
            "latitude": 32.70717575,
            "closest_to": ""
        },
        "north park": {
            "blogLinks": [
                "http://wikitravel.org/en/San_Diego"
            ],
            "address": "North Park, San Diego, San Diego County, California, 92104, United States of America",
            "longitude": -117.1305876,
            "locType": "neighbourhood",
            "latitude": 32.7408842,
            "closest_to": ""
        },
        "fairfield county": {
            "blogLinks": [
                "http://www.tuugo.us/Companies/avalon-building-maintenance_9929254/0310001509404"
            ],
            "address": "California Street, Bridgeport Downtown South Historic District, Bridgeport, Fairfield County, Connecticut, 06608, United States of America",
            "longitude": -73.1804672,
            "locType": "residential",
            "latitude": 41.1761026,
            "closest_to": ""
        },
        "washington": {
            "blogLinks": [
                "http://wikitravel.org/en/San_Diego",
                "http://www.tuugo.us/Companies/avalon-building-maintenance_9929254/0310001509404"
            ],
            "address": "California, Washington County, Pennsylvania, United States of America",
            "longitude": -79.8918435,
            "locType": "administrative",
            "latitude": 40.0657724,
            "closest_to": ""
        },
        "north county": {
            "blogLinks": [
                "http://wikitravel.org/en/San_Diego"
            ],
            "address": "California, 16th Street, Upper Downtown, Denver, Denver County, Colorado, 80211, United States of America",
            "longitude": -104.992379,
            "locType": "bus_stop",
            "latitude": 39.7452174,
            "closest_to": ""
        },
        "mexico": {
            "blogLinks": [
                "https://en.wikipedia.org/wiki/Channel_Islands_of_California",
                "http://wikitravel.org/en/San_Diego"
            ],
            "address": "California, Hermosillo, Sonora, M\u00e9xico",
            "longitude": -111.8196666,
            "locType": "village",
            "latitude": 28.973,
            "closest_to": ""
        },
        "central coast": {
            "blogLinks": [
                "http://wikitravel.org/en/San_Diego"
            ],
            "address": "Central Coast Street, Bakersfield, Kern County, California, 93314, United States of America",
            "longitude": -119.1665989,
            "locType": "residential",
            "latitude": 35.3611193,
            "closest_to": ""
        },
        "monterey": {
            "blogLinks": [
                "http://www.travbuddy.com/California-popular-cities-p85"
            ],
            "address": "Monterey, Monterey County, California, United States of America",
            "longitude": -121.866792846206,
            "locType": "city",
            "latitude": 36.5844165,
            "closest_to": ""
        },
        "santa barbara county": {
            "blogLinks": [
                "https://en.wikipedia.org/wiki/Channel_Islands_of_California"
            ],
            "address": "Santa Barbara County, California, United States of America",
            "longitude": -119.9858231,
            "locType": "administrative",
            "latitude": 34.7136533,
            "closest_to": ""
        },
        "ojai valley": {
            "blogLinks": [
                "http://www.california-blog.com/"
            ],
            "address": "Ojai, Ventura County, California, United States of America",
            "longitude": -119.2428889,
            "locType": "city",
            "latitude": 34.4480495,
            "closest_to": ""
        },
        "mission trails regional park": {
            "blogLinks": [
                "http://wikitravel.org/en/San_Diego"
            ],
            "address": "Mission Trails Regional Park, Lake Shore Drive, San Diego, San Diego County, California, 91942:92119, United States of America",
            "longitude": -117.0366957,
            "locType": "park",
            "latitude": 32.7958834,
            "closest_to": ""
        },
        "monterey peninsula ca": {
            "blogLinks": [
                "http://www.california-blog.com/"
            ],
            "address": "Monterey Regional Airport, Airport Road, Seaside, Del Monte Heights, Monterey County, California, 93940, United States of America",
            "longitude": -121.843618374407,
            "locType": "aerodrome",
            "latitude": 36.5878734,
            "closest_to": ""
        },
        "santa clara county": {
            "blogLinks": [
                "http://www.travbuddy.com/California-popular-cities-p85"
            ],
            "address": "Santa Clara County, California, United States of America",
            "longitude": -121.6846348,
            "locType": "administrative",
            "latitude": 37.2333253,
            "closest_to": ""
        },
        "stoddard valley": {
            "blogLinks": [
                "http://www.sbsun.com/article/zz/20120830/NEWS/120839590"
            ],
            "address": "Stoddard Lateral, Livingston, Merced County, California, United States of America",
            "longitude": -120.7307392,
            "locType": "canal",
            "latitude": 37.3985634,
            "closest_to": ""
        },
        "santa fe depot": {
            "blogLinks": [
                "http://wikitravel.org/en/San_Diego"
            ],
            "address": "Santa Fe Depot, Martin Luther King Promenade, Hillcrest, San Diego, San Diego County, California, 92101, United States of America",
            "longitude": -117.1698167,
            "locType": "station",
            "latitude": 32.7167353,
            "closest_to": ""
        },
        "san miguel island": {
            "blogLinks": [
                "https://en.wikipedia.org/wiki/Channel_Islands_of_California"
            ],
            "address": "San Miguel Island, California, United States of America",
            "longitude": -120.37939199835,
            "locType": "island",
            "latitude": 34.0452385,
            "closest_to": ""
        },
        "el cajon": {
            "blogLinks": [
                "http://wikitravel.org/en/San_Diego"
            ],
            "address": "El Cajon, San Diego County, California, United States of America",
            "longitude": -116.9625268,
            "locType": "city",
            "latitude": 32.7947731,
            "closest_to": ""
        },
        "balboa park | balboa park-hillcrest": {
            "blogLinks": [
                "http://wikitravel.org/en/San_Diego"
            ],
            "address": "Balboa Park, Plaza de Balboa, North Park, Hillcrest, San Diego, San Diego County, California, 92101, United States of America",
            "longitude": -117.146580648446,
            "locType": "park",
            "latitude": 32.7310521,
            "closest_to": ""
        },
        "gila bend": {
            "blogLinks": [
                "http://wikitravel.org/en/San_Diego"
            ],
            "address": "Gila Bend Drive, Seeley, Imperial County, California, 92243, United States of America",
            "longitude": -115.6753603,
            "locType": "residential",
            "latitude": 32.8134269,
            "closest_to": ""
        },
        "morro rock ca": {
            "blogLinks": [
                "http://www.california-blog.com/"
            ],
            "address": "Morro Rock, Morro Bay, San Luis Obispo County, California, United States of America",
            "longitude": -120.8676993,
            "locType": "peak",
            "latitude": 35.369669,
            "closest_to": ""
        },
        "san luis obispo": {
            "blogLinks": [
                "http://wikitravel.org/en/San_Diego"
            ],
            "address": "San Luis Obispo, San Luis Obispo County, California, United States of America",
            "longitude": -120.6596155,
            "locType": "city",
            "latitude": 35.2827525,
            "closest_to": ""
        },
        "morro rock": {
            "blogLinks": [
                "http://www.yellowpages.com/san-bernardino-ca/avalon"
            ],
            "address": "Morro Rock, Morro Bay, San Luis Obispo County, California, United States of America",
            "longitude": -120.8676993,
            "locType": "peak",
            "latitude": 35.369669,
            "closest_to": ""
        },
        "sunnyvale": {
            "blogLinks": [
                "http://www.tuugo.us/Companies/avalon-building-maintenance_9929254/0310001509404"
            ],
            "address": "Sunnyvale, Santa Clara County, California, United States of America",
            "longitude": -122.0363495,
            "locType": "city",
            "latitude": 37.3688301,
            "closest_to": ""
        },
        "san bernardino area": {
            "blogLinks": [
                "http://www.yellowpages.com/san-bernardino-ca/avalon-hotel-and-conference-center"
            ],
            "address": "California, \u00c1rea Comercial de Las Mercedes, Baruta, Municipio Baruta, Miranda, Regi\u00f3n Capital, 1060, Venezuela",
            "longitude": -66.8640466,
            "locType": "residential",
            "latitude": 10.483346,
            "closest_to": ""
        },
        "santa cruz island": {
            "blogLinks": [
                "https://en.wikipedia.org/wiki/Channel_Islands_of_California"
            ],
            "address": "Santa Cruz Island, California, United States of America",
            "longitude": -119.775100848034,
            "locType": "island",
            "latitude": 34.0184636,
            "closest_to": ""
        },
        "pebble beach ca": {
            "blogLinks": [
                "http://www.california-blog.com/"
            ],
            "address": "Pebble Beach, Monterey County, California, United States of America",
            "longitude": -121.9466112,
            "locType": "hamlet",
            "latitude": 36.5664874,
            "closest_to": ""
        },
        "north lake ca": {
            "blogLinks": [
                "http://www.california-blog.com/"
            ],
            "address": "North Lake, Chain of Lakes Drive East, Sunset District, SF, California, 94122, United States of America",
            "longitude": -122.501983281136,
            "locType": "water",
            "latitude": 37.76958295,
            "closest_to": ""
        },
        "balboa park-hillcrest": {
            "blogLinks": [
                "http://wikitravel.org/en/San_Diego"
            ],
            "address": "Balboa Park, Plaza de Balboa, North Park, Hillcrest, San Diego, San Diego County, California, 92101, United States of America",
            "longitude": -117.146580648446,
            "locType": "park",
            "latitude": 32.7310521,
            "closest_to": ""
        },
        "santa barbara": {
            "blogLinks": [
                "https://en.wikipedia.org/wiki/Channel_Islands_of_California"
            ],
            "address": "Santa Barbara, Santa Barbara County, California, United States of America",
            "longitude": -119.7026672,
            "locType": "city",
            "latitude": 34.4221319,
            "closest_to": ""
        },
        "dog park": {
            "blogLinks": [
                "http://www.sbsun.com/article/zz/20120830/NEWS/120839590"
            ],
            "address": "Dog Park, Diamond Heights Boulevard, Noe Valley, SF, California, 94131, United States of America",
            "longitude": -122.435380730172,
            "locType": "dog_park",
            "latitude": 37.7404427,
            "closest_to": ""
        },
        "santa rosa": {
            "blogLinks": [
                "https://en.wikipedia.org/wiki/Channel_Islands_of_California"
            ],
            "address": "Santa Rosa, Sonoma County, California, United States of America",
            "longitude": -122.7144313,
            "locType": "city",
            "latitude": 38.4404675,
            "closest_to": ""
        },
        "shanghai": {
            "blogLinks": [
                "http://wikitravel.org/en/San_Diego"
            ],
            "address": "Shanghai, Jackson Street, Hensley Historic District, Japantown, San Jos\u00e9, Santa Clara County, California, 95112, United States of America",
            "longitude": -121.894015266141,
            "locType": "yes",
            "latitude": 37.34935045,
            "closest_to": ""
        },
        "viejas arena": {
            "blogLinks": [
                "http://wikitravel.org/en/San_Diego"
            ],
            "address": "Viejas Arena, Aztec Walk, San Diego, San Diego County, California, 92182, United States of America",
            "longitude": -117.074548235413,
            "locType": "sports_centre",
            "latitude": 32.77380925,
            "closest_to": ""
        },
        "yuma": {
            "blogLinks": [
                "http://wikitravel.org/en/San_Diego"
            ],
            "address": "Yuma Main Canal, Imperial County, California, United States of America",
            "longitude": -114.6287508,
            "locType": "canal",
            "latitude": 32.749997,
            "closest_to": ""
        },
        "san diego": {
            "blogLinks": [
                "http://www.latimes.com/local/crime/",
                "http://www.travbuddy.com/California-popular-cities-p85",
                "http://wikitravel.org/en/San_Diego"
            ],
            "address": "San Diego, San Diego County, California, United States of America",
            "longitude": -117.1627713,
            "locType": "city",
            "latitude": 32.7174209,
            "closest_to": ""
        },
        "mojave desert ca": {
            "blogLinks": [
                "http://www.california-blog.com/"
            ],
            "address": "Mojave Desert, Utility Road, San Bernardino County, California, United States of America",
            "longitude": -115.548963686646,
            "locType": "desert",
            "latitude": 35.1456319,
            "closest_to": ""
        },
        "lemon grove": {
            "blogLinks": [
                "http://wikitravel.org/en/San_Diego"
            ],
            "address": "Lemon Grove, San Diego County, California, United States of America",
            "longitude": -117.0314171,
            "locType": "city",
            "latitude": 32.7425516,
            "closest_to": ""
        },
        "national city": {
            "blogLinks": [
                "http://wikitravel.org/en/San_Diego"
            ],
            "address": "National City, San Diego County, California, United States of America",
            "longitude": -117.0991966,
            "locType": "city",
            "latitude": 32.6781085,
            "closest_to": ""
        },
        "mid-city": {
            "blogLinks": [
                "http://wikitravel.org/en/San_Diego"
            ],
            "address": "Middle Bair Island, Redwood City, San Mateo County, California, United States of America",
            "longitude": -122.2303835,
            "locType": "island",
            "latitude": 37.5133425,
            "closest_to": ""
        },
        "u.s.": {
            "blogLinks": [
                "https://en.wikipedia.org/wiki/Channel_Islands_of_California",
                "http://wikitravel.org/en/San_Diego"
            ],
            "address": "La California, Municipio de Las Rosas, Departamento Belgrano, Sta. Fe, Argentina",
            "longitude": -61.5489543,
            "locType": "hamlet",
            "latitude": -32.5446226,
            "closest_to": ""
        },
        "santa cruz mountains.the": {
            "blogLinks": [
                "http://www.travbuddy.com/California-popular-cities-p85"
            ],
            "address": "Santa Cruz Mountains, Santa Clara County, California, United States of America",
            "longitude": -122.0712855,
            "locType": "mountain_range",
            "latitude": 37.2188403,
            "closest_to": ""
        },
        "atlanta": {
            "blogLinks": [
                "http://www.travbuddy.com/California-popular-cities-p85",
                "http://www.tuugo.us/Companies/avalon-building-maintenance_9929254/0310001509404"
            ],
            "address": "Atlanta, San Joaquin County, California, United States of America",
            "longitude": -121.1207728,
            "locType": "hamlet",
            "latitude": 37.8129826,
            "closest_to": ""
        },
        "san diego county": {
            "blogLinks": [
                "http://www.travbuddy.com/California-popular-cities-p85",
                "http://wikitravel.org/en/San_Diego"
            ],
            "address": "San Diego County, California, United States of America",
            "longitude": -116.7706276,
            "locType": "administrative",
            "latitude": 32.9637838,
            "closest_to": ""
        },
        "kern river": {
            "blogLinks": [
                "http://www.california-blog.com/"
            ],
            "address": "Kern River, Tulare County, California, United States of America",
            "longitude": -118.4124188,
            "locType": "river",
            "latitude": 36.6816956,
            "closest_to": ""
        },
        "united states of america": {
            "blogLinks": [
                "https://en.wikipedia.org/wiki/Channel_Islands_of_California"
            ],
            "address": "California, United States of America",
            "longitude": -118.7559973,
            "locType": "administrative",
            "latitude": 36.7014631,
            "closest_to": ""
        },
        "belgium": {
            "blogLinks": [
                "http://wikitravel.org/en/San_Diego"
            ],
            "address": "Belgium Avenue, Chico, Butte County, California, 95928, United States of America",
            "longitude": -121.785498,
            "locType": "residential",
            "latitude": 39.7276351,
            "closest_to": ""
        },
        "chandler": {
            "blogLinks": [
                "http://wikitravel.org/en/San_Diego"
            ],
            "address": "Chandler, Selma, Fresno County, California, 93662, United States of America",
            "longitude": -119.633388,
            "locType": "residential",
            "latitude": 36.5873787,
            "closest_to": ""
        },
        "santa cruz": {
            "blogLinks": [
                "https://en.wikipedia.org/wiki/Channel_Islands_of_California",
                "http://www.travbuddy.com/California-popular-cities-p85"
            ],
            "address": "Santa Cruz, Santa Cruz County, California, United States of America",
            "longitude": -122.0260569,
            "locType": "city",
            "latitude": 36.9735903,
            "closest_to": ""
        },
        "santa barbara channel": {
            "blogLinks": [
                "https://en.wikipedia.org/wiki/Channel_Islands_of_California"
            ],
            "address": "Santa Barbara Cemetery, Channel Drive, Santa Barbara, Santa Barbara County, California, 93108, United States of America",
            "longitude": -119.6554096,
            "locType": "grave_yard",
            "latitude": 34.4188855,
            "closest_to": ""
        },
        "united states": {
            "blogLinks": [
                "https://en.wikipedia.org/wiki/Channel_Islands_of_California",
                "http://www.travbuddy.com/California-popular-cities-p85",
                "http://www.californiaoutdoorplayground.com/San-Bernardino-Tourism-Blog/August-2015/Top-4-Historic-Places-To-Visit-In-San-Bernardino-C.aspx",
                "http://wikitravel.org/en/San_Diego",
                "http://www.latimes.com/local/crime/"
            ],
            "address": "California, United States of America",
            "longitude": -118.7559973,
            "locType": "administrative",
            "latitude": 36.7014631,
            "closest_to": ""
        },
        "san ysidro": {
            "blogLinks": [
                "http://wikitravel.org/en/San_Diego"
            ],
            "address": "San Ysidro, San Diego, San Diego County, California, United States of America",
            "longitude": -117.0430812,
            "locType": "suburb",
            "latitude": 32.5520013,
            "closest_to": ""
        },
        "americas": {
            "blogLinks": [
                "https://en.wikipedia.org/wiki/Channel_Islands_of_California"
            ],
            "address": "california, Jir\u00f3n Aprovesa, Asociaci\u00f3n de Vivienda Santa Rosa, Distrito de San Juan Bautista, San Juan Bautista, Huamanga, Ayacucho, 05001, Per\u00fa",
            "longitude": -74.206290139264,
            "locType": "hotel",
            "latitude": -13.17169885,
            "closest_to": ""
        },
        "cuyamaca rancho state park": {
            "blogLinks": [
                "http://wikitravel.org/en/San_Diego"
            ],
            "address": "Cuyamaca Rancho State Park, Highway 79, Guatay, San Diego County, California, 92036, United States of America",
            "longitude": -116.591579345466,
            "locType": "park",
            "latitude": 32.86396725,
            "closest_to": ""
        },
        "pacific": {
            "blogLinks": [
                "http://www.travbuddy.com/California-popular-cities-p85"
            ],
            "address": "Pacific, El Dorado County, California, United States of America",
            "longitude": -120.507146,
            "locType": "hamlet",
            "latitude": 38.7601815,
            "closest_to": ""
        },
        "santa rosa island": {
            "blogLinks": [
                "https://en.wikipedia.org/wiki/Channel_Islands_of_California"
            ],
            "address": "Santa Rosa Island, California, United States of America",
            "longitude": -120.091897011053,
            "locType": "island",
            "latitude": 33.96579515,
            "closest_to": ""
        },
        "balboa park": {
            "blogLinks": [
                "http://wikitravel.org/en/San_Diego"
            ],
            "address": "Balboa Park, Sergeant John V Young Lane, Ingleside, SF, California, 94112, United States of America",
            "longitude": -122.444804424152,
            "locType": "park",
            "latitude": 37.72494875,
            "closest_to": ""
        },
        "san jose": {
            "blogLinks": [
                "http://www.travbuddy.com/California-popular-cities-p85"
            ],
            "address": "San Jos\u00e9, Santa Clara County, California, United States of America",
            "longitude": -121.8905832,
            "locType": "city",
            "latitude": 37.3361905,
            "closest_to": ""
        },
        "baja mexico": {
            "blogLinks": [
                "http://wikitravel.org/en/San_Diego"
            ],
            "address": "Instituto Mexico de Baja California, Avenida Las Palmas, Tijuana, Baja California, 22106, M\u00e9xico",
            "longitude": -116.9866449,
            "locType": "school",
            "latitude": 32.499412,
            "closest_to": ""
        }
    },
    "avalon": {
        "osm_type": "relation",
        "lon": "-118.3272611",
        "type": "city",
        "boundingbox": [
            "33.317583",
            "33.356566",
            "-118.3466549",
            "-118.3073689"
        ],
        "class": "place",
        "place_id": "159849240",
        "osm_id": "6169443",
        "lat": "33.34221",
        "licence": "Data \u00a9 OpenStreetMap contributors, ODbL 1.0. http://www.openstreetmap.org/copyright",
        "icon": "https://nominatim.openstreetmap.org/images/mapicons/poi_place_city.p.20.png",
        "importance": 0.59676353508209,
        "display_name": "Avalon, Los Angeles County, California, United States of America"
    },
    "san bernardino": {
        "osm_type": "relation",
        "lon": "-117.2897651",
        "type": "city",
        "boundingbox": [
            "34.050346",
            "34.230706",
            "-117.4024519",
            "-117.1649719"
        ],
        "class": "place",
        "place_id": "159293643",
        "osm_id": "253639",
        "lat": "34.1083449",
        "licence": "Data \u00a9 OpenStreetMap contributors, ODbL 1.0. http://www.openstreetmap.org/copyright",
        "icon": "https://nominatim.openstreetmap.org/images/mapicons/poi_place_city.p.20.png",
        "importance": 0.81183700771795,
        "display_name": "San Bernardino, San Bernardino County, California, United States of America"
    }
}