{
    "bidar": {
        "icon": "https://nominatim.openstreetmap.org/images/mapicons/poi_boundary_administrative.p.20.png",
        "osm_type": "node",
        "boundingbox": [
            "17.443333",
            "18.723333",
            "76.693333",
            "77.973333"
        ],
        "display_name": "Bidar, Bidar district, Karnataka, India",
        "class": "place",
        "osm_id": "316417319",
        "type": "county",
        "licence": "Data \u00a9 OpenStreetMap contributors, ODbL 1.0. http://www.openstreetmap.org/copyright",
        "lon": "77.333333",
        "lat": "18.083333",
        "place_id": "1400874",
        "importance": 0.65
    },
    "mentions": {
        "bengaluru": {
            "blogLinks": [
                "http://blog.indianluxurytrains.com/2014/09/best-places-to-visit-in-karnataka.html",
                "https://en.wikipedia.org/wiki/Bidar"
            ],
            "locType": "city",
            "longitude": "77.5912997",
            "latitude": "12.9791198",
            "address": "Bengaluru, Bangalore Urban, Karnataka, 560001, India",
            "closest_to": ""
        },
        "harangi dam": {
            "blogLinks": [
                "http://blog.indianluxurytrains.com/2014/09/best-places-to-visit-in-karnataka.html"
            ],
            "locType": "dam",
            "longitude": "75.9056999171375",
            "latitude": "12.4928663",
            "address": "Harangi dam, Somawarpet taluk, Kodagu, Karnataka, India",
            "closest_to": ""
        },
        "chelavara falls": {
            "blogLinks": [
                "http://blog.indianluxurytrains.com/2014/09/best-places-to-visit-in-karnataka.html"
            ],
            "locType": "waterfall",
            "longitude": "75.6734811730693",
            "latitude": "12.20601005",
            "address": "Chelavara Falls, Madikeri taluku, Kodagu, Karnataka, India",
            "closest_to": ""
        },
        "kolkata": {
            "blogLinks": [
                "https://en.wikipedia.org/wiki/Bidar"
            ],
            "locType": "restaurant",
            "longitude": "77.5478044",
            "latitude": "12.9845159",
            "address": "Kolkata Biryani And Rolls, 1st Main Basaveshwaranagar, Rajajinagar 3rd Block, Dasarahalli, Bengaluru, Bangalore Urban, Karnataka, 560010, India",
            "closest_to": ""
        },
        "agastya": {
            "blogLinks": [
                "http://travel.india.com/badami/places-to-visit/"
            ],
            "locType": "residential",
            "longitude": "77.7512485332492",
            "latitude": "12.9796965",
            "address": "Agastya Guru Palatia Apartments, Kadugodi, Prashanth Extension, Bangalore Urban, Karnataka, 56066, India",
            "closest_to": ""
        },
        "kodagu": {
            "blogLinks": [
                "http://blog.indianluxurytrains.com/2014/09/best-places-to-visit-in-karnataka.html"
            ],
            "locType": "administrative",
            "longitude": "75.6677235950852",
            "latitude": "12.38117345",
            "address": "Kodagu, Karnataka, India",
            "closest_to": ""
        },
        "kadamba": {
            "blogLinks": [
                "https://en.wikipedia.org/wiki/Badami"
            ],
            "locType": "residential",
            "longitude": "77.7436954",
            "latitude": "12.9703178",
            "address": "Kadamba Avenue, R. Narayanapura, Brookefields, Dodsworth Enclave, Bangalore Urban, Karnataka, 560066, India",
            "closest_to": ""
        },
        "shivalaya": {
            "blogLinks": [
                "https://en.wikipedia.org/wiki/Badami",
                "http://travel.india.com/badami/places-to-visit/"
            ],
            "locType": "place_of_worship",
            "longitude": "77.645704",
            "latitude": "12.9692508",
            "address": "Sri Kanyaka Parameshwari & Shivalaya, 8th Cross Road, Old Thippasandra, Indiranagar, Bengaluru, Bangalore Urban, Karnataka, 560001, India",
            "closest_to": ""
        },
        "channarayapatna of hassan": {
            "blogLinks": [
                "http://blog.indianluxurytrains.com/2014/09/best-places-to-visit-in-karnataka.html"
            ],
            "locType": "primary",
            "longitude": "76.4628912",
            "latitude": "13.0775815",
            "address": "Tiptur - Channarayapatna Road, Rampura, Channarayapattana taluk, Hassan district, Karnataka, India",
            "closest_to": ""
        },
        "mahatma gandhi park": {
            "blogLinks": [
                "http://blog.indianluxurytrains.com/2014/09/best-places-to-visit-in-karnataka.html"
            ],
            "locType": "park",
            "longitude": "77.5997033330292",
            "latitude": "12.9772144",
            "address": "Mahatma Gandhi Park, Mahatma Gandhi Road, Shantala Nagar, MacIvor Town, Bengaluru, Bangalore Urban, Karnataka, 560001, India",
            "closest_to": ""
        },
        "new delhi": {
            "blogLinks": [
                "https://en.wikipedia.org/wiki/Bidar"
            ],
            "locType": "college",
            "longitude": "76.6142178649055",
            "latitude": "12.30911465",
            "address": "Regional Institute of Education, Chaduranga Road, Jayalakshmipuram, Mysuru, Mysuru taluk, Mysuru district, Karnataka, 570001, India",
            "closest_to": ""
        },
        "bahubali": {
            "blogLinks": [
                "https://en.wikipedia.org/wiki/Badami"
            ],
            "locType": "place_of_worship",
            "longitude": "76.4846128",
            "latitude": "12.8540505",
            "address": "Bahubali Statue, SH8, Shravanabelagola, Channarayapattana taluk, Hassan district, Karnataka, 573135, India",
            "closest_to": ""
        },
        "nataraja": {
            "blogLinks": [
                "https://en.wikipedia.org/wiki/Badami"
            ],
            "locType": "cinema",
            "longitude": "77.5730381173154",
            "latitude": "12.9900332",
            "address": "Nataraja, Sirur Park Road, Vyalikaval, Seshadripuram, Bengaluru, Bangalore Urban, Karnataka, 560001, India",
            "closest_to": ""
        },
        "hassan": {
            "blogLinks": [
                "http://blog.indianluxurytrains.com/2014/09/best-places-to-visit-in-karnataka.html"
            ],
            "locType": "town",
            "longitude": "76.0992703",
            "latitude": "13.0070817",
            "address": "Hassan, Hasana taluk, Hassan district, Karnataka, 573201, India",
            "closest_to": ""
        },
        "venkatappa art gallery": {
            "blogLinks": [
                "http://blog.indianluxurytrains.com/2014/09/best-places-to-visit-in-karnataka.html"
            ],
            "locType": "museum",
            "longitude": "77.5952077",
            "latitude": "12.9742592",
            "address": "Venkatappa Art Gallery, Kasturba Road, Shantala Nagar, MacIvor Town, Bengaluru, Bangalore Urban, Karnataka, 560001, India",
            "closest_to": ""
        },
        "victoria": {
            "blogLinks": [
                "https://en.wikipedia.org/wiki/Bidar"
            ],
            "locType": "hospital",
            "longitude": "77.5737113458072",
            "latitude": "12.96350355",
            "address": "Victoria Hospital, Bala Gangadhara Swamy Flyover, Ranasingpet, Chamarajapete, Bengaluru, Bangalore Urban, Karnataka, 560001, India",
            "closest_to": ""
        },
        "north goa": {
            "blogLinks": [
                "https://www.tripoto.com/weekend-getaways/from-badami"
            ],
            "locType": "restaurant",
            "longitude": "77.6200027",
            "latitude": "12.9750047",
            "address": "Carnival De Goa, Bhaskaran Road, Gupta Layout, Halasuru, Bengaluru, Bangalore Urban, Karnataka, 560001, India",
            "closest_to": ""
        },
        "udupi": {
            "blogLinks": [
                "http://journeymart.com/de/india/karnataka/sightseeing/default.aspx"
            ],
            "locType": "city",
            "longitude": "74.7473232",
            "latitude": "13.3419169",
            "address": "Udupi, Udupi taluku, Udupi district, Karnataka, 576101, India",
            "closest_to": ""
        },
        "nagarhole national park": {
            "blogLinks": [
                "http://journeymart.com/de/india/karnataka/sightseeing/default.aspx",
                "http://blog.indianluxurytrains.com/2014/09/best-places-to-visit-in-karnataka.html"
            ],
            "locType": "national_park",
            "longitude": "76.1537073415874",
            "latitude": "12.0600362",
            "address": "Nagarahole National Park, Virajpet taluk, Kodagu, Karnataka, India",
            "closest_to": ""
        },
        "nirmithi kendra": {
            "blogLinks": [
                "https://en.wikipedia.org/wiki/Bidar"
            ],
            "locType": "public_building",
            "longitude": "76.239739",
            "latitude": "12.315061",
            "address": "Grameena Nirmithi Kendra Kalbetta, NH275, Attikuppe, Hunasuru taluk, Mysuru district, Karnataka, India",
            "closest_to": ""
        },
        "lal bagh": {
            "blogLinks": [
                "http://blog.indianluxurytrains.com/2014/09/best-places-to-visit-in-karnataka.html"
            ],
            "locType": "bus_stop",
            "longitude": "74.8386152",
            "latitude": "12.8859223",
            "address": "Lal Bagh Bus Stop, Mahatma Gandhi Road, Lalbagh, Ladyhill, Mangaluru, Mangaluru taluk, Dakshina Kannada, Karnataka, 575001, India",
            "closest_to": ""
        },
        "amritsar": {
            "blogLinks": [
                "http://www.goheritagerun.com/category/heritage/page/3/"
            ],
            "locType": "restaurant",
            "longitude": "77.5957831",
            "latitude": "12.8762432",
            "address": "Oye Amritsar, Bannerghatta Road, Mico Arekere Layout 1st Stage, Hulimavu, Bengaluru, Bangalore Urban, Karnataka, 560001, India",
            "closest_to": ""
        },
        "andhra pradesh": {
            "blogLinks": [
                "https://en.wikipedia.org/wiki/Badami"
            ],
            "locType": "hotel",
            "longitude": "79.3452447",
            "latitude": "13.6841958",
            "address": "Karnataka, West Mada Street, Srivari Temple, Tirumala, Chittoor, Andhra Pradesh, 517504, India",
            "closest_to": ""
        },
        "chennakesava": {
            "blogLinks": [
                "http://blog.indianluxurytrains.com/2014/09/best-places-to-visit-in-karnataka.html"
            ],
            "locType": "place_of_worship",
            "longitude": "75.8603311",
            "latitude": "13.1629239",
            "address": "Chennakesava Temple, NH73, Navilahalli, Beluru taluk, Hassan district, Karnataka, India",
            "closest_to": ""
        },
        "south delhi": {
            "blogLinks": [
                "https://www.tripadvisor.in/"
            ],
            "locType": "village",
            "longitude": "77.4804128",
            "latitude": "13.0577334",
            "address": "Anchepalya, Bangalore Urban, Karnataka, India",
            "closest_to": ""
        },
        "west": {
            "blogLinks": [
                "https://en.wikipedia.org/wiki/Badami"
            ],
            "locType": "clothes",
            "longitude": "77.5960999",
            "latitude": "12.8759384",
            "address": "w, Balmuri Main Road, Hulimavu,, Bannerghatta Road, Mico Arekere Layout 1st Stage, Hulimavu, Bengaluru, Bangalore Urban, Karnataka, 560076, India",
            "closest_to": ""
        },
        "goa": {
            "blogLinks": [
                "https://www.tripoto.com/weekend-getaways/from-badami"
            ],
            "locType": "restaurant",
            "longitude": "77.6200027",
            "latitude": "12.9750047",
            "address": "Carnival De Goa, Bhaskaran Road, Gupta Layout, Halasuru, Bengaluru, Bangalore Urban, Karnataka, 560001, India",
            "closest_to": ""
        },
        "rajasthan": {
            "blogLinks": [
                "https://en.wikipedia.org/wiki/Bidar",
                "http://www.goheritagerun.com/category/heritage/page/3/"
            ],
            "locType": "atm",
            "longitude": "75.7985653",
            "latitude": "26.91869",
            "address": "Karnataka Bank, Mirza Ismail Road, Hasanpura, Bani Park, Jaipur, Rajasthan, 302006, India",
            "closest_to": ""
        },
        "vijaynagara": {
            "blogLinks": [
                "http://blog.indianluxurytrains.com/2014/09/best-places-to-visit-in-karnataka.html"
            ],
            "locType": "bus_stop",
            "longitude": "77.5383681",
            "latitude": "12.9726377",
            "address": "Vijaynagara, Chord Road, Marenahalli, Vijaya Nagar, Binny Layout, Bangalore Urban, Karnataka, 560040, India",
            "closest_to": ""
        },
        "karnataka": {
            "blogLinks": [
                "http://www.nivalink.com/destination/bidar",
                "http://www.distancesfrom.com/Trip-Cost-from-Bidar-to-Kudala-Sangama-via-Ron-Badami-Bagalkot-Kudalasangama-Pattadakal-Aihole/TripCostHistory/30867365.aspx",
                "http://blog.bonggeek.com/2010/01/bidar-road-trip-from-hyderabad.html",
                "http://blog.indianluxurytrains.com/2014/09/best-places-to-visit-in-karnataka.html",
                "http://www.distancesfrom.com/travel-from-hyderabad-to-Hyderabad-via-Badami-Bidar-Aihole-Kalaburagi-Vijayapura/TravelFromHistory/32768746.aspx",
                "https://en.wikipedia.org/wiki/Badami",
                "http://travel.india.com/badami/places-to-visit/",
                "http://www.distancesfrom.com/in/Trip-Cost-from-Bidar-to-badami/TripCostHistory/30674207.aspx",
                "https://www.tripoto.com/travel-guide/bidar",
                "http://www.solobackpacker.com/2012/02/04/aihole-an-architectural-wonder-in-stones/",
                "http://journeymart.com/de/india/karnataka/sightseeing/default.aspx",
                "http://www.karnatakatourism.org/",
                "https://en.wikipedia.org/wiki/Bidar"
            ],
            "locType": "atm",
            "longitude": "76.6639936",
            "latitude": "12.3084901",
            "address": "Karnataka, Shalivahana Road, Nazarbad, Mysuru, Mysuru taluk, Mysuru district, Karnataka, 570001, India",
            "closest_to": ""
        },
        "bombay": {
            "blogLinks": [
                "https://en.wikipedia.org/wiki/Badami"
            ],
            "locType": "cafe",
            "longitude": "77.5500256",
            "latitude": "12.9632318",
            "address": "Bombay tea hotel, Hosahalli Main Road, Rajajinagar 6th Block, Goripalya, Bengaluru, Bangalore Urban, Karnataka, 560001, India",
            "closest_to": ""
        },
        "railway museum": {
            "blogLinks": [
                "http://blog.indianluxurytrains.com/2014/09/best-places-to-visit-in-karnataka.html"
            ],
            "locType": "railway",
            "longitude": "77.6182271274845",
            "latitude": "13.001147",
            "address": "Bangalore East Railway Station, Cox Town, Bengaluru, Bangalore Urban, Karnataka, 560001, India",
            "closest_to": ""
        },
        "gurudwara": {
            "blogLinks": [
                "http://www.solobackpacker.com/2012/02/04/aihole-an-architectural-wonder-in-stones/",
                "http://blog.bonggeek.com/2010/01/bidar-road-trip-from-hyderabad.html",
                "http://www.goheritagerun.com/tag/bidar-2/page/2/",
                "http://www.goheritagerun.com/tag/visit/",
                "http://www.goheritagerun.com/category/heritage/page/3/"
            ],
            "locType": "place_of_worship",
            "longitude": "77.6206886107944",
            "latitude": "12.97623345",
            "address": "Gurudwara, Bhaskaran Road, Gupta Layout, Halasuru, Bengaluru, Bangalore Urban, Karnataka, 560001, India",
            "closest_to": ""
        },
        "mandovi river": {
            "blogLinks": [
                "https://www.tripoto.com/weekend-getaways/from-badami"
            ],
            "locType": "car",
            "longitude": "77.6190505",
            "latitude": "12.9965335",
            "address": "Mandovi Motors, Wheeler Road Flyover, MSO Colony, Cox Town, Bengaluru, Bangalore Urban, Karnataka, 560001, India",
            "closest_to": ""
        },
        "cubbon park": {
            "blogLinks": [
                "http://blog.indianluxurytrains.com/2014/09/best-places-to-visit-in-karnataka.html"
            ],
            "locType": "station",
            "longitude": "77.5977565",
            "latitude": "12.9808487",
            "address": "Cubbon Park, Cubbon Road, Tasker Town, Shivajinagar, Bengaluru, Bangalore Urban, Karnataka, 560001, India",
            "closest_to": ""
        },
        "golconda": {
            "blogLinks": [
                "https://en.wikipedia.org/wiki/Bidar"
            ],
            "locType": "restaurant",
            "longitude": "77.7127571",
            "latitude": "12.9558467",
            "address": "Golconda Chimney, Varthur Road, Vaikuntam Layout, AECS Layout, Siddapura, Bangalore Urban, Karnataka, 560066, India",
            "closest_to": ""
        },
        "maharashtra": {
            "blogLinks": [
                "https://en.wikipedia.org/wiki/Badami",
                "https://en.wikipedia.org/wiki/Bidar"
            ],
            "locType": "bank",
            "longitude": "77.5856013",
            "latitude": "12.9049455",
            "address": "Bank of Maharashtra, 24th Main, K R Layout, Puttenahalli, Bengaluru, Bangalore Urban, Karnataka, 560001, India",
            "closest_to": ""
        },
        "hoysaleswara": {
            "blogLinks": [
                "http://blog.indianluxurytrains.com/2014/09/best-places-to-visit-in-karnataka.html"
            ],
            "locType": "place_of_worship",
            "longitude": "75.9941649",
            "latitude": "13.2127193",
            "address": "Hoysaleswara Temple, SH21, Halebidu, Beluru taluk, Hassan district, Karnataka, 573121, India",
            "closest_to": ""
        },
        "tamil nadu": {
            "blogLinks": [
                "https://en.wikipedia.org/wiki/Badami"
            ],
            "locType": "bank",
            "longitude": "76.9514152",
            "latitude": "11.0025894",
            "address": "KARNATAKA BANK, Diwan Bhadur Road, Five Corner, RS Puram, Coimbatore, Coimbatore district, Tamil Nadu, 641001, India",
            "closest_to": ""
        },
        "mangalore": {
            "blogLinks": [
                "http://journeymart.com/de/india/karnataka/sightseeing/default.aspx"
            ],
            "locType": "city",
            "longitude": "74.8430082",
            "latitude": "12.8698101",
            "address": "Mangaluru, Mangaluru taluk, Dakshina Kannada, Karnataka, 575001, India",
            "closest_to": ""
        },
        "district": {
            "blogLinks": [
                "https://en.wikipedia.org/wiki/Bidar"
            ],
            "locType": "atm",
            "longitude": "76.6639936",
            "latitude": "12.3084901",
            "address": "Karnataka, Shalivahana Road, Nazarbad, Mysuru, Mysuru taluk, Mysuru district, Karnataka, 570001, India",
            "closest_to": ""
        },
        "southern karnataka": {
            "blogLinks": [
                "https://en.wikipedia.org/wiki/Bidar"
            ],
            "locType": "commercial",
            "longitude": "77.6227757667762",
            "latitude": "12.92588785",
            "address": "Survey Of India - Southern Zone, Madivala, Bengaluru, Bangalore Urban, Karnataka, 560001, India",
            "closest_to": ""
        },
        "agastya lake": {
            "blogLinks": [
                "http://travel.india.com/badami/places-to-visit/"
            ],
            "locType": "residential",
            "longitude": "77.7512485332492",
            "latitude": "12.9796965",
            "address": "Agastya Guru Palatia Apartments, Kadugodi, Prashanth Extension, Bangalore Urban, Karnataka, 56066, India",
            "closest_to": ""
        },
        "kerala": {
            "blogLinks": [
                "http://journeymart.com/de/india/karnataka/sightseeing/default.aspx"
            ],
            "locType": "restaurant",
            "longitude": "77.6382683",
            "latitude": "12.9726449",
            "address": "New Life Kerala Mess, Sai Baba Mandira Road, Mottappanapalaya, Indiranagar, Bengaluru, Bangalore Urban, Karnataka, 560001, India",
            "closest_to": ""
        },
        "china": {
            "blogLinks": [
                "https://en.wikipedia.org/wiki/Bidar"
            ],
            "locType": "restaurant",
            "longitude": "77.6074274",
            "latitude": "12.9708868",
            "address": "Highland China, Magrath Road, Tasker Town, Ashok Nagar, Bengaluru, Bangalore Urban, Karnataka, 560001, India",
            "closest_to": ""
        },
        "durga temple": {
            "blogLinks": [
                "http://www.solobackpacker.com/2012/02/04/aihole-an-architectural-wonder-in-stones/"
            ],
            "locType": "place_of_worship",
            "longitude": "77.6125928",
            "latitude": "12.9057731",
            "address": "Durga Temple, 29th Main, Mahadeshwara Nagara, BTM Layout, Bengaluru, Bangalore Urban, Karnataka, 560001, India",
            "closest_to": ""
        },
        "surya temple": {
            "blogLinks": [
                "http://www.solobackpacker.com/2012/02/04/aihole-an-architectural-wonder-in-stones/"
            ],
            "locType": "place_of_worship",
            "longitude": "77.6386171367774",
            "latitude": "12.9548321",
            "address": "Surya Narayana Swamy Temple, 7th Cross, Domlur 1st Stage, Domlur, Bengaluru, Bangalore Urban, Karnataka, 560071, India",
            "closest_to": ""
        },
        "mumbai": {
            "blogLinks": [
                "http://blog.bonggeek.com/2010/01/bidar-road-trip-from-hyderabad.html",
                "http://www.goheritagerun.com/tag/bidar-2/page/2/",
                "https://en.wikipedia.org/wiki/Bidar"
            ],
            "locType": "restaurant",
            "longitude": "77.5718472",
            "latitude": "13.0002869",
            "address": "Mumbai Spice, 18/2, 10th Cross, Malleswaram, Vyalikaval, Malleswaram, Bengaluru, Bangalore Urban, Karnataka, 560003, India",
            "closest_to": ""
        },
        "delhi": {
            "blogLinks": [
                "http://blog.indianluxurytrains.com/2014/09/best-places-to-visit-in-karnataka.html",
                "https://en.wikipedia.org/wiki/Bidar"
            ],
            "locType": "trunk",
            "longitude": "77.6666062",
            "latitude": "12.9212473",
            "address": "Outer Ring Road, Green Glen Layout, Iblur, Bengaluru, Bangalore Urban, Karnataka, 560001, India",
            "closest_to": ""
        },
        "japanese garden": {
            "blogLinks": [
                "https://www.tripoto.com/weekend-getaways/from-badami"
            ],
            "locType": "restaurant",
            "longitude": "77.6055915",
            "latitude": "12.9655328",
            "address": "Hae Kum Gang (Korean/Japanese), 20, Castle Street, Shantala Nagar, Ashok Nagar, Bengaluru, Bangalore Urban, Karnataka, 560001, India",
            "closest_to": ""
        },
        "earth": {
            "blogLinks": [
                "https://en.wikipedia.org/wiki/Badami"
            ],
            "locType": "industrial",
            "longitude": "77.659986649248",
            "latitude": "12.9740596",
            "address": "Bharat Earth Movers Limited - BEML, GM Palya, Bengaluru, Bangalore Urban, Karnataka, 560001, India",
            "closest_to": ""
        },
        "kanchipuram": {
            "blogLinks": [
                "https://en.wikipedia.org/wiki/Badami"
            ],
            "locType": "hotel",
            "longitude": "79.3452447",
            "latitude": "13.6841958",
            "address": "Karnataka, West Mada Street, Srivari Temple, Tirumala, Chittoor, Andhra Pradesh, 517504, India",
            "closest_to": ""
        },
        "golden temple": {
            "blogLinks": [
                "http://www.goheritagerun.com/category/heritage/page/3/"
            ],
            "locType": "place_of_worship",
            "longitude": "75.9674656",
            "latitude": "12.430821",
            "address": "Padmasambhava Buddhist Vihara (Golden Temple), MDR21, Koppa, Piriyapattana taluk, Mysuru district, Karnataka, India",
            "closest_to": ""
        },
        "vittala": {
            "blogLinks": [
                "http://blog.indianluxurytrains.com/2014/09/best-places-to-visit-in-karnataka.html"
            ],
            "locType": "yes",
            "longitude": "76.6237847175927",
            "latitude": "12.30129655",
            "address": "Vijaya Vittala PU College, Sahukar Chennaiah Road, Sarasvatipuram, Mysuru, Mysuru taluk, Mysuru district, Karnataka, 570001, India",
            "closest_to": ""
        },
        "venkataramana temple": {
            "blogLinks": [
                "http://blog.indianluxurytrains.com/2014/09/best-places-to-visit-in-karnataka.html"
            ],
            "locType": "place_of_worship",
            "longitude": "77.6895365754579",
            "latitude": "12.8380349",
            "address": "Venkataramana Temple, 20th Cross Road, Anantnagar, Sampige Nagara, Bangalore Urban, Karnataka, 560099, India",
            "closest_to": ""
        },
        "kalpana": {
            "blogLinks": [
                "https://en.wikipedia.org/wiki/Badami"
            ],
            "locType": "cinema",
            "longitude": "74.7506815",
            "latitude": "13.3360433",
            "address": "Kalpana, Kavi Muddana Marg, Indiranagara, Udupi, Udupi taluku, Udupi district, Karnataka, 576101, India",
            "closest_to": ""
        },
        "chennai": {
            "blogLinks": [
                "https://en.wikipedia.org/wiki/Badami"
            ],
            "locType": "bank",
            "longitude": "80.2197941",
            "latitude": "13.0365141",
            "address": "Karnataka Bank, Postal Colony 2nd Street, Postal Colony, Ashok Nagar, Chennai City Corporation Limits, Chennai district, Tamil Nadu, 600033, India",
            "closest_to": ""
        },
        "kannada": {
            "blogLinks": [
                "https://en.wikipedia.org/wiki/Badami"
            ],
            "locType": "administrative",
            "longitude": "75.1008028650794",
            "latitude": "12.8114089",
            "address": "Dakshina Kannada, Karnataka, India",
            "closest_to": ""
        },
        "bangalore": {
            "blogLinks": [
                "https://en.wikipedia.org/wiki/Badami",
                "http://www.goheritagerun.com/tag/bidar-2/page/2/",
                "https://en.wikipedia.org/wiki/Bidar"
            ],
            "locType": "city",
            "longitude": "77.5912997",
            "latitude": "12.9791198",
            "address": "Bengaluru, Bangalore Urban, Karnataka, 560001, India",
            "closest_to": ""
        },
        "ooty": {
            "blogLinks": [
                "http://www.goheritagerun.com/category/heritage/page/3/"
            ],
            "locType": "primary",
            "longitude": "76.6586807",
            "latitude": "12.2774807",
            "address": "Ooty Road, Vidyaranyapuram, Mysuru, Mysuru taluk, Mysuru district, Karnataka, 570001, India",
            "closest_to": ""
        },
        "mysore": {
            "blogLinks": [
                "http://blog.indianluxurytrains.com/2014/09/best-places-to-visit-in-karnataka.html"
            ],
            "locType": "city",
            "longitude": "76.6553609",
            "latitude": "12.3051828",
            "address": "Mysuru, Mysuru taluk, Mysuru district, Karnataka, 570001, India",
            "closest_to": ""
        }
    },
    "badami": {
        "icon": "https://nominatim.openstreetmap.org/images/mapicons/poi_place_town.p.20.png",
        "osm_type": "node",
        "boundingbox": [
            "15.8803874",
            "15.9603874",
            "75.6407865",
            "75.7207865"
        ],
        "display_name": "Badami, Badami taluku, Bagalkote district, Karnataka, 587200, India",
        "class": "place",
        "osm_id": "655135229",
        "type": "town",
        "licence": "Data \u00a9 OpenStreetMap contributors, ODbL 1.0. http://www.openstreetmap.org/copyright",
        "lon": "75.6807865",
        "lat": "15.9203874",
        "place_id": "6086961",
        "importance": 0.5
    }
}