{
    "bakersfield": {
        "class": "place",
        "licence": "Data \u00a9 OpenStreetMap contributors, ODbL 1.0. http://www.openstreetmap.org/copyright",
        "lon": "-119.0194638",
        "lat": "35.3738712",
        "boundingbox": [
            "35.193979",
            "35.447975",
            "-119.2650329",
            "-118.7723409"
        ],
        "importance": 0.74358237824296,
        "osm_type": "relation",
        "icon": "https://nominatim.openstreetmap.org/images/mapicons/poi_place_city.p.20.png",
        "osm_id": "113006",
        "display_name": "Bakersfield, Kern County, California, United States of America",
        "type": "city",
        "place_id": "158454478"
    },
    "riverside": {
        "class": "place",
        "licence": "Data \u00a9 OpenStreetMap contributors, ODbL 1.0. http://www.openstreetmap.org/copyright",
        "lon": "-117.3961622",
        "lat": "33.9533546",
        "boundingbox": [
            "33.8724207",
            "34.0192691",
            "-117.5237611",
            "-117.2741721"
        ],
        "importance": 0.72980766319189,
        "osm_type": "way",
        "icon": "https://nominatim.openstreetmap.org/images/mapicons/poi_place_city.p.20.png",
        "osm_id": "98628503",
        "display_name": "Riverside, Riverside County, California, United States of America",
        "type": "city",
        "place_id": "85715402"
    },
    "mentions": {
        "golden gate bridge": {
            "closest_to": "",
            "locType": "motorway",
            "address": "Golden Gate Bridge, Waldo, Marin County, California, 94965, United States of America",
            "latitude": "37.8302809",
            "longitude": "-122.4798473",
            "blogLinks": [
                "http://www.safewise.com/blog/safest-cities-california-2016/"
            ]
        },
        "greater chicago": {
            "closest_to": "",
            "locType": "place_of_worship",
            "address": "Greater Whitestone Missionary Baptist Church, 3813-3819, West Ogden Avenue, Bohemian California, Chicago, Cook County, Illinois, 60623, United States of America",
            "latitude": "41.8522546",
            "longitude": "-87.7203326",
            "blogLinks": [
                "http://www.cahsrblog.com/2010/08/riverside-officials-promoting-greenfield-site-for-hsr-station/"
            ]
        },
        "gilroy": {
            "closest_to": "",
            "locType": "city",
            "address": "Gilroy, Santa Clara County, California, United States of America",
            "latitude": "37.0065078",
            "longitude": "-121.5631722",
            "blogLinks": [
                "http://www.cahsrblog.com/2010/08/riverside-officials-promoting-greenfield-site-for-hsr-station/"
            ]
        },
        "murietta": {
            "closest_to": "",
            "locType": "residential",
            "address": "Murietta, Pittsburg, Contra Costa County, California, 94565, United States of America",
            "latitude": "38.0221601",
            "longitude": "-121.9128123",
            "blogLinks": [
                "http://www.cahsrblog.com/2010/08/riverside-officials-promoting-greenfield-site-for-hsr-station/"
            ]
        },
        "richmond": {
            "closest_to": "",
            "locType": "city",
            "address": "Richmond, Contra Costa County, California, United States of America",
            "latitude": "37.9357576",
            "longitude": "-122.3477485",
            "blogLinks": [
                "http://www.roadsideamerica.com/location/ca"
            ]
        },
        "victor valley": {
            "closest_to": "",
            "locType": "stream",
            "address": "Victor Creek, Humboldt County, California, United States of America",
            "latitude": "40.937053",
            "longitude": "-123.6300007",
            "blogLinks": [
                "http://www.cahsrblog.com/2010/08/riverside-officials-promoting-greenfield-site-for-hsr-station/"
            ]
        },
        "iceland": {
            "closest_to": "",
            "locType": "hamlet",
            "address": "Iceland, Nevada County, California, United States of America",
            "latitude": "39.3733802",
            "longitude": "-120.0291429",
            "blogLinks": [
                "http://www.cahsrblog.com/2010/08/riverside-officials-promoting-greenfield-site-for-hsr-station/"
            ]
        },
        "switzerland": {
            "closest_to": "",
            "locType": "hotel",
            "address": "California, 22, Schiffl\u00e4nde, Rathaus, Altstadt, Z\u00fcrich, Bezirk Z\u00fcrich, Z\u00fcrich, 8024, Schweiz, Suisse, Svizzera, Svizra",
            "latitude": "47.3688306",
            "longitude": "8.5445137",
            "blogLinks": [
                "https://www.tripadvisor.com/"
            ]
        },
        "mexico": {
            "closest_to": "",
            "locType": "village",
            "address": "California, Hermosillo, Sonora, M\u00e9xico",
            "latitude": "28.973",
            "longitude": "-111.8196666",
            "blogLinks": [
                "http://www.roadsideamerica.com/location/ca"
            ]
        },
        "aix": {
            "closest_to": "",
            "locType": "bus_stop",
            "address": "California, Rue Jean Andreani, Pont de l'Arc, Aix-en-Provence, Bouches-du-Rh\u00f4ne, Provence-Alpes-C\u00f4te d'Azur, 13090;13100, France",
            "latitude": "43.512317",
            "longitude": "5.4365072",
            "blogLinks": [
                "http://www.cahsrblog.com/2010/08/riverside-officials-promoting-greenfield-site-for-hsr-station/"
            ]
        },
        "pacific northwest": {
            "closest_to": "",
            "locType": "university",
            "address": "University of the Pacific, 3601, Pacific Avenue, Stockton, San Joaquin County, California, 95211, United States of America",
            "latitude": "37.98042375",
            "longitude": "-121.312847098327",
            "blogLinks": [
                "https://www.tripit.com/blog/2016/01/california-driving-distances-and-times.html"
            ]
        },
        "san rafael": {
            "closest_to": "",
            "locType": "city",
            "address": "San Rafael, Marin County, California, United States of America",
            "latitude": "37.9735346",
            "longitude": "-122.5310873",
            "blogLinks": [
                "http://www.roadsideamerica.com/location/ca"
            ]
        },
        "munich": {
            "closest_to": "",
            "locType": "residential",
            "address": "Munich Street, Crocker-Amazon, SF, California, 94112, United States of America",
            "latitude": "37.7116097",
            "longitude": "-122.4339074",
            "blogLinks": [
                "http://www.cahsrblog.com/2010/08/riverside-officials-promoting-greenfield-site-for-hsr-station/"
            ]
        },
        "san francisco": {
            "closest_to": "",
            "locType": "city",
            "address": "SF, California, United States of America",
            "latitude": "37.7792808",
            "longitude": "-122.4192362",
            "blogLinks": [
                "http://www.cahsrblog.com/2010/08/riverside-officials-promoting-greenfield-site-for-hsr-station/",
                "http://www.roadsideamerica.com/location/ca/all",
                "https://www.tripit.com/blog/2016/01/california-driving-distances-and-times.html",
                "http://www.roadsideamerica.com/location/ca"
            ]
        },
        "sunol": {
            "closest_to": "",
            "locType": "hamlet",
            "address": "Sunol, Alameda County, California, United States of America",
            "latitude": "37.5943781",
            "longitude": "-121.8885682",
            "blogLinks": [
                "http://www.roadsideamerica.com/location/ca"
            ]
        },
        "union station washington": {
            "closest_to": "",
            "locType": "residential",
            "address": "Union Street, Washington, Willow Glen, San Jos\u00e9, Santa Clara County, California, 95110, United States of America",
            "latitude": "37.3236372",
            "longitude": "-121.883877",
            "blogLinks": [
                "http://www.cahsrblog.com/2010/08/riverside-officials-promoting-greenfield-site-for-hsr-station/"
            ]
        },
        "laguna": {
            "closest_to": "",
            "locType": "hamlet",
            "address": "Laguna, Sacramento County, California, United States of America",
            "latitude": "38.4210209",
            "longitude": "-121.4238413",
            "blogLinks": [
                "http://www.safewise.com/blog/safest-cities-california-2016/"
            ]
        },
        "hopland": {
            "closest_to": "",
            "locType": "hamlet",
            "address": "Hopland, Mendocino County, California, United States of America",
            "latitude": "38.9729542",
            "longitude": "-123.1163917",
            "blogLinks": [
                "http://www.roadsideamerica.com/location/ca"
            ]
        },
        "palo alto": {
            "closest_to": "",
            "locType": "city",
            "address": "Palo Alto, Santa Clara County, California, United States of America",
            "latitude": "37.442156",
            "longitude": "-122.1634471",
            "blogLinks": [
                "http://www.cahsrblog.com/2010/08/riverside-officials-promoting-greenfield-site-for-hsr-station/",
                "http://www.roadsideamerica.com/location/ca"
            ]
        },
        "jerusalem": {
            "closest_to": "",
            "locType": "stream",
            "address": "Jerusalem Creek, Shasta County, California, United States of America",
            "latitude": "40.5175442",
            "longitude": "-122.7581059",
            "blogLinks": [
                "http://www.roadsideamerica.com/location/ca"
            ]
        },
        "broadway": {
            "closest_to": "",
            "locType": "primary",
            "address": "Broadway, Russian Hill, SF, California, 94109;94115, United States of America",
            "latitude": "37.7958391",
            "longitude": "-122.4226908",
            "blogLinks": [
                "http://www.cahsrblog.com/2010/08/riverside-officials-promoting-greenfield-site-for-hsr-station/"
            ]
        },
        "santa cruz": {
            "closest_to": "",
            "locType": "city",
            "address": "Santa Cruz, Santa Cruz County, California, United States of America",
            "latitude": "36.9735903",
            "longitude": "-122.0260569",
            "blogLinks": [
                "https://www.tripit.com/blog/2016/01/california-driving-distances-and-times.html",
                "http://www.roadsideamerica.com/location/ca"
            ]
        },
        "ho chi minh city": {
            "closest_to": "",
            "locType": "sports_centre",
            "address": "California Gym, Nguy\u1ec5n V\u0103n Linh, Ph\u00fa M\u1ef9 H\u01b0ng, Ph\u01b0\u1eddng T\u00e2n Phong, Qu\u1eadn 7, Th\u00e0nh ph\u1ed1 H\u1ed3 Ch\u00ed Minh, 756912, Vi\u1ec7t Nam",
            "latitude": "10.7296389",
            "longitude": "106.702788",
            "blogLinks": [
                "http://www.cahsrblog.com/2010/08/riverside-officials-promoting-greenfield-site-for-hsr-station/"
            ]
        },
        "east coast": {
            "closest_to": "",
            "locType": "fuel",
            "address": "Coast, Ashby Avenue, Claremont, Berkeley, Alameda County, California, 94705, United States of America",
            "latitude": "37.858337",
            "longitude": "-122.2447393",
            "blogLinks": [
                "http://www.cahsrblog.com/2010/08/riverside-officials-promoting-greenfield-site-for-hsr-station/"
            ]
        },
        "italy": {
            "closest_to": "",
            "locType": "village",
            "address": "California, MB, LOM, Italia",
            "latitude": "45.659844",
            "longitude": "9.3130453",
            "blogLinks": [
                "http://www.cahsrblog.com/2010/08/riverside-officials-promoting-greenfield-site-for-hsr-station/"
            ]
        },
        "merced": {
            "closest_to": "",
            "locType": "city",
            "address": "Merced, Merced County, California, United States of America",
            "latitude": "37.3029568",
            "longitude": "-120.4843268",
            "blogLinks": [
                "http://californiathroughmylens.com/highway-99-guide"
            ]
        },
        "orinda": {
            "closest_to": "",
            "locType": "administrative",
            "address": "Orinda, Contra Costa County, California, United States of America",
            "latitude": "37.8771476",
            "longitude": "-122.1796887",
            "blogLinks": [
                "http://www.safewise.com/blog/safest-cities-california-2016/"
            ]
        },
        "danville": {
            "closest_to": "",
            "locType": "administrative",
            "address": "Danville, Contra Costa County, California, United States of America",
            "latitude": "37.8215929",
            "longitude": "-121.9999605",
            "blogLinks": [
                "http://www.safewise.com/blog/safest-cities-california-2016/"
            ]
        },
        "guadalupe": {
            "closest_to": "",
            "locType": "island",
            "address": "Isla Guadalupe, Ensenada, Baja California, M\u00e9xico",
            "latitude": "29.0350656",
            "longitude": "-118.269896818344",
            "blogLinks": [
                "http://www.roadsideamerica.com/location/ca"
            ]
        },
        "turlock": {
            "closest_to": "",
            "locType": "city",
            "address": "Turlock, Stanislaus County, California, United States of America",
            "latitude": "37.4946568",
            "longitude": "-120.846594",
            "blogLinks": [
                "http://www.roadsideamerica.com/location/ca"
            ]
        },
        "sunnyvale": {
            "closest_to": "",
            "locType": "city",
            "address": "Sunnyvale, Santa Clara County, California, United States of America",
            "latitude": "37.3688301",
            "longitude": "-122.0363495",
            "blogLinks": [
                "http://www.safewise.com/blog/safest-cities-california-2016/"
            ]
        },
        "sebastopol": {
            "closest_to": "",
            "locType": "city",
            "address": "Sebastopol, Sonoma County, California, United States of America",
            "latitude": "38.4021359",
            "longitude": "-122.8238805",
            "blogLinks": [
                "http://www.roadsideamerica.com/location/ca"
            ]
        },
        "golden gate park": {
            "closest_to": "",
            "locType": "park",
            "address": "Golden Gate Park, Overlook Drive, Richmond District, SF, California, 94122, United States of America",
            "latitude": "37.7693681",
            "longitude": "-122.482183611177",
            "blogLinks": [
                "https://www.tripit.com/blog/2016/01/california-driving-distances-and-times.html"
            ]
        },
        "elk grove": {
            "closest_to": "",
            "locType": "city",
            "address": "Elk Grove, Sacramento County, California, United States of America",
            "latitude": "38.4087993",
            "longitude": "-121.3716177",
            "blogLinks": [
                "http://californiathroughmylens.com/highway-99-guide",
                "http://www.safewise.com/blog/safest-cities-california-2016/"
            ]
        },
        "santa clara": {
            "closest_to": "",
            "locType": "city",
            "address": "Santa Clara, Santa Clara County, California, United States of America",
            "latitude": "37.3541132",
            "longitude": "-121.9551743",
            "blogLinks": [
                "http://www.roadsideamerica.com/location/ca"
            ]
        },
        "ripon": {
            "closest_to": "",
            "locType": "city",
            "address": "Ripon, San Joaquin County, California, United States of America",
            "latitude": "37.741595",
            "longitude": "-121.1243827",
            "blogLinks": [
                "http://www.safewise.com/blog/safest-cities-california-2016/"
            ]
        },
        "ca": {
            "closest_to": "",
            "locType": "postcode",
            "address": "Piedmont, Alameda County, California, ca, United States of America",
            "latitude": "37.8242285466918",
            "longitude": "-122.232613735941",
            "blogLinks": [
                "http://www.cahsrblog.com/2010/08/riverside-officials-promoting-greenfield-site-for-hsr-station/"
            ]
        },
        "moraga": {
            "closest_to": "",
            "locType": "administrative",
            "address": "Moraga, Contra Costa County, California, United States of America",
            "latitude": "37.8347106",
            "longitude": "-122.1295595",
            "blogLinks": [
                "http://www.safewise.com/blog/safest-cities-california-2016/"
            ]
        },
        "benicia": {
            "closest_to": "",
            "locType": "administrative",
            "address": "Benicia, Solano County, California, United States of America",
            "latitude": "38.049365",
            "longitude": "-122.1585776",
            "blogLinks": [
                "http://www.safewise.com/blog/safest-cities-california-2016/"
            ]
        },
        "forestville": {
            "closest_to": "",
            "locType": "administrative",
            "address": "Forestville, Trenton Road, Trenton, Sonoma County, California, 95436, United States of America",
            "latitude": "38.4833405",
            "longitude": "-122.861584174866",
            "blogLinks": [
                "http://www.roadsideamerica.com/location/ca"
            ]
        },
        "south lake tahoe": {
            "closest_to": "",
            "locType": "city",
            "address": "South Lake Tahoe, El Dorado County, California, United States of America",
            "latitude": "38.929125",
            "longitude": "-119.987846390157",
            "blogLinks": [
                "http://www.roadsideamerica.com/location/ca"
            ]
        },
        "elk grove blvd": {
            "closest_to": "",
            "locType": "secondary",
            "address": "Elk Grove Boulevard, Elk Grove, Sacramento County, California, 95624, United States of America",
            "latitude": "38.4086877",
            "longitude": "-121.4521195",
            "blogLinks": [
                "http://californiathroughmylens.com/highway-99-guide"
            ]
        },
        "europe": {
            "closest_to": "",
            "locType": "residential",
            "address": "Europe Court, Santa Clara, Santa Clara County, California, 95051, United States of America",
            "latitude": "37.3491727",
            "longitude": "-121.9980641",
            "blogLinks": [
                "http://www.cahsrblog.com/2010/08/riverside-officials-promoting-greenfield-site-for-hsr-station/"
            ]
        },
        "guerneville": {
            "closest_to": "",
            "locType": "administrative",
            "address": "Guerneville, Orchard Road, El Bonita, Sonoma County, California, 95446, United States of America",
            "latitude": "38.5116609",
            "longitude": "-122.987128549631",
            "blogLinks": [
                "http://www.roadsideamerica.com/location/ca"
            ]
        },
        "pebble beach ca": {
            "closest_to": "",
            "locType": "hamlet",
            "address": "Pebble Beach, Monterey County, California, United States of America",
            "latitude": "36.5664874",
            "longitude": "-121.9466112",
            "blogLinks": [
                "http://www.california-blog.com/"
            ]
        },
        "sierra nevada": {
            "closest_to": "",
            "locType": "residential",
            "address": "Sierra, Wolf, Nevada County, California, 95949, United States of America",
            "latitude": "39.097593",
            "longitude": "-121.1396689",
            "blogLinks": [
                "http://californiathroughmylens.com/highway-99-guide"
            ]
        },
        "bodie state historic park": {
            "closest_to": "",
            "locType": "park",
            "address": "Bodie State Historic Park, Street, Bodie, Mono County, California, United States of America",
            "latitude": "38.2154734",
            "longitude": "-119.0109761",
            "blogLinks": [
                "http://www.roadsideamerica.com/location/ca"
            ]
        },
        "rocklin": {
            "closest_to": "",
            "locType": "city",
            "address": "Rocklin, Placer County, California, United States of America",
            "latitude": "38.7907339",
            "longitude": "-121.2357827",
            "blogLinks": [
                "http://www.safewise.com/blog/safest-cities-california-2016/"
            ]
        },
        "chico": {
            "closest_to": "",
            "locType": "city",
            "address": "Chico, Butte County, California, United States of America",
            "latitude": "39.7284945",
            "longitude": "-121.8374776",
            "blogLinks": [
                "http://californiathroughmylens.com/highway-99-guide"
            ]
        },
        "san jose": {
            "closest_to": "",
            "locType": "city",
            "address": "San Jos\u00e9, Santa Clara County, California, United States of America",
            "latitude": "37.3361905",
            "longitude": "-121.8905832",
            "blogLinks": [
                "http://www.roadsideamerica.com/location/ca"
            ]
        },
        "stockton": {
            "closest_to": "",
            "locType": "city",
            "address": "Stockton, San Joaquin County, California, United States of America",
            "latitude": "37.9577016",
            "longitude": "-121.2907795",
            "blogLinks": [
                "http://californiathroughmylens.com/highway-99-guide"
            ]
        },
        "underground gardens": {
            "closest_to": "",
            "locType": "stream",
            "address": "Underground Creek, Shasta County, California, United States of America",
            "latitude": "41.0253538",
            "longitude": "-121.7822601",
            "blogLinks": [
                "http://californiathroughmylens.com/highway-99-guide"
            ]
        },
        "redwood city": {
            "closest_to": "",
            "locType": "city",
            "address": "Redwood City, San Mateo County, California, United States of America",
            "latitude": "37.4852152",
            "longitude": "-122.2363547",
            "blogLinks": [
                "http://www.roadsideamerica.com/location/ca"
            ]
        },
        "boonville": {
            "closest_to": "",
            "locType": "village",
            "address": "Boonville, Mendocino County, California, 95415, United States of America",
            "latitude": "39.0091667",
            "longitude": "-123.366111",
            "blogLinks": [
                "http://www.roadsideamerica.com/location/ca"
            ]
        },
        "aix-en-provence": {
            "closest_to": "",
            "locType": "bus_stop",
            "address": "California, Rue Jean Andreani, Pont de l'Arc, Aix-en-Provence, Bouches-du-Rh\u00f4ne, Provence-Alpes-C\u00f4te d'Azur, 13090;13100, France",
            "latitude": "43.512317",
            "longitude": "5.4365072",
            "blogLinks": [
                "http://www.cahsrblog.com/2010/08/riverside-officials-promoting-greenfield-site-for-hsr-station/"
            ]
        },
        "lafayette": {
            "closest_to": "",
            "locType": "administrative",
            "address": "Lafayette, Contra Costa County, California, United States of America",
            "latitude": "37.8857582",
            "longitude": "-122.11802",
            "blogLinks": [
                "http://www.safewise.com/blog/safest-cities-california-2016/"
            ]
        },
        "las vegas": {
            "closest_to": "",
            "locType": "hotel",
            "address": "California Hotel, Sky Walk(Connection from Main Street to California, Cultural Corridor, Vegas Heights, Las Vegas, Clark County, Nevada, 89101, United States of America",
            "latitude": "36.17310935",
            "longitude": "-115.144667930325",
            "blogLinks": [
                "http://www.cahsrblog.com/2010/08/riverside-officials-promoting-greenfield-site-for-hsr-station/",
                "https://www.tripit.com/blog/2016/01/california-driving-distances-and-times.html"
            ]
        },
        "downtown": {
            "closest_to": "",
            "locType": "neighbourhood",
            "address": "Downtown, Oakland, Alameda County, California, 94612, United States of America",
            "latitude": "37.8036295",
            "longitude": "-122.2715243",
            "blogLinks": [
                "http://www.cahsrblog.com/2010/08/riverside-officials-promoting-greenfield-site-for-hsr-station/"
            ]
        },
        "garberville": {
            "closest_to": "",
            "locType": "village",
            "address": "Garberville, Humboldt County, California, United States of America",
            "latitude": "40.1005685",
            "longitude": "-123.7961393",
            "blogLinks": [
                "http://www.roadsideamerica.com/location/ca"
            ]
        },
        "sundial bridge": {
            "closest_to": "",
            "locType": "footway",
            "address": "Sundial Bridge, Redding, Shasta County, California, 96001, United States of America",
            "latitude": "40.5932269",
            "longitude": "-122.3775705",
            "blogLinks": [
                "http://californiathroughmylens.com/highway-99-guide"
            ]
        },
        "emeryville": {
            "closest_to": "",
            "locType": "administrative",
            "address": "Emeryville, Alameda County, California, United States of America",
            "latitude": "37.8314089",
            "longitude": "-122.2865265",
            "blogLinks": [
                "http://www.roadsideamerica.com/location/ca"
            ]
        },
        "willow creek": {
            "closest_to": "",
            "locType": "hamlet",
            "address": "Willow Creek, Humboldt County, California, United States of America",
            "latitude": "40.9395774",
            "longitude": "-123.6314411",
            "blogLinks": [
                "http://www.roadsideamerica.com/location/ca"
            ]
        },
        "chur": {
            "closest_to": "",
            "locType": "residential",
            "address": "Chur Court, Manteca, San Joaquin County, California, 95337, United States of America",
            "latitude": "37.806715",
            "longitude": "-121.2478539",
            "blogLinks": [
                "https://www.tripadvisor.com/"
            ]
        },
        "north lake ca": {
            "closest_to": "",
            "locType": "water",
            "address": "North Lake, Chain of Lakes Drive East, Sunset District, SF, California, 94122, United States of America",
            "latitude": "37.76958295",
            "longitude": "-122.501983281136",
            "blogLinks": [
                "http://www.california-blog.com/"
            ]
        },
        "ukiah": {
            "closest_to": "",
            "locType": "city",
            "address": "Ukiah, Mendocino County, California, United States of America",
            "latitude": "39.1501662",
            "longitude": "-123.207786",
            "blogLinks": [
                "http://www.roadsideamerica.com/location/ca"
            ]
        },
        "middletown": {
            "closest_to": "",
            "locType": "administrative",
            "address": "Middletown, Main Street, Middletown, Lake County, California, 95461, United States of America",
            "latitude": "38.7528585",
            "longitude": "-122.624194776342",
            "blogLinks": [
                "http://www.cahsrblog.com/2010/08/riverside-officials-promoting-greenfield-site-for-hsr-station/"
            ]
        },
        "mission bay ca": {
            "closest_to": "",
            "locType": "neighbourhood",
            "address": "Mission Bay, SF, California, 94158, United States of America",
            "latitude": "37.7707742",
            "longitude": "-122.3911711",
            "blogLinks": [
                "http://www.california-blog.com/"
            ]
        },
        "pacifica": {
            "closest_to": "",
            "locType": "city",
            "address": "Pacifica, San Mateo County, California, United States of America",
            "latitude": "37.6138253",
            "longitude": "-122.4869193",
            "blogLinks": [
                "http://www.roadsideamerica.com/location/ca",
                "http://www.safewise.com/blog/safest-cities-california-2016/"
            ]
        },
        "california": {
            "closest_to": "",
            "locType": "village",
            "address": "California, Santander, Colombia",
            "latitude": "7.3480915",
            "longitude": "-72.945787",
            "blogLinks": [
                "http://www.roadsideamerica.com/location/ca",
                "http://www.california-blog.com/",
                "https://www.tripit.com/blog/2016/01/california-driving-distances-and-times.html",
                "http://www.cahsrblog.com/2010/08/riverside-officials-promoting-greenfield-site-for-hsr-station/",
                "http://distancecalculator.globefeed.com/US_Distance_Calculator.asp?state=CA",
                "http://www.safewise.com/blog/safest-cities-california-2016/"
            ]
        },
        "silicon valley": {
            "closest_to": "",
            "locType": "school",
            "address": "Carnegie Mellon Silicon Valley, South Akron Road, Santa Clara County, California, 94035-0016, United States of America",
            "latitude": "37.4105333",
            "longitude": "-122.0597491",
            "blogLinks": [
                "http://www.safewise.com/blog/safest-cities-california-2016/"
            ]
        },
        "healdsburg": {
            "closest_to": "",
            "locType": "city",
            "address": "Healdsburg, Sonoma County, California, United States of America",
            "latitude": "38.6106812",
            "longitude": "-122.8701379",
            "blogLinks": [
                "http://www.roadsideamerica.com/location/ca"
            ]
        },
        "st. moritz": {
            "closest_to": "",
            "locType": "yes",
            "address": "St. Moritz, 2252, Meridian Boulevard, Mammoth Lakes, Mono County, California, 93546, United States of America",
            "latitude": "37.6408482",
            "longitude": "-118.971890270746",
            "blogLinks": [
                "https://www.tripadvisor.com/"
            ]
        },
        "berlin": {
            "closest_to": "",
            "locType": "residential",
            "address": "Berlin Way, Dimond District, Oakland, Alameda County, California, 94602, United States of America",
            "latitude": "37.7914627",
            "longitude": "-122.2096608",
            "blogLinks": [
                "http://www.cahsrblog.com/2010/08/riverside-officials-promoting-greenfield-site-for-hsr-station/"
            ]
        },
        "mountain view": {
            "closest_to": "",
            "locType": "city",
            "address": "Mountain View, Santa Clara County, California, United States of America",
            "latitude": "37.3855745",
            "longitude": "-122.0820499",
            "blogLinks": [
                "http://www.cahsrblog.com/2010/08/riverside-officials-promoting-greenfield-site-for-hsr-station/"
            ]
        },
        "bay area": {
            "closest_to": "",
            "locType": "region",
            "address": "San Francisco Bay Area, SF, California, United States of America",
            "latitude": "37.7884969",
            "longitude": "-122.3558472",
            "blogLinks": [
                "http://www.cahsrblog.com/2010/08/riverside-officials-promoting-greenfield-site-for-hsr-station/"
            ]
        },
        "geyserville": {
            "closest_to": "",
            "locType": "hamlet",
            "address": "Geyserville, Sonoma County, California, United States of America",
            "latitude": "38.707687",
            "longitude": "-122.9024963",
            "blogLinks": [
                "http://www.roadsideamerica.com/location/ca"
            ]
        },
        "castroville": {
            "closest_to": "",
            "locType": "administrative",
            "address": "Castroville, Monterey County, California, United States of America",
            "latitude": "36.7657904",
            "longitude": "-121.7580049",
            "blogLinks": [
                "http://www.roadsideamerica.com/location/ca"
            ]
        },
        "mono lake ca": {
            "closest_to": "",
            "locType": "water",
            "address": "Mono Lake, Mono County, California, United States of America",
            "latitude": "38.0077189",
            "longitude": "-118.967033937845",
            "blogLinks": [
                "http://www.california-blog.com/"
            ]
        },
        "cotati": {
            "closest_to": "",
            "locType": "city",
            "address": "Cotati, Sonoma County, California, United States of America",
            "latitude": "38.3266798",
            "longitude": "-122.706844",
            "blogLinks": [
                "http://www.roadsideamerica.com/location/ca"
            ]
        },
        "rome": {
            "closest_to": "",
            "locType": "pub",
            "address": "California, Via della Missione, Tivoli, Paterno, Tivoli, RM, LAZ, 00019, Italia",
            "latitude": "41.9628634",
            "longitude": "12.7977613",
            "blogLinks": [
                "http://www.cahsrblog.com/2010/08/riverside-officials-promoting-greenfield-site-for-hsr-station/"
            ]
        },
        "santa rosa": {
            "closest_to": "",
            "locType": "city",
            "address": "Santa Rosa, Sonoma County, California, United States of America",
            "latitude": "38.4404675",
            "longitude": "-122.7144313",
            "blogLinks": [
                "http://www.cahsrblog.com/2010/08/riverside-officials-promoting-greenfield-site-for-hsr-station/"
            ]
        },
        "monterrey": {
            "closest_to": "",
            "locType": "village",
            "address": "Monterrey, Mexicali, Baja California, M\u00e9xico",
            "latitude": "32.5492861",
            "longitude": "-115.0704122",
            "blogLinks": [
                "http://www.cahsrblog.com/2010/08/riverside-officials-promoting-greenfield-site-for-hsr-station/"
            ]
        },
        "sacramento": {
            "closest_to": "",
            "locType": "city",
            "address": "Sacramento, Sacramento County, California, United States of America",
            "latitude": "38.5815719",
            "longitude": "-121.4943995",
            "blogLinks": [
                "http://californiathroughmylens.com/highway-99-guide"
            ]
        },
        "monterey peninsula ca": {
            "closest_to": "",
            "locType": "aerodrome",
            "address": "Monterey Regional Airport, Airport Road, Seaside, Del Monte Heights, Monterey County, California, 93940, United States of America",
            "latitude": "36.5878734",
            "longitude": "-121.843618374407",
            "blogLinks": [
                "http://www.california-blog.com/"
            ]
        },
        "st. station philadelphia": {
            "closest_to": "",
            "locType": "restaurant",
            "address": "California Pizza, Powelton Avenue, Powelton Village, Philadelphia, Philadelphia County, Pennsylvania, 19104, United States of America",
            "latitude": "39.9605402",
            "longitude": "-75.1890784",
            "blogLinks": [
                "http://www.cahsrblog.com/2010/08/riverside-officials-promoting-greenfield-site-for-hsr-station/"
            ]
        },
        "monterey bay aquarium ca": {
            "closest_to": "",
            "locType": "aquarium",
            "address": "MBA, 886, Cannery Row, Monterey, Monterey County, California, 93940, United States of America",
            "latitude": "36.61809095",
            "longitude": "-121.901680002002",
            "blogLinks": [
                "http://www.california-blog.com/"
            ]
        },
        "golden state": {
            "closest_to": "",
            "locType": "island",
            "address": "Golden State Island, Butte County, California, United States of America",
            "latitude": "39.6712719",
            "longitude": "-121.9619226",
            "blogLinks": [
                "https://www.tripit.com/blog/2016/01/california-driving-distances-and-times.html",
                "http://www.safewise.com/blog/safest-cities-california-2016/"
            ]
        },
        "monterey": {
            "closest_to": "",
            "locType": "city",
            "address": "Monterey, Monterey County, California, United States of America",
            "latitude": "36.5844165",
            "longitude": "-121.866792846206",
            "blogLinks": [
                "http://www.cahsrblog.com/2010/08/riverside-officials-promoting-greenfield-site-for-hsr-station/"
            ]
        },
        "dublin": {
            "closest_to": "",
            "locType": "city",
            "address": "Dublin, Alameda County, California, United States of America",
            "latitude": "37.7021521",
            "longitude": "-121.9357917",
            "blogLinks": [
                "http://www.safewise.com/blog/safest-cities-california-2016/"
            ]
        },
        "north beach": {
            "closest_to": "",
            "locType": "neighbourhood",
            "address": "North Beach, SF, California, 94133, United States of America",
            "latitude": "37.8011749",
            "longitude": "-122.409002",
            "blogLinks": [
                "http://www.cahsrblog.com/2010/08/riverside-officials-promoting-greenfield-site-for-hsr-station/"
            ]
        },
        "san quentin": {
            "closest_to": "",
            "locType": "hamlet",
            "address": "San Quentin, Marin County, California, United States of America",
            "latitude": "37.9413133",
            "longitude": "-122.4849738",
            "blogLinks": [
                "http://www.roadsideamerica.com/location/ca"
            ]
        },
        "placerville": {
            "closest_to": "",
            "locType": "city",
            "address": "Placerville, El Dorado County, California, United States of America",
            "latitude": "38.7296252",
            "longitude": "-120.7985459",
            "blogLinks": [
                "http://www.roadsideamerica.com/location/ca"
            ]
        },
        "san carlos": {
            "closest_to": "",
            "locType": "city",
            "address": "San Carlos, San Mateo County, California, United States of America",
            "latitude": "37.4982065",
            "longitude": "-122.266149723864",
            "blogLinks": [
                "http://www.roadsideamerica.com/location/ca"
            ]
        },
        "oroville": {
            "closest_to": "",
            "locType": "city",
            "address": "Oroville, Butte County, California, United States of America",
            "latitude": "39.5137752",
            "longitude": "-121.5563589",
            "blogLinks": [
                "http://www.roadsideamerica.com/location/ca"
            ]
        },
        "tulelake": {
            "closest_to": "",
            "locType": "city",
            "address": "Tulelake, Siskiyou County, California, United States of America",
            "latitude": "41.9559885",
            "longitude": "-121.4774915",
            "blogLinks": [
                "http://www.roadsideamerica.com/location/ca"
            ]
        },
        "arcata": {
            "closest_to": "",
            "locType": "city",
            "address": "Arcata, Humboldt County, California, United States of America",
            "latitude": "40.8665166",
            "longitude": "-124.0828395",
            "blogLinks": [
                "http://www.roadsideamerica.com/location/ca"
            ]
        },
        "pleasanton": {
            "closest_to": "",
            "locType": "administrative",
            "address": "Pleasanton, Alameda County, California, United States of America",
            "latitude": "37.6624312",
            "longitude": "-121.8746788",
            "blogLinks": [
                "http://www.safewise.com/blog/safest-cities-california-2016/"
            ]
        },
        "novato": {
            "closest_to": "",
            "locType": "city",
            "address": "Novato, Marin County, California, United States of America",
            "latitude": "38.1061979",
            "longitude": "-122.568119",
            "blogLinks": [
                "http://www.safewise.com/blog/safest-cities-california-2016/"
            ]
        },
        "new york city": {
            "closest_to": "",
            "locType": "attraction",
            "address": "California Sea Lion, 830, 5th Avenue, Upper East Side, Manhattan, New York County, NYC, New York, 10035, United States of America",
            "latitude": "40.767819",
            "longitude": "-73.9717587",
            "blogLinks": [
                "https://www.tripit.com/blog/2016/01/california-driving-distances-and-times.html"
            ]
        },
        "oakland": {
            "closest_to": "",
            "locType": "city",
            "address": "Oakland, Alameda County, California, United States of America",
            "latitude": "37.8044557",
            "longitude": "-122.2713562",
            "blogLinks": [
                "http://www.cahsrblog.com/2010/08/riverside-officials-promoting-greenfield-site-for-hsr-station/"
            ]
        },
        "napa valley ca": {
            "closest_to": "",
            "locType": "secondary",
            "address": "California Boulevard, Napa, Napa County, California, 94558, United States of America",
            "latitude": "38.2972603",
            "longitude": "-122.3002947",
            "blogLinks": [
                "http://www.california-blog.com/"
            ]
        },
        "united kingdom": {
            "closest_to": "",
            "locType": "village",
            "address": "California, Birmingham, West Midlands, England, UK",
            "latitude": "52.4422729",
            "longitude": "-1.9796882",
            "blogLinks": [
                "https://www.tripit.com/blog/2016/01/california-driving-distances-and-times.html"
            ]
        },
        "chicago": {
            "closest_to": "",
            "locType": "residential",
            "address": "Chicago, Woodstock, Alameda, Alameda County, California, 94501, United States of America",
            "latitude": "37.7850531",
            "longitude": "-122.2872948",
            "blogLinks": [
                "http://www.cahsrblog.com/2010/08/riverside-officials-promoting-greenfield-site-for-hsr-station/"
            ]
        },
        "san joaquin valley": {
            "closest_to": "",
            "locType": "administrative",
            "address": "San Joaquin County, California, United States of America",
            "latitude": "37.9372901",
            "longitude": "-121.2773718",
            "blogLinks": [
                "http://www.cahsrblog.com/2010/08/riverside-officials-promoting-greenfield-site-for-hsr-station/"
            ]
        },
        "berkeley": {
            "closest_to": "",
            "locType": "city",
            "address": "Berkeley, Alameda County, California, United States of America",
            "latitude": "37.8708393",
            "longitude": "-122.2728638",
            "blogLinks": [
                "http://www.cahsrblog.com/2010/08/riverside-officials-promoting-greenfield-site-for-hsr-station/",
                "http://www.roadsideamerica.com/location/ca"
            ]
        },
        "colma": {
            "closest_to": "",
            "locType": "administrative",
            "address": "Colma, San Mateo County, California, United States of America",
            "latitude": "37.6768779",
            "longitude": "-122.4596949",
            "blogLinks": [
                "http://www.roadsideamerica.com/location/ca"
            ]
        }
    }
}