{
    "bakersfield": {
        "class": "place",
        "licence": "Data \u00a9 OpenStreetMap contributors, ODbL 1.0. http://www.openstreetmap.org/copyright",
        "lon": "-119.0194638",
        "lat": "35.3738712",
        "boundingbox": [
            "35.193979",
            "35.447975",
            "-119.2650329",
            "-118.7723409"
        ],
        "importance": 0.74358237824296,
        "osm_type": "relation",
        "icon": "https://nominatim.openstreetmap.org/images/mapicons/poi_place_city.p.20.png",
        "osm_id": "113006",
        "display_name": "Bakersfield, Kern County, California, United States of America",
        "type": "city",
        "place_id": "158454478"
    },
    "beverly hills": {
        "class": "place",
        "licence": "Data \u00a9 OpenStreetMap contributors, ODbL 1.0. http://www.openstreetmap.org/copyright",
        "lon": "-118.4003562",
        "lat": "34.0736204",
        "boundingbox": [
            "34.05269",
            "34.112456",
            "-118.4270731",
            "-118.3715357"
        ],
        "importance": 0.65,
        "osm_type": "relation",
        "icon": "https://nominatim.openstreetmap.org/images/mapicons/poi_place_city.p.20.png",
        "osm_id": "3503615",
        "display_name": "Beverly Hills, Los Angeles County, California, United States of America",
        "type": "city",
        "place_id": "159602133"
    },
    "mentions": {
        "san diego": {
            "closest_to": "",
            "locType": "city",
            "address": "San Diego, San Diego County, California, United States of America",
            "latitude": "32.7174209",
            "longitude": "-117.1627713",
            "blogLinks": [
                "http://gocalifornia.about.com/od/topcalifornia/qt/From-To-In-California.htm"
            ]
        },
        "mojave desert": {
            "closest_to": "",
            "locType": "desert",
            "address": "Mojave Desert, Utility Road, San Bernardino County, California, United States of America",
            "latitude": "35.1456319",
            "longitude": "-115.548963686646",
            "blogLinks": [
                "http://gocalifornia.about.com/od/topcalifornia/ss/route-66.htm",
                "http://wikitravel.org/en/Los_Angeles"
            ]
        },
        "barstow": {
            "closest_to": "",
            "locType": "administrative",
            "address": "Barstow, San Bernardino County, California, United States of America",
            "latitude": "34.8957684",
            "longitude": "-117.0172076",
            "blogLinks": [
                "http://gocalifornia.about.com/od/topcalifornia/ss/route-66.htm"
            ]
        },
        "earth": {
            "closest_to": "",
            "locType": "quarry",
            "address": "Mountain Pass Rare Earth Mine, Mountain Pass, San Bernardino County, California, 92364, United States of America",
            "latitude": "35.4780569",
            "longitude": "-115.541994345811",
            "blogLinks": [
                "http://wikitravel.org/en/Los_Angeles"
            ]
        },
        "foothill boulevard": {
            "closest_to": "",
            "locType": "secondary",
            "address": "Foothill Boulevard, Pacific Beach, San Diego, San Diego County, California, 92109, United States of America",
            "latitude": "32.809746",
            "longitude": "-117.2474369",
            "blogLinks": [
                "http://gocalifornia.about.com/od/topcalifornia/ss/route-66.htm"
            ]
        },
        "marin county": {
            "closest_to": "",
            "locType": "administrative",
            "address": "Marin County, California, United States of America",
            "latitude": "38.0409144",
            "longitude": "-122.6199637",
            "blogLinks": [
                "https://www.travelwizard.com/usa/california/"
            ]
        },
        "argentina": {
            "closest_to": "",
            "locType": "administrative",
            "address": "California, C\u00f3rdoba, Departamento Capital, Cba., Argentina",
            "latitude": "-31.451096",
            "longitude": "-64.205523",
            "blogLinks": [
                "http://wikitravel.org/en/Los_Angeles"
            ]
        },
        "golden gate bridge": {
            "closest_to": "",
            "locType": "motorway",
            "address": "Golden Gate Bridge, Waldo, Marin County, California, 94965, United States of America",
            "latitude": "37.8302809",
            "longitude": "-122.4798473",
            "blogLinks": [
                "https://www.travelwizard.com/usa/california/"
            ]
        },
        "fort ross state historic park": {
            "closest_to": "",
            "locType": "park",
            "address": "Fort Ross State Historic Park, Coast Highway, Toners Place, Sonoma County, California, 95450, United States of America",
            "latitude": "38.51621695",
            "longitude": "-123.242831911186",
            "blogLinks": [
                "https://www.travelwizard.com/usa/california/"
            ]
        },
        "detroit": {
            "closest_to": "",
            "locType": "strait",
            "address": "Golden Gate, Golden Gate Bridge, Waldo, Marin County, California, 94965, United States of America",
            "latitude": "37.8190177",
            "longitude": "-122.4793972",
            "blogLinks": [
                "http://wikitravel.org/en/Los_Angeles"
            ]
        },
        "kansas city": {
            "closest_to": "",
            "locType": "residential",
            "address": "Kansas City, Woodstock, Alameda, Alameda County, California, 94501, United States of America",
            "latitude": "37.7854258",
            "longitude": "-122.2891519",
            "blogLinks": [
                "http://wikitravel.org/en/Los_Angeles"
            ]
        },
        "mono": {
            "closest_to": "",
            "locType": "administrative",
            "address": "Mono County, California, United States of America",
            "latitude": "37.9533927",
            "longitude": "-118.9398757",
            "blogLinks": [
                "https://www.travelwizard.com/usa/california/"
            ]
        },
        "needles": {
            "closest_to": "",
            "locType": "city",
            "address": "Needles, San Bernardino County, California, United States of America",
            "latitude": "34.8480597",
            "longitude": "-114.6141315",
            "blogLinks": [
                "http://gocalifornia.about.com/od/topcalifornia/ss/route-66.htm"
            ]
        },
        "san bernardino county": {
            "closest_to": "",
            "locType": "administrative",
            "address": "San Bernardino County, California, United States of America",
            "latitude": "34.8253019",
            "longitude": "-116.0833143",
            "blogLinks": [
                "http://gocalifornia.about.com/od/topcalifornia/ss/route-66.htm",
                "http://wikitravel.org/en/Los_Angeles"
            ]
        },
        "spain": {
            "closest_to": "",
            "locType": "locality",
            "address": "La California, Mor\u00f3n de la Frontera, Sevilla, Andaluc\u00eda, Espa\u00f1a",
            "latitude": "37.1412332",
            "longitude": "-5.4610806",
            "blogLinks": [
                "http://wikitravel.org/en/Los_Angeles"
            ]
        },
        "fairfax": {
            "closest_to": "",
            "locType": "administrative",
            "address": "Fairfax, Marin County, California, United States of America",
            "latitude": "37.9872935",
            "longitude": "-122.5879673",
            "blogLinks": [
                "http://wikitravel.org/en/Los_Angeles"
            ]
        },
        "los posadas": {
            "closest_to": "",
            "locType": "supermarket",
            "address": "California, 215, C\u00f3rdoba, Centro, Delegaci\u00f3n Municipal Centro, Posadas, Municipio de Posadas, Departamento Capital, Mnes., 3300, Argentina",
            "latitude": "-27.36738525",
            "longitude": "-55.8965126230186",
            "blogLinks": [
                "http://wikitravel.org/en/Los_Angeles"
            ]
        },
        "los angeles metro": {
            "closest_to": "",
            "locType": "residential",
            "address": "East Los Angeles, California Village, San Bartolome, Quezon City, District V, Quezon City, Metro Manila, 1116, Philippines",
            "latitude": "14.7119101",
            "longitude": "121.0228751",
            "blogLinks": [
                "http://wikitravel.org/en/Los_Angeles"
            ]
        },
        "mexico": {
            "closest_to": "",
            "locType": "village",
            "address": "California, Hermosillo, Sonora, M\u00e9xico",
            "latitude": "28.973",
            "longitude": "-111.8196666",
            "blogLinks": [
                "https://www.travelwizard.com/usa/california/",
                "http://wikitravel.org/en/Los_Angeles"
            ]
        },
        "williams junction": {
            "closest_to": "",
            "locType": "residential",
            "address": "Williamsburg Drive, Buena Vista, San Jos\u00e9, Santa Clara County, California, 95117, United States of America",
            "latitude": "37.297796",
            "longitude": "-121.9501648",
            "blogLinks": [
                "http://wikitravel.org/en/Los_Angeles"
            ]
        },
        "ireland": {
            "closest_to": "",
            "locType": "stream",
            "address": "Ireland Creek, Tuolumne County, California, United States of America",
            "latitude": "37.7992191",
            "longitude": "-119.2896473",
            "blogLinks": [
                "http://wikitravel.org/en/Los_Angeles"
            ]
        },
        "san francisco": {
            "closest_to": "",
            "locType": "city",
            "address": "SF, California, United States of America",
            "latitude": "37.7792808",
            "longitude": "-122.4192362",
            "blogLinks": [
                "https://www.audleytravel.com/usa/california/places-to-go/los-angeles?audcmp=16-505%20USA%20-%20Region%20-%20California%20and%20Nevada&audadg=USA%20-%20California%20and%20Nevada%20-%20Place%20-%20Los%20Angeles%20-%20Broad&auddev=Desktop%20and%20Tablet",
                "http://gocalifornia.about.com/od/topcalifornia/qt/From-To-In-California.htm",
                "https://www.travelwizard.com/usa/california/",
                "http://wikitravel.org/en/Los_Angeles"
            ]
        },
        "ocean avenue": {
            "closest_to": "",
            "locType": "tram_stop",
            "address": "Ocean Ave, Ocean Avenue, Saint Francis Wood, SF, California, 94132, United States of America",
            "latitude": "37.7320759",
            "longitude": "-122.4736116",
            "blogLinks": [
                "http://gocalifornia.about.com/od/topcalifornia/ss/route-66.htm"
            ]
        },
        "albuquerque": {
            "closest_to": "",
            "locType": "residential",
            "address": "Albuquerque Street, Pacific Beach, San Diego, San Diego County, California, 92109, United States of America",
            "latitude": "32.8074701",
            "longitude": "-117.2184314",
            "blogLinks": [
                "http://gocalifornia.about.com/od/topcalifornia/ss/route-66.htm",
                "http://wikitravel.org/en/Los_Angeles"
            ]
        },
        "santa fe railroad": {
            "closest_to": "",
            "locType": "abandoned",
            "address": "Santa Fe Railroad, West Ohio Avenue, Atchison Village, Richmond, Contra Costa County, California, 94804, United States of America",
            "latitude": "37.9313328",
            "longitude": "-122.3742068",
            "blogLinks": [
                "http://gocalifornia.about.com/od/topcalifornia/ss/route-66.htm"
            ]
        },
        "china": {
            "closest_to": "",
            "locType": "park",
            "address": "China Camp State Park, Bay View Trail, Santa Venetia, Marin County, California, 94901, United States of America",
            "latitude": "37.9989198",
            "longitude": "-122.49033307856",
            "blogLinks": [
                "http://wikitravel.org/en/Los_Angeles"
            ]
        },
        "madera": {
            "closest_to": "",
            "locType": "administrative",
            "address": "Madera County, California, United States of America",
            "latitude": "37.1716264",
            "longitude": "-119.773799",
            "blogLinks": [
                "http://wikitravel.org/en/Los_Angeles"
            ]
        },
        "flagstaff": {
            "closest_to": "",
            "locType": "peak",
            "address": "Flagstaff Hill, El Dorado County, California, United States of America",
            "latitude": "38.7676791",
            "longitude": "-121.0838339",
            "blogLinks": [
                "http://wikitravel.org/en/Los_Angeles"
            ]
        },
        "tiburon": {
            "closest_to": "",
            "locType": "administrative",
            "address": "Tiburon, Marin County, California, United States of America",
            "latitude": "37.8734371",
            "longitude": "-122.4566121",
            "blogLinks": [
                "https://www.travelwizard.com/usa/california/"
            ]
        },
        "redwood national park": {
            "closest_to": "",
            "locType": "national_park",
            "address": "Redwood National Park, Redwood Creek Trail, Orick, Humboldt County, California, 95555, United States of America",
            "latitude": "41.27553155",
            "longitude": "-124.030095146171",
            "blogLinks": [
                "https://www.travelwizard.com/usa/california/"
            ]
        },
        "broadway": {
            "closest_to": "",
            "locType": "primary",
            "address": "Broadway, Russian Hill, SF, California, 94109;94115, United States of America",
            "latitude": "37.7958391",
            "longitude": "-122.4226908",
            "blogLinks": [
                "http://gocalifornia.about.com/od/topcalifornia/ss/route-66.htm"
            ]
        },
        "egypt": {
            "closest_to": "",
            "locType": "stream",
            "address": "Egypt Creek, Inyo County, California, United States of America",
            "latitude": "37.2547835",
            "longitude": "-118.544859",
            "blogLinks": [
                "http://wikitravel.org/en/Los_Angeles"
            ]
        },
        "north lake ca": {
            "closest_to": "",
            "locType": "water",
            "address": "North Lake, Chain of Lakes Drive East, Sunset District, SF, California, 94122, United States of America",
            "latitude": "37.76958295",
            "longitude": "-122.501983281136",
            "blogLinks": [
                "http://www.california-blog.com/"
            ]
        },
        "north hills": {
            "closest_to": "",
            "locType": "residential",
            "address": "California, Beverly Hills, Punta Del Este, Maldonado, 20100, Uruguay",
            "latitude": "-34.9455308",
            "longitude": "-54.9348719",
            "blogLinks": [
                "http://wikitravel.org/en/Los_Angeles"
            ]
        },
        "italy": {
            "closest_to": "",
            "locType": "village",
            "address": "California, MB, LOM, Italia",
            "latitude": "45.659844",
            "longitude": "9.3130453",
            "blogLinks": [
                "http://wikitravel.org/en/Los_Angeles"
            ]
        },
        "colorado river": {
            "closest_to": "",
            "locType": "water",
            "address": "Colorado River, Riviera Drive, East Blythe, Riverside County, California, 92225, United States of America",
            "latitude": "33.58648635",
            "longitude": "-114.542164096234",
            "blogLinks": [
                "http://gocalifornia.about.com/od/topcalifornia/ss/route-66.htm"
            ]
        },
        "east coast": {
            "closest_to": "",
            "locType": "fuel",
            "address": "Coast, Ashby Avenue, Claremont, Berkeley, Alameda County, California, 94705, United States of America",
            "latitude": "37.858337",
            "longitude": "-122.2447393",
            "blogLinks": [
                "https://www.thenandnowshop.com/blog/travel/places-to-visit-in-los-angeles/",
                "http://wikitravel.org/en/Los_Angeles"
            ]
        },
        "ethiopia": {
            "closest_to": "",
            "locType": "restaurant",
            "address": "Ethiopia Restaurant, 2955, Telegraph Avenue, LeConte, Berkeley, Alameda County, California, 94705, United States of America",
            "latitude": "37.8567857",
            "longitude": "-122.259261231789",
            "blogLinks": [
                "http://wikitravel.org/en/Los_Angeles"
            ]
        },
        "westwood": {
            "closest_to": "",
            "locType": "administrative",
            "address": "Westwood, 3rd Street, Westwood, Lassen County, California, United States of America",
            "latitude": "40.3024675",
            "longitude": "-121.010399151458",
            "blogLinks": [
                "http://wikitravel.org/en/Los_Angeles"
            ]
        },
        "atlanta": {
            "closest_to": "",
            "locType": "hamlet",
            "address": "Atlanta, San Joaquin County, California, United States of America",
            "latitude": "37.8129826",
            "longitude": "-121.1207728",
            "blogLinks": [
                "http://wikitravel.org/en/Los_Angeles"
            ]
        },
        "west side": {
            "closest_to": "",
            "locType": "residential",
            "address": "California Street, Youngstown, Mahoning County, Ohio, 44509, United States of America",
            "latitude": "41.101001",
            "longitude": "-80.7072619",
            "blogLinks": [
                "http://wikitravel.org/en/Los_Angeles"
            ]
        },
        "neptune": {
            "closest_to": "",
            "locType": "residential",
            "address": "Neptune, Palm Springs, Riverside County, California, 92264, United States of America",
            "latitude": "33.7953668",
            "longitude": "-116.5067839",
            "blogLinks": [
                "http://wikitravel.org/en/Los_Angeles"
            ]
        },
        "yosemite national park": {
            "closest_to": "",
            "locType": "national_park",
            "address": "Yosemite National Park, Mt. Hoffmann Trail, Mariposa County, California, United States of America",
            "latitude": "37.84054795",
            "longitude": "-119.516587698025",
            "blogLinks": [
                "https://www.travelwizard.com/usa/california/"
            ]
        },
        "orick": {
            "closest_to": "",
            "locType": "hamlet",
            "address": "Orick, Humboldt County, California, United States of America",
            "latitude": "41.2867896",
            "longitude": "-124.0597936",
            "blogLinks": [
                "https://www.travelwizard.com/usa/california/"
            ]
        },
        "art deco": {
            "closest_to": "",
            "locType": "artwork",
            "address": "Art Deco Clock, Broadway, Uptown, Oakland, Alameda County, California, 94612, United States of America",
            "latitude": "37.8065681",
            "longitude": "-122.2698945",
            "blogLinks": [
                "http://wikitravel.org/en/Los_Angeles"
            ]
        },
        "l.a": {
            "closest_to": "",
            "locType": "hamlet",
            "address": "California, Provincia Abel Iturralde, LPZ, Bolivia",
            "latitude": "-13.8305494",
            "longitude": "-67.9369134",
            "blogLinks": [
                "https://www.thenandnowshop.com/blog/travel/places-to-visit-in-los-angeles/"
            ]
        },
        "russian river": {
            "closest_to": "",
            "locType": "river",
            "address": "Russian River, Sonoma County, California, United States of America",
            "latitude": "38.4825985",
            "longitude": "-123.0082118",
            "blogLinks": [
                "https://www.travelwizard.com/usa/california/"
            ]
        },
        "sonoma": {
            "closest_to": "",
            "locType": "administrative",
            "address": "Sonoma County, California, United States of America",
            "latitude": "38.5110803",
            "longitude": "-122.8473387",
            "blogLinks": [
                "https://www.travelwizard.com/usa/california/"
            ]
        },
        "humboldt state park": {
            "closest_to": "",
            "locType": "parking",
            "address": "Humboldt State University, Laurel Drive, Arcata, Humboldt County, California, 95521, United States of America",
            "latitude": "40.87635235",
            "longitude": "-124.08085264535",
            "blogLinks": [
                "https://www.travelwizard.com/usa/california/"
            ]
        },
        "interstate highway": {
            "closest_to": "",
            "locType": "motorway",
            "address": "Interstate 10, Desert Center, Riverside County, California, 92239, United States of America",
            "latitude": "33.704135",
            "longitude": "-115.44222",
            "blogLinks": [
                "http://gocalifornia.about.com/od/topcalifornia/ss/route-66.htm"
            ]
        },
        "las vegas": {
            "closest_to": "",
            "locType": "hotel",
            "address": "California Hotel, Sky Walk(Connection from Main Street to California, Cultural Corridor, Vegas Heights, Las Vegas, Clark County, Nevada, 89101, United States of America",
            "latitude": "36.17310935",
            "longitude": "-115.144667930325",
            "blogLinks": [
                "http://gocalifornia.about.com/od/topcalifornia/qt/From-To-In-California.htm",
                "http://wikitravel.org/en/Los_Angeles"
            ]
        },
        "europe": {
            "closest_to": "",
            "locType": "residential",
            "address": "Europe Court, Santa Clara, Santa Clara County, California, 95051, United States of America",
            "latitude": "37.3491727",
            "longitude": "-121.9980641",
            "blogLinks": [
                "http://wikitravel.org/en/Los_Angeles"
            ]
        },
        "san antonio": {
            "closest_to": "",
            "locType": "hamlet",
            "address": "San Antonio, Marin County, California, United States of America",
            "latitude": "38.1838069",
            "longitude": "-122.5913722",
            "blogLinks": [
                "http://wikitravel.org/en/Los_Angeles"
            ]
        },
        "montclaire": {
            "closest_to": "",
            "locType": "residential",
            "address": "Montclaire, Mission Valley, San Diego, San Diego County, California, 92111, United States of America",
            "latitude": "32.817977",
            "longitude": "-117.177117047006",
            "blogLinks": [
                "http://wikitravel.org/en/Los_Angeles"
            ]
        },
        "guerneville": {
            "closest_to": "",
            "locType": "administrative",
            "address": "Guerneville, Orchard Road, El Bonita, Sonoma County, California, 95446, United States of America",
            "latitude": "38.5116609",
            "longitude": "-122.987128549631",
            "blogLinks": [
                "https://www.travelwizard.com/usa/california/"
            ]
        },
        "sierra nevada": {
            "closest_to": "",
            "locType": "residential",
            "address": "Sierra, Wolf, Nevada County, California, 95949, United States of America",
            "latitude": "39.097593",
            "longitude": "-121.1396689",
            "blogLinks": [
                "https://www.travelwizard.com/usa/california/"
            ]
        },
        "redwood trees": {
            "closest_to": "",
            "locType": "toilets",
            "address": "Redwood National & State Parks, Tall Trees Access Road, Humboldt County, California, United States of America",
            "latitude": "41.20811185",
            "longitude": "-123.99316775",
            "blogLinks": [
                "https://www.travelwizard.com/usa/california/"
            ]
        },
        "bay area": {
            "closest_to": "",
            "locType": "region",
            "address": "San Francisco Bay Area, SF, California, United States of America",
            "latitude": "37.7884969",
            "longitude": "-122.3558472",
            "blogLinks": [
                "http://www.timeanddate.com/worldclock/distances.html?n=137",
                "https://www.audleytravel.com/usa/california/accommodation/beverly-hills-hotel-and-bungalows"
            ]
        },
        "mojave desert ca": {
            "closest_to": "",
            "locType": "desert",
            "address": "Mojave Desert, Utility Road, San Bernardino County, California, United States of America",
            "latitude": "35.1456319",
            "longitude": "-115.548963686646",
            "blogLinks": [
                "http://www.california-blog.com/"
            ]
        },
        "san jose": {
            "closest_to": "",
            "locType": "city",
            "address": "San Jos\u00e9, Santa Clara County, California, United States of America",
            "latitude": "37.3361905",
            "longitude": "-121.8905832",
            "blogLinks": [
                "http://wikitravel.org/en/Los_Angeles"
            ]
        },
        "sausalito": {
            "closest_to": "",
            "locType": "administrative",
            "address": "Sausalito, Marin County, California, United States of America",
            "latitude": "37.8590272",
            "longitude": "-122.4854693",
            "blogLinks": [
                "https://www.travelwizard.com/usa/california/"
            ]
        },
        "san diego county": {
            "closest_to": "",
            "locType": "administrative",
            "address": "San Diego County, California, United States of America",
            "latitude": "32.9637838",
            "longitude": "-116.7706276",
            "blogLinks": [
                "http://wikitravel.org/en/Los_Angeles"
            ]
        },
        "armenia": {
            "closest_to": "",
            "locType": "yes",
            "address": "California, Cl 14 N, La Campi\u00f1a, Armenia, Quind\u00edo, 630004, Colombia",
            "latitude": "4.5527389",
            "longitude": "-75.65735805",
            "blogLinks": [
                "http://wikitravel.org/en/Los_Angeles"
            ]
        },
        "arroyo parkway": {
            "closest_to": "",
            "locType": "stream",
            "address": "Willow Creek, Folsom, Sacramento County, California, United States of America",
            "latitude": "38.6709801",
            "longitude": "-121.1287517",
            "blogLinks": [
                "http://gocalifornia.about.com/od/topcalifornia/ss/route-66.htm"
            ]
        },
        "mediterranean": {
            "closest_to": "",
            "locType": "residential",
            "address": "Mediterranean, Palm Desert, Riverside County, California, 92211, United States of America",
            "latitude": "33.7439509",
            "longitude": "-116.3534838",
            "blogLinks": [
                "http://wikitravel.org/en/Los_Angeles"
            ]
        },
        "bridgeport": {
            "closest_to": "",
            "locType": "village",
            "address": "Bridgeport, Mono County, California, United States of America",
            "latitude": "38.255757",
            "longitude": "-119.2312664",
            "blogLinks": [
                "https://www.travelwizard.com/usa/california/"
            ]
        },
        "downtown la": {
            "closest_to": "",
            "locType": "neighbourhood",
            "address": "Downtown, Oakland, Alameda County, California, 94612, United States of America",
            "latitude": "37.8036295",
            "longitude": "-122.2715243",
            "blogLinks": [
                "http://wikitravel.org/en/Los_Angeles"
            ]
        },
        "paradise cove": {
            "closest_to": "",
            "locType": "residential",
            "address": "Paradise Cove, El Campo, Marin County, California, 94920, United States of America",
            "latitude": "37.8962016",
            "longitude": "-122.4689008",
            "blogLinks": [
                "https://www.travelwizard.com/usa/california/"
            ]
        },
        "downtown": {
            "closest_to": "",
            "locType": "neighbourhood",
            "address": "Downtown, Oakland, Alameda County, California, 94612, United States of America",
            "latitude": "37.8036295",
            "longitude": "-122.2715243",
            "blogLinks": [
                "http://wikitravel.org/en/Los_Angeles"
            ]
        },
        "jc penny": {
            "closest_to": "",
            "locType": "clothes",
            "address": "JC Penny, CA 120, Manteca, San Joaquin County, California, 95337, United States of America",
            "latitude": "37.781387",
            "longitude": "-121.2319169",
            "blogLinks": [
                "http://wikitravel.org/en/Los_Angeles"
            ]
        },
        "central valley": {
            "closest_to": "",
            "locType": "tower",
            "address": "KNNN-FM (Central Valley), Rattlesnake Drive, Shasta County, California, 96001, United States of America",
            "latitude": "40.5626504",
            "longitude": "-122.4530663",
            "blogLinks": [
                "http://wikitravel.org/en/Los_Angeles"
            ]
        },
        "essex": {
            "closest_to": "",
            "locType": "hamlet",
            "address": "Essex, San Bernardino County, California, United States of America",
            "latitude": "34.7336097",
            "longitude": "-115.2449793",
            "blogLinks": [
                "http://gocalifornia.about.com/od/topcalifornia/ss/route-66.htm"
            ]
        },
        "belgium": {
            "closest_to": "",
            "locType": "residential",
            "address": "Belgium Avenue, Chico, Butte County, California, 95928, United States of America",
            "latitude": "39.7276351",
            "longitude": "-121.785498",
            "blogLinks": [
                "http://wikitravel.org/en/Los_Angeles"
            ]
        },
        "guadalajara": {
            "closest_to": "",
            "locType": "residential",
            "address": "Guadalajara, Ensenada, Baja California, 22898, M\u00e9xico",
            "latitude": "31.8509906",
            "longitude": "-116.5757984",
            "blogLinks": [
                "http://wikitravel.org/en/Los_Angeles"
            ]
        },
        "az": {
            "closest_to": "",
            "locType": "service",
            "address": "California, Gold Canyon RV & Golf Resort, San Tan Valley, Pinal County, Arizona, 85219, United States of America",
            "latitude": "33.3547482",
            "longitude": "-111.4698532",
            "blogLinks": [
                "http://wikitravel.org/en/Los_Angeles"
            ]
        },
        "fenner": {
            "closest_to": "",
            "locType": "hamlet",
            "address": "Fenner, San Bernardino County, California, United States of America",
            "latitude": "34.8158313",
            "longitude": "-115.179145",
            "blogLinks": [
                "http://gocalifornia.about.com/od/topcalifornia/ss/route-66.htm"
            ]
        },
        "san francisco bay": {
            "closest_to": "",
            "locType": "bay",
            "address": "San Francisco Bay, Ferry Landing, Alameda, Alameda County, California, 94502, United States of America",
            "latitude": "37.708264",
            "longitude": "-122.2802469",
            "blogLinks": [
                "https://www.travelwizard.com/usa/california/"
            ]
        },
        "lake county": {
            "closest_to": "",
            "locType": "administrative",
            "address": "Lake County, California, United States of America",
            "latitude": "39.0505411",
            "longitude": "-122.7776555",
            "blogLinks": [
                "https://www.travelwizard.com/usa/california/"
            ]
        },
        "mission bay ca": {
            "closest_to": "",
            "locType": "neighbourhood",
            "address": "Mission Bay, SF, California, 94158, United States of America",
            "latitude": "37.7707742",
            "longitude": "-122.3911711",
            "blogLinks": [
                "http://www.california-blog.com/"
            ]
        },
        "fresno": {
            "closest_to": "",
            "locType": "city",
            "address": "Fresno, Fresno County, California, United States of America",
            "latitude": "36.748793",
            "longitude": "-119.714839601149",
            "blogLinks": [
                "http://wikitravel.org/en/Los_Angeles"
            ]
        },
        "bodie state historic park": {
            "closest_to": "",
            "locType": "park",
            "address": "Bodie State Historic Park, Street, Bodie, Mono County, California, United States of America",
            "latitude": "38.2154734",
            "longitude": "-119.0109761",
            "blogLinks": [
                "https://www.travelwizard.com/usa/california/"
            ]
        },
        "california": {
            "closest_to": "",
            "locType": "village",
            "address": "California, Santander, Colombia",
            "latitude": "7.3480915",
            "longitude": "-72.945787",
            "blogLinks": [
                "https://www.audleytravel.com/usa/california/places-to-go/los-angeles?audcmp=16-505%20USA%20-%20Region%20-%20California%20and%20Nevada&audadg=USA%20-%20California%20and%20Nevada%20-%20Place%20-%20Los%20Angeles%20-%20Broad&auddev=Desktop%20and%20Tablet",
                "http://www.california-blog.com/",
                "https://www.travelwizard.com/usa/california/",
                "https://www.thenandnowshop.com/blog/travel/places-to-visit-in-los-angeles/",
                "http://wikitravel.org/en/Los_Angeles",
                "http://gocalifornia.about.com/od/topcalifornia/ss/route-66.htm",
                "https://www.tripadvisor.com/Attractions-g32070-Activities-Beverly_Hills_California.html",
                "http://gocalifornia.about.com/od/topcalifornia/qt/From-To-In-California.htm",
                "https://www.audleytravel.com/usa/california/accommodation/beverly-hills-hotel-and-bungalows"
            ]
        },
        "metro subway": {
            "closest_to": "",
            "locType": "subway",
            "address": "Bay Area Rapid Transit, Kingston Street, Noe Valley, SF, California, 94110, United States of America",
            "latitude": "37.7417113",
            "longitude": "-122.4223509",
            "blogLinks": [
                "http://wikitravel.org/en/Los_Angeles"
            ]
        },
        "kingman": {
            "closest_to": "",
            "locType": "camp_site",
            "address": "Kingman, 31422, Borrego Palm Canyon Road, San Diego County, California, United States of America",
            "latitude": "33.3508348",
            "longitude": "-116.5745266",
            "blogLinks": [
                "http://wikitravel.org/en/Los_Angeles"
            ]
        },
        "sonoma plaza": {
            "closest_to": "",
            "locType": "park",
            "address": "Sonoma Plaza, East Spain Street, Sonoma, Sonoma County, California, 95476, United States of America",
            "latitude": "38.29304285",
            "longitude": "-122.457635310247",
            "blogLinks": [
                "https://www.travelwizard.com/usa/california/"
            ]
        },
        "chicago": {
            "closest_to": "",
            "locType": "residential",
            "address": "Chicago, Woodstock, Alameda, Alameda County, California, 94501, United States of America",
            "latitude": "37.7850531",
            "longitude": "-122.2872948",
            "blogLinks": [
                "http://wikitravel.org/en/Los_Angeles"
            ]
        },
        "old town san diego": {
            "closest_to": "",
            "locType": "hamlet",
            "address": "Old Town San Diego, San Diego County, California, United States of America",
            "latitude": "32.7542167",
            "longitude": "-117.1969792",
            "blogLinks": [
                "http://www.california-blog.com/"
            ]
        },
        "morro bay ca": {
            "closest_to": "",
            "locType": "city",
            "address": "Morro Bay, San Luis Obispo County, California, United States of America",
            "latitude": "35.3658075",
            "longitude": "-120.8499012",
            "blogLinks": [
                "http://www.california-blog.com/"
            ]
        },
        "st. louis": {
            "closest_to": "",
            "locType": "hamlet",
            "address": "Saint Louis, Sierra County, California, United States of America",
            "latitude": "39.6985046",
            "longitude": "-120.9249513",
            "blogLinks": [
                "http://wikitravel.org/en/Los_Angeles"
            ]
        },
        "point state park": {
            "closest_to": "",
            "locType": "service",
            "address": "State Park, Cambria, San Luis Obispo County, California, 93428, United States of America",
            "latitude": "35.5818461",
            "longitude": "-121.1198923",
            "blogLinks": [
                "https://www.travelwizard.com/usa/california/"
            ]
        },
        "el pueblo de los angeles": {
            "closest_to": "",
            "locType": "residential",
            "address": "California, Universitaria, Puebla, 72590, M\u00e9xico",
            "latitude": "18.9919063",
            "longitude": "-98.2033589",
            "blogLinks": [
                "http://wikitravel.org/en/Los_Angeles"
            ]
        },
        "pacific ocean": {
            "closest_to": "",
            "locType": "cliff",
            "address": "Pacific Ocean, Cabrillo Highway, Monterey County, California, 93920, United States of America",
            "latitude": "36.16305775",
            "longitude": "-121.678715787326",
            "blogLinks": [
                "https://www.audleytravel.com/usa/california/places-to-go/los-angeles?audcmp=16-505%20USA%20-%20Region%20-%20California%20and%20Nevada&audadg=USA%20-%20California%20and%20Nevada%20-%20Place%20-%20Los%20Angeles%20-%20Broad&auddev=Desktop%20and%20Tablet",
                "http://gocalifornia.about.com/od/topcalifornia/ss/route-66.htm",
                "https://www.travelwizard.com/usa/california/",
                "https://www.audleytravel.com/usa/california/accommodation/beverly-hills-hotel-and-bungalows",
                "http://wikitravel.org/en/Los_Angeles"
            ]
        },
        "westlake": {
            "closest_to": "",
            "locType": "neighbourhood",
            "address": "Westlake, Oakland, Alameda County, California, 94612, United States of America",
            "latitude": "37.8168101",
            "longitude": "-122.2592823",
            "blogLinks": [
                "http://wikitravel.org/en/Los_Angeles"
            ]
        },
        "riverside county": {
            "closest_to": "",
            "locType": "administrative",
            "address": "Riverside County, California, United States of America",
            "latitude": "33.7219991",
            "longitude": "-116.0372471",
            "blogLinks": [
                "http://wikitravel.org/en/Los_Angeles"
            ]
        },
        "palm springs": {
            "closest_to": "",
            "locType": "city",
            "address": "Palm Springs, Riverside County, California, United States of America",
            "latitude": "33.8246269",
            "longitude": "-116.5403029",
            "blogLinks": [
                "http://wikitravel.org/en/Los_Angeles"
            ]
        },
        "williams": {
            "closest_to": "",
            "locType": "city",
            "address": "Williams, Colusa County, California, United States of America",
            "latitude": "39.1546137",
            "longitude": "-122.1494186",
            "blogLinks": [
                "http://gocalifornia.about.com/od/topcalifornia/ss/route-66.htm"
            ]
        },
        "alta california": {
            "closest_to": "",
            "locType": "house",
            "address": "Alta California, 20421, Geer Avenue, Irwin, Merced County, California, 95324, United States of America",
            "latitude": "37.3964868",
            "longitude": "-120.8579018",
            "blogLinks": [
                "http://wikitravel.org/en/Los_Angeles"
            ]
        },
        "mono lake ca": {
            "closest_to": "",
            "locType": "water",
            "address": "Mono Lake, Mono County, California, United States of America",
            "latitude": "38.0077189",
            "longitude": "-118.967033937845",
            "blogLinks": [
                "http://www.california-blog.com/"
            ]
        },
        "washington , dc": {
            "closest_to": "",
            "locType": "residential",
            "address": "California Street Northwest, Kalorama Heights, Washington, District of Columbia, 20008, United States of America",
            "latitude": "38.915572",
            "longitude": "-77.0526014",
            "blogLinks": [
                "http://wikitravel.org/en/Los_Angeles"
            ]
        },
        "gualala": {
            "closest_to": "",
            "locType": "hamlet",
            "address": "Gualala, Mendocino County, California, United States of America",
            "latitude": "38.7674439",
            "longitude": "-123.529828",
            "blogLinks": [
                "https://www.travelwizard.com/usa/california/"
            ]
        },
        "griffith park": {
            "closest_to": "",
            "locType": "service",
            "address": "Griffith Park, Citrus Heights, Sacramento County, California, 95621, United States of America",
            "latitude": "38.68813",
            "longitude": "-121.3121659",
            "blogLinks": [
                "https://www.thenandnowshop.com/blog/travel/places-to-visit-in-los-angeles/",
                "http://wikitravel.org/en/Los_Angeles"
            ]
        },
        "humboldt county": {
            "closest_to": "",
            "locType": "administrative",
            "address": "Humboldt County, California, United States of America",
            "latitude": "40.5997415",
            "longitude": "-123.8997733",
            "blogLinks": [
                "https://www.travelwizard.com/usa/california/"
            ]
        },
        "us hwy 101": {
            "closest_to": "",
            "locType": "primary",
            "address": "Highway 101, Solana Beach, San Diego County, California, 92075, United States of America",
            "latitude": "32.9967358",
            "longitude": "-117.2731974",
            "blogLinks": [
                "http://gocalifornia.about.com/od/topcalifornia/ss/route-66.htm"
            ]
        },
        "grand ave.": {
            "closest_to": "",
            "locType": "residential",
            "address": "Grand Avenue, Yucca Valley, San Bernardino County, California, 92284, United States of America",
            "latitude": "34.10718",
            "longitude": "-116.4257794",
            "blogLinks": [
                "http://wikitravel.org/en/Los_Angeles"
            ]
        },
        "clear lake": {
            "closest_to": "",
            "locType": "water",
            "address": "Clear Lake, Siskiyou County, California, United States of America",
            "latitude": "41.38373055",
            "longitude": "-123.274814179039",
            "blogLinks": [
                "https://www.travelwizard.com/usa/california/"
            ]
        },
        "bodega": {
            "closest_to": "",
            "locType": "hamlet",
            "address": "Bodega, Sonoma County, California, United States of America",
            "latitude": "38.345194",
            "longitude": "-122.9738877",
            "blogLinks": [
                "https://www.travelwizard.com/usa/california/"
            ]
        },
        "morongo valley": {
            "closest_to": "",
            "locType": "administrative",
            "address": "Morongo Valley, Vista Drive, Morongo Valley, San Bernardino County, California, 92256, United States of America",
            "latitude": "34.0537585",
            "longitude": "-116.596723958419",
            "blogLinks": [
                "http://www.california-blog.com/"
            ]
        },
        "pico-union": {
            "closest_to": "",
            "locType": "peak",
            "address": "Union Hill, Butte County, California, United States of America",
            "latitude": "39.5873865",
            "longitude": "-121.3821874",
            "blogLinks": [
                "http://wikitravel.org/en/Los_Angeles"
            ]
        },
        "king boulevard": {
            "closest_to": "",
            "locType": "city",
            "address": "King City, Monterey County, California, United States of America",
            "latitude": "36.2127439",
            "longitude": "-121.1260286",
            "blogLinks": [
                "http://wikitravel.org/en/Los_Angeles"
            ]
        },
        "monterey peninsula ca": {
            "closest_to": "",
            "locType": "aerodrome",
            "address": "Monterey Regional Airport, Airport Road, Seaside, Del Monte Heights, Monterey County, California, 93940, United States of America",
            "latitude": "36.5878734",
            "longitude": "-121.843618374407",
            "blogLinks": [
                "http://www.california-blog.com/"
            ]
        },
        "sea ranch": {
            "closest_to": "",
            "locType": "hamlet",
            "address": "Sea Ranch, Sonoma County, California, United States of America",
            "latitude": "38.7151899",
            "longitude": "-123.4544531",
            "blogLinks": [
                "https://www.travelwizard.com/usa/california/"
            ]
        },
        "mendocino": {
            "closest_to": "",
            "locType": "administrative",
            "address": "Mendocino County, California, United States of America",
            "latitude": "39.3176491",
            "longitude": "-123.4126398",
            "blogLinks": [
                "https://www.travelwizard.com/usa/california/"
            ]
        },
        "chinatown": {
            "closest_to": "",
            "locType": "neighbourhood",
            "address": "Chinatown, Oakland, Alameda County, California, ca, United States of America",
            "latitude": "37.7999301",
            "longitude": "-122.2702385",
            "blogLinks": [
                "http://wikitravel.org/en/Los_Angeles"
            ]
        },
        "golden state": {
            "closest_to": "",
            "locType": "island",
            "address": "Golden State Island, Butte County, California, United States of America",
            "latitude": "39.6712719",
            "longitude": "-121.9619226",
            "blogLinks": [
                "http://gocalifornia.about.com/od/topcalifornia/ss/route-66.htm"
            ]
        },
        "l.a.": {
            "closest_to": "",
            "locType": "hamlet",
            "address": "California, Provincia Abel Iturralde, LPZ, Bolivia",
            "latitude": "-13.8305494",
            "longitude": "-67.9369134",
            "blogLinks": [
                "https://www.travelwizard.com/usa/california/",
                "http://wikitravel.org/en/Los_Angeles"
            ]
        },
        "fiesta hermosa": {
            "closest_to": "",
            "locType": "residential",
            "address": "Avenida Fiesta, Pacific Beach, San Diego, San Diego County, California, 92037, United States of America",
            "latitude": "32.820389",
            "longitude": "-117.2326969",
            "blogLinks": [
                "http://wikitravel.org/en/Los_Angeles"
            ]
        },
        "grand avenue": {
            "closest_to": "",
            "locType": "residential",
            "address": "Grand Avenue, Yucca Valley, San Bernardino County, California, 92284, United States of America",
            "latitude": "34.10718",
            "longitude": "-116.4257794",
            "blogLinks": [
                "http://wikitravel.org/en/Los_Angeles"
            ]
        },
        "dinosaur hall": {
            "closest_to": "",
            "locType": "residential",
            "address": "Dinosaur Place, Davis, Yolo County, California, 95616, United States of America",
            "latitude": "38.555919",
            "longitude": "-121.7772298",
            "blogLinks": [
                "https://www.thenandnowshop.com/blog/travel/places-to-visit-in-los-angeles/",
                "http://wikitravel.org/en/Los_Angeles"
            ]
        },
        "luther burbank": {
            "closest_to": "",
            "locType": "museum",
            "address": "Luther Burbank Home & Gardens, Tupper Street, Santa Rosa, Sonoma County, California, 95402, United States of America",
            "latitude": "38.436098",
            "longitude": "-122.7117678",
            "blogLinks": [
                "https://www.travelwizard.com/usa/california/"
            ]
        },
        "malibu": {
            "closest_to": "",
            "locType": "residential",
            "address": "Malibu, Palm Springs, Riverside County, California, 92264, United States of America",
            "latitude": "33.7932142",
            "longitude": "-116.5023561",
            "blogLinks": [
                "https://www.travelwizard.com/usa/california/",
                "https://www.thenandnowshop.com/blog/travel/places-to-visit-in-los-angeles/",
                "http://wikitravel.org/en/Los_Angeles"
            ]
        },
        "napa": {
            "closest_to": "",
            "locType": "city",
            "address": "Napa, Napa County, California, United States of America",
            "latitude": "38.2971367",
            "longitude": "-122.2855292",
            "blogLinks": [
                "https://www.travelwizard.com/usa/california/"
            ]
        },
        "palm springs air museum ca": {
            "closest_to": "",
            "locType": "museum",
            "address": "Palm Springs Air Museum, 745, North Gene Autry Trail, Palm Springs, Riverside County, California, 92262, United States of America",
            "latitude": "33.83250375",
            "longitude": "-116.504677958796",
            "blogLinks": [
                "http://www.california-blog.com/"
            ]
        },
        "morro rock ca": {
            "closest_to": "",
            "locType": "peak",
            "address": "Morro Rock, Morro Bay, San Luis Obispo County, California, United States of America",
            "latitude": "35.369669",
            "longitude": "-120.8676993",
            "blogLinks": [
                "http://www.california-blog.com/"
            ]
        },
        "lake tahoe": {
            "closest_to": "",
            "locType": "water",
            "address": "Lake Tahoe, Placer County, California, United States of America",
            "latitude": "39.0888982",
            "longitude": "-120.050511752934",
            "blogLinks": [
                "https://www.travelwizard.com/usa/california/"
            ]
        },
        "philippines": {
            "closest_to": "",
            "locType": "neighbourhood",
            "address": "California, San Pascual, Bohol, Central Visayas, Philippines",
            "latitude": "9.966227",
            "longitude": "124.4144861",
            "blogLinks": [
                "http://wikitravel.org/en/Los_Angeles"
            ]
        },
        "australia": {
            "closest_to": "",
            "locType": "hamlet",
            "address": "California, Singleton, NSW, Australia",
            "latitude": "-32.6649999",
            "longitude": "150.9261111",
            "blogLinks": [
                "http://wikitravel.org/en/Los_Angeles"
            ]
        },
        "goffs rd": {
            "closest_to": "",
            "locType": "secondary",
            "address": "Goffs Road, Essex, San Bernardino County, California, United States of America",
            "latitude": "34.7547621",
            "longitude": "-115.2214411",
            "blogLinks": [
                "http://gocalifornia.about.com/od/topcalifornia/ss/route-66.htm"
            ]
        },
        "south central": {
            "closest_to": "",
            "locType": "administrative",
            "address": "Calif\u00f3rnia, Microrregi\u00e3o Arapucana, Mesorregi\u00e3o Norte Central Paranaense, PR, Regi\u00e3o Sul, Brasil",
            "latitude": "-23.6672542",
            "longitude": "-51.3554555",
            "blogLinks": [
                "http://wikitravel.org/en/Los_Angeles"
            ]
        },
        "mid-city": {
            "closest_to": "",
            "locType": "island",
            "address": "Middle Bair Island, Redwood City, San Mateo County, California, United States of America",
            "latitude": "37.5133425",
            "longitude": "-122.2303835",
            "blogLinks": [
                "http://wikitravel.org/en/Los_Angeles"
            ]
        },
        "germany": {
            "closest_to": "",
            "locType": "beauty",
            "address": "California, Lassallestra\u00dfe, M\u00fclheim, K\u00f6ln, Regierungsbezirk K\u00f6ln, Nordrhein-Westfalen, 50667-51149, Deutschland",
            "latitude": "50.9590814",
            "longitude": "7.009217",
            "blogLinks": [
                "http://wikitravel.org/en/Los_Angeles"
            ]
        },
        "kern river": {
            "closest_to": "",
            "locType": "river",
            "address": "Kern River, Tulare County, California, United States of America",
            "latitude": "36.6816956",
            "longitude": "-118.4124188",
            "blogLinks": [
                "http://www.california-blog.com/",
                "http://www.bestplaces.net/compare-cities/walla%20walla_wa/bakersfield_ca/people"
            ]
        },
        "monterey bay aquarium ca": {
            "closest_to": "",
            "locType": "aquarium",
            "address": "MBA, 886, Cannery Row, Monterey, Monterey County, California, 93940, United States of America",
            "latitude": "36.61809095",
            "longitude": "-121.901680002002",
            "blogLinks": [
                "http://www.california-blog.com/"
            ]
        },
        "pebble beach ca": {
            "closest_to": "",
            "locType": "hamlet",
            "address": "Pebble Beach, Monterey County, California, United States of America",
            "latitude": "36.5664874",
            "longitude": "-121.9466112",
            "blogLinks": [
                "http://www.california-blog.com/"
            ]
        },
        "greece": {
            "closest_to": "",
            "locType": "residential",
            "address": "California Drive, Greece Town, Monroe County, New York, 14616, United States of America",
            "latitude": "43.222537",
            "longitude": "-77.6362609",
            "blogLinks": [
                "http://wikitravel.org/en/Los_Angeles"
            ]
        },
        "city hall": {
            "closest_to": "",
            "locType": "commercial",
            "address": "City Hall, Imperial, Imperial County, California, 92251, United States of America",
            "latitude": "32.84439345",
            "longitude": "-115.569543523702",
            "blogLinks": [
                "http://wikitravel.org/en/Los_Angeles"
            ]
        },
        "south africa": {
            "closest_to": "",
            "locType": "garden",
            "address": "South Africa, Centennial Drive, Oakland, Alameda County, California, 94720, United States of America",
            "latitude": "37.8749498",
            "longitude": "-122.2378391",
            "blogLinks": [
                "http://wikitravel.org/en/Los_Angeles"
            ]
        },
        "la live": {
            "closest_to": "",
            "locType": "residential",
            "address": "California, East Morrissey, Eastside, Santa Cruz County, California, 95065, United States of America",
            "latitude": "36.9932131",
            "longitude": "-121.9845106",
            "blogLinks": [
                "http://wikitravel.org/en/Los_Angeles"
            ]
        },
        "switzerland": {
            "closest_to": "",
            "locType": "hotel",
            "address": "California, 22, Schiffl\u00e4nde, Rathaus, Altstadt, Z\u00fcrich, Bezirk Z\u00fcrich, Z\u00fcrich, 8024, Schweiz, Suisse, Svizzera, Svizra",
            "latitude": "47.3688306",
            "longitude": "8.5445137",
            "blogLinks": [
                "http://wikitravel.org/en/Los_Angeles"
            ]
        },
        "mountain springs rd": {
            "closest_to": "",
            "locType": "secondary",
            "address": "Mountain Springs Road, San Bernardino County, California, United States of America",
            "latitude": "34.8298792",
            "longitude": "-115.0509214",
            "blogLinks": [
                "http://gocalifornia.about.com/od/topcalifornia/ss/route-66.htm"
            ]
        },
        "oakland": {
            "closest_to": "",
            "locType": "city",
            "address": "Oakland, Alameda County, California, United States of America",
            "latitude": "37.8044557",
            "longitude": "-122.2713562",
            "blogLinks": [
                "http://wikitravel.org/en/Los_Angeles"
            ]
        },
        "napa valley ca": {
            "closest_to": "",
            "locType": "secondary",
            "address": "California Boulevard, Napa, Napa County, California, 94558, United States of America",
            "latitude": "38.2972603",
            "longitude": "-122.3002947",
            "blogLinks": [
                "http://www.california-blog.com/"
            ]
        },
        "united kingdom": {
            "closest_to": "",
            "locType": "village",
            "address": "California, Birmingham, West Midlands, England, UK",
            "latitude": "52.4422729",
            "longitude": "-1.9796882",
            "blogLinks": [
                "http://www.california-blog.com/",
                "http://wikitravel.org/en/Los_Angeles"
            ]
        },
        "northern california": {
            "closest_to": "",
            "locType": "locality",
            "address": "Northern Frontier, San Diego, San Diego County, California, United States of America",
            "latitude": "32.7349196",
            "longitude": "-117.1545973",
            "blogLinks": [
                "https://www.travelwizard.com/usa/california/"
            ]
        },
        "sunset strip": {
            "closest_to": "",
            "locType": "living_street",
            "address": "Sunset Strip, Happy Wanderer, Indio, Riverside County, California, 92201, United States of America",
            "latitude": "33.7224763",
            "longitude": "-116.1940439",
            "blogLinks": [
                "https://www.thenandnowshop.com/blog/travel/places-to-visit-in-los-angeles/"
            ]
        },
        "crescent city": {
            "closest_to": "",
            "locType": "city",
            "address": "Crescent City, Del Norte County, California, United States of America",
            "latitude": "41.8528065",
            "longitude": "-124.149861883096",
            "blogLinks": [
                "https://www.travelwizard.com/usa/california/"
            ]
        },
        "u.s.": {
            "closest_to": "",
            "locType": "hamlet",
            "address": "La California, Municipio de Las Rosas, Departamento Belgrano, Sta. Fe, Argentina",
            "latitude": "-32.5446226",
            "longitude": "-61.5489543",
            "blogLinks": [
                "https://www.travelwizard.com/usa/california/",
                "http://wikitravel.org/en/Los_Angeles"
            ]
        },
        "brazil": {
            "closest_to": "",
            "locType": "administrative",
            "address": "Calif\u00f3rnia, Microrregi\u00e3o Arapucana, Mesorregi\u00e3o Norte Central Paranaense, PR, Regi\u00e3o Sul, Brasil",
            "latitude": "-23.6672542",
            "longitude": "-51.3554555",
            "blogLinks": [
                "http://wikitravel.org/en/Los_Angeles"
            ]
        },
        "san joaquin valley": {
            "closest_to": "",
            "locType": "administrative",
            "address": "San Joaquin County, California, United States of America",
            "latitude": "37.9372901",
            "longitude": "-121.2773718",
            "blogLinks": [
                "http://wikitravel.org/en/Los_Angeles"
            ]
        },
        "denmark": {
            "closest_to": "",
            "locType": "cafe",
            "address": "California, Lodsgade, Frederikshavn, Frederikshavn Kommune, Region Nordjylland, 9900, Danmark",
            "latitude": "57.4379493",
            "longitude": "10.5361043",
            "blogLinks": [
                "http://wikitravel.org/en/Los_Angeles"
            ]
        },
        "north california": {
            "closest_to": "",
            "locType": "residential",
            "address": "Northwest, Pacific Beach, San Diego, San Diego County, California, 92109, United States of America",
            "latitude": "32.7976084",
            "longitude": "-117.2194385",
            "blogLinks": [
                "http://wikitravel.org/en/Los_Angeles"
            ]
        },
        "stockton & san jose": {
            "closest_to": "",
            "locType": "secondary",
            "address": "Stockton Avenue, College Park, Rose Garden, San Jos\u00e9, Santa Clara County, California, 95126, United States of America",
            "latitude": "37.3404469",
            "longitude": "-121.9131994",
            "blogLinks": [
                "http://wikitravel.org/en/Los_Angeles"
            ]
        }
    }
}