{
    "bakersfield": {
        "boundingbox": [
            "35.193979",
            "35.447975",
            "-119.2650329",
            "-118.7723409"
        ],
        "lon": "-119.0194638",
        "class": "place",
        "licence": "Data \u00a9 OpenStreetMap contributors, ODbL 1.0. http://www.openstreetmap.org/copyright",
        "importance": 0.74358237824296,
        "icon": "https://nominatim.openstreetmap.org/images/mapicons/poi_place_city.p.20.png",
        "lat": "35.3738712",
        "osm_id": "113006",
        "type": "city",
        "osm_type": "relation",
        "place_id": "158454478",
        "display_name": "Bakersfield, Kern County, California, United States of America"
    },
    "mentions": {
        "napa valley": {
            "longitude": "-84.4504647",
            "blogLinks": [
                "http://thisismyhappiness.com/2013/06/02/30-things-to-do-in-northern-california/"
            ],
            "closest_to": "",
            "latitude": "39.0234679",
            "address": "Napa Valley, Cold Spring, Campbell County, Kentucky, 41076, United States of America",
            "locType": "residential"
        },
        "new york city": {
            "longitude": "-73.9717587",
            "blogLinks": [
                "http://thisismyhappiness.com/2013/06/02/30-things-to-do-in-northern-california/"
            ],
            "closest_to": "",
            "latitude": "40.767819",
            "address": "California Sea Lion, 830, 5th Avenue, Upper East Side, Manhattan, New York County, NYC, New York, 10035, United States of America",
            "locType": "attraction"
        },
        "brazil": {
            "longitude": "-51.3554555",
            "blogLinks": [
                "http://www.pbs.org/food/features/best-ice-cream-california/"
            ],
            "closest_to": "",
            "latitude": "-23.6672542",
            "address": "Calif\u00f3rnia, Microrregi\u00e3o Arapucana, Mesorregi\u00e3o Norte Central Paranaense, PR, Regi\u00e3o Sul, Brasil",
            "locType": "administrative"
        },
        "california": {
            "longitude": "-72.945787",
            "blogLinks": [
                "http://www.roadsideamerica.com/location/ca",
                "http://www.california-blog.com/",
                "http://thisismyhappiness.com/2013/06/02/30-things-to-do-in-northern-california/",
                "http://www.travbuddy.com/California-popular-cities-p85",
                "http://www.pbs.org/food/features/best-ice-cream-california/",
                "https://www.thecrazytourist.com/top-25-things-to-do-in-bakersfield-ca/"
            ],
            "closest_to": "",
            "latitude": "7.3480915",
            "address": "California, Santander, Colombia",
            "locType": "village"
        },
        "guadalupe": {
            "longitude": "-118.269896818344",
            "blogLinks": [
                "http://www.roadsideamerica.com/location/ca"
            ],
            "closest_to": "",
            "latitude": "29.0350656",
            "address": "Isla Guadalupe, Ensenada, Baja California, M\u00e9xico",
            "locType": "island"
        },
        "centro": {
            "longitude": "-115.5630513",
            "blogLinks": [
                "http://thisismyhappiness.com/2013/06/02/30-things-to-do-in-northern-california/"
            ],
            "closest_to": "",
            "latitude": "32.792",
            "address": "El Centro, Imperial County, California, United States of America",
            "locType": "city"
        },
        "australia": {
            "longitude": "150.9261111",
            "blogLinks": [
                "http://thisismyhappiness.com/2013/06/02/30-things-to-do-in-northern-california/"
            ],
            "closest_to": "",
            "latitude": "-32.6649999",
            "address": "California, Singleton, NSW, Australia",
            "locType": "hamlet"
        },
        "u.s.": {
            "longitude": "-61.5489543",
            "blogLinks": [
                "http://www.bestplaces.net/city/california/sausalito",
                "https://www.rome2rio.com/s/Sunnyvale/Bakersfield"
            ],
            "closest_to": "",
            "latitude": "-32.5446226",
            "address": "La California, Municipio de Las Rosas, Departamento Belgrano, Sta. Fe, Argentina",
            "locType": "hamlet"
        },
        "united kingdom": {
            "longitude": "-1.9796882",
            "blogLinks": [
                "http://www.visitbakersfield.com/visitors/",
                "http://www.distancesfrom.com/us/travel-from-Bakersfield-to-Sausalito/TravelFromHistory/22962595.aspx",
                "https://www.thecrazytourist.com/top-25-things-to-do-in-bakersfield-ca/"
            ],
            "closest_to": "",
            "latitude": "52.4422729",
            "address": "California, Birmingham, West Midlands, England, UK",
            "locType": "village"
        },
        "mexico": {
            "longitude": "-111.8196666",
            "blogLinks": [
                "http://www.roadsideamerica.com/location/ca"
            ],
            "closest_to": "",
            "latitude": "28.973",
            "address": "California, Hermosillo, Sonora, M\u00e9xico",
            "locType": "village"
        },
        "tulelake": {
            "longitude": "-121.4774915",
            "blogLinks": [
                "http://www.roadsideamerica.com/location/ca"
            ],
            "closest_to": "",
            "latitude": "41.9559885",
            "address": "Tulelake, Siskiyou County, California, United States of America",
            "locType": "city"
        },
        "creek rd": {
            "longitude": "-114.3823985",
            "blogLinks": [
                "http://thisismyhappiness.com/2013/06/02/30-things-to-do-in-northern-california/"
            ],
            "closest_to": "",
            "latitude": "34.1374136",
            "address": "Creek Road, Big River, San Bernardino County, California, 92242, United States of America",
            "locType": "residential"
        },
        "north carolina": {
            "longitude": "-75.6804524",
            "blogLinks": [
                "http://thisismyhappiness.com/2013/06/02/30-things-to-do-in-northern-california/"
            ],
            "closest_to": "",
            "latitude": "35.9043367",
            "address": "California, Dare County, North Carolina, United States of America",
            "locType": "hamlet"
        }
    },
    "sausalito": {
        "boundingbox": [
            "37.8436795",
            "37.8731429",
            "-122.5102612",
            "-122.4753744"
        ],
        "lon": "-122.4854693",
        "class": "boundary",
        "licence": "Data \u00a9 OpenStreetMap contributors, ODbL 1.0. http://www.openstreetmap.org/copyright",
        "importance": 0.64561533453658,
        "icon": "https://nominatim.openstreetmap.org/images/mapicons/poi_boundary_administrative.p.20.png",
        "lat": "37.8590272",
        "osm_id": "2829689",
        "type": "administrative",
        "osm_type": "relation",
        "place_id": "159575624",
        "display_name": "Sausalito, Marin County, California, United States of America"
    }
}