{
    "bangalore": {
        "icon": "https://nominatim.openstreetmap.org/images/mapicons/poi_place_city.p.20.png",
        "osm_type": "node",
        "boundingbox": [
            "12.8191198",
            "13.1391198",
            "77.4312997",
            "77.7512997"
        ],
        "display_name": "Bengaluru, Bangalore Urban, Karnataka, 560001, India",
        "class": "place",
        "osm_id": "3401391999",
        "type": "city",
        "licence": "Data \u00a9 OpenStreetMap contributors, ODbL 1.0. http://www.openstreetmap.org/copyright",
        "lon": "77.5912997",
        "lat": "12.9791198",
        "place_id": "46592958",
        "importance": 0.8183333454045
    },
    "mentions": {
        "devbagh": {
            "blogLinks": [
                "http://grabhouse.com/blog/places-to-visit-near-bangalore/"
            ],
            "locType": "village",
            "longitude": "74.1117838",
            "latitude": "14.8569148",
            "address": "Devbagh, Karavara taluk, Uttara Kannada, Karnataka, India",
            "closest_to": ""
        },
        "karanji lake": {
            "blogLinks": [
                "https://www.tripoto.com/places-to-visit/india/karnataka"
            ],
            "locType": "village",
            "longitude": "77.5474867",
            "latitude": "18.2681849",
            "address": "Karanji, Aurad taluku, Bidar district, Karnataka, India",
            "closest_to": ""
        },
        "tungabadhra river": {
            "blogLinks": [
                "https://www.tripoto.com/places-to-visit/india/karnataka"
            ],
            "locType": "dam",
            "longitude": "76.3337165",
            "latitude": "15.2635742",
            "address": "Tungabadhra Dam, Hosapete taluk, Bellary district, Karnataka, India",
            "closest_to": ""
        },
        "vaderahalli lake": {
            "blogLinks": [
                "https://www.tripoto.com/places-to-visit/india/karnataka"
            ],
            "locType": "village",
            "longitude": "76.1593344",
            "latitude": "14.6149749",
            "address": "Ujjappa Vaderahalli, Jagaluru taluku, Davanagere district, Karnataka, India",
            "closest_to": ""
        },
        "badami cave": {
            "blogLinks": [
                "https://www.tripoto.com/places-to-visit/india/karnataka"
            ],
            "locType": "attraction",
            "longitude": "75.6842639478391",
            "latitude": "15.9184483",
            "address": "Badami Cave Temples, Bahanpur - Gadankeri Highway, Banashankari, Badami taluku, Bagalkote district, Karnataka, 587200, India",
            "closest_to": ""
        },
        "prince restaurant": {
            "blogLinks": [
                "https://www.tripoto.com/places-to-visit/india/karnataka"
            ],
            "locType": "restaurant",
            "longitude": "76.4602348",
            "latitude": "15.3355701",
            "address": "Prince, Hampi Bazaar, Hampe, Hosapete taluk, Bellary district, Karnataka, 583239, India",
            "closest_to": ""
        },
        "madhukeshwara temple": {
            "blogLinks": [
                "https://www.tripoto.com/places-to-visit/india/karnataka"
            ],
            "locType": "place_of_worship",
            "longitude": "75.0171155065268",
            "latitude": "14.5352632",
            "address": "Madhukeshwara Temple, Ratha Beedhi, Banavasi, Shirasi taluk, Uttara Kannada, Karnataka, India",
            "closest_to": ""
        },
        "fort": {
            "blogLinks": [
                "https://www.tripoto.com/places-to-visit/india/karnataka"
            ],
            "locType": "neighbourhood",
            "longitude": "76.8313091",
            "latitude": "17.3439629",
            "address": "Fort, Rauza, Kalaburagi, Gulbarga taluku, Kalaburagi district, Karnataka, 585101, India",
            "closest_to": ""
        },
        "south east": {
            "blogLinks": [
                "https://www.tripoto.com/places-to-visit/india/karnataka"
            ],
            "locType": "administrative",
            "longitude": "75.7223521",
            "latitude": "14.5203896",
            "address": "Karnataka, India",
            "closest_to": ""
        },
        "river tungabhadra": {
            "blogLinks": [
                "https://www.tripoto.com/places-to-visit/india/karnataka"
            ],
            "locType": "river",
            "longitude": "76.4931607",
            "latitude": "15.3446123",
            "address": "Tungabhadra, Gangavati taluku, Koppal district, Karnataka, India",
            "closest_to": ""
        },
        "london": {
            "blogLinks": [
                "https://www.tripoto.com/places-to-visit/india/karnataka"
            ],
            "locType": "administrative",
            "longitude": "75.7223521",
            "latitude": "14.5203896",
            "address": "Karnataka, India",
            "closest_to": ""
        },
        "beladhadi": {
            "blogLinks": [
                "https://www.tripoto.com/places-to-visit/india/karnataka"
            ],
            "locType": "village",
            "longitude": "75.6189768",
            "latitude": "15.3369716",
            "address": "Beladhadi, Gadag taluk, Gadag district, Karnataka, India",
            "closest_to": ""
        },
        "island": {
            "blogLinks": [
                "https://www.tripoto.com/places-to-visit/india/karnataka"
            ],
            "locType": "village",
            "longitude": "74.8834637",
            "latitude": "14.6799543",
            "address": "Isa, Shirasi taluk, Uttara Kannada, Karnataka, India",
            "closest_to": ""
        },
        "gokarna beach": {
            "blogLinks": [
                "https://www.tripoto.com/places-to-visit/india/karnataka"
            ],
            "locType": "beach",
            "longitude": "74.3109489488919",
            "latitude": "14.5516537",
            "address": "Gokarna Beach, Gokarna Road, Ganji Gadde, Kumata taluk, Uttara Kannada, Karnataka, 581326, India",
            "closest_to": ""
        },
        "vitthala": {
            "blogLinks": [
                "https://www.tripoto.com/places-to-visit/india/karnataka"
            ],
            "locType": "footway",
            "longitude": "76.4705005",
            "latitude": "15.3376716",
            "address": "Way to Vitthala Temple, Hampe, Hosapete taluk, Bellary district, Karnataka, 583239, India",
            "closest_to": ""
        },
        "brahmagiri range": {
            "blogLinks": [
                "https://www.tripoto.com/places-to-visit/india/karnataka"
            ],
            "locType": "peak",
            "longitude": "76.8122474",
            "latitude": "14.8001586",
            "address": "Brahmagiri Betta, Molakalmuru taluku, Chitradurga district, Karnataka, India",
            "closest_to": ""
        },
        "hill station": {
            "blogLinks": [
                "https://www.tripoto.com/places-to-visit/india/karnataka"
            ],
            "locType": "administrative",
            "longitude": "75.7223521",
            "latitude": "14.5203896",
            "address": "Karnataka, India",
            "closest_to": ""
        },
        "andhra pradesh": {
            "blogLinks": [
                "https://www.tripoto.com/places-to-visit/india/karnataka"
            ],
            "locType": "hotel",
            "longitude": "79.3452447",
            "latitude": "13.6841958",
            "address": "Karnataka, West Mada Street, Srivari Temple, Tirumala, Chittoor, Andhra Pradesh, 517504, India",
            "closest_to": ""
        },
        "mowgli": {
            "blogLinks": [
                "https://www.tripoto.com/places-to-visit/india/karnataka"
            ],
            "locType": "hostel",
            "longitude": "76.4532005",
            "latitude": "15.3413499",
            "address": "Mowgli Guest House, SH130, Basapura, Koppala taluku, Koppal district, Karnataka, India",
            "closest_to": ""
        },
        "sanapur lake": {
            "blogLinks": [
                "https://www.tripoto.com/places-to-visit/india/karnataka"
            ],
            "locType": "reservoir",
            "longitude": "76.4294274988777",
            "latitude": "15.35823095",
            "address": "Sanapura Kere, Sanapura, Gangavati taluku, Koppal district, Karnataka, India",
            "closest_to": ""
        },
        "paradise beach": {
            "blogLinks": [
                "https://www.tripoto.com/places-to-visit/india/karnataka"
            ],
            "locType": "beach",
            "longitude": "74.3375798576938",
            "latitude": "14.5181133",
            "address": "Paradise Beach, Om beach road, Gokarna, Kumata taluk, Uttara Kannada, Karnataka, 581326, India",
            "closest_to": ""
        },
        "nandi bull": {
            "blogLinks": [
                "https://www.tripoto.com/places-to-visit/india/karnataka"
            ],
            "locType": "attraction",
            "longitude": "76.4671825",
            "latitude": "15.3337944",
            "address": "Monolithic Bull, Way to Vitthala Temple, Hampe, Hosapete taluk, Bellary district, Karnataka, 583239, India",
            "closest_to": ""
        },
        "india": {
            "blogLinks": [
                "https://www.tripoto.com/places-to-visit/india/karnataka",
                "http://grabhouse.com/blog/places-to-visit-near-bangalore/",
                "https://www.tripadvisor.in/Attraction_Review-g2371802-d4273925-Reviews-Mangalore_to_Bangalore_Dream_Route-Sakleshpur_Karnataka.html",
                "http://www.holidayiq.com/How-To-Reach/From-Hassan-To-Chikmagalur-374-330",
                "http://www.yatra.com/india-tourism/hassan-travel-guide",
                "http://www.nivalink.com/destination/hassan",
                "http://www.nivalink.com/destination/sakleshpur",
                "https://www.makemytrip.com/holidays-india/places-to-visit-hassan.html"
            ],
            "locType": "administrative",
            "longitude": "75.7223521",
            "latitude": "14.5203896",
            "address": "Karnataka, India",
            "closest_to": ""
        },
        "kundapura": {
            "blogLinks": [
                "http://www.nivalink.com/destination/hassan",
                "http://www.nivalink.com/destination/sakleshpur"
            ],
            "locType": "town",
            "longitude": "74.6915722",
            "latitude": "13.6250993",
            "address": "Kundapura, \u0c95\u0cc1\u0c82\u0ca6\u0cbe\u0caa\u0cc1\u0cb0 \u0ca4\u0cbe\u0cb2\u0cc2\u0c95\u0cc1, Udupi district, Karnataka, 576200, India",
            "closest_to": ""
        },
        "karwar": {
            "blogLinks": [
                "https://www.tripoto.com/places-to-visit/india/karnataka",
                "http://grabhouse.com/blog/places-to-visit-near-bangalore/"
            ],
            "locType": "town",
            "longitude": "74.1319229",
            "latitude": "14.8120931",
            "address": "Karwar, Karavara taluk, Uttara Kannada, Karnataka, 581300, India",
            "closest_to": ""
        },
        "kudle beach": {
            "blogLinks": [
                "https://www.tripoto.com/places-to-visit/india/karnataka"
            ],
            "locType": "beach",
            "longitude": "74.3156783937192",
            "latitude": "14.5281015",
            "address": "Kudle Beach, Om beach road, Gokarna, Kumata taluk, Uttara Kannada, Karnataka, 581326, India",
            "closest_to": ""
        },
        "hemakuta hill": {
            "blogLinks": [
                "https://www.tripoto.com/places-to-visit/india/karnataka"
            ],
            "locType": "peak",
            "longitude": "76.4602971",
            "latitude": "15.332915",
            "address": "Hemakuta Hill, Hosapete taluk, Bellary district, Karnataka, India",
            "closest_to": ""
        },
        "sunset point": {
            "blogLinks": [
                "https://www.tripoto.com/places-to-visit/india/karnataka"
            ],
            "locType": "viewpoint",
            "longitude": "76.4594093",
            "latitude": "15.3326761",
            "address": "Sunset Point, Hampi Kamalapura Road, Hampe, Hosapete taluk, Bellary district, Karnataka, 583239, India",
            "closest_to": ""
        },
        "londa": {
            "blogLinks": [
                "https://www.tripoto.com/places-to-visit/india/karnataka"
            ],
            "locType": "village",
            "longitude": "74.4932422",
            "latitude": "15.4524311",
            "address": "Londa, Khanapura taluku, Belgaum district, Karnataka, India",
            "closest_to": ""
        },
        "bangalore district of karnataka": {
            "blogLinks": [
                "https://www.tripoto.com/places-to-visit/india/karnataka"
            ],
            "locType": "secondary",
            "longitude": "76.9275402",
            "latitude": "15.1419665",
            "address": "Bangalore Road, Ballari, Bellary taluk, Bellary district, Karnataka, 583101, India",
            "closest_to": ""
        },
        "lakkundi": {
            "blogLinks": [
                "https://www.tripoto.com/places-to-visit/india/karnataka"
            ],
            "locType": "village",
            "longitude": "76.4084687",
            "latitude": "16.5255464",
            "address": "Lakkundi, Muddebihala taluku, Bijapur district, Karnataka, India",
            "closest_to": ""
        },
        "keladi": {
            "blogLinks": [
                "https://www.tripoto.com/places-to-visit/india/karnataka"
            ],
            "locType": "village",
            "longitude": "75.0165753",
            "latitude": "14.2214761",
            "address": "Keladi, Sagara taluk, Shimoga district, Karnataka, India",
            "closest_to": ""
        },
        "swaswara": {
            "blogLinks": [
                "https://www.tripoto.com/places-to-visit/india/karnataka"
            ],
            "locType": "hotel",
            "longitude": "74.3201237772373",
            "latitude": "14.5212941",
            "address": "Swaswara, Om beach road, Gokarna, Kumata taluk, Uttara Kannada, Karnataka, 581326, India",
            "closest_to": ""
        },
        "pattadakal": {
            "blogLinks": [
                "https://www.tripoto.com/places-to-visit/india/karnataka"
            ],
            "locType": "attraction",
            "longitude": "75.815884048161",
            "latitude": "15.9506349",
            "address": "Pattadakal Temples, SH14, \u0cac\u0cbe\u0c9a\u0cbf\u0ca8\u0c97\u0cc1\u0ca1\u0ccd\u0ca1, Badami taluku, Bagalkote district, Karnataka, 587211, India",
            "closest_to": ""
        },
        "mallikarjuna temple": {
            "blogLinks": [
                "https://www.tripoto.com/places-to-visit/india/karnataka"
            ],
            "locType": "place_of_worship",
            "longitude": "75.7213492",
            "latitude": "15.9321101",
            "address": "Mallikarjuna Temple, SH135, Nelavagi, Badami taluku, Bagalkote district, Karnataka, India",
            "closest_to": ""
        },
        "dandeli": {
            "blogLinks": [
                "https://www.tripoto.com/places-to-visit/india/karnataka"
            ],
            "locType": "town",
            "longitude": "74.6236037",
            "latitude": "15.2490284",
            "address": "Dandeli, Haliyala taluku, Uttara Kannada, Karnataka, 581325, India",
            "closest_to": ""
        },
        "bijapur": {
            "blogLinks": [
                "https://www.tripoto.com/places-to-visit/india/karnataka"
            ],
            "locType": "city",
            "longitude": "75.7175387",
            "latitude": "16.8269911",
            "address": "Vijayapura, Vijayapura taluk, Bijapur district, Karnataka, 586101, India",
            "closest_to": ""
        },
        "linganamakki dam": {
            "blogLinks": [
                "https://www.tripoto.com/places-to-visit/india/karnataka"
            ],
            "locType": "dam",
            "longitude": "74.8464623767123",
            "latitude": "14.1758978",
            "address": "Linganamakki Dam, Sagara taluk, Shimoga district, Karnataka, India",
            "closest_to": ""
        },
        "indiranagar": {
            "blogLinks": [
                "https://www.tripoto.com/places-to-visit/india/karnataka"
            ],
            "locType": "village",
            "longitude": "77.1889052",
            "latitude": "17.7569637",
            "address": "Indiranagar, Humanabad taluku, Bidar district, Karnataka, India",
            "closest_to": ""
        },
        "pune": {
            "blogLinks": [
                "https://www.tripoto.com/places-to-visit/india/karnataka"
            ],
            "locType": "trunk",
            "longitude": "76.9479122",
            "latitude": "17.8199745",
            "address": "Pune - Machilipatnam Highway, Kaudiyala, Basavakalyana taluku, Bidar district, Karnataka, India",
            "closest_to": ""
        },
        "tungabhadra river": {
            "blogLinks": [
                "https://www.tripoto.com/places-to-visit/india/karnataka"
            ],
            "locType": "river",
            "longitude": "76.4931607",
            "latitude": "15.3446123",
            "address": "Tungabhadra, Gangavati taluku, Koppal district, Karnataka, India",
            "closest_to": ""
        },
        "betageri": {
            "blogLinks": [
                "https://www.tripoto.com/places-to-visit/india/karnataka"
            ],
            "locType": "village",
            "longitude": "74.9538058",
            "latitude": "16.1144865",
            "address": "Betageri, Gokak taluku, Belgaum district, Karnataka, India",
            "closest_to": ""
        },
        "maravanthe": {
            "blogLinks": [
                "https://www.tripoto.com/places-to-visit/india/karnataka"
            ],
            "locType": "school",
            "longitude": "74.6480358",
            "latitude": "13.7316626",
            "address": "Nethaji Subhash Chandra Bose Government High School, Maravanthe, NH66, Navunda, \u0c95\u0cc1\u0c82\u0ca6\u0cbe\u0caa\u0cc1\u0cb0 \u0ca4\u0cbe\u0cb2\u0cc2\u0c95\u0cc1, Udupi district, Karnataka, 576224, India",
            "closest_to": ""
        },
        "gokarna": {
            "blogLinks": [
                "https://www.tripoto.com/places-to-visit/india/karnataka"
            ],
            "locType": "town",
            "longitude": "74.3184418",
            "latitude": "14.5439629",
            "address": "Gokarna, Kumata taluk, Uttara Kannada, Karnataka, 581326, India",
            "closest_to": ""
        },
        "north east": {
            "blogLinks": [
                "https://www.tripoto.com/places-to-visit/india/karnataka"
            ],
            "locType": "administrative",
            "longitude": "75.7223521",
            "latitude": "14.5203896",
            "address": "Karnataka, India",
            "closest_to": ""
        },
        "badami": {
            "blogLinks": [
                "https://www.tripoto.com/places-to-visit/india/karnataka"
            ],
            "locType": "town",
            "longitude": "75.6807865",
            "latitude": "15.9203874",
            "address": "Badami, Badami taluku, Bagalkote district, Karnataka, 587200, India",
            "closest_to": ""
        },
        "murudeshwara temple": {
            "blogLinks": [
                "https://www.tripoto.com/places-to-visit/india/karnataka"
            ],
            "locType": "place_of_worship",
            "longitude": "74.484753966647",
            "latitude": "14.0934908",
            "address": "Murudeshwara Temple, NH66, Manki, Honnavara taluku, Uttara Kannada, Karnataka, 581348, India",
            "closest_to": ""
        },
        "kali river": {
            "blogLinks": [
                "https://www.tripoto.com/places-to-visit/india/karnataka"
            ],
            "locType": "river",
            "longitude": "74.5802901",
            "latitude": "15.0145378",
            "address": "Kali, Joida taluk, Uttara Kannada, Karnataka, India",
            "closest_to": ""
        },
        "north western": {
            "blogLinks": [
                "https://www.tripoto.com/places-to-visit/india/karnataka"
            ],
            "locType": "commercial",
            "longitude": "75.1458521440593",
            "latitude": "15.35527435",
            "address": "South Western Railways Offices, Kamaripet, Hubballi - \u0cb9\u0cc1\u0cac\u0ccd\u0cac\u0cb3\u0ccd\u0cb3\u0cbf, Hubballi taluku, Dharwad district, Karnataka, 580020, India",
            "closest_to": ""
        },
        "bharatpur": {
            "blogLinks": [
                "https://www.makemytrip.com/holidays-india/places-to-visit-hassan.html"
            ],
            "locType": "bank",
            "longitude": "78.0042192",
            "latitude": "27.2058869",
            "address": "Karnataka Bank, Mahatma Gandhi Road, Shahganj, Agra, Uttar Pradesh, 282003, India",
            "closest_to": ""
        },
        "hospet": {
            "blogLinks": [
                "https://www.tripoto.com/places-to-visit/india/karnataka"
            ],
            "locType": "town",
            "longitude": "76.3870527",
            "latitude": "15.266079",
            "address": "Hosapete, Hosapete taluk, Bellary district, Karnataka, 583200, India",
            "closest_to": ""
        },
        "panaji": {
            "blogLinks": [
                "https://www.tripoto.com/places-to-visit/india/karnataka"
            ],
            "locType": "trunk",
            "longitude": "74.4876784",
            "latitude": "15.4422981",
            "address": "Belgaum - Panaji Highway, Londa, Khanapura taluku, Belgaum district, Karnataka, India",
            "closest_to": ""
        },
        "chennai": {
            "blogLinks": [
                "https://www.tripoto.com/places-to-visit/india/karnataka"
            ],
            "locType": "bank",
            "longitude": "80.2197941",
            "latitude": "13.0365141",
            "address": "Karnataka Bank, Postal Colony 2nd Street, Postal Colony, Ashok Nagar, Chennai City Corporation Limits, Chennai district, Tamil Nadu, 600033, India",
            "closest_to": ""
        },
        "varada river": {
            "blogLinks": [
                "https://www.tripoto.com/places-to-visit/india/karnataka"
            ],
            "locType": "river",
            "longitude": "75.47206",
            "latitude": "14.8717792",
            "address": "Varada, Savanura taluk, Haveri district, Karnataka, India",
            "closest_to": ""
        },
        "murudeshwara": {
            "blogLinks": [
                "https://www.tripoto.com/places-to-visit/india/karnataka"
            ],
            "locType": "town",
            "longitude": "74.4883354",
            "latitude": "14.0959549",
            "address": "Murudeshwara, Bhatkala taluk, Uttara Kannada, Karnataka, 581350, India",
            "closest_to": ""
        },
        "tamil nadu": {
            "blogLinks": [
                "https://www.tripoto.com/places-to-visit/india/karnataka"
            ],
            "locType": "bank",
            "longitude": "76.9514152",
            "latitude": "11.0025894",
            "address": "KARNATAKA BANK, Diwan Bhadur Road, Five Corner, RS Puram, Coimbatore, Coimbatore district, Tamil Nadu, 641001, India",
            "closest_to": ""
        },
        "parvati": {
            "blogLinks": [
                "http://www.nivalink.com/destination/hassan",
                "http://www.nivalink.com/destination/sakleshpur"
            ],
            "locType": "village",
            "longitude": "75.7898501",
            "latitude": "16.0395701",
            "address": "Parvati, Badami taluku, Bagalkote district, Karnataka, India",
            "closest_to": ""
        },
        "ring road": {
            "blogLinks": [
                "https://www.tripoto.com/places-to-visit/india/karnataka"
            ],
            "locType": "trunk",
            "longitude": "76.8229563",
            "latitude": "17.3625832",
            "address": "Ring Road, Rauza, Kalaburagi, Gulbarga taluku, Kalaburagi district, Karnataka, 585101, India",
            "closest_to": ""
        },
        "m.g": {
            "blogLinks": [
                "https://www.tripoto.com/places-to-visit/india/karnataka"
            ],
            "locType": "administrative",
            "longitude": "75.7223521",
            "latitude": "14.5203896",
            "address": "Karnataka, India",
            "closest_to": ""
        },
        "garden city": {
            "blogLinks": [
                "https://www.tripoto.com/places-to-visit/india/karnataka"
            ],
            "locType": "bank",
            "longitude": "80.2197941",
            "latitude": "13.0365141",
            "address": "Karnataka Bank, Postal Colony 2nd Street, Postal Colony, Ashok Nagar, Chennai City Corporation Limits, Chennai district, Tamil Nadu, 600033, India",
            "closest_to": ""
        },
        "hampi": {
            "blogLinks": [
                "https://www.tripoto.com/places-to-visit/india/karnataka"
            ],
            "locType": "village",
            "longitude": "76.4606199",
            "latitude": "15.3359769",
            "address": "Hampe, Hosapete taluk, Bellary district, Karnataka, 583239, India",
            "closest_to": ""
        },
        "hampi bazaar": {
            "blogLinks": [
                "https://www.tripoto.com/places-to-visit/india/karnataka"
            ],
            "locType": "unclassified",
            "longitude": "76.4621571",
            "latitude": "15.3347585",
            "address": "Hampi Bazaar, Hampe, Hosapete taluk, Bellary district, Karnataka, 583239, India",
            "closest_to": ""
        },
        "alur": {
            "blogLinks": [
                "https://www.tripoto.com/places-to-visit/india/karnataka"
            ],
            "locType": "village",
            "longitude": "74.3516977",
            "latitude": "16.3219583",
            "address": "Bugati Alura, Hukkeri taluku, Belgaum district, Karnataka, India",
            "closest_to": ""
        },
        "river kali": {
            "blogLinks": [
                "https://www.tripoto.com/places-to-visit/india/karnataka"
            ],
            "locType": "river",
            "longitude": "74.5802901",
            "latitude": "15.0145378",
            "address": "Kali, Joida taluk, Uttara Kannada, Karnataka, India",
            "closest_to": ""
        },
        "kudle": {
            "blogLinks": [
                "https://www.tripoto.com/places-to-visit/india/karnataka"
            ],
            "locType": "hotel",
            "longitude": "74.3178853",
            "latitude": "14.5290707",
            "address": "Kudle Ocean Front resort, Om beach road, Gokarna, Kumata taluk, Uttara Kannada, Karnataka, 581326, India",
            "closest_to": ""
        },
        "half moon": {
            "blogLinks": [
                "https://www.tripoto.com/places-to-visit/india/karnataka"
            ],
            "locType": "restaurant",
            "longitude": "74.3317205",
            "latitude": "14.5181286",
            "address": "Half Moon Garden Caf\u00e9, Om beach road, Gokarna, Kumata taluk, Uttara Kannada, Karnataka, 581326, India",
            "closest_to": ""
        },
        "half moon beach": {
            "blogLinks": [
                "https://www.tripoto.com/places-to-visit/india/karnataka"
            ],
            "locType": "beach",
            "longitude": "74.3310971256284",
            "latitude": "14.5179028",
            "address": "Half Moon Beach, Om beach road, Gokarna, Kumata taluk, Uttara Kannada, Karnataka, 581326, India",
            "closest_to": ""
        },
        "om beach": {
            "blogLinks": [
                "https://www.tripoto.com/places-to-visit/india/karnataka"
            ],
            "locType": "beach",
            "longitude": "74.3254331800289",
            "latitude": "14.5190376",
            "address": "Om Beach, Om beach road, Gokarna, Kumata taluk, Uttara Kannada, Karnataka, 581326, India",
            "closest_to": ""
        },
        "hyderabad": {
            "blogLinks": [
                "https://www.tripoto.com/places-to-visit/india/karnataka"
            ],
            "locType": "primary",
            "longitude": "77.5344002",
            "latitude": "17.9003114",
            "address": "Hyderabad Road, Old City, Bidar, Bidar taluku, Bidar district, Karnataka, 585400, India",
            "closest_to": ""
        },
        "trikuteshwara": {
            "blogLinks": [
                "https://www.tripoto.com/places-to-visit/india/karnataka"
            ],
            "locType": "place_of_worship",
            "longitude": "75.6267663445114",
            "latitude": "15.42449145",
            "address": "Trikuteshwara Temple\u200e, SH6, Betageri, Gadag, Gadag taluk, Gadag district, Karnataka, 582102, India",
            "closest_to": ""
        },
        "castle rock": {
            "blogLinks": [
                "https://www.tripoto.com/places-to-visit/india/karnataka"
            ],
            "locType": "village",
            "longitude": "74.3347387",
            "latitude": "15.3942582",
            "address": "Castle Rock, Joida taluk, Uttara Kannada, Karnataka, India",
            "closest_to": ""
        },
        "state highway": {
            "blogLinks": [
                "https://www.tripoto.com/places-to-visit/india/karnataka"
            ],
            "locType": "atm",
            "longitude": "80.161486",
            "latitude": "13.0330479",
            "address": "Karnataka Bank, Mount Poonamallee Highway, Sri Laxmi Nagar, Ramapuram, Chennai City Corporation Limits, Kanchipuram, Thiruvallur district, Tamil Nadu, 600125, India",
            "closest_to": ""
        },
        "bagalkot district": {
            "blogLinks": [
                "https://www.tripoto.com/places-to-visit/india/karnataka"
            ],
            "locType": "city",
            "longitude": "75.6967919",
            "latitude": "16.1853166",
            "address": "Bagalakote, Bagalakote taluk, Bagalkote district, Karnataka, India",
            "closest_to": ""
        }
    },
    "hassan": {
        "icon": "https://nominatim.openstreetmap.org/images/mapicons/poi_place_town.p.20.png",
        "osm_type": "node",
        "boundingbox": [
            "12.9670817",
            "13.0470817",
            "76.0592703",
            "76.1392703"
        ],
        "display_name": "Hassan, Hasana taluk, Hassan district, Karnataka, 573201, India",
        "class": "place",
        "osm_id": "340748436",
        "type": "town",
        "licence": "Data \u00a9 OpenStreetMap contributors, ODbL 1.0. http://www.openstreetmap.org/copyright",
        "lon": "76.0992703",
        "lat": "13.0070817",
        "place_id": "1806238",
        "importance": 0.490701435537
    }
}