{
    "san luis obispo": {
        "boundingbox": [
            "35.233002",
            "35.31199",
            "-120.7229769",
            "-120.6177727"
        ],
        "lon": "-120.6596155",
        "class": "place",
        "licence": "Data \u00a9 OpenStreetMap contributors, ODbL 1.0. http://www.openstreetmap.org/copyright",
        "importance": 0.87823218277902,
        "icon": "https://nominatim.openstreetmap.org/images/mapicons/poi_place_city.p.20.png",
        "lat": "35.2827525",
        "osm_id": "33111824",
        "type": "city",
        "osm_type": "way",
        "place_id": "71485104",
        "display_name": "San Luis Obispo, San Luis Obispo County, California, United States of America"
    },
    "berkeley": {
        "boundingbox": [
            "37.835727",
            "37.9066896",
            "-122.3686792",
            "-122.2341961"
        ],
        "lon": "-122.2728638",
        "class": "place",
        "licence": "Data \u00a9 OpenStreetMap contributors, ODbL 1.0. http://www.openstreetmap.org/copyright",
        "importance": 0.78550511760774,
        "icon": "https://nominatim.openstreetmap.org/images/mapicons/poi_place_city.p.20.png",
        "lat": "37.8708393",
        "osm_id": "2833528",
        "type": "city",
        "osm_type": "relation",
        "place_id": "159273659",
        "display_name": "Berkeley, Alameda County, California, United States of America"
    },
    "mentions": {
        "kuta": {
            "longitude": "42.7109417",
            "blogLinks": [
                "https://www.makemytrip.com/holidays-international/places-to-visit-san_luis_obispo.html"
            ],
            "closest_to": "",
            "latitude": "42.2684146",
            "address": "Kutaisi Hotel California, 32, \u10d8\u10d0\u10d9\u10dd\u10d1 \u10d2\u10dd\u10d2\u10d4\u10d1\u10d0\u10e8\u10d5\u10d8\u10da\u10d8\u10e1 \u10e5\u10e3\u10e9\u10d0 (Jacob Gogebashvili St), \u10e1\u10d0\u10e4\u10d8\u10e9\u10ee\u10d8\u10d0, \u10e5\u10e3\u10d7\u10d0\u10d8\u10e1\u10d8 (Kutaisi), \u10d8\u10db\u10d4\u10e0\u10d4\u10d7\u10d8, 4600, \u10e1\u10d0\u10e5\u10d0\u10e0\u10d7\u10d5\u10d4\u10da\u10dd",
            "locType": "hotel"
        },
        "new zealand": {
            "longitude": "175.0832904",
            "blogLinks": [
                "https://www.makemytrip.com/holidays-international/places-to-visit-san_luis_obispo.html",
                "http://www.trippy.com/question/California-Where-to-stay-half-way-between-S-F--and-L-A"
            ],
            "closest_to": "",
            "latitude": "-41.1069272",
            "address": "California Drive, Totara Park, Upper Hutt, Upper Hutt City, Wellington, 5371, New Zealand/Aotearoa",
            "locType": "tertiary"
        },
        "l.a.": {
            "longitude": "-67.9369134",
            "blogLinks": [
                "http://www.trippy.com/question/California-Where-to-stay-half-way-between-S-F--and-L-A"
            ],
            "closest_to": "",
            "latitude": "-13.8305494",
            "address": "California, Provincia Abel Iturralde, LPZ, Bolivia",
            "locType": "hamlet"
        },
        "the edna valley": {
            "longitude": "-116.8814105",
            "blogLinks": [
                "http://highway1discoveryroute.com/blog/"
            ],
            "closest_to": "",
            "latitude": "33.8789058",
            "address": "Mount Edna, Menifee, Riverside County, California, United States of America",
            "locType": "peak"
        },
        "s.f.": {
            "longitude": "-99.6183945",
            "blogLinks": [
                "http://www.trippy.com/question/California-Where-to-stay-half-way-between-S-F--and-L-A"
            ],
            "closest_to": "",
            "latitude": "19.9908291",
            "address": "California, Bosque de Canalejas, Jilotepec, M\u00e9xico, 54270, M\u00e9xico",
            "locType": "residential"
        },
        "bratislava": {
            "longitude": "17.1298462",
            "blogLinks": [
                "https://www.makemytrip.com/holidays-international/places-to-visit-san_luis_obispo.html"
            ],
            "closest_to": "",
            "latitude": "48.1200136",
            "address": "Pizzeria California, 2631/1, Ovsi\u0161tsk\u00e9 n\u00e1mestie, H\u00e1je, Petr\u017ealka, Bratislava, Bratislavsk\u00fd kraj, 851 04, Slovensko",
            "locType": "restaurant"
        },
        "neptune": {
            "longitude": "-116.5067839",
            "blogLinks": [
                "https://www.makemytrip.com/holidays-international/places-to-visit-san_luis_obispo.html"
            ],
            "closest_to": "",
            "latitude": "33.7953668",
            "address": "Neptune, Palm Springs, Riverside County, California, 92264, United States of America",
            "locType": "residential"
        },
        "el nino": {
            "longitude": "-116.7932074",
            "blogLinks": [
                "https://sanluisobispovacations.com/shareslo-blog/"
            ],
            "closest_to": "",
            "latitude": "32.506272",
            "address": "El Ni\u00f1o, Tijuana, Baja California, M\u00e9xico",
            "locType": "village"
        },
        "rome": {
            "longitude": "12.7977613",
            "blogLinks": [
                "https://www.makemytrip.com/holidays-international/places-to-visit-san_luis_obispo.html"
            ],
            "closest_to": "",
            "latitude": "41.9628634",
            "address": "California, Via della Missione, Tivoli, Paterno, Tivoli, RM, LAZ, 00019, Italia",
            "locType": "pub"
        },
        "odel": {
            "longitude": "-117.0243037",
            "blogLinks": [
                "https://www.makemytrip.com/holidays-international/places-to-visit-san_luis_obispo.html"
            ],
            "closest_to": "",
            "latitude": "33.7945823",
            "address": "Odel Street, San Jacinto, Riverside County, California, 92582, United States of America",
            "locType": "residential"
        },
        "malibu": {
            "longitude": "-116.5023561",
            "blogLinks": [
                "http://gocalifornia.about.com/cs/bigsur/a/highwayone.htm",
                "https://www.tripadvisor.com/Travel-g28926-c197885/California:United-States:Sf.To.La.Coastal.Road.Primer.html",
                "http://www.travbuddy.com/California-travel-guide-p85"
            ],
            "closest_to": "",
            "latitude": "33.7932142",
            "address": "Malibu, Palm Springs, Riverside County, California, 92264, United States of America",
            "locType": "residential"
        },
        "morro bay strand": {
            "longitude": "-117.3174209",
            "blogLinks": [
                "http://highway1discoveryroute.com/blog/"
            ],
            "closest_to": "",
            "latitude": "33.255497",
            "address": "Morro Bay Street, Oceanside, San Diego County, California, 92057, United States of America",
            "locType": "residential"
        },
        "san juan capistrano": {
            "longitude": "-117.6625508",
            "blogLinks": [
                "http://gocalifornia.about.com/cs/bigsur/a/highwayone.htm"
            ],
            "closest_to": "",
            "latitude": "33.5016932",
            "address": "San Juan Capistrano, Orange County, California, United States of America",
            "locType": "city"
        },
        "state street": {
            "longitude": "-117.3347322",
            "blogLinks": [
                "http://moon.com/2015/04/best-places-to-stay-on-a-california-coast-road-trip/"
            ],
            "closest_to": "",
            "latitude": "34.1572853",
            "address": "State Street, San Bernardino, San Bernardino County, California, 92407, United States of America",
            "locType": "secondary"
        },
        "ocean beach": {
            "longitude": "-117.249321",
            "blogLinks": [
                "http://travelblog.viator.com/road-trip-san-francisco-los-angeles/"
            ],
            "closest_to": "",
            "latitude": "32.7477784",
            "address": "Ocean Beach, San Diego, San Diego County, California, United States of America",
            "locType": "region"
        },
        "united kingdom": {
            "longitude": "-1.9796882",
            "blogLinks": [
                "http://www.livability.com/ca/san-luis-obispo"
            ],
            "closest_to": "",
            "latitude": "52.4422729",
            "address": "California, Birmingham, West Midlands, England, UK",
            "locType": "village"
        },
        "barstow": {
            "longitude": "-117.0172076",
            "blogLinks": [
                "http://www.travbuddy.com/California-travel-guide-p85"
            ],
            "closest_to": "",
            "latitude": "34.8957684",
            "address": "Barstow, San Bernardino County, California, United States of America",
            "locType": "administrative"
        },
        "us hwy 101": {
            "longitude": "-117.2731974",
            "blogLinks": [
                "http://gocalifornia.about.com/cs/bigsur/a/highwayone.htm"
            ],
            "closest_to": "",
            "latitude": "32.9967358",
            "address": "Highway 101, Solana Beach, San Diego County, California, 92075, United States of America",
            "locType": "primary"
        },
        "australia": {
            "longitude": "150.9261111",
            "blogLinks": [
                "https://www.makemytrip.com/holidays-international/places-to-visit-san_luis_obispo.html"
            ],
            "closest_to": "",
            "latitude": "-32.6649999",
            "address": "California, Singleton, NSW, Australia",
            "locType": "hamlet"
        },
        "germany": {
            "longitude": "7.009217",
            "blogLinks": [
                "https://www.makemytrip.com/holidays-international/places-to-visit-san_luis_obispo.html"
            ],
            "closest_to": "",
            "latitude": "50.9590814",
            "address": "California, Lassallestra\u00dfe, M\u00fclheim, K\u00f6ln, Regierungsbezirk K\u00f6ln, Nordrhein-Westfalen, 50667-51149, Deutschland",
            "locType": "beauty"
        },
        "napa valley": {
            "longitude": "-84.4504647",
            "blogLinks": [
                "http://www.travbuddy.com/California-travel-guide-p85"
            ],
            "closest_to": "",
            "latitude": "39.0234679",
            "address": "Napa Valley, Cold Spring, Campbell County, Kentucky, 41076, United States of America",
            "locType": "residential"
        },
        "california coast": {
            "longitude": "-117.1464145",
            "blogLinks": [
                "http://moon.com/2015/04/best-places-to-stay-on-a-california-coast-road-trip/",
                "http://www.virtualslo.com/san-luis-obispo-attractions"
            ],
            "closest_to": "",
            "latitude": "32.7586361",
            "address": "California Coast Credit Union, Park Boulevard, Hillcrest, San Diego, San Diego County, California, 92116, United States of America",
            "locType": "bank"
        },
        "bahnhofstrasse": {
            "longitude": "9.525943",
            "blogLinks": [
                "https://www.makemytrip.com/holidays-international/places-to-visit-san_luis_obispo.html"
            ],
            "closest_to": "",
            "latitude": "48.7155371",
            "address": "California Nails, 3, Bahnhofstra\u00dfe, Sulpach, Ebersbach an der Fils, Vereinbarte Verwaltungsgemeinschaft der Stadt Ebersbach an der Fils, Landkreis G\u00f6ppingen, Regierungsbezirk Stuttgart, Baden-W\u00fcrttemberg, 73061, Deutschland",
            "locType": "beauty"
        },
        "san luis": {
            "longitude": "-114.7643625",
            "blogLinks": [
                "http://highway1discoveryroute.com/blog/"
            ],
            "closest_to": "",
            "latitude": "32.4962137",
            "address": "California Street, Bienestar Estates, San Luis, Yuma County, Arizona, 85336, United States of America",
            "locType": "residential"
        },
        "switzerland": {
            "longitude": "8.5445137",
            "blogLinks": [
                "https://www.makemytrip.com/holidays-international/places-to-visit-san_luis_obispo.html"
            ],
            "closest_to": "",
            "latitude": "47.3688306",
            "address": "California, 22, Schiffl\u00e4nde, Rathaus, Altstadt, Z\u00fcrich, Bezirk Z\u00fcrich, Z\u00fcrich, 8024, Schweiz, Suisse, Svizzera, Svizra",
            "locType": "hotel"
        },
        "carlsbad": {
            "longitude": "-117.3505938",
            "blogLinks": [
                "http://www.travbuddy.com/California-travel-guide-p85"
            ],
            "closest_to": "",
            "latitude": "33.1580933",
            "address": "Carlsbad, San Diego County, California, United States of America",
            "locType": "city"
        },
        "highway 101": {
            "longitude": "-117.2731974",
            "blogLinks": [
                "https://sanluisobispovacations.com/shareslo-blog/",
                "http://moon.com/2015/04/best-places-to-stay-on-a-california-coast-road-trip/",
                "http://travelblog.viator.com/road-trip-san-francisco-los-angeles/",
                "https://www.tripadvisor.com/Travel-g28926-c197885/California:United-States:Sf.To.La.Coastal.Road.Primer.html"
            ],
            "closest_to": "",
            "latitude": "32.9967358",
            "address": "Highway 101, Solana Beach, San Diego County, California, 92075, United States of America",
            "locType": "primary"
        },
        "independence square": {
            "longitude": "-117.160049917396",
            "blogLinks": [
                "https://www.makemytrip.com/holidays-international/places-to-visit-san_luis_obispo.html"
            ],
            "closest_to": "",
            "latitude": "32.83180305",
            "address": "Independence Square, San Diego, San Diego County, California, 92111, United States of America",
            "locType": "retail"
        },
        "adriatic": {
            "longitude": "-117.1528089",
            "blogLinks": [
                "https://www.makemytrip.com/holidays-international/places-to-visit-san_luis_obispo.html"
            ],
            "closest_to": "",
            "latitude": "32.925228",
            "address": "Adriatic Place, Mira Mesa, San Diego, San Diego County, California, 92126, United States of America",
            "locType": "residential"
        },
        "north island": {
            "longitude": "-117.195632220315",
            "blogLinks": [
                "https://www.makemytrip.com/holidays-international/places-to-visit-san_luis_obispo.html"
            ],
            "closest_to": "",
            "latitude": "32.6937252",
            "address": "North Island, Coronado, San Diego County, California, United States of America",
            "locType": "island"
        },
        "california-nevada": {
            "longitude": "-115.144667930325",
            "blogLinks": [
                "http://www.travbuddy.com/California-travel-guide-p85"
            ],
            "closest_to": "",
            "latitude": "36.17310935",
            "address": "California Hotel, Sky Walk(Connection from Main Street to California, Cultural Corridor, Vegas Heights, Las Vegas, Clark County, Nevada, 89101, United States of America",
            "locType": "hotel"
        },
        "big city": {
            "longitude": "-116.848597753191",
            "blogLinks": [
                "https://sanluisobispovacations.com/shareslo-blog/"
            ],
            "closest_to": "",
            "latitude": "34.267886",
            "address": "Big Bear City, Anita Avenue, Big Bear City, San Bernardino County, California, 92314, United States of America",
            "locType": "administrative"
        },
        "city hall": {
            "longitude": "-115.569543523702",
            "blogLinks": [
                "https://www.makemytrip.com/holidays-international/places-to-visit-san_luis_obispo.html"
            ],
            "closest_to": "",
            "latitude": "32.84439345",
            "address": "City Hall, Imperial, Imperial County, California, 92251, United States of America",
            "locType": "commercial"
        },
        "california state park": {
            "longitude": "-117.420521298137",
            "blogLinks": [
                "http://travelblog.viator.com/road-trip-san-francisco-los-angeles/",
                "http://www.virtualslo.com/san-luis-obispo-attractions"
            ],
            "closest_to": "",
            "latitude": "33.895296",
            "address": "California Citrus State Historic Park, Van Buren Boulevard, Riverside, Riverside County, California, 92504, United States of America",
            "locType": "park"
        },
        "big bear lake": {
            "longitude": "-116.932209587315",
            "blogLinks": [
                "http://www.travbuddy.com/California-travel-guide-p85"
            ],
            "closest_to": "",
            "latitude": "34.253293",
            "address": "Big Bear Lake, Lagunita Lane, Big Bear Lake, San Bernardino County, California, 92315, United States of America",
            "locType": "water"
        },
        "santa": {
            "longitude": "-80.3796642",
            "blogLinks": [
                "http://highway1discoveryroute.com/blog/"
            ],
            "closest_to": "",
            "latitude": "22.4804035",
            "address": "California, Santa Isabel de las Lajas, Cienfuegos, Cuba",
            "locType": "hamlet"
        },
        "fort": {
            "longitude": "-116.714338161222",
            "blogLinks": [
                "https://www.makemytrip.com/holidays-international/places-to-visit-san_luis_obispo.html"
            ],
            "closest_to": "",
            "latitude": "33.744979",
            "address": "The Fort, Idyllwild, Riverside County, California, 92549, United States of America",
            "locType": "retail"
        },
        "puerto rico": {
            "longitude": "-67.7071862",
            "blogLinks": [
                "https://sanluisobispovacations.com/shareslo-blog/"
            ],
            "closest_to": "",
            "latitude": "-11.2141388",
            "address": "Canton Victoria, California, Provincia de Manuripi, PND, Bolivia",
            "locType": "hamlet"
        },
        "baja california": {
            "longitude": "-113.380835042571",
            "blogLinks": [
                "http://highway1discoveryroute.com/blog/"
            ],
            "closest_to": "",
            "latitude": "27.35789705",
            "address": "Pen\u00ednsula de Baja California, Muleg\u00e9, Baja California Sur, M\u00e9xico",
            "locType": "peninsula"
        },
        "garden": {
            "longitude": "-117.293612",
            "blogLinks": [
                "https://cierralacasse.wordpress.com/tag/places-to-visit/"
            ],
            "closest_to": "",
            "latitude": "33.6280068",
            "address": "Garden, Menifee, Riverside County, California, 92530, United States of America",
            "locType": "track"
        },
        "humboldt county": {
            "longitude": "-123.8997733",
            "blogLinks": [
                "http://www.travbuddy.com/California-travel-guide-p85"
            ],
            "closest_to": "",
            "latitude": "40.5997415",
            "address": "Humboldt County, California, United States of America",
            "locType": "administrative"
        },
        "chapel bridge": {
            "longitude": "-116.721214453057",
            "blogLinks": [
                "https://www.makemytrip.com/holidays-international/places-to-visit-san_luis_obispo.html"
            ],
            "closest_to": "",
            "latitude": "33.73965835",
            "address": "Meadow Camp Chapel, Buckler Bridge, Idyllwild, Riverside County, California, 92549, United States of America",
            "locType": "yes"
        },
        "guadalupe": {
            "longitude": "-118.269896818344",
            "blogLinks": [
                "http://highway1discoveryroute.com/blog/"
            ],
            "closest_to": "",
            "latitude": "29.0350656",
            "address": "Isla Guadalupe, Ensenada, Baja California, M\u00e9xico",
            "locType": "island"
        },
        "italy": {
            "longitude": "9.3130453",
            "blogLinks": [
                "https://www.makemytrip.com/holidays-international/places-to-visit-san_luis_obispo.html"
            ],
            "closest_to": "",
            "latitude": "45.659844",
            "address": "California, MB, LOM, Italia",
            "locType": "village"
        },
        "india": {
            "longitude": "-117.173543004762",
            "blogLinks": [
                "https://www.makemytrip.com/holidays-international/places-to-visit-san_luis_obispo.html",
                "http://www.calpoly.edu/aboutcp/our_campus.html"
            ],
            "closest_to": "",
            "latitude": "32.72025735",
            "address": "Star of India, North Harbor Drive, Hillcrest, San Diego, San Diego County, California, 92106, United States of America",
            "locType": "attraction"
        },
        "czech republic": {
            "longitude": "14.4153452",
            "blogLinks": [
                "https://www.makemytrip.com/holidays-international/places-to-visit-san_luis_obispo.html"
            ],
            "closest_to": "",
            "latitude": "50.0769873",
            "address": "Sushi California, 8, N\u00e1plavn\u00ed, Nov\u00e9 M\u011bsto, Praha, okres Hlavn\u00ed m\u011bsto Praha, Hlavn\u00ed m\u011bsto Praha, Praha, 12000, \u010cesko",
            "locType": "restaurant"
        },
        "california": {
            "longitude": "-72.945787",
            "blogLinks": [
                "http://www.trippy.com/question/California-Where-to-stay-half-way-between-S-F--and-L-A",
                "https://sanluisobispovacations.com/shareslo-blog/",
                "http://moon.com/2015/04/best-places-to-stay-on-a-california-coast-road-trip/",
                "http://gocalifornia.about.com/cs/bigsur/a/highwayone.htm",
                "http://www.virtualslo.com/san-luis-obispo-attractions",
                "https://www.tripadvisor.com/Travel-g28926-c197885/California:United-States:Sf.To.La.Coastal.Road.Primer.html",
                "http://www.travbuddy.com/California-travel-guide-p85",
                "http://travelblog.viator.com/road-trip-san-francisco-los-angeles/",
                "http://hearstcastle.org/plan-your-trip/map-directions/",
                "http://highway1discoveryroute.com/blog/"
            ],
            "closest_to": "",
            "latitude": "7.3480915",
            "address": "California, Santander, Colombia",
            "locType": "village"
        },
        "pismo": {
            "longitude": "-110.3437034",
            "blogLinks": [
                "https://sanluisobispovacations.com/shareslo-blog/",
                "http://highway1discoveryroute.com/blog/"
            ],
            "closest_to": "",
            "latitude": "24.1378257",
            "address": "Pismo, La Paz, Baja California Sur, 23206, M\u00e9xico",
            "locType": "residential"
        },
        "earth": {
            "longitude": "-115.541994345811",
            "blogLinks": [
                "https://sanluisobispovacations.com/shareslo-blog/",
                "https://www.makemytrip.com/holidays-international/places-to-visit-san_luis_obispo.html"
            ],
            "closest_to": "",
            "latitude": "35.4780569",
            "address": "Mountain Pass Rare Earth Mine, Mountain Pass, San Bernardino County, California, 92364, United States of America",
            "locType": "quarry"
        },
        "north bay area": {
            "longitude": "-117.228172861512",
            "blogLinks": [
                "https://sanluisobispovacations.com/shareslo-blog/"
            ],
            "closest_to": "",
            "latitude": "32.7667127",
            "address": "California Collections, Smoking Area, Old Town, San Diego, San Diego County, California, 921009, United States of America",
            "locType": "gift"
        },
        "san diego": {
            "longitude": "-117.1627713",
            "blogLinks": [
                "http://www.travbuddy.com/California-travel-guide-p85",
                "http://highway1discoveryroute.com/blog/"
            ],
            "closest_to": "",
            "latitude": "32.7174209",
            "address": "San Diego, San Diego County, California, United States of America",
            "locType": "city"
        },
        "mallard lake ranch": {
            "longitude": "-117.3792448",
            "blogLinks": [
                "http://highway1discoveryroute.com/blog/"
            ],
            "closest_to": "",
            "latitude": "33.6682758",
            "address": "Mallard Road, Terra Cotta, Lake Elsinore, Riverside County, California, 92530, United States of America",
            "locType": "residential"
        },
        "slovakia": {
            "longitude": "17.1298462",
            "blogLinks": [
                "https://www.makemytrip.com/holidays-international/places-to-visit-san_luis_obispo.html"
            ],
            "closest_to": "",
            "latitude": "48.1200136",
            "address": "Pizzeria California, 2631/1, Ovsi\u0161tsk\u00e9 n\u00e1mestie, H\u00e1je, Petr\u017ealka, Bratislava, Bratislavsk\u00fd kraj, 851 04, Slovensko",
            "locType": "restaurant"
        },
        "old town square": {
            "longitude": "-124.1669358",
            "blogLinks": [
                "https://www.makemytrip.com/holidays-international/places-to-visit-san_luis_obispo.html"
            ],
            "closest_to": "",
            "latitude": "40.80459945",
            "address": "Old Town Square, Snug Alley, Eureka, Humboldt County, California, 95501, United States of America",
            "locType": "park"
        },
        "edna valley": {
            "longitude": "-116.8814105",
            "blogLinks": [
                "https://sanluisobispovacations.com/shareslo-blog/",
                "http://highway1discoveryroute.com/blog/"
            ],
            "closest_to": "",
            "latitude": "33.8789058",
            "address": "Mount Edna, Menifee, Riverside County, California, United States of America",
            "locType": "peak"
        },
        "mount and lake batur": {
            "longitude": "106.942801",
            "blogLinks": [
                "https://www.makemytrip.com/holidays-international/places-to-visit-san_luis_obispo.html"
            ],
            "closest_to": "",
            "latitude": "47.9053182",
            "address": "California, \u0425\u04af\u043d\u043d\u04af\u0433\u0438\u0439\u043d \u0433\u0443\u0434\u0430\u043c\u0436, \u0417\u0430\u0439\u0441\u0430\u043d, \u0423\u043b\u0430\u0430\u043d\u0431\u0430\u0430\u0442\u0430\u0440, \u0423\u043b\u0430\u0430\u043d\u0431\u0430\u0430\u0442\u0430\u0440 - \u0422\u04e9\u0432 \u0430\u0439\u043c\u0433\u0438\u0439\u043d \u0445\u0438\u043b, 1, \u041c\u043e\u043d\u0433\u043e\u043b \u0443\u043b\u0441",
            "locType": "restaurant"
        },
        "cadiz": {
            "longitude": "-115.5139204",
            "blogLinks": [
                "https://cierralacasse.wordpress.com/tag/places-to-visit/"
            ],
            "closest_to": "",
            "latitude": "34.5201434",
            "address": "Cadiz, San Bernardino County, California, United States of America",
            "locType": "locality"
        },
        "naval air station": {
            "longitude": "-117.2043364",
            "blogLinks": [
                "http://highway1discoveryroute.com/blog/"
            ],
            "closest_to": "",
            "latitude": "32.701613",
            "address": "Naval Air Station North Island, F West Road, Coronado, San Diego County, California, 92135, United States of America",
            "locType": "military"
        },
        "netherlands": {
            "longitude": "-69.0322534",
            "blogLinks": [
                "https://www.makemytrip.com/holidays-international/places-to-visit-san_luis_obispo.html"
            ],
            "closest_to": "",
            "latitude": "12.2247003",
            "address": "California, Weg naar Westpunt, San Pedro, Porto Marie, Tera Cor\u00e1, Cura\u00e7ao, Nederland",
            "locType": "supermarket"
        },
        "austria": {
            "longitude": "13.2969635",
            "blogLinks": [
                "https://www.makemytrip.com/holidays-international/places-to-visit-san_luis_obispo.html"
            ],
            "closest_to": "",
            "latitude": "47.3325646",
            "address": "California, 24, Markt, Goldanger, Wagrain, Sankt Johann im Pongau, Salzburg, 5602, \u00d6sterreich",
            "locType": "restaurant"
        },
        "south island": {
            "longitude": "-73.6498983294933",
            "blogLinks": [
                "https://www.makemytrip.com/holidays-international/places-to-visit-san_luis_obispo.html"
            ],
            "closest_to": "",
            "latitude": "40.59933165",
            "address": "California Canal, Barnum Island, Nassau County, New York, United States of America",
            "locType": "canal"
        },
        "capistrano beach": {
            "longitude": "-117.6717174",
            "blogLinks": [
                "http://gocalifornia.about.com/cs/bigsur/a/highwayone.htm"
            ],
            "closest_to": "",
            "latitude": "33.4625277",
            "address": "Capistrano Beach, Orange County, California, United States of America",
            "locType": "hamlet"
        },
        "bavaria": {
            "longitude": "11.0060291567557",
            "blogLinks": [
                "https://www.makemytrip.com/holidays-international/places-to-visit-san_luis_obispo.html"
            ],
            "closest_to": "",
            "latitude": "49.59175395",
            "address": "California, N\u00fcrnberger Stra\u00dfe, Am Anger, Erlangen, Mittelfranken, Bayern, 91052, Deutschland",
            "locType": "fast_food"
        },
        "macao": {
            "longitude": "-84.0671057",
            "blogLinks": [
                "https://www.makemytrip.com/holidays-international/places-to-visit-san_luis_obispo.html"
            ],
            "closest_to": "",
            "latitude": "9.9313488",
            "address": "Ara Macao Inn, Avenida 2A, California, Catedral, Cant\u00f3n San Jos\u00e9, Provincia San Jos\u00e9, 10104, Costa Rica",
            "locType": "hotel"
        },
        "eureka": {
            "longitude": "-124.1636728",
            "blogLinks": [
                "http://www.travbuddy.com/California-travel-guide-p85"
            ],
            "closest_to": "",
            "latitude": "40.8020712",
            "address": "Eureka, Humboldt County, California, United States of America",
            "locType": "city"
        },
        "santa rosa street": {
            "longitude": "-117.1945227",
            "blogLinks": [
                "https://www.tripadvisor.com/Travel-g28926-c197885/California:United-States:Sf.To.La.Coastal.Road.Primer.html"
            ],
            "closest_to": "",
            "latitude": "34.1399806",
            "address": "Santa Rosa Street, San Bernardino, San Bernardino County, California, 92346, United States of America",
            "locType": "residential"
        }
    }
}