{
    "newport beach": {
        "boundingbox": [
            "33.5348773",
            "33.6717531",
            "-117.9959276",
            "-117.7839003"
        ],
        "lon": "-117.92944",
        "class": "place",
        "licence": "Data \u00a9 OpenStreetMap contributors, ODbL 1.0. http://www.openstreetmap.org/copyright",
        "importance": 0.75631325724067,
        "icon": "https://nominatim.openstreetmap.org/images/mapicons/poi_place_city.p.20.png",
        "lat": "33.6170092",
        "osm_id": "112956",
        "type": "city",
        "osm_type": "relation",
        "place_id": "157952615",
        "display_name": "Newport Beach, Orange County, California, United States of America"
    },
    "berkeley": {
        "boundingbox": [
            "37.835727",
            "37.9066896",
            "-122.3686792",
            "-122.2341961"
        ],
        "lon": "-122.2728638",
        "class": "place",
        "licence": "Data \u00a9 OpenStreetMap contributors, ODbL 1.0. http://www.openstreetmap.org/copyright",
        "importance": 0.78550511760774,
        "icon": "https://nominatim.openstreetmap.org/images/mapicons/poi_place_city.p.20.png",
        "lat": "37.8708393",
        "osm_id": "2833528",
        "type": "city",
        "osm_type": "relation",
        "place_id": "159273659",
        "display_name": "Berkeley, Alameda County, California, United States of America"
    },
    "mentions": {
        "england": {
            "longitude": "-1.9796882",
            "blogLinks": [
                "http://www.visitri.com/state/historic-homes-and-sites/"
            ],
            "closest_to": "",
            "latitude": "52.4422729",
            "address": "California, Birmingham, West Midlands, England, UK",
            "locType": "village"
        },
        "napa valley": {
            "longitude": "-84.4504647",
            "blogLinks": [
                "http://www.travbuddy.com/California-travel-guide-p85"
            ],
            "closest_to": "",
            "latitude": "39.0234679",
            "address": "Napa Valley, Cold Spring, Campbell County, Kentucky, 41076, United States of America",
            "locType": "residential"
        },
        "new york city": {
            "longitude": "-73.9717587",
            "blogLinks": [
                "http://www.visitri.com/state/historic-homes-and-sites/"
            ],
            "closest_to": "",
            "latitude": "40.767819",
            "address": "California Sea Lion, 830, 5th Avenue, Upper East Side, Manhattan, New York County, NYC, New York, 10035, United States of America",
            "locType": "attraction"
        },
        "california": {
            "longitude": "-72.945787",
            "blogLinks": [
                "https://www.tripadvisor.com/ShowTopic-g28926-i29-k3511821-Drive_from_San_Francisco_to_Newport_Beach_on_Route_1_help-California.html",
                "http://distancecalculator.globefeed.com/US_Distance_Calculator.asp?state=CA",
                "http://whatagirleats.com/day-newport-beach/",
                "http://www.visitnewportbeach.com/",
                "https://www.gapyear.com/articles/216212/13-incredible-stops-on-the-pacific-coast-highway",
                "http://www.travbuddy.com/California-travel-guide-p85"
            ],
            "closest_to": "",
            "latitude": "7.3480915",
            "address": "California, Santander, Colombia",
            "locType": "village"
        },
        "virginia": {
            "longitude": "-79.5869878",
            "blogLinks": [
                "http://www.virginia.org/Listings/HistoricSites/BerkeleyPlantation/"
            ],
            "closest_to": "",
            "latitude": "37.9090178",
            "address": "California, Rockbridge County, Virginia, United States of America",
            "locType": "hamlet"
        },
        "virginia beach": {
            "longitude": "-76.1207839",
            "blogLinks": [
                "https://www.virginiabeach.com/",
                "http://www.visitri.com/state/historic-homes-and-sites/"
            ],
            "closest_to": "",
            "latitude": "36.800975",
            "address": "California Court, Kempsville, Gallops Corner, Virginia Beach, Virginia, 23456, United States of America",
            "locType": "residential"
        },
        "italy": {
            "longitude": "9.3130453",
            "blogLinks": [
                "http://www.visitri.com/state/historic-homes-and-sites/"
            ],
            "closest_to": "",
            "latitude": "45.659844",
            "address": "California, MB, LOM, Italia",
            "locType": "village"
        },
        "palomar": {
            "longitude": "-109.715262801301",
            "blogLinks": [
                "https://www.gapyear.com/articles/216212/13-incredible-stops-on-the-pacific-coast-highway"
            ],
            "closest_to": "",
            "latitude": "23.48019285",
            "address": "Palomar, Calzada Maestros Misioneros de 1930, Santiago, Los Cabos, Baja California Sur, M\u00e9xico",
            "locType": "hotel"
        },
        "u.s.": {
            "longitude": "-61.5489543",
            "blogLinks": [
                "http://www.visitri.com/state/historic-homes-and-sites/"
            ],
            "closest_to": "",
            "latitude": "-32.5446226",
            "address": "La California, Municipio de Las Rosas, Departamento Belgrano, Sta. Fe, Argentina",
            "locType": "hamlet"
        },
        "va 23219for virginia": {
            "longitude": "-79.5869878",
            "blogLinks": [
                "http://www.virginia.org/Listings/HistoricSites/BerkeleyPlantation/"
            ],
            "closest_to": "",
            "latitude": "37.9090178",
            "address": "California, Rockbridge County, Virginia, United States of America",
            "locType": "hamlet"
        },
        "pismo": {
            "longitude": "-110.3437034",
            "blogLinks": [
                "https://www.tripadvisor.com/ShowTopic-g28926-i29-k3511821-Drive_from_San_Francisco_to_Newport_Beach_on_Route_1_help-California.html"
            ],
            "closest_to": "",
            "latitude": "24.1378257",
            "address": "Pismo, La Paz, Baja California Sur, 23206, M\u00e9xico",
            "locType": "residential"
        },
        "watch hill": {
            "longitude": "-84.4168661342117",
            "blogLinks": [
                "http://www.visitri.com/state/historic-homes-and-sites/"
            ],
            "closest_to": "",
            "latitude": "39.07685605",
            "address": "California Woods Nature Preserve, Ridge Loop, California, Cincinnati, Hamilton County, Ohio, 45228, United States of America",
            "locType": "nature_reserve"
        },
        "united kingdom": {
            "longitude": "-1.9796882",
            "blogLinks": [
                "http://www.distancesfrom.com/us/travel-from-Newport-Beach-to-Berkeley/TravelFromHistory/28450053.aspx"
            ],
            "closest_to": "",
            "latitude": "52.4422729",
            "address": "California, Birmingham, West Midlands, England, UK",
            "locType": "village"
        }
    }
}