{
    "bidar": {
        "lat": "18.083333",
        "class": "place",
        "importance": 0.65,
        "osm_type": "node",
        "lon": "77.333333",
        "place_id": "1400874",
        "display_name": "Bidar, Bidar district, Karnataka, India",
        "osm_id": "316417319",
        "boundingbox": [
            "17.443333",
            "18.723333",
            "76.693333",
            "77.973333"
        ],
        "type": "county",
        "licence": "Data \u00a9 OpenStreetMap contributors, ODbL 1.0. http://www.openstreetmap.org/copyright",
        "icon": "https://nominatim.openstreetmap.org/images/mapicons/poi_boundary_administrative.p.20.png"
    },
    "dandeli": {
        "lat": "15.2490284",
        "class": "place",
        "importance": 0.5,
        "osm_type": "node",
        "lon": "74.6236037",
        "place_id": "5820025",
        "display_name": "Dandeli, Haliyala taluku, Uttara Kannada, Karnataka, 581325, India",
        "osm_id": "612546262",
        "boundingbox": [
            "15.2090284",
            "15.2890284",
            "74.5836037",
            "74.6636037"
        ],
        "type": "town",
        "licence": "Data \u00a9 OpenStreetMap contributors, ODbL 1.0. http://www.openstreetmap.org/copyright",
        "icon": "https://nominatim.openstreetmap.org/images/mapicons/poi_place_town.p.20.png"
    },
    "mentions": {
        "chennai": {
            "blogLinks": [
                "https://en.wikipedia.org/wiki/Tourism_in_Karnataka"
            ],
            "longitude": "80.2197941",
            "address": "Karnataka Bank, Postal Colony 2nd Street, Postal Colony, Ashok Nagar, Chennai City Corporation Limits, Chennai district, Tamil Nadu, 600033, India",
            "latitude": "13.0365141",
            "locType": "bank",
            "closest_to": ""
        },
        "tamil nadu": {
            "blogLinks": [
                "https://en.wikipedia.org/wiki/Tourism_in_Karnataka",
                "http://www.godakshin.com/travel-guides/bangalore-tourist-attractions"
            ],
            "longitude": "76.9514152",
            "address": "KARNATAKA BANK, Diwan Bhadur Road, Five Corner, RS Puram, Coimbatore, Coimbatore district, Tamil Nadu, 641001, India",
            "latitude": "11.0025894",
            "locType": "bank",
            "closest_to": ""
        },
        "chamarajanagar": {
            "blogLinks": [
                "https://en.wikipedia.org/wiki/Tourism_in_Karnataka"
            ],
            "longitude": "76.9331345",
            "address": "Chamarajanagar, Nanjangudu-Chamarajanagar Road, Kadahalli, Chamarajanagara taluk, Chamarajanagar district, Karnataka, 571313, India",
            "latitude": "11.9346624",
            "locType": "station",
            "closest_to": ""
        },
        "mekedatu": {
            "blogLinks": [
                "https://en.wikipedia.org/wiki/Tourism_in_Karnataka"
            ],
            "longitude": "77.4475194",
            "address": "Mekedatu, SH92, Mahalli, Kanakapura taluk, Ramanagara district, Karnataka, India",
            "latitude": "12.2584997",
            "locType": "attraction",
            "closest_to": ""
        },
        "shivanasamudra": {
            "blogLinks": [
                "https://en.wikipedia.org/wiki/Tourism_in_Karnataka"
            ],
            "longitude": "77.1703215",
            "address": "Shivanasamudra, Kollegala taluk, Chamarajanagar district, Karnataka, India",
            "latitude": "12.2719056",
            "locType": "village",
            "closest_to": ""
        },
        "andhra pradesh": {
            "blogLinks": [
                "http://www.godakshin.com/?q=travel-guides/dandeli-285.html"
            ],
            "longitude": "79.3452447",
            "address": "Karnataka, West Mada Street, Srivari Temple, Tirumala, Chittoor, Andhra Pradesh, 517504, India",
            "latitude": "13.6841958",
            "locType": "hotel",
            "closest_to": ""
        },
        "kaveri": {
            "blogLinks": [
                "https://en.wikipedia.org/wiki/Tourism_in_Karnataka"
            ],
            "longitude": "77.0635531",
            "address": "Kaveri, Kollegala taluk, Chamarajanagar district, Karnataka, India",
            "latitude": "12.1687878",
            "locType": "river",
            "closest_to": ""
        },
        "rajasthan": {
            "blogLinks": [
                "http://www.beontheroad.com/2014/02/top-13-things-to-do-in-dandeli-karnataka.html"
            ],
            "longitude": "75.7985653",
            "address": "Karnataka Bank, Mirza Ismail Road, Hasanpura, Bani Park, Jaipur, Rajasthan, 302006, India",
            "latitude": "26.91869",
            "locType": "atm",
            "closest_to": ""
        },
        "bandipur national park": {
            "blogLinks": [
                "https://en.wikipedia.org/wiki/Tourism_in_Karnataka"
            ],
            "longitude": "76.4314968740264",
            "address": "Bandipur National Park, Kozhikode - Kollegal Highway, Gundlupet taluk, Chamarajanagar district, Karnataka, India",
            "latitude": "11.76682425",
            "locType": "national_park",
            "closest_to": ""
        }
    }
}