{
    "oakland": {
        "boundingbox": [
            "37.632226",
            "37.885368",
            "-122.3558809",
            "-122.1146719"
        ],
        "lon": "-122.2713562",
        "class": "place",
        "licence": "Data \u00a9 OpenStreetMap contributors, ODbL 1.0. http://www.openstreetmap.org/copyright",
        "importance": 0.80539006393216,
        "icon": "https://nominatim.openstreetmap.org/images/mapicons/poi_place_city.p.20.png",
        "lat": "37.8044557",
        "osm_id": "2833530",
        "type": "city",
        "osm_type": "relation",
        "place_id": "159417720",
        "display_name": "Oakland, Alameda County, California, United States of America"
    },
    "big bear lake": {
        "boundingbox": [
            "34.2375569",
            "34.2689983",
            "-116.9775303",
            "-116.8663043"
        ],
        "importance": 0.80624782713774,
        "class": "natural",
        "osm_id": "4045674",
        "type": "water",
        "lon": "-116.932209587315",
        "osm_type": "relation",
        "place_id": "159717820",
        "lat": "34.253293",
        "licence": "Data \u00a9 OpenStreetMap contributors, ODbL 1.0. http://www.openstreetmap.org/copyright",
        "display_name": "Big Bear Lake, Lagunita Lane, Big Bear Lake, San Bernardino County, California, 92315, United States of America"
    },
    "mentions": {
        "napa valley": {
            "longitude": "-84.4504647",
            "blogLinks": [
                "http://www.travbuddy.com/California-travel-guide-p85"
            ],
            "closest_to": "",
            "latitude": "39.0234679",
            "address": "Napa Valley, Cold Spring, Campbell County, Kentucky, 41076, United States of America",
            "locType": "residential"
        },
        "washington": {
            "longitude": "-79.8918435",
            "blogLinks": [
                "http://www.visitdeepcreek.com/"
            ],
            "closest_to": "",
            "latitude": "40.0657724",
            "address": "California, Washington County, Pennsylvania, United States of America",
            "locType": "administrative"
        },
        "united kingdom": {
            "longitude": "-1.9796882",
            "blogLinks": [
                "http://www.travbuddy.com/California-popular-cities-p85"
            ],
            "closest_to": "",
            "latitude": "52.4422729",
            "address": "California, Birmingham, West Midlands, England, UK",
            "locType": "village"
        },
        "md": {
            "longitude": "-76.5074541",
            "blogLinks": [
                "http://www.visitdeepcreek.com/"
            ],
            "closest_to": "",
            "latitude": "38.3004029",
            "address": "California, Saint Mary's County, Maryland, United States of America",
            "locType": "hamlet"
        },
        "maryland": {
            "longitude": "-76.5074541",
            "blogLinks": [
                "http://www.visitdeepcreek.com/"
            ],
            "closest_to": "",
            "latitude": "38.3004029",
            "address": "California, Saint Mary's County, Maryland, United States of America",
            "locType": "hamlet"
        },
        "salt lake city": {
            "longitude": "-112.0151647",
            "blogLinks": [
                "http://www.10best.com/interests/travel-features/road-trip-10-must-see-spots-from-salt-lake-city-to-san-diego/"
            ],
            "closest_to": "",
            "latitude": "40.7401784",
            "address": "California Avenue, Salt Lake City, Salt Lake County, Utah, United States of America",
            "locType": "secondary"
        },
        "cleveland": {
            "longitude": "-1.13638389813962",
            "blogLinks": [
                "http://www.visitdeepcreek.com/"
            ],
            "closest_to": "",
            "latitude": "54.55954855",
            "address": "California, Eston, Lackenby, Redcar and Cleveland, North East England, England, UK",
            "locType": "residential"
        },
        "u.s.": {
            "longitude": "-61.5489543",
            "blogLinks": [
                "http://www.bigbearlake.net/about-big-bear/facts"
            ],
            "closest_to": "",
            "latitude": "-32.5446226",
            "address": "La California, Municipio de Las Rosas, Departamento Belgrano, Sta. Fe, Argentina",
            "locType": "hamlet"
        },
        "new zealand": {
            "longitude": "175.0832904",
            "blogLinks": [
                "https://www.tripadvisor.com/"
            ],
            "closest_to": "",
            "latitude": "-41.1069272",
            "address": "California Drive, Totara Park, Upper Hutt, Upper Hutt City, Wellington, 5371, New Zealand/Aotearoa",
            "locType": "tertiary"
        },
        "california": {
            "longitude": "-72.945787",
            "blogLinks": [
                "http://www.travbuddy.com/California-travel-guide-p85",
                "https://www.tripadvisor.com/",
                "https://www.expedia.com/Big-Bear-Lake-Hotels.d6919.Travel-Guide-Hotels",
                "https://www.yelp.com/biz/destination-big-bear-big-bear-lake",
                "http://www.10best.com/interests/travel-features/road-trip-10-must-see-spots-from-salt-lake-city-to-san-diego/",
                "http://bestwesterncalifornia.com/",
                "https://www.visitoakland.org/explore/101-things-to-do/",
                "http://www.travbuddy.com/California-popular-cities-p85",
                "http://www.bigbearlake.net/about-big-bear/facts",
                "http://www.bigbearvacations.com/experience/things-to-do"
            ],
            "closest_to": "",
            "latitude": "7.3480915",
            "address": "California, Santander, Colombia",
            "locType": "village"
        },
        "salem": {
            "longitude": "-84.4272385",
            "blogLinks": [
                "https://www.yelp.com/topic/san-francisco-driving-from-sf-to-portland-what-to-see-along-the-way"
            ],
            "closest_to": "",
            "latitude": "39.0652059",
            "address": "California, Cincinnati, Hamilton County, Ohio, United States of America",
            "locType": "suburb"
        },
        "north carolina": {
            "longitude": "-75.6804524",
            "blogLinks": [
                "https://www.yelp.com/topic/san-francisco-driving-from-sf-to-portland-what-to-see-along-the-way"
            ],
            "closest_to": "",
            "latitude": "35.9043367",
            "address": "California, Dare County, North Carolina, United States of America",
            "locType": "hamlet"
        }
    }
}