{
    "carlsbad": {
        "type": "city",
        "osm_id": "2305279",
        "class": "place",
        "importance": 0.66828891079931,
        "lat": "33.1580933",
        "lon": "-117.3505938",
        "boundingbox": [
            "33.0601812",
            "33.1824213",
            "-117.3588312",
            "-117.2162645"
        ],
        "display_name": "Carlsbad, San Diego County, California, United States of America",
        "licence": "Data \u00a9 OpenStreetMap contributors, ODbL 1.0. http://www.openstreetmap.org/copyright",
        "icon": "https://nominatim.openstreetmap.org/images/mapicons/poi_place_city.p.20.png",
        "place_id": "159570669",
        "osm_type": "relation"
    },
    "huntington beach": {
        "type": "city",
        "osm_id": "5986511",
        "class": "place",
        "importance": 0.77972866689719,
        "lat": "33.6783336",
        "lon": "-118.0000165",
        "boundingbox": [
            "33.628892",
            "33.7561955",
            "-118.0824699",
            "-117.940379"
        ],
        "display_name": "Huntington Beach, Orange County, California, United States of America",
        "licence": "Data \u00a9 OpenStreetMap contributors, ODbL 1.0. http://www.openstreetmap.org/copyright",
        "icon": "https://nominatim.openstreetmap.org/images/mapicons/poi_place_city.p.20.png",
        "place_id": "159846085",
        "osm_type": "relation"
    },
    "mentions": {
        "santa barbara california": {
            "latitude": "34.4221319",
            "closest_to": "",
            "address": "Santa Barbara, Santa Barbara County, California, United States of America",
            "locType": "city",
            "blogLinks": [
                "https://answers.yahoo.com/question/index?qid=20080530211242AArXWMD"
            ],
            "longitude": "-119.7026672"
        },
        "usa": {
            "latitude": "36.7014631",
            "closest_to": "",
            "address": "California, United States of America",
            "locType": "administrative",
            "blogLinks": [
                "http://www.distancesfrom.com/us/flight-distance-from-Carlsbad-to-Huntington-Beach/FlightHistory/18081104.aspx",
                "http://www.distancesfrom.com/us/travel-time-from-Carlsbad-to-Huntington-Beach/TravelTimeHistory/18081104.aspx",
                "http://www.distancesfrom.com/us/how-far-is-Huntington-Beach-from-Carlsbad/HowFarHistory/18081104.aspx",
                "http://www.distancesfrom.com/us/travel-from-Carlsbad-to-Huntington-Beach/TravelFromHistory/18081104.aspx"
            ],
            "longitude": "-118.7559973"
        },
        "ojai valley": {
            "latitude": "34.4480495",
            "closest_to": "",
            "address": "Ojai, Ventura County, California, United States of America",
            "locType": "city",
            "blogLinks": [
                "http://www.california-blog.com/"
            ],
            "longitude": "-119.2428889"
        },
        "mount san gorgonio ca": {
            "latitude": "33.9121294",
            "closest_to": "",
            "address": "San Gorgonio Avenue, Banning, Riverside County, California, 92220, United States of America",
            "locType": "secondary",
            "blogLinks": [
                "http://www.california-blog.com/"
            ],
            "longitude": "-116.8766731"
        },
        "mission bay ca": {
            "latitude": "37.7707742",
            "closest_to": "",
            "address": "Mission Bay, SF, California, 94158, United States of America",
            "locType": "neighbourhood",
            "blogLinks": [
                "http://www.california-blog.com/"
            ],
            "longitude": "-122.3911711"
        },
        "us": {
            "latitude": "36.7014631",
            "closest_to": "",
            "address": "California, United States of America",
            "locType": "administrative",
            "blogLinks": [
                "http://visitcarlsbad.com/",
                "http://distancecalculator.globefeed.com/US_Distance_Calculator.asp?state=CA"
            ],
            "longitude": "-118.7559973"
        },
        "alameda park": {
            "latitude": "34.4283605",
            "closest_to": "",
            "address": "Alameda Park (Alameda Plaza), Santa Barbara Street, Santa Barbara, Santa Barbara County, California, 93105, United States of America",
            "locType": "park",
            "blogLinks": [
                "https://answers.yahoo.com/question/index?qid=20080530211242AArXWMD"
            ],
            "longitude": "-119.704842654656"
        },
        "pebble beach ca": {
            "latitude": "36.5664874",
            "closest_to": "",
            "address": "Pebble Beach, Monterey County, California, United States of America",
            "locType": "hamlet",
            "blogLinks": [
                "http://www.california-blog.com/"
            ],
            "longitude": "-121.9466112"
        },
        "north lake ca": {
            "latitude": "37.76958295",
            "closest_to": "",
            "address": "North Lake, Chain of Lakes Drive East, Sunset District, SF, California, 94122, United States of America",
            "locType": "water",
            "blogLinks": [
                "http://www.california-blog.com/"
            ],
            "longitude": "-122.501983281136"
        },
        "huntington": {
            "latitude": "38.77704615",
            "closest_to": "",
            "address": "Huntington, Roseville, Placer County, California, 95678, United States of America",
            "locType": "residential",
            "blogLinks": [
                "http://www.distancesfrom.com/us/travel-from-Carlsbad-to-Long-Beach-CA-via-Huntington-Beach/TravelFromHistory/7982095.aspx",
                "https://www.tripadvisor.co.uk/ShowTopic-g60750-i41-k7905974-Carlsbad_or_Huntington_beach-San_Diego_California.html"
            ],
            "longitude": "-121.295904358288"
        },
        "fairfax": {
            "latitude": "37.9872935",
            "closest_to": "",
            "address": "Fairfax, Marin County, California, United States of America",
            "locType": "administrative",
            "blogLinks": [
                "https://answers.yahoo.com/question/index?qid=20080530211242AArXWMD"
            ],
            "longitude": "-122.5879673"
        },
        "pacific": {
            "latitude": "38.7601815",
            "closest_to": "",
            "address": "Pacific, El Dorado County, California, United States of America",
            "locType": "hamlet",
            "blogLinks": [
                "https://www.tripadvisor.com/Travel-g28926-c174834/California:United-States:Coast.Highway.Route.From.La.To.San.Diego.html",
                "https://answers.yahoo.com/question/index?qid=20080530211242AArXWMD"
            ],
            "longitude": "-120.507146"
        },
        "palos verdes drive": {
            "latitude": "37.5310595",
            "closest_to": "",
            "address": "Palos Verdes Drive, San Mateo, San Mateo County, California, 94403, United States of America",
            "locType": "residential",
            "blogLinks": [
                "https://www.tripadvisor.com/Travel-g28926-c174834/California:United-States:Coast.Highway.Route.From.La.To.San.Diego.html"
            ],
            "longitude": "-122.328956"
        },
        "griffith park": {
            "latitude": "38.68813",
            "closest_to": "",
            "address": "Griffith Park, Citrus Heights, Sacramento County, California, 95621, United States of America",
            "locType": "service",
            "blogLinks": [
                "https://answers.yahoo.com/question/index?qid=20080530211242AArXWMD"
            ],
            "longitude": "-121.3121659"
        },
        "mono lake ca": {
            "latitude": "38.0077189",
            "closest_to": "",
            "address": "Mono Lake, Mono County, California, United States of America",
            "locType": "water",
            "blogLinks": [
                "http://www.california-blog.com/"
            ],
            "longitude": "-118.967033937845"
        },
        "las vegas": {
            "latitude": "36.17310935",
            "closest_to": "",
            "address": "California Hotel, Sky Walk(Connection from Main Street to California, Cultural Corridor, Vegas Heights, Las Vegas, Clark County, Nevada, 89101, United States of America",
            "locType": "hotel",
            "blogLinks": [
                "https://www.tripadvisor.co.uk/ShowTopic-g60750-i41-k7905974-Carlsbad_or_Huntington_beach-San_Diego_California.html"
            ],
            "longitude": "-115.144667930325"
        },
        "santa barbara": {
            "latitude": "34.4221319",
            "closest_to": "",
            "address": "Santa Barbara, Santa Barbara County, California, United States of America",
            "locType": "city",
            "blogLinks": [
                "https://answers.yahoo.com/question/index?qid=20080530211242AArXWMD"
            ],
            "longitude": "-119.7026672"
        },
        "napa valley ca": {
            "latitude": "38.2972603",
            "closest_to": "",
            "address": "California Boulevard, Napa, Napa County, California, 94558, United States of America",
            "locType": "secondary",
            "blogLinks": [
                "http://www.california-blog.com/"
            ],
            "longitude": "-122.3002947"
        },
        "carpinteria": {
            "latitude": "34.3988838",
            "closest_to": "",
            "address": "Carpinteria, Santa Barbara County, California, United States of America",
            "locType": "city",
            "blogLinks": [
                "https://answers.yahoo.com/question/index?qid=20080530211242AArXWMD"
            ],
            "longitude": "-119.5184563"
        },
        "kern river": {
            "latitude": "36.6816956",
            "closest_to": "",
            "address": "Kern River, Tulare County, California, United States of America",
            "locType": "river",
            "blogLinks": [
                "http://www.california-blog.com/"
            ],
            "longitude": "-118.4124188"
        },
        "lincoln": {
            "latitude": "38.8598295",
            "closest_to": "",
            "address": "Lincoln, Placer County, California, United States of America",
            "locType": "city",
            "blogLinks": [
                "https://www.tripadvisor.com/Travel-g28926-c174834/California:United-States:Coast.Highway.Route.From.La.To.San.Diego.html"
            ],
            "longitude": "-121.342391957924"
        },
        "bubba gump": {
            "latitude": "36.61674695",
            "closest_to": "",
            "address": "Bubba Gump, 720, Cannery Row, Monterey, Monterey County, California, 93940, United States of America",
            "locType": "restaurant",
            "blogLinks": [
                "https://answers.yahoo.com/question/index?qid=20080530211242AArXWMD"
            ],
            "longitude": "-121.900200090787"
        },
        "united states": {
            "latitude": "36.7014631",
            "closest_to": "",
            "address": "California, United States of America",
            "locType": "administrative",
            "blogLinks": [
                "http://www.distancesfrom.com/us/travel-from-Huntington-Beach-to-Carlsbad/TravelFromHistory/8545692.aspx",
                "http://www.distancesfrom.com/us/distance-from-Carlsbad-to-Huntington-Beach/DistanceHistory/10502264.aspx"
            ],
            "longitude": "-118.7559973"
        },
        "newport": {
            "latitude": "39.5773839",
            "closest_to": "",
            "address": "Newport, Mendocino County, California, United States of America",
            "locType": "hamlet",
            "blogLinks": [
                "https://www.tripadvisor.co.uk/ShowTopic-g60750-i41-k7905974-Carlsbad_or_Huntington_beach-San_Diego_California.html"
            ],
            "longitude": "-123.7747387"
        },
        "hyatt": {
            "latitude": "37.794246",
            "closest_to": "",
            "address": "Hyatt Regency San Francisco, 5, Sacramento Street, Financial District, SF, California, 94111, United States of America",
            "locType": "hotel",
            "blogLinks": [
                "https://www.tripadvisor.co.uk/ShowTopic-g60750-i41-k7905974-Carlsbad_or_Huntington_beach-San_Diego_California.html"
            ],
            "longitude": "-122.395871093088"
        },
        "gaffey street": {
            "latitude": "36.9867714",
            "closest_to": "",
            "address": "Gaffey Creek, Santa Cruz County, California, United States of America",
            "locType": "stream",
            "blogLinks": [
                "https://www.tripadvisor.com/Travel-g28926-c174834/California:United-States:Coast.Highway.Route.From.La.To.San.Diego.html"
            ],
            "longitude": "-121.7234429"
        },
        "malibu": {
            "latitude": "33.7932142",
            "closest_to": "",
            "address": "Malibu, Palm Springs, Riverside County, California, 92264, United States of America",
            "locType": "residential",
            "blogLinks": [
                "https://www.tripadvisor.com/Travel-g28926-c174834/California:United-States:Coast.Highway.Route.From.La.To.San.Diego.html"
            ],
            "longitude": "-116.5023561"
        },
        "ca": {
            "latitude": "37.8242285466918",
            "closest_to": "",
            "address": "Piedmont, Alameda County, California, ca, United States of America",
            "locType": "postcode",
            "blogLinks": [
                "http://www.distancesfrom.com/us/how-far-is-Huntington-Beach-from-Carlsbad/HowFarHistory/18081104.aspx",
                "http://www.distancesfrom.com/us/travel-from-Carlsbad-to-Huntington-Beach/TravelFromHistory/18081104.aspx",
                "http://www.distancesfrom.com/us/flight-distance-from-Carlsbad-to-Huntington-Beach/FlightHistory/18081104.aspx",
                "http://www.distancesfrom.com/us/directions-from-Carlsbad-to-Huntington-Beach-CA/DirectionHistory/2360121.aspx",
                "http://www.distancesfrom.com/us/travel-time-from-Carlsbad-to-Huntington-Beach/TravelTimeHistory/18081104.aspx",
                "http://www.distancesfrom.com/us/travel-from-Huntington-Beach-to-Carlsbad/TravelFromHistory/8545692.aspx",
                "http://www.distancesfrom.com/us/distance-from-Carlsbad-to-Huntington-Beach/DistanceHistory/10502264.aspx"
            ],
            "longitude": "-122.232613735941"
        },
        "interstate freeway": {
            "latitude": "33.7269731",
            "closest_to": "",
            "address": "Interstate 10, Indio, Riverside County, California, 92201, United States of America",
            "locType": "motorway",
            "blogLinks": [
                "https://www.tripadvisor.com/Travel-g28926-c174834/California:United-States:Coast.Highway.Route.From.La.To.San.Diego.html"
            ],
            "longitude": "-116.2024855"
        },
        "chase palm park": {
            "latitude": "34.41527625",
            "closest_to": "",
            "address": "Chase Palm Park, East Cabrillo Boulevard, Santa Barbara, Santa Barbara County, California, 93103, United States of America",
            "locType": "park",
            "blogLinks": [
                "https://answers.yahoo.com/question/index?qid=20080530211242AArXWMD"
            ],
            "longitude": "-119.679267670006"
        },
        "la": {
            "latitude": "36.7014631",
            "closest_to": "",
            "address": "California, United States of America",
            "locType": "administrative",
            "blogLinks": [
                "https://www.tripadvisor.co.uk/ShowTopic-g60750-i41-k7905974-Carlsbad_or_Huntington_beach-San_Diego_California.html",
                "https://answers.yahoo.com/question/index?qid=20080530211242AArXWMD"
            ],
            "longitude": "-118.7559973"
        },
        "morro rock ca": {
            "latitude": "35.369669",
            "closest_to": "",
            "address": "Morro Rock, Morro Bay, San Luis Obispo County, California, United States of America",
            "locType": "peak",
            "blogLinks": [
                "http://www.california-blog.com/"
            ],
            "longitude": "-120.8676993"
        },
        "la valencia": {
            "latitude": "34.413819",
            "closest_to": "",
            "address": "Valencia, Santa Clarita, Los Angeles County, California, United States of America",
            "locType": "suburb",
            "blogLinks": [
                "https://www.tripadvisor.com/ShowTopic-g60750-i41-k5258665-Looking_for_a_town_to_visit_between_L_A_and_San_Diego-San_Diego_California.html"
            ],
            "longitude": "-118.5610377"
        },
        "morro bay ca": {
            "latitude": "35.3658075",
            "closest_to": "",
            "address": "Morro Bay, San Luis Obispo County, California, United States of America",
            "locType": "city",
            "blogLinks": [
                "http://www.california-blog.com/"
            ],
            "longitude": "-120.8499012"
        },
        "monterey peninsula ca": {
            "latitude": "36.5878734",
            "closest_to": "",
            "address": "Monterey Regional Airport, Airport Road, Seaside, Del Monte Heights, Monterey County, California, 93940, United States of America",
            "locType": "aerodrome",
            "blogLinks": [
                "http://www.california-blog.com/"
            ],
            "longitude": "-121.843618374407"
        },
        "mojave desert ca": {
            "latitude": "35.1456319",
            "closest_to": "",
            "address": "Mojave Desert, Utility Road, San Bernardino County, California, United States of America",
            "locType": "desert",
            "blogLinks": [
                "http://www.california-blog.com/"
            ],
            "longitude": "-115.548963686646"
        },
        "morongo valley": {
            "latitude": "34.0537585",
            "closest_to": "",
            "address": "Morongo Valley, Vista Drive, Morongo Valley, San Bernardino County, California, 92256, United States of America",
            "locType": "administrative",
            "blogLinks": [
                "http://www.california-blog.com/"
            ],
            "longitude": "-116.596723958419"
        },
        "monterey bay aquarium ca": {
            "latitude": "36.61809095",
            "closest_to": "",
            "address": "MBA, 886, Cannery Row, Monterey, Monterey County, California, 93940, United States of America",
            "locType": "aquarium",
            "blogLinks": [
                "http://www.california-blog.com/"
            ],
            "longitude": "-121.901680002002"
        },
        "california": {
            "latitude": "7.3480915",
            "closest_to": "",
            "address": "California, Santander, Colombia",
            "locType": "village",
            "blogLinks": [
                "https://www.tripadvisor.co.uk/ShowTopic-g60750-i41-k7905974-Carlsbad_or_Huntington_beach-San_Diego_California.html"
            ],
            "longitude": "-72.945787"
        },
        "garden st": {
            "latitude": "34.416549",
            "closest_to": "",
            "address": "Garden Street, Santa Barbara, Santa Barbara County, California, 93101, United States of America",
            "locType": "secondary",
            "blogLinks": [
                "https://answers.yahoo.com/question/index?qid=20080530211242AArXWMD"
            ],
            "longitude": "-119.6875199"
        },
        "el capitan": {
            "latitude": "41.8690059",
            "closest_to": "",
            "address": "El Capitan, Siskiyou County, California, United States of America",
            "locType": "peak",
            "blogLinks": [
                "https://answers.yahoo.com/question/index?qid=20080530211242AArXWMD"
            ],
            "longitude": "-123.6122864"
        },
        "tamarack": {
            "latitude": "38.4388012",
            "closest_to": "",
            "address": "Tamarack, Calaveras County, California, United States of America",
            "locType": "hamlet",
            "blogLinks": [
                "http://www.sandiego.org/what-to-do/beaches/carlsbad.aspx"
            ],
            "longitude": "-120.076021"
        },
        "laguna": {
            "latitude": "38.4210209",
            "closest_to": "",
            "address": "Laguna, Sacramento County, California, United States of America",
            "locType": "hamlet",
            "blogLinks": [
                "https://www.tripadvisor.com/ShowTopic-g60750-i41-k5258665-Looking_for_a_town_to_visit_between_L_A_and_San_Diego-San_Diego_California.html"
            ],
            "longitude": "-121.4238413"
        },
        "santa monica beach": {
            "latitude": "34.159111",
            "closest_to": "",
            "address": "Santa Monica Drive, Channel Islands Beach, Ventura County, California, 93035, United States of America",
            "locType": "residential",
            "blogLinks": [
                "https://answers.yahoo.com/question/index?qid=20080530211242AArXWMD"
            ],
            "longitude": "-119.2203179"
        },
        "power plant": {
            "latitude": "37.31525805",
            "closest_to": "",
            "address": "Power Plant, Leigh Avenue, Buena Vista, San Jos\u00e9, Santa Clara County, California, 95126, United States of America",
            "locType": "yes",
            "blogLinks": [
                "http://www.sandiego.org/what-to-do/beaches/carlsbad.aspx"
            ],
            "longitude": "-121.923997033574"
        },
        "palm springs air museum ca": {
            "latitude": "33.83250375",
            "closest_to": "",
            "address": "Palm Springs Air Museum, 745, North Gene Autry Trail, Palm Springs, Riverside County, California, 92262, United States of America",
            "locType": "museum",
            "blogLinks": [
                "http://www.california-blog.com/"
            ],
            "longitude": "-116.504677958796"
        }
    }
}