{
    "carlsbad": {
        "type": "city",
        "osm_id": "2305279",
        "class": "place",
        "importance": 0.66828891079931,
        "lat": "33.1580933",
        "lon": "-117.3505938",
        "boundingbox": [
            "33.0601812",
            "33.1824213",
            "-117.3588312",
            "-117.2162645"
        ],
        "display_name": "Carlsbad, San Diego County, California, United States of America",
        "licence": "Data \u00a9 OpenStreetMap contributors, ODbL 1.0. http://www.openstreetmap.org/copyright",
        "icon": "https://nominatim.openstreetmap.org/images/mapicons/poi_place_city.p.20.png",
        "place_id": "159570669",
        "osm_type": "relation"
    },
    "pasadena": {
        "type": "city",
        "osm_id": "3529725",
        "class": "place",
        "importance": 0.7778961552687,
        "lat": "34.1476452",
        "lon": "-118.1444778",
        "boundingbox": [
            "34.1172023",
            "34.251905",
            "-118.1981389",
            "-118.0654789"
        ],
        "display_name": "Pasadena, Los Angeles County, California, United States of America",
        "licence": "Data \u00a9 OpenStreetMap contributors, ODbL 1.0. http://www.openstreetmap.org/copyright",
        "icon": "https://nominatim.openstreetmap.org/images/mapicons/poi_place_city.p.20.png",
        "place_id": "159486921",
        "osm_type": "relation"
    },
    "mentions": {
        "montana de oro state park": {
            "latitude": "35.2714109",
            "closest_to": "",
            "address": "Montana de Oro State Park, San Luis Obispo County, California, United States of America",
            "locType": "track",
            "blogLinks": [
                "https://blog.trekaroo.com/california-dreaming-road-trip-from-san-francisco-to-los-angeles/"
            ],
            "longitude": "-120.8888312"
        },
        "pacific": {
            "latitude": "38.7601815",
            "closest_to": "",
            "address": "Pacific, El Dorado County, California, United States of America",
            "locType": "hamlet",
            "blogLinks": [
                "https://www.tripadvisor.com/ShowTopic-g28926-i29-k7384025-Sights_between_Los_Angeles_and_San_Diego-California.html"
            ],
            "longitude": "-120.507146"
        },
        "pebble beach ca": {
            "latitude": "36.5664874",
            "closest_to": "",
            "address": "Pebble Beach, Monterey County, California, United States of America",
            "locType": "hamlet",
            "blogLinks": [
                "http://www.california-blog.com/"
            ],
            "longitude": "-121.9466112"
        },
        "solvang": {
            "latitude": "34.5958572",
            "closest_to": "",
            "address": "Solvang, Santa Barbara County, California, United States of America",
            "locType": "city",
            "blogLinks": [
                "https://blog.trekaroo.com/california-dreaming-road-trip-from-san-francisco-to-los-angeles/"
            ],
            "longitude": "-120.1390893"
        },
        "santa barbara": {
            "latitude": "34.4221319",
            "closest_to": "",
            "address": "Santa Barbara, Santa Barbara County, California, United States of America",
            "locType": "city",
            "blogLinks": [
                "https://blog.trekaroo.com/california-dreaming-road-trip-from-san-francisco-to-los-angeles/",
                "https://www.yelp.com/biz/amtrak-pacific-surfliner-los-angeles"
            ],
            "longitude": "-119.7026672"
        },
        "mexico": {
            "latitude": "28.973",
            "closest_to": "",
            "address": "California, Hermosillo, Sonora, M\u00e9xico",
            "locType": "village",
            "blogLinks": [
                "https://www.tripadvisor.com/ShowTopic-g28926-i29-k7384025-Sights_between_Los_Angeles_and_San_Diego-California.html",
                "https://www.tripadvisor.com/ShowTopic-g28926-i29-k7870733-Great_places_to_stop_and_see_between_San_Diego_and_LA-California.html",
                "http://sandiegan.com/carlsbad/",
                "https://www.virtualtourist.com/travel/North_America/United_States_of_America/California/Things_To_Do-California-TG-C-1.html"
            ],
            "longitude": "-111.8196666"
        },
        "norway": {
            "latitude": "38.8246295",
            "closest_to": "",
            "address": "Little Norway, El Dorado County, California, United States of America",
            "locType": "hamlet",
            "blogLinks": [
                "https://blog.trekaroo.com/california-dreaming-road-trip-from-san-francisco-to-los-angeles/"
            ],
            "longitude": "-120.0365723"
        },
        "la": {
            "latitude": "36.7014631",
            "closest_to": "",
            "address": "California, United States of America",
            "locType": "administrative",
            "blogLinks": [
                "https://www.tripadvisor.com/ShowTopic-g28926-i29-k7384025-Sights_between_Los_Angeles_and_San_Diego-California.html",
                "https://blog.trekaroo.com/california-dreaming-road-trip-from-san-francisco-to-los-angeles/",
                "https://www.yelp.com/biz/amtrak-pacific-surfliner-los-angeles",
                "http://visitcarlsbad.com/"
            ],
            "longitude": "-118.7559973"
        },
        "el captain": {
            "latitude": "39.9234913",
            "closest_to": "",
            "address": "Captain Jones Rapids, Tehama County, California, United States of America",
            "locType": "rapids",
            "blogLinks": [
                "https://www.virtualtourist.com/travel/North_America/United_States_of_America/California/Things_To_Do-California-TG-C-1.html"
            ],
            "longitude": "-122.0827639"
        },
        "slovenia": {
            "latitude": "46.0089086",
            "closest_to": "",
            "address": "California, 3, Pre\u0161ernova ulica, Sevnica, Lower Sava Statistical Region, 8920, Slovenija",
            "locType": "clothes",
            "blogLinks": [
                "http://www.distancesfrom.com/us/distance-from-Pasadena-to-Carlsbad-CA/DistanceHistory/3224407.aspx"
            ],
            "longitude": "15.3044842"
        },
        "morro rock ca": {
            "latitude": "35.369669",
            "closest_to": "",
            "address": "Morro Rock, Morro Bay, San Luis Obispo County, California, United States of America",
            "locType": "peak",
            "blogLinks": [
                "http://www.california-blog.com/"
            ],
            "longitude": "-120.8676993"
        },
        "mammoth lakes": {
            "latitude": "37.6432525",
            "closest_to": "",
            "address": "Mammoth Lakes, Mono County, California, United States of America",
            "locType": "administrative",
            "blogLinks": [
                "https://www.virtualtourist.com/travel/North_America/United_States_of_America/California/Things_To_Do-California-TG-C-1.html"
            ],
            "longitude": "-118.9668508"
        },
        "paseo del norte": {
            "latitude": "38.765509",
            "closest_to": "",
            "address": "Paseo Del Norte, Roseville, Placer County, California, 95747, United States of America",
            "locType": "residential",
            "blogLinks": [
                "http://sandiegan.com/carlsbad/"
            ],
            "longitude": "-121.353513978876"
        },
        "mission bay ca": {
            "latitude": "37.7707742",
            "closest_to": "",
            "address": "Mission Bay, SF, California, 94158, United States of America",
            "locType": "neighbourhood",
            "blogLinks": [
                "http://www.california-blog.com/"
            ],
            "longitude": "-122.3911711"
        },
        "prague": {
            "latitude": "37.722053",
            "closest_to": "",
            "address": "Prague Street, Crocker-Amazon, SF, California, 94112, United States of America",
            "locType": "residential",
            "blogLinks": [
                "http://karolinapatryk.com/karlovy-vary-travel-guide/"
            ],
            "longitude": "-122.4248479"
        },
        "lake isabella": {
            "latitude": "35.637646",
            "closest_to": "",
            "address": "Lake Isabella, Keyesville Road, Kern County, California, 93240, United States of America",
            "locType": "administrative",
            "blogLinks": [
                "https://www.virtualtourist.com/travel/North_America/United_States_of_America/California/Things_To_Do-California-TG-C-1.html"
            ],
            "longitude": "-118.484657714814"
        },
        "washington": {
            "latitude": "40.0657724",
            "closest_to": "",
            "address": "California, Washington County, Pennsylvania, United States of America",
            "locType": "administrative",
            "blogLinks": [
                "https://blog.trekaroo.com/california-dreaming-road-trip-from-san-francisco-to-los-angeles/"
            ],
            "longitude": "-79.8918435"
        },
        "oakland": {
            "latitude": "37.8044557",
            "closest_to": "",
            "address": "Oakland, Alameda County, California, United States of America",
            "locType": "city",
            "blogLinks": [
                "https://www.virtualtourist.com/travel/North_America/United_States_of_America/California/Things_To_Do-California-TG-C-1.html"
            ],
            "longitude": "-122.2713562"
        },
        "monterey": {
            "latitude": "36.5844165",
            "closest_to": "",
            "address": "Monterey, Monterey County, California, United States of America",
            "locType": "city",
            "blogLinks": [
                "https://blog.trekaroo.com/california-dreaming-road-trip-from-san-francisco-to-los-angeles/"
            ],
            "longitude": "-121.866792846206"
        },
        "lone pine": {
            "latitude": "36.583176",
            "closest_to": "",
            "address": "Lone Pine, Tuttle Creek Road, Alabama Hills, Inyo County, California, 93545, United States of America",
            "locType": "administrative",
            "blogLinks": [
                "https://www.virtualtourist.com/travel/North_America/United_States_of_America/California/Things_To_Do-California-TG-C-1.html"
            ],
            "longitude": "-118.078359194897"
        },
        "north lake ca": {
            "latitude": "37.76958295",
            "closest_to": "",
            "address": "North Lake, Chain of Lakes Drive East, Sunset District, SF, California, 94122, United States of America",
            "locType": "water",
            "blogLinks": [
                "http://www.california-blog.com/"
            ],
            "longitude": "-122.501983281136"
        },
        "west virginia": {
            "latitude": "38.3380347",
            "closest_to": "",
            "address": "California Avenue, Charleston, Kanawha County, West Virginia, 25311, United States of America",
            "locType": "residential",
            "blogLinks": [
                "https://www.virtualtourist.com/travel/North_America/United_States_of_America/California/Things_To_Do-California-TG-C-1.html"
            ],
            "longitude": "-81.6097297"
        },
        "us": {
            "latitude": "36.7014631",
            "closest_to": "",
            "address": "California, United States of America",
            "locType": "administrative",
            "blogLinks": [
                "https://www.tripadvisor.com/ShowTopic-g28926-i29-k7384025-Sights_between_Los_Angeles_and_San_Diego-California.html",
                "https://www.tripadvisor.com/ShowTopic-g28926-i29-k7870733-Great_places_to_stop_and_see_between_San_Diego_and_LA-California.html",
                "http://distancecalculator.globefeed.com/US_Distance_Calculator.asp?state=CA",
                "http://www.distancesfrom.com/us/travel-from-Carlsbad-to-Pasadena-CA/TravelFromHistory/2851241.aspx",
                "https://www.virtualtourist.com/travel/North_America/United_States_of_America/California/Things_To_Do-California-TG-C-1.html"
            ],
            "longitude": "-118.7559973"
        },
        "san francisco de solano": {
            "latitude": "38.21389995",
            "closest_to": "",
            "address": "California Missions Museum, Arnold Drive, McGill, Sonoma County, California, United States of America",
            "locType": "museum",
            "blogLinks": [
                "https://www.virtualtourist.com/travel/North_America/United_States_of_America/California/Things_To_Do-California-TG-C-1.html"
            ],
            "longitude": "-122.458560315194"
        },
        "peru": {
            "latitude": "-13.6784168",
            "closest_to": "",
            "address": "California, Andahuaylas, Apur\u00edmac, Per\u00fa",
            "locType": "village",
            "blogLinks": [
                "https://blog.trekaroo.com/california-dreaming-road-trip-from-san-francisco-to-los-angeles/"
            ],
            "longitude": "-73.0512911"
        },
        "karlsbad": {
            "latitude": "32.3935556",
            "closest_to": "",
            "address": "California Street, Carlsbad, Eddy County, New Mexico, 88220, United States of America",
            "locType": "residential",
            "blogLinks": [
                "http://karolinapatryk.com/karlovy-vary-travel-guide/"
            ],
            "longitude": "-104.2359248"
        },
        "s.d.": {
            "latitude": "44.359674",
            "closest_to": "",
            "address": "California Avenue Southwest, Huron, Beadle County, South Dakota, 57350, United States of America",
            "locType": "residential",
            "blogLinks": [
                "https://www.yelp.com/biz/amtrak-pacific-surfliner-los-angeles"
            ],
            "longitude": "-98.2151039"
        },
        "cambria": {
            "latitude": "35.5641381",
            "closest_to": "",
            "address": "Cambria, San Luis Obispo County, California, United States of America",
            "locType": "administrative",
            "blogLinks": [
                "https://blog.trekaroo.com/california-dreaming-road-trip-from-san-francisco-to-los-angeles/"
            ],
            "longitude": "-121.0807467"
        },
        "monterey bay": {
            "latitude": "36.7999557",
            "closest_to": "",
            "address": "Monterey Bay, Monterey County, California, United States of America",
            "locType": "bay",
            "blogLinks": [
                "https://blog.trekaroo.com/california-dreaming-road-trip-from-san-francisco-to-los-angeles/"
            ],
            "longitude": "-121.9010667"
        },
        "glacier point": {
            "latitude": "37.499192",
            "closest_to": "",
            "address": "Glacier Point, Darrah, Mariposa County, California, 95338, United States of America",
            "locType": "residential",
            "blogLinks": [
                "https://www.virtualtourist.com/travel/North_America/United_States_of_America/California/Things_To_Do-California-TG-C-1.html"
            ],
            "longitude": "-119.8282379"
        },
        "kern river valley": {
            "latitude": "36.6816956",
            "closest_to": "",
            "address": "Kern River, Tulare County, California, United States of America",
            "locType": "river",
            "blogLinks": [
                "https://www.virtualtourist.com/travel/North_America/United_States_of_America/California/Things_To_Do-California-TG-C-1.html"
            ],
            "longitude": "-118.4124188"
        },
        "mono lake ca": {
            "latitude": "38.0077189",
            "closest_to": "",
            "address": "Mono Lake, Mono County, California, United States of America",
            "locType": "water",
            "blogLinks": [
                "http://www.california-blog.com/"
            ],
            "longitude": "-118.967033937845"
        },
        "western united states": {
            "latitude": "36.615671",
            "closest_to": "",
            "address": "Western, San Benito County, California, United States of America",
            "locType": "residential",
            "blogLinks": [
                "https://blog.trekaroo.com/california-dreaming-road-trip-from-san-francisco-to-los-angeles/"
            ],
            "longitude": "-121.0670829"
        },
        "central coast": {
            "latitude": "35.3611193",
            "closest_to": "",
            "address": "Central Coast Street, Bakersfield, Kern County, California, 93314, United States of America",
            "locType": "residential",
            "blogLinks": [
                "https://blog.trekaroo.com/california-dreaming-road-trip-from-san-francisco-to-los-angeles/"
            ],
            "longitude": "-119.1665989"
        },
        "fulton mall": {
            "latitude": "36.73552975",
            "closest_to": "",
            "address": "Fulton Mall, Fresno County, California, 93701, United States of America",
            "locType": "commercial",
            "blogLinks": [
                "https://www.virtualtourist.com/travel/North_America/United_States_of_America/California/Things_To_Do-California-TG-C-1.html"
            ],
            "longitude": "-119.791520463653"
        },
        "south lake tahoe": {
            "latitude": "38.929125",
            "closest_to": "",
            "address": "South Lake Tahoe, El Dorado County, California, United States of America",
            "locType": "city",
            "blogLinks": [
                "https://www.virtualtourist.com/travel/North_America/United_States_of_America/California/Things_To_Do-California-TG-C-1.html"
            ],
            "longitude": "-119.987846390157"
        },
        "napa valley ca": {
            "latitude": "38.2972603",
            "closest_to": "",
            "address": "California Boulevard, Napa, Napa County, California, 94558, United States of America",
            "locType": "secondary",
            "blogLinks": [
                "http://www.california-blog.com/"
            ],
            "longitude": "-122.3002947"
        },
        "sierra nevada": {
            "latitude": "39.097593",
            "closest_to": "",
            "address": "Sierra, Wolf, Nevada County, California, 95949, United States of America",
            "locType": "residential",
            "blogLinks": [
                "https://www.virtualtourist.com/travel/North_America/United_States_of_America/California/Things_To_Do-California-TG-C-1.html"
            ],
            "longitude": "-121.1396689"
        },
        "monterey bay aquarium": {
            "latitude": "36.61809095",
            "closest_to": "",
            "address": "MBA, 886, Cannery Row, Monterey, Monterey County, California, 93940, United States of America",
            "locType": "aquarium",
            "blogLinks": [
                "https://blog.trekaroo.com/california-dreaming-road-trip-from-san-francisco-to-los-angeles/"
            ],
            "longitude": "-121.901680002002"
        },
        "grand avenue": {
            "latitude": "34.10718",
            "closest_to": "",
            "address": "Grand Avenue, Yucca Valley, San Bernardino County, California, 92284, United States of America",
            "locType": "residential",
            "blogLinks": [
                "http://sandiegan.com/carlsbad/"
            ],
            "longitude": "-116.4257794"
        },
        "benicia": {
            "latitude": "38.049365",
            "closest_to": "",
            "address": "Benicia, Solano County, California, United States of America",
            "locType": "administrative",
            "blogLinks": [
                "https://www.virtualtourist.com/travel/North_America/United_States_of_America/California/Things_To_Do-California-TG-C-1.html"
            ],
            "longitude": "-122.1585776"
        },
        "lake crowley": {
            "latitude": "37.61903895",
            "closest_to": "",
            "address": "Lake Crowley, Layton Springs Road, North Landing, Mono County, California, United States of America",
            "locType": "water",
            "blogLinks": [
                "https://www.virtualtourist.com/travel/North_America/United_States_of_America/California/Things_To_Do-California-TG-C-1.html"
            ],
            "longitude": "-118.731056945814"
        },
        "north county": {
            "latitude": "39.7452174",
            "closest_to": "",
            "address": "California, 16th Street, Upper Downtown, Denver, Denver County, Colorado, 80211, United States of America",
            "locType": "bus_stop",
            "blogLinks": [
                "http://sandiegan.com/carlsbad/"
            ],
            "longitude": "-104.992379"
        },
        "owens river": {
            "latitude": "37.4100005",
            "closest_to": "",
            "address": "Owens River, Inyo County, California, United States of America",
            "locType": "river",
            "blogLinks": [
                "https://www.virtualtourist.com/travel/North_America/United_States_of_America/California/Things_To_Do-California-TG-C-1.html"
            ],
            "longitude": "-118.3819013"
        },
        "sacramento": {
            "latitude": "38.5815719",
            "closest_to": "",
            "address": "Sacramento, Sacramento County, California, United States of America",
            "locType": "city",
            "blogLinks": [
                "https://www.virtualtourist.com/travel/North_America/United_States_of_America/California/Things_To_Do-California-TG-C-1.html"
            ],
            "longitude": "-121.4943995"
        },
        "ca": {
            "latitude": "37.8242285466918",
            "closest_to": "",
            "address": "Piedmont, Alameda County, California, ca, United States of America",
            "locType": "postcode",
            "blogLinks": [
                "https://blog.trekaroo.com/california-dreaming-road-trip-from-san-francisco-to-los-angeles/"
            ],
            "longitude": "-122.232613735941"
        },
        "carolina": {
            "latitude": "35.9043367",
            "closest_to": "",
            "address": "California, Dare County, North Carolina, United States of America",
            "locType": "hamlet",
            "blogLinks": [
                "https://blog.trekaroo.com/california-dreaming-road-trip-from-san-francisco-to-los-angeles/"
            ],
            "longitude": "-75.6804524"
        },
        "united states": {
            "latitude": "36.7014631",
            "closest_to": "",
            "address": "California, United States of America",
            "locType": "administrative",
            "blogLinks": [
                "https://blog.trekaroo.com/california-dreaming-road-trip-from-san-francisco-to-los-angeles/",
                "https://www.yelp.com/biz/amtrak-pacific-surfliner-los-angeles",
                "http://sandiegan.com/carlsbad/",
                "http://www.distancesfrom.com/us/travel-from-Pasadena-to-Legoland-Drive-Carlsbad/TravelFromHistory/10012114.aspx"
            ],
            "longitude": "-118.7559973"
        },
        "san francisco": {
            "latitude": "37.7792808",
            "closest_to": "",
            "address": "SF, California, United States of America",
            "locType": "city",
            "blogLinks": [
                "https://blog.trekaroo.com/california-dreaming-road-trip-from-san-francisco-to-los-angeles/"
            ],
            "longitude": "-122.4192362"
        },
        "sierra": {
            "latitude": "39.5849065",
            "closest_to": "",
            "address": "Sierra County, California, United States of America",
            "locType": "administrative",
            "blogLinks": [
                "https://www.virtualtourist.com/travel/North_America/United_States_of_America/California/Things_To_Do-California-TG-C-1.html"
            ],
            "longitude": "-120.530573"
        },
        "san antonio": {
            "latitude": "38.1838069",
            "closest_to": "",
            "address": "San Antonio, Marin County, California, United States of America",
            "locType": "hamlet",
            "blogLinks": [
                "https://www.yelp.com/biz/amtrak-pacific-surfliner-los-angeles"
            ],
            "longitude": "-122.5913722"
        },
        "monterey peninsula": {
            "latitude": "36.5878734",
            "closest_to": "",
            "address": "Monterey Regional Airport, Airport Road, Seaside, Del Monte Heights, Monterey County, California, 93940, United States of America",
            "locType": "aerodrome",
            "blogLinks": [
                "https://blog.trekaroo.com/california-dreaming-road-trip-from-san-francisco-to-los-angeles/"
            ],
            "longitude": "-121.843618374407"
        },
        "grand ave.": {
            "latitude": "34.10718",
            "closest_to": "",
            "address": "Grand Avenue, Yucca Valley, San Bernardino County, California, 92284, United States of America",
            "locType": "residential",
            "blogLinks": [
                "http://sandiegan.com/carlsbad/"
            ],
            "longitude": "-116.4257794"
        },
        "moscow": {
            "latitude": "37.7131859",
            "closest_to": "",
            "address": "Moscow Street, Crocker-Amazon, SF, California, 94112, United States of America",
            "locType": "residential",
            "blogLinks": [
                "http://karolinapatryk.com/karlovy-vary-travel-guide/"
            ],
            "longitude": "-122.4337084"
        },
        "hawaii": {
            "latitude": "36.8347819",
            "closest_to": "",
            "address": "Hawaii, Fresno County, California, 93650, United States of America",
            "locType": "service",
            "blogLinks": [
                "https://blog.trekaroo.com/california-dreaming-road-trip-from-san-francisco-to-los-angeles/"
            ],
            "longitude": "-119.7966952"
        },
        "pismo beach": {
            "latitude": "35.1427533",
            "closest_to": "",
            "address": "Pismo Beach, San Luis Obispo County, California, United States of America",
            "locType": "city",
            "blogLinks": [
                "https://blog.trekaroo.com/california-dreaming-road-trip-from-san-francisco-to-los-angeles/"
            ],
            "longitude": "-120.6412826"
        },
        "europe": {
            "latitude": "37.3491727",
            "closest_to": "",
            "address": "Europe Court, Santa Clara, Santa Clara County, California, 95051, United States of America",
            "locType": "residential",
            "blogLinks": [
                "https://www.yelp.com/biz/amtrak-pacific-surfliner-los-angeles"
            ],
            "longitude": "-121.9980641"
        },
        "la county": {
            "latitude": "10.94592975",
            "closest_to": "",
            "address": "California, Barranquilla, Atl\u00e1ntico, Colombia",
            "locType": "administrative",
            "blogLinks": [
                "https://www.tripadvisor.com/ShowTopic-g28926-i29-k7870733-Great_places_to_stop_and_see_between_San_Diego_and_LA-California.html"
            ],
            "longitude": "-74.8261348940972"
        },
        "winchester blvd": {
            "latitude": "37.2573553",
            "closest_to": "",
            "address": "Winchester Boulevard, Los Gatos, Santa Clara County, California, 95030, United States of America",
            "locType": "primary",
            "blogLinks": [
                "https://www.virtualtourist.com/travel/North_America/United_States_of_America/California/Things_To_Do-California-TG-C-1.html"
            ],
            "longitude": "-121.965075"
        },
        "chase palm park": {
            "latitude": "34.41527625",
            "closest_to": "",
            "address": "Chase Palm Park, East Cabrillo Boulevard, Santa Barbara, Santa Barbara County, California, 93103, United States of America",
            "locType": "park",
            "blogLinks": [
                "https://blog.trekaroo.com/california-dreaming-road-trip-from-san-francisco-to-los-angeles/"
            ],
            "longitude": "-119.679267670006"
        },
        "emerald bay": {
            "latitude": "38.9599078",
            "closest_to": "",
            "address": "Emerald Bay, El Dorado County, California, United States of America",
            "locType": "hamlet",
            "blogLinks": [
                "https://www.virtualtourist.com/travel/North_America/United_States_of_America/California/Things_To_Do-California-TG-C-1.html"
            ],
            "longitude": "-120.0979629"
        },
        "pacific grove": {
            "latitude": "36.6174432",
            "closest_to": "",
            "address": "Pacific Grove, Monterey County, California, United States of America",
            "locType": "city",
            "blogLinks": [
                "https://blog.trekaroo.com/california-dreaming-road-trip-from-san-francisco-to-los-angeles/"
            ],
            "longitude": "-121.9155905"
        },
        "san luis obispo": {
            "latitude": "35.2827525",
            "closest_to": "",
            "address": "San Luis Obispo, San Luis Obispo County, California, United States of America",
            "locType": "city",
            "blogLinks": [
                "https://www.yelp.com/biz/amtrak-pacific-surfliner-los-angeles",
                "http://www.distancesfrom.com/us/distance-from-Pasadena-to-Carlsbad-CA/DistanceHistory/3224407.aspx",
                "http://www.distancesfrom.com/us/travel-from-Pasadena-to-Legoland-Drive-Carlsbad/TravelFromHistory/10012114.aspx"
            ],
            "longitude": "-120.6596155"
        },
        "fresno": {
            "latitude": "36.748793",
            "closest_to": "",
            "address": "Fresno, Fresno County, California, United States of America",
            "locType": "city",
            "blogLinks": [
                "https://www.virtualtourist.com/travel/North_America/United_States_of_America/California/Things_To_Do-California-TG-C-1.html"
            ],
            "longitude": "-119.714839601149"
        },
        "czech republic": {
            "latitude": "50.0769873",
            "closest_to": "",
            "address": "Sushi California, 8, N\u00e1plavn\u00ed, Nov\u00e9 M\u011bsto, Praha, okres Hlavn\u00ed m\u011bsto Praha, Hlavn\u00ed m\u011bsto Praha, Praha, 12000, \u010cesko",
            "locType": "restaurant",
            "blogLinks": [
                "http://karolinapatryk.com/karlovy-vary-travel-guide/"
            ],
            "longitude": "14.4153452"
        },
        "east berlin": {
            "latitude": "37.7914627",
            "closest_to": "",
            "address": "Berlin Way, Dimond District, Oakland, Alameda County, California, 94602, United States of America",
            "locType": "residential",
            "blogLinks": [
                "https://www.yelp.com/biz/amtrak-pacific-surfliner-los-angeles"
            ],
            "longitude": "-122.2096608"
        },
        "morro bay ca": {
            "latitude": "35.3658075",
            "closest_to": "",
            "address": "Morro Bay, San Luis Obispo County, California, United States of America",
            "locType": "city",
            "blogLinks": [
                "http://www.california-blog.com/"
            ],
            "longitude": "-120.8499012"
        },
        "monterey peninsula ca": {
            "latitude": "36.5878734",
            "closest_to": "",
            "address": "Monterey Regional Airport, Airport Road, Seaside, Del Monte Heights, Monterey County, California, 93940, United States of America",
            "locType": "aerodrome",
            "blogLinks": [
                "http://www.california-blog.com/"
            ],
            "longitude": "-121.843618374407"
        },
        "mojave desert ca": {
            "latitude": "35.1456319",
            "closest_to": "",
            "address": "Mojave Desert, Utility Road, San Bernardino County, California, United States of America",
            "locType": "desert",
            "blogLinks": [
                "http://www.california-blog.com/"
            ],
            "longitude": "-115.548963686646"
        },
        "monterey bay aquarium ca": {
            "latitude": "36.61809095",
            "closest_to": "",
            "address": "MBA, 886, Cannery Row, Monterey, Monterey County, California, 93940, United States of America",
            "locType": "aquarium",
            "blogLinks": [
                "http://www.california-blog.com/"
            ],
            "longitude": "-121.901680002002"
        },
        "washington , dc": {
            "latitude": "38.915572",
            "closest_to": "",
            "address": "California Street Northwest, Kalorama Heights, Washington, District of Columbia, 20008, United States of America",
            "locType": "residential",
            "blogLinks": [
                "https://www.virtualtourist.com/travel/North_America/United_States_of_America/California/Things_To_Do-California-TG-C-1.html"
            ],
            "longitude": "-77.0526014"
        },
        "california": {
            "latitude": "7.3480915",
            "closest_to": "",
            "address": "California, Santander, Colombia",
            "locType": "village",
            "blogLinks": [
                "https://www.yelp.com/biz/amtrak-pacific-surfliner-los-angeles",
                "http://distancecalculator.globefeed.com/US_Distance_Calculator.asp?state=CA",
                "http://www.timeanddate.com/worldclock/distances.html?n=770",
                "http://www.california-blog.com/",
                "http://carlsbad-village.com/",
                "http://sandiegan.com/carlsbad/",
                "https://www.virtualtourist.com/travel/North_America/United_States_of_America/California/Things_To_Do-California-TG-C-1.html",
                "https://blog.trekaroo.com/california-dreaming-road-trip-from-san-francisco-to-los-angeles/",
                "http://visitcarlsbad.com/",
                "https://www.tripadvisor.com/ShowTopic-g28926-i29-k7870733-Great_places_to_stop_and_see_between_San_Diego_and_LA-California.html"
            ],
            "longitude": "-72.945787"
        },
        "italy": {
            "latitude": "45.659844",
            "closest_to": "",
            "address": "California, MB, LOM, Italia",
            "locType": "village",
            "blogLinks": [
                "https://www.yelp.com/biz/amtrak-pacific-surfliner-los-angeles"
            ],
            "longitude": "9.3130453"
        },
        "new mexico": {
            "latitude": "32.2644096",
            "closest_to": "",
            "address": "California Lateral, Mesilla, Do\u00f1a Ana County, New Mexico, United States of America",
            "locType": "drain",
            "blogLinks": [
                "http://www.yellowpages.com/carlsbad-nm/la-pasadena"
            ],
            "longitude": "-106.8036705"
        },
        "santa cruz wharf": {
            "latitude": "36.9604473",
            "closest_to": "",
            "address": "Santa Cruz Bay Company, Municipal Wharf, Beach & Boardwalk District (Commercial), Downtown, Santa Cruz, Santa Cruz County, California, 95060, United States of America",
            "locType": "gift",
            "blogLinks": [
                "https://www.virtualtourist.com/travel/North_America/United_States_of_America/California/Things_To_Do-California-TG-C-1.html"
            ],
            "longitude": "-122.0205393"
        },
        "america": {
            "latitude": "36.2573198",
            "closest_to": "",
            "address": "America, Kings County, California, 93246, United States of America",
            "locType": "residential",
            "blogLinks": [
                "https://www.virtualtourist.com/travel/North_America/United_States_of_America/California/Things_To_Do-California-TG-C-1.html"
            ],
            "longitude": "-119.8948706"
        },
        "kern river": {
            "latitude": "36.6816956",
            "closest_to": "",
            "address": "Kern River, Tulare County, California, United States of America",
            "locType": "river",
            "blogLinks": [
                "http://www.california-blog.com/"
            ],
            "longitude": "-118.4124188"
        },
        "carmel": {
            "latitude": "38.75511285",
            "closest_to": "",
            "address": "Carmel, Roseville, Placer County, California, 95747, United States of America",
            "locType": "residential",
            "blogLinks": [
                "http://distancecalculator.globefeed.com/US_Distance_Calculator.asp?state=CA"
            ],
            "longitude": "-121.353308848273"
        },
        "laguna": {
            "latitude": "38.4210209",
            "closest_to": "",
            "address": "Laguna, Sacramento County, California, United States of America",
            "locType": "hamlet",
            "blogLinks": [
                "https://www.tripadvisor.com/ShowTopic-g28926-i29-k7870733-Great_places_to_stop_and_see_between_San_Diego_and_LA-California.html"
            ],
            "longitude": "-121.4238413"
        },
        "hotel derby": {
            "latitude": "37.3343828",
            "closest_to": "",
            "address": "Hotel De Anza, 233, West Santa Clara Street, Little Italy, Japantown, San Jos\u00e9, Santa Clara County, California, 95113, United States of America",
            "locType": "hotel",
            "blogLinks": [
                "http://karolinapatryk.com/karlovy-vary-travel-guide/"
            ],
            "longitude": "-121.895065751971"
        },
        "pfeiffer big sur state park": {
            "latitude": "36.25330545",
            "closest_to": "",
            "address": "Pfeiffer Big Sur State Park, Valley View Trail, Big Sur, Monterey County, California, United States of America",
            "locType": "park",
            "blogLinks": [
                "https://blog.trekaroo.com/california-dreaming-road-trip-from-san-francisco-to-los-angeles/"
            ],
            "longitude": "-121.783295208903"
        },
        "mammoth creek": {
            "latitude": "37.6055761",
            "closest_to": "",
            "address": "Mammoth Creek, Mammoth Lakes, Mono County, California, United States of America",
            "locType": "stream",
            "blogLinks": [
                "https://www.virtualtourist.com/travel/North_America/United_States_of_America/California/Things_To_Do-California-TG-C-1.html"
            ],
            "longitude": "-119.0090048"
        }
    }
}