{
    "virajpet": {
        "lat": "12.1972711",
        "class": "place",
        "importance": 0.5,
        "osm_type": "node",
        "lon": "75.8033421",
        "place_id": "3770481",
        "display_name": "Virajpet, Virajpet taluk, Kodagu, Karnataka, 571218, India",
        "osm_id": "412854951",
        "boundingbox": [
            "12.1572711",
            "12.2372711",
            "75.7633421",
            "75.8433421"
        ],
        "type": "town",
        "licence": "Data \u00a9 OpenStreetMap contributors, ODbL 1.0. http://www.openstreetmap.org/copyright",
        "icon": "https://nominatim.openstreetmap.org/images/mapicons/poi_place_town.p.20.png"
    },
    "chikmagalur": {
        "lat": "13.5",
        "class": "place",
        "importance": 0.65,
        "osm_type": "node",
        "lon": "75.5",
        "place_id": "1426840",
        "display_name": "Chikmagalur, Chikkamagaluru district, Karnataka, India",
        "osm_id": "316417001",
        "boundingbox": [
            "12.86",
            "14.14",
            "74.86",
            "76.14"
        ],
        "type": "county",
        "licence": "Data \u00a9 OpenStreetMap contributors, ODbL 1.0. http://www.openstreetmap.org/copyright",
        "icon": "https://nominatim.openstreetmap.org/images/mapicons/poi_boundary_administrative.p.20.png"
    },
    "mentions": {
        "jaladarshini": {
            "blogLinks": [
                "https://www.thrillophilia.com/resorts-in-chikmagalur"
            ],
            "longitude": "77.5696419",
            "address": "Jaladarshini Layout, Bangalore Urban, Karnataka, India",
            "latitude": "13.0307999",
            "locType": "hamlet",
            "closest_to": ""
        },
        "rose garden": {
            "blogLinks": [
                "https://www.thrillophilia.com/resorts-in-chikmagalur"
            ],
            "longitude": "77.590382853852",
            "address": "Rose Garden, Dr B R Ambedkar Veedhi, Shantala Nagar, Gandhinagar, Bengaluru, Bangalore Urban, Karnataka, 560001, India",
            "latitude": "12.97371325",
            "locType": "garden",
            "closest_to": ""
        },
        "south": {
            "blogLinks": [
                "http://www.nivalink.com/destination/coorg-(virajpet)"
            ],
            "longitude": "77.8040874",
            "address": "s, Vijayapura, Devanahalli taluk, Bangalore Rural, Karnataka, 562135, India",
            "latitude": "13.2942848",
            "locType": "residential",
            "closest_to": ""
        },
        "sikkim": {
            "blogLinks": [
                "https://www.thrillophilia.com/places-to-visit-in-coorg"
            ],
            "longitude": "77.6704479",
            "address": "Sikkim Manipal University, Sarjapur Road, Devarabisanahalli, Bellandur, Doddakannelli, Bangalore Urban, Karnataka, 560035, India",
            "latitude": "12.9185721",
            "locType": "yes",
            "closest_to": ""
        },
        "ayodhya": {
            "blogLinks": [
                "https://en.wikipedia.org/wiki/Kodagu_district"
            ],
            "longitude": "76.5832762",
            "address": "Ayodhya, Gangavati taluku, Koppal district, Karnataka, India",
            "latitude": "15.4313866",
            "locType": "village",
            "closest_to": ""
        },
        "chennai": {
            "blogLinks": [
                "http://www.mygola.com/road-trip-from-bangalore-to-chikmagalur/q9090"
            ],
            "longitude": "80.2197941",
            "address": "Karnataka Bank, Postal Colony 2nd Street, Postal Colony, Ashok Nagar, Chennai City Corporation Limits, Chennai district, Tamil Nadu, 600033, India",
            "latitude": "13.0365141",
            "locType": "bank",
            "closest_to": ""
        },
        "heggade": {
            "blogLinks": [
                "https://en.wikipedia.org/wiki/Kodagu_district"
            ],
            "longitude": "75.0463974400643",
            "address": "Dr. Veerendra Heggade Kalakshetra, Pune Bangalore Road, Navanagar, Amaragol, Hubballi taluku, Dharwad district, Karnataka, 580025, India",
            "latitude": "15.4185677",
            "locType": "auditorium",
            "closest_to": ""
        },
        "sri krishnarajendra hill station": {
            "blogLinks": [
                "http://www.nivalink.com/destination/chikmagalur"
            ],
            "longitude": "77.583027619944",
            "address": "Silver Jubilee Park, Narasimharaja Road, Ganigarpet, Kalasipalya, Bengaluru, Bangalore Urban, Karnataka, 560001, India",
            "latitude": "12.96370475",
            "locType": "park",
            "closest_to": ""
        },
        "cauvery river": {
            "blogLinks": [
                "https://www.thrillophilia.com/places-to-visit-in-coorg"
            ],
            "longitude": "77.635647",
            "address": "Temple Trees Rd, Cauvery Colony, ST Bed Layout, Koramangala, Bengaluru, Bangalore Urban, Karnataka, 560001, India",
            "latitude": "12.9327668",
            "locType": "unclassified",
            "closest_to": ""
        },
        "madras": {
            "blogLinks": [
                "https://en.wikipedia.org/wiki/Kodagu_district"
            ],
            "longitude": "77.6449595",
            "address": "Swami Vivekananda Road, Swamy Vivekananda Road (Old Madras Road), Sudgunte Palya, Baiyyappanahalli, Benniganahalli, Bangalore Urban, Karnataka, 560016, India",
            "latitude": "12.9859442",
            "locType": "station",
            "closest_to": ""
        },
        "udipi": {
            "blogLinks": [
                "http://www.nivalink.com/destination/chikmagalur",
                "http://www.nivalink.com/destination/coorg-(virajpet)"
            ],
            "longitude": "77.652888",
            "address": "Udipi Park, 2nd Cross Road, Muniyappa Layout, Murugeshpalaya, Belure Ambedkar Nagar, Bangalore Urban, Karnataka, 560067, India",
            "latitude": "12.9530588",
            "locType": "restaurant",
            "closest_to": ""
        },
        "taj gateway": {
            "blogLinks": [
                "https://www.thrillophilia.com/resorts-in-chikmagalur"
            ],
            "longitude": "75.1090312636848",
            "address": "Hotel Taj Gateway Lakeside, Pune Bangalore Road, Navanagar, Amaragol, Hubballi taluku, Dharwad district, Karnataka, 580025, India",
            "latitude": "15.38227215",
            "locType": "hotel",
            "closest_to": ""
        },
        "mumbai": {
            "blogLinks": [
                "http://www.mygola.com/road-trip-from-bangalore-to-chikmagalur/q9090"
            ],
            "longitude": "77.5718472",
            "address": "Mumbai Spice, 18/2, 10th Cross, Malleswaram, Vyalikaval, Malleswaram, Bengaluru, Bangalore Urban, Karnataka, 560003, India",
            "latitude": "13.0002869",
            "locType": "restaurant",
            "closest_to": ""
        },
        "grevillea": {
            "blogLinks": [
                "https://en.wikipedia.org/wiki/Kodagu_district"
            ],
            "longitude": "77.5845738",
            "address": "Grevillea Robusta A.Cunn - Australian Silver Oak, Krumbiegal Road, Mavalli, VV Puram, Bengaluru, Bangalore Urban, Karnataka, 560001, India",
            "latitude": "12.9539614",
            "locType": "tree",
            "closest_to": ""
        },
        "north kerala": {
            "blogLinks": [
                "http://www.nivalink.com/destination/chikmagalur",
                "http://www.nivalink.com/destination/coorg-(virajpet)"
            ],
            "longitude": "77.6382683",
            "address": "New Life Kerala Mess, Sai Baba Mandira Road, Mottappanapalaya, Indiranagar, Bengaluru, Bangalore Urban, Karnataka, 560001, India",
            "latitude": "12.9726449",
            "locType": "restaurant",
            "closest_to": ""
        },
        "rameshwara temple": {
            "blogLinks": [
                "https://www.thrillophilia.com/places-to-visit-in-coorg"
            ],
            "longitude": "77.5678621969321",
            "address": "Rameshwara Temple, Kranthikavi Sarvagnya Road, Rajajinagar 4th Block, Sriramapura, Bengaluru, Bangalore Urban, Karnataka, 560001, India",
            "latitude": "12.99365815",
            "locType": "place_of_worship",
            "closest_to": ""
        },
        "madikere": {
            "blogLinks": [
                "https://www.thrillophilia.com/places-to-visit-in-coorg"
            ],
            "longitude": "78.0895724",
            "address": "Madikere, Chintamani taluk, Chikkaballapura district, Karnataka, India",
            "latitude": "13.3755097",
            "locType": "village",
            "closest_to": ""
        },
        "nelamangala": {
            "blogLinks": [
                "http://www.mygola.com/road-trip-from-bangalore-to-chikmagalur/q9090"
            ],
            "longitude": "77.3963586",
            "address": "Nelamangala, Nelamangala taluk, Bangalore Rural, Karnataka, India",
            "latitude": "13.0953024",
            "locType": "town",
            "closest_to": ""
        },
        "england": {
            "blogLinks": [
                "https://en.wikipedia.org/wiki/Kodagu_district"
            ],
            "longitude": "77.6219969678622",
            "address": "Peter England Factory, Bommanahalli, Bengaluru, Bangalore Urban, Karnataka, 560001, India",
            "latitude": "12.90120185",
            "locType": "industrial",
            "closest_to": ""
        },
        "state highway 91": {
            "blogLinks": [
                "http://goindia.about.com/od/karnataka/tp/6-Coorg-Places-To-Visit.htm"
            ],
            "longitude": "77.7147362",
            "address": "Budigere Road, Hunasuru, Bangalore Urban, Karnataka, India",
            "latitude": "13.1867488",
            "locType": "primary",
            "closest_to": ""
        },
        "west": {
            "blogLinks": [
                "http://www.nivalink.com/destination/coorg-(virajpet)"
            ],
            "longitude": "77.5960999",
            "address": "w, Balmuri Main Road, Hulimavu,, Bannerghatta Road, Mico Arekere Layout 1st Stage, Hulimavu, Bengaluru, Bangalore Urban, Karnataka, 560076, India",
            "latitude": "12.8759384",
            "locType": "clothes",
            "closest_to": ""
        },
        "vijayapura main road": {
            "blogLinks": [
                "http://wikitravel.org/en/Chikmagalur"
            ],
            "longitude": "75.6425088",
            "address": "Karnataka State Women's University, Athani Road, Ratnapura, Vijayapura taluk, Bijapur district, Karnataka, India",
            "latitude": "16.8319715",
            "locType": "college",
            "closest_to": ""
        },
        "tumkur": {
            "blogLinks": [
                "http://wikitravel.org/en/Chikmagalur"
            ],
            "longitude": "77.0002445",
            "address": "Tumakuru, Tumkur district, Karnataka, India",
            "latitude": "13.4999406",
            "locType": "county",
            "closest_to": ""
        },
        "dharwad": {
            "blogLinks": [
                "http://www.distancesfrom.com/distance-from-Virajpet-to-Dharwad-via-Chikmagalur/DistanceHistory/27063299.aspx"
            ],
            "longitude": "75.0066516",
            "address": "Dharwad, Dharawada taluku, Dharwad district, Karnataka, 580001, India",
            "latitude": "15.4540505",
            "locType": "city",
            "closest_to": ""
        },
        "brahmagiri hill": {
            "blogLinks": [
                "https://www.thrillophilia.com/places-to-visit-in-coorg"
            ],
            "longitude": "76.8122474",
            "address": "Brahmagiri Betta, Molakalmuru taluku, Chitradurga district, Karnataka, India",
            "latitude": "14.8001586",
            "locType": "peak",
            "closest_to": ""
        },
        "bangalore": {
            "blogLinks": [
                "http://www.nivalink.com/destination/chikmagalur",
                "http://wikitravel.org/en/Chikmagalur",
                "https://www.thrillophilia.com/resorts-in-chikmagalur",
                "http://www.mygola.com/road-trip-from-bangalore-to-chikmagalur/q9090",
                "https://www.thrillophilia.com/places-to-visit-in-coorg",
                "https://en.wikipedia.org/wiki/Kodagu_district",
                "http://www.nivalink.com/destination/coorg-(virajpet)",
                "http://goindia.about.com/od/karnataka/tp/6-Coorg-Places-To-Visit.htm",
                "http://traveltriangle.com/blog/romantic-resorts-around-bangalore/"
            ],
            "longitude": "77.5912997",
            "address": "Bengaluru, Bangalore Urban, Karnataka, 560001, India",
            "latitude": "12.9791198",
            "locType": "city",
            "closest_to": ""
        },
        "pushpagiri": {
            "blogLinks": [
                "https://www.thrillophilia.com/places-to-visit-in-coorg",
                "http://goindia.about.com/od/karnataka/tp/6-Coorg-Places-To-Visit.htm"
            ],
            "longitude": "77.5333268",
            "address": "Pushpagiri Nagar, Bengaluru, Bangalore Urban, Karnataka, 560001, India",
            "latitude": "12.9297622",
            "locType": "locality",
            "closest_to": ""
        },
        "national park": {
            "blogLinks": [
                "https://www.thrillophilia.com/places-to-visit-in-coorg"
            ],
            "longitude": "77.5722783830694",
            "address": "Bannerghatta National Park, Anekal Road, Begihalli, Bangalore Urban, Karnataka, 560076, India",
            "latitude": "12.77900335",
            "locType": "national_park",
            "closest_to": ""
        },
        "rameshwara": {
            "blogLinks": [
                "http://www.nivalink.com/destination/chikmagalur",
                "https://en.wikipedia.org/wiki/Kodagu_district"
            ],
            "longitude": "77.5678621969321",
            "address": "Rameshwara Temple, Kranthikavi Sarvagnya Road, Rajajinagar 4th Block, Sriramapura, Bengaluru, Bangalore Urban, Karnataka, 560001, India",
            "latitude": "12.99365815",
            "locType": "place_of_worship",
            "closest_to": ""
        },
        "doddamakali": {
            "blogLinks": [
                "http://www.nivalink.com/destination/coorg-(virajpet)"
            ],
            "longitude": "77.2173416",
            "address": "Doddamakali, Dalanakatte, Malavalli taluk, Mandya district, Karnataka, India",
            "latitude": "12.3096676",
            "locType": "locality",
            "closest_to": ""
        },
        "malayalam": {
            "blogLinks": [
                "https://en.wikipedia.org/wiki/Kodagu_district"
            ],
            "longitude": "77.6774283",
            "address": "Lowry Adventist Malayalam Church, A Narayanapura Main Road, Darga Mohalla, Udaya Nagar, A Narayanapura, Bangalore Urban, Karnataka, 560016, India",
            "latitude": "12.9985726",
            "locType": "place_of_worship",
            "closest_to": ""
        },
        "brahmagiri range": {
            "blogLinks": [
                "http://www.nivalink.com/destination/coorg-(virajpet)"
            ],
            "longitude": "76.8122474",
            "address": "Brahmagiri Betta, Molakalmuru taluku, Chitradurga district, Karnataka, India",
            "latitude": "14.8001586",
            "locType": "peak",
            "closest_to": ""
        },
        "parvati": {
            "blogLinks": [
                "http://www.nivalink.com/destination/chikmagalur"
            ],
            "longitude": "75.7898501",
            "address": "Parvati, Badami taluku, Bagalkote district, Karnataka, India",
            "latitude": "16.0395701",
            "locType": "village",
            "closest_to": ""
        },
        "south karnataka": {
            "blogLinks": [
                "http://wikitravel.org/en/Chikmagalur"
            ],
            "longitude": "77.8040874",
            "address": "s, Vijayapura, Devanahalli taluk, Bangalore Rural, Karnataka, 562135, India",
            "latitude": "13.2942848",
            "locType": "residential",
            "closest_to": ""
        },
        "cauvery": {
            "blogLinks": [
                "https://www.thrillophilia.com/places-to-visit-in-coorg",
                "http://www.nivalink.com/destination/coorg-(virajpet)"
            ],
            "longitude": "77.5832796015599",
            "address": "Cauvery, 1st Main Road, Lower Palace Orchard, Guttahalli, Bengaluru, Bangalore Urban, Karnataka, 560001, India",
            "latitude": "13.00262215",
            "locType": "cinema",
            "closest_to": ""
        },
        "kerala": {
            "blogLinks": [
                "http://www.nivalink.com/destination/coorg-(virajpet)"
            ],
            "longitude": "77.6382683",
            "address": "New Life Kerala Mess, Sai Baba Mandira Road, Mottappanapalaya, Indiranagar, Bengaluru, Bangalore Urban, Karnataka, 560001, India",
            "latitude": "12.9726449",
            "locType": "restaurant",
            "closest_to": ""
        }
    }
}