{
    "yana": {
        "lat": "14.5786094",
        "class": "place",
        "importance": 0.475,
        "osm_type": "node",
        "lon": "74.5598169",
        "place_id": "196766914",
        "display_name": "Yana, Kumata taluk, Uttara Kannada, Karnataka, India",
        "osm_id": "1890842669",
        "boundingbox": [
            "14.5586094",
            "14.5986094",
            "74.5398169",
            "74.5798169"
        ],
        "type": "village",
        "licence": "Data \u00a9 OpenStreetMap contributors, ODbL 1.0. http://www.openstreetmap.org/copyright",
        "icon": "https://nominatim.openstreetmap.org/images/mapicons/poi_place_village.p.20.png"
    },
    "chikmagalur": {
        "lat": "13.5",
        "class": "place",
        "importance": 0.65,
        "osm_type": "node",
        "lon": "75.5",
        "place_id": "1426840",
        "display_name": "Chikmagalur, Chikkamagaluru district, Karnataka, India",
        "osm_id": "316417001",
        "boundingbox": [
            "12.86",
            "14.14",
            "74.86",
            "76.14"
        ],
        "type": "county",
        "licence": "Data \u00a9 OpenStreetMap contributors, ODbL 1.0. http://www.openstreetmap.org/copyright",
        "icon": "https://nominatim.openstreetmap.org/images/mapicons/poi_boundary_administrative.p.20.png"
    },
    "mentions": {
        "pondicherry": {
            "blogLinks": [
                "https://www.tripoto.com/trip/chikmagalur-trip-places-to-visit-around-chikmagalur-57b221cf71a06"
            ],
            "longitude": "79.831569",
            "address": "Karnataka Bank, Mission Street, Grand Bazaar, Puducherry, Puducherry district, Puducherry, 605001, India",
            "latitude": "11.9365727",
            "locType": "bank",
            "closest_to": ""
        },
        "jaladarshini": {
            "blogLinks": [
                "https://www.thrillophilia.com/places-to-visit-in-chikmagalur"
            ],
            "longitude": "77.5696419",
            "address": "Jaladarshini Layout, Bangalore Urban, Karnataka, India",
            "latitude": "13.0307999",
            "locType": "hamlet",
            "closest_to": ""
        },
        "sharadamba": {
            "blogLinks": [
                "https://www.quora.com/What-are-the-best-places-to-visit-on-a-3-day-trip-in-and-around-Karnataka"
            ],
            "longitude": "77.5656194",
            "address": "Sharadamba Temple, 7th Main Road, Yediyur, Thyagaraja Nagar, Bengaluru, Bangalore Urban, Karnataka, 560001, India",
            "latitude": "12.9321898",
            "locType": "place_of_worship",
            "closest_to": ""
        },
        "south": {
            "blogLinks": [
                "https://www.quora.com/What-are-the-best-places-to-visit-on-a-3-day-trip-in-and-around-Karnataka"
            ],
            "longitude": "77.8040874",
            "address": "s, Vijayapura, Devanahalli taluk, Bangalore Rural, Karnataka, 562135, India",
            "latitude": "13.2942848",
            "locType": "residential",
            "closest_to": ""
        },
        "ocean": {
            "blogLinks": [
                "https://www.quora.com/What-are-the-best-places-to-visit-on-a-3-day-trip-in-and-around-Karnataka"
            ],
            "longitude": "77.7178261979437",
            "address": "Gayatri Ocean Blue Apartments, Thubarahalli, Siddapura, Bangalore Urban, Karnataka, 560066, India",
            "latitude": "12.95490595",
            "locType": "residential",
            "closest_to": ""
        },
        "kalyan": {
            "blogLinks": [
                "https://www.quora.com/What-are-the-best-places-to-visit-on-a-3-day-trip-in-and-around-Karnataka"
            ],
            "longitude": "77.6403368",
            "address": "Kalyan Nagar, Chelekere, Bangalore Urban, Karnataka, India",
            "latitude": "13.0221416",
            "locType": "suburb",
            "closest_to": ""
        },
        "sri krishnarajendra hill station": {
            "blogLinks": [
                "https://www.thrillophilia.com/places-to-visit-in-chikmagalur"
            ],
            "longitude": "77.583027619944",
            "address": "Silver Jubilee Park, Narasimharaja Road, Ganigarpet, Kalasipalya, Bengaluru, Bangalore Urban, Karnataka, 560001, India",
            "latitude": "12.96370475",
            "locType": "park",
            "closest_to": ""
        },
        "rose garden": {
            "blogLinks": [
                "https://www.thrillophilia.com/places-to-visit-in-chikmagalur",
                "https://www.quora.com/What-are-the-best-places-to-visit-on-a-3-day-trip-in-and-around-Karnataka"
            ],
            "longitude": "77.590382853852",
            "address": "Rose Garden, Dr B R Ambedkar Veedhi, Shantala Nagar, Gandhinagar, Bengaluru, Bangalore Urban, Karnataka, 560001, India",
            "latitude": "12.97371325",
            "locType": "garden",
            "closest_to": ""
        },
        "hampi": {
            "blogLinks": [
                "https://www.quora.com/What-are-the-best-places-to-visit-on-a-3-day-trip-in-and-around-Karnataka"
            ],
            "longitude": "76.4606199",
            "address": "Hampe, Hosapete taluk, Bellary district, Karnataka, 583239, India",
            "latitude": "15.3359769",
            "locType": "village",
            "closest_to": ""
        },
        "bijapur": {
            "blogLinks": [
                "https://www.quora.com/What-are-the-best-places-to-visit-on-a-3-day-trip-in-and-around-Karnataka"
            ],
            "longitude": "75.7175387",
            "address": "Vijayapura, Vijayapura taluk, Bijapur district, Karnataka, 586101, India",
            "latitude": "16.8269911",
            "locType": "city",
            "closest_to": ""
        },
        "sharadamba temple": {
            "blogLinks": [
                "https://www.thrillophilia.com/places-to-visit-in-chikmagalur"
            ],
            "longitude": "77.5656194",
            "address": "Sharadamba Temple, 7th Main Road, Yediyur, Thyagaraja Nagar, Bengaluru, Bangalore Urban, Karnataka, 560001, India",
            "latitude": "12.9321898",
            "locType": "place_of_worship",
            "closest_to": ""
        },
        "mahadeshwara": {
            "blogLinks": [
                "https://www.quora.com/What-are-the-best-places-to-visit-on-a-3-day-trip-in-and-around-Karnataka"
            ],
            "longitude": "77.6123722",
            "address": "Mahadeshwara Nagara, BTM Layout, Bengaluru, Bangalore Urban, Karnataka, 560001, India",
            "latitude": "12.9076689",
            "locType": "neighbourhood",
            "closest_to": ""
        },
        "mahatma gandhi park": {
            "blogLinks": [
                "http://travel.india.com/chikmagalur/"
            ],
            "longitude": "77.5997033330292",
            "address": "Mahatma Gandhi Park, Mahatma Gandhi Road, Shantala Nagar, MacIvor Town, Bengaluru, Bangalore Urban, Karnataka, 560001, India",
            "latitude": "12.9772144",
            "locType": "park",
            "closest_to": ""
        },
        "lord shiva": {
            "blogLinks": [
                "https://www.quora.com/What-are-the-best-places-to-visit-on-a-3-day-trip-in-and-around-Karnataka"
            ],
            "longitude": "77.6024995",
            "address": "Lord Shiva Temple, Marenahalli Road (South End), MICO Layout, BTM Layout, Bengaluru, Bangalore Urban, Karnataka, 560001, India",
            "latitude": "12.916875",
            "locType": "place_of_worship",
            "closest_to": ""
        },
        "kusha garden": {
            "blogLinks": [
                "https://www.quora.com/What-are-the-best-places-to-visit-on-a-3-day-trip-in-and-around-Karnataka"
            ],
            "longitude": "76.6283545564802",
            "address": "Lava Kusha Park, Lalitadri Road, Kuvempunagara, Mysuru, Mysuru taluk, Mysuru district, Karnataka, 570001, India",
            "latitude": "12.2905505",
            "locType": "park",
            "closest_to": ""
        },
        "mysore": {
            "blogLinks": [
                "https://www.quora.com/What-are-the-best-places-to-visit-on-a-3-day-trip-in-and-around-Karnataka"
            ],
            "longitude": "76.6553609",
            "address": "Mysuru, Mysuru taluk, Mysuru district, Karnataka, 570001, India",
            "latitude": "12.3051828",
            "locType": "city",
            "closest_to": ""
        },
        "gandhi park": {
            "blogLinks": [
                "http://travel.india.com/chikmagalur/"
            ],
            "longitude": "75.9716938",
            "address": "Gandhi Nagara, Indi taluku, Bijapur district, Karnataka, India",
            "latitude": "16.9834411",
            "locType": "hamlet",
            "closest_to": ""
        },
        "vijayapura main road": {
            "blogLinks": [
                "http://wikitravel.org/en/Chikmagalur"
            ],
            "longitude": "75.6425088",
            "address": "Karnataka State Women's University, Athani Road, Ratnapura, Vijayapura taluk, Bijapur district, Karnataka, India",
            "latitude": "16.8319715",
            "locType": "college",
            "closest_to": ""
        },
        "karanji lake": {
            "blogLinks": [
                "https://www.quora.com/What-are-the-best-places-to-visit-on-a-3-day-trip-in-and-around-Karnataka"
            ],
            "longitude": "77.5474867",
            "address": "Karanji, Aurad taluku, Bidar district, Karnataka, India",
            "latitude": "18.2681849",
            "locType": "village",
            "closest_to": ""
        },
        "kodava": {
            "blogLinks": [
                "https://www.quora.com/What-are-the-best-places-to-visit-on-a-3-day-trip-in-and-around-Karnataka"
            ],
            "longitude": "77.5947466457941",
            "address": "Kodava Samaja, M V Jayaram Road, Jayamahal Extension, Vasantnagar, Bengaluru, Bangalore Urban, Karnataka, 560001, India",
            "latitude": "12.9946227",
            "locType": "community_centre",
            "closest_to": ""
        },
        "chennai": {
            "blogLinks": [
                "http://www.mygola.com/road-trip-from-bangalore-to-chikmagalur/q9090",
                "https://www.tripoto.com/trip/chikmagalur-trip-places-to-visit-around-chikmagalur-57b221cf71a06"
            ],
            "longitude": "80.2197941",
            "address": "Karnataka Bank, Postal Colony 2nd Street, Postal Colony, Ashok Nagar, Chennai City Corporation Limits, Chennai district, Tamil Nadu, 600033, India",
            "latitude": "13.0365141",
            "locType": "bank",
            "closest_to": ""
        },
        "tamil nadu": {
            "blogLinks": [
                "https://www.quora.com/What-are-the-best-places-to-visit-on-a-3-day-trip-in-and-around-Karnataka"
            ],
            "longitude": "76.9514152",
            "address": "KARNATAKA BANK, Diwan Bhadur Road, Five Corner, RS Puram, Coimbatore, Coimbatore district, Tamil Nadu, 641001, India",
            "latitude": "11.0025894",
            "locType": "bank",
            "closest_to": ""
        },
        "gudur": {
            "blogLinks": [
                "http://travel.india.com/chikmagalur/"
            ],
            "longitude": "77.241526",
            "address": "Gudur, Yadagiri taluku, Yadagiri district, Karnataka, India",
            "latitude": "16.4851262",
            "locType": "village",
            "closest_to": ""
        },
        "kaveri": {
            "blogLinks": [
                "https://www.quora.com/What-are-the-best-places-to-visit-on-a-3-day-trip-in-and-around-Karnataka",
                "https://www.mekanagadde.com/"
            ],
            "longitude": "77.0635531",
            "address": "Kaveri, Kollegala taluk, Chamarajanagar district, Karnataka, India",
            "latitude": "12.1687878",
            "locType": "river",
            "closest_to": ""
        },
        "ooty lake": {
            "blogLinks": [
                "https://www.quora.com/What-are-the-best-places-to-visit-on-a-3-day-trip-in-and-around-Karnataka"
            ],
            "longitude": "76.6586807",
            "address": "Ooty Road, Vidyaranyapuram, Mysuru, Mysuru taluk, Mysuru district, Karnataka, 570001, India",
            "latitude": "12.2774807",
            "locType": "primary",
            "closest_to": ""
        },
        "west bengal": {
            "blogLinks": [
                "http://myrecenttrips.blogspot.com/2013/07/chikmagalur.html"
            ],
            "longitude": "77.7517038151245",
            "address": "Bengal Lamps, Konadasapura, Bangalore Urban, Karnataka, 560066, India",
            "latitude": "13.0492646",
            "locType": "industrial",
            "closest_to": ""
        },
        "tagore": {
            "blogLinks": [
                "https://www.quora.com/What-are-the-best-places-to-visit-on-a-3-day-trip-in-and-around-Karnataka"
            ],
            "longitude": "77.595715",
            "address": "Rabindranath Tagore Nagar, Bengaluru, Bangalore Urban, Karnataka, 560001, India",
            "latitude": "13.0227204",
            "locType": "suburb",
            "closest_to": ""
        },
        "goa": {
            "blogLinks": [
                "http://travel.india.com/chikmagalur/"
            ],
            "longitude": "77.6200027",
            "address": "Carnival De Goa, Bhaskaran Road, Gupta Layout, Halasuru, Bengaluru, Bangalore Urban, Karnataka, 560001, India",
            "latitude": "12.9750047",
            "locType": "restaurant",
            "closest_to": ""
        },
        "krishnarajasagara": {
            "blogLinks": [
                "https://www.mekanagadde.com/"
            ],
            "longitude": "76.5728063",
            "address": "Krishnarajasagara Police Station, Krishnaraja Sagara Road, Kurgalli, Hulikere, Srirangapattana taluk, Mandya district, Karnataka, 570027, India",
            "latitude": "12.4069086",
            "locType": "police",
            "closest_to": ""
        },
        "karnataka": {
            "blogLinks": [
                "https://www.thrillophilia.com/places-to-visit-in-chikmagalur",
                "http://distancecalculator.globefeed.com/India_Distance_Calculator.asp?state=19",
                "https://www.quora.com/What-are-the-best-places-to-visit-on-a-3-day-trip-in-and-around-Karnataka",
                "https://www.mekanagadde.com/",
                "http://www.mygola.com/road-trip-from-bangalore-to-chikmagalur/q9090",
                "http://wikitravel.org/en/Chikmagalur",
                "http://travel.india.com/chikmagalur/",
                "http://myrecenttrips.blogspot.com/2013/07/chikmagalur.html"
            ],
            "longitude": "76.6639936",
            "address": "Karnataka, Shalivahana Road, Nazarbad, Mysuru, Mysuru taluk, Mysuru district, Karnataka, 570001, India",
            "latitude": "12.3084901",
            "locType": "atm",
            "closest_to": ""
        },
        "silent valley": {
            "blogLinks": [
                "https://www.quora.com/What-are-the-best-places-to-visit-on-a-3-day-trip-in-and-around-Karnataka"
            ],
            "longitude": "76.5819054",
            "address": "Silent Shores Resort, Krishnaraja Sagara Road, Kurgalli, Bastipura, Srirangapattana taluk, Mandya district, Karnataka, 570027, India",
            "latitude": "12.3459371",
            "locType": "hotel",
            "closest_to": ""
        },
        "himavad gopalaswamy betta": {
            "blogLinks": [
                "https://www.quora.com/What-are-the-best-places-to-visit-on-a-3-day-trip-in-and-around-Karnataka"
            ],
            "longitude": "76.5804063",
            "address": "Gopalaswami Temple, Gopal Swami Betta road, Devarahalli, Gundlupet taluk, Chamarajanagar district, Karnataka, India",
            "latitude": "11.7206016",
            "locType": "place_of_worship",
            "closest_to": ""
        },
        "bandipur national park": {
            "blogLinks": [
                "https://www.quora.com/What-are-the-best-places-to-visit-on-a-3-day-trip-in-and-around-Karnataka"
            ],
            "longitude": "76.4314968740264",
            "address": "Bandipur National Park, Kozhikode - Kollegal Highway, Gundlupet taluk, Chamarajanagar district, Karnataka, India",
            "latitude": "11.76682425",
            "locType": "national_park",
            "closest_to": ""
        },
        "south karnataka": {
            "blogLinks": [
                "http://wikitravel.org/en/Chikmagalur"
            ],
            "longitude": "77.8040874",
            "address": "s, Vijayapura, Devanahalli taluk, Bangalore Rural, Karnataka, 562135, India",
            "latitude": "13.2942848",
            "locType": "residential",
            "closest_to": ""
        },
        "nelamangala": {
            "blogLinks": [
                "http://www.mygola.com/road-trip-from-bangalore-to-chikmagalur/q9090"
            ],
            "longitude": "77.3963586",
            "address": "Nelamangala, Nelamangala taluk, Bangalore Rural, Karnataka, India",
            "latitude": "13.0953024",
            "locType": "town",
            "closest_to": ""
        },
        "durga temple": {
            "blogLinks": [
                "https://www.quora.com/What-are-the-best-places-to-visit-on-a-3-day-trip-in-and-around-Karnataka"
            ],
            "longitude": "77.6125928",
            "address": "Durga Temple, 29th Main, Mahadeshwara Nagara, BTM Layout, Bengaluru, Bangalore Urban, Karnataka, 560001, India",
            "latitude": "12.9057731",
            "locType": "place_of_worship",
            "closest_to": ""
        },
        "tungabhadra river": {
            "blogLinks": [
                "https://www.thrillophilia.com/places-to-visit-in-chikmagalur",
                "http://travel.india.com/chikmagalur/"
            ],
            "longitude": "76.4931607",
            "address": "Tungabhadra, Gangavati taluku, Koppal district, Karnataka, India",
            "latitude": "15.3446123",
            "locType": "river",
            "closest_to": ""
        },
        "halebidu": {
            "blogLinks": [
                "http://travel.paintedstork.com/blog/2009/10/a-short-visit-to-chikmagalur.html"
            ],
            "longitude": "76.4607075",
            "address": "Halebidu, Hunasuru taluk, Mysuru district, Karnataka, India",
            "latitude": "12.359893",
            "locType": "village",
            "closest_to": ""
        },
        "kerala": {
            "blogLinks": [
                "https://www.quora.com/What-are-the-best-places-to-visit-on-a-3-day-trip-in-and-around-Karnataka",
                "https://www.mekanagadde.com/",
                "https://www.tripoto.com/trip/chikmagalur-trip-places-to-visit-around-chikmagalur-57b221cf71a06"
            ],
            "longitude": "77.6382683",
            "address": "New Life Kerala Mess, Sai Baba Mandira Road, Mottappanapalaya, Indiranagar, Bengaluru, Bangalore Urban, Karnataka, 560001, India",
            "latitude": "12.9726449",
            "locType": "restaurant",
            "closest_to": ""
        },
        "bijapur district": {
            "blogLinks": [
                "https://www.quora.com/What-are-the-best-places-to-visit-on-a-3-day-trip-in-and-around-Karnataka"
            ],
            "longitude": "75.897147327785",
            "address": "Bijapur district, Karnataka, India",
            "latitude": "16.81105965",
            "locType": "administrative",
            "closest_to": ""
        },
        "north karnataka": {
            "blogLinks": [
                "https://www.quora.com/What-are-the-best-places-to-visit-on-a-3-day-trip-in-and-around-Karnataka"
            ],
            "longitude": "77.7660547",
            "address": "N, Chaithanya Samarpan, Kadugodi, Kannamangala, Bangalore Urban, Karnataka, 560066, India",
            "latitude": "13.0217151",
            "locType": "service",
            "closest_to": ""
        },
        "iruppu falls": {
            "blogLinks": [
                "https://www.quora.com/What-are-the-best-places-to-visit-on-a-3-day-trip-in-and-around-Karnataka"
            ],
            "longitude": "75.9839484",
            "address": "Iruppu Falls, SH89, Taila, Virajpet taluk, Kodagu, Karnataka, 571217, India",
            "latitude": "11.9667954",
            "locType": "attraction",
            "closest_to": ""
        },
        "mandovi": {
            "blogLinks": [
                "https://www.quora.com/What-are-the-best-places-to-visit-on-a-3-day-trip-in-and-around-Karnataka"
            ],
            "longitude": "77.6190505",
            "address": "Mandovi Motors, Wheeler Road Flyover, MSO Colony, Cox Town, Bengaluru, Bangalore Urban, Karnataka, 560001, India",
            "latitude": "12.9965335",
            "locType": "car",
            "closest_to": ""
        },
        "bangkok": {
            "blogLinks": [
                "https://www.quora.com/What-are-the-best-places-to-visit-on-a-3-day-trip-in-and-around-Karnataka"
            ],
            "longitude": "77.6382633",
            "address": "One night in Bangkok, 12th Main Road, HAL 2nd Stage, Indiranagar, Bengaluru, Bangalore Urban, Karnataka, 560001, India",
            "latitude": "12.9701967",
            "locType": "bar",
            "closest_to": ""
        },
        "tumkur": {
            "blogLinks": [
                "http://wikitravel.org/en/Chikmagalur"
            ],
            "longitude": "77.0002445",
            "address": "Tumakuru, Tumkur district, Karnataka, India",
            "latitude": "13.4999406",
            "locType": "county",
            "closest_to": ""
        },
        "parvati": {
            "blogLinks": [
                "https://www.quora.com/What-are-the-best-places-to-visit-on-a-3-day-trip-in-and-around-Karnataka"
            ],
            "longitude": "75.7898501",
            "address": "Parvati, Badami taluku, Bagalkote district, Karnataka, India",
            "latitude": "16.0395701",
            "locType": "village",
            "closest_to": ""
        },
        "krishnarajendra hill station": {
            "blogLinks": [
                "https://www.tripoto.com/trip/chikmagalur-trip-places-to-visit-around-chikmagalur-57b221cf71a06"
            ],
            "longitude": "77.583027619944",
            "address": "Silver Jubilee Park, Narasimharaja Road, Ganigarpet, Kalasipalya, Bengaluru, Bangalore Urban, Karnataka, 560001, India",
            "latitude": "12.96370475",
            "locType": "park",
            "closest_to": ""
        },
        "botanical garden": {
            "blogLinks": [
                "https://www.quora.com/What-are-the-best-places-to-visit-on-a-3-day-trip-in-and-around-Karnataka"
            ],
            "longitude": "77.5744817798899",
            "address": "Botanical Garden, Cart road, Judicial Layout, Jakkur, Bangalore Urban, Karnataka, 560065, India",
            "latitude": "13.08099125",
            "locType": "protected_area",
            "closest_to": ""
        },
        "ooty": {
            "blogLinks": [
                "https://www.quora.com/What-are-the-best-places-to-visit-on-a-3-day-trip-in-and-around-Karnataka"
            ],
            "longitude": "76.6586807",
            "address": "Ooty Road, Vidyaranyapuram, Mysuru, Mysuru taluk, Mysuru district, Karnataka, 570001, India",
            "latitude": "12.2774807",
            "locType": "primary",
            "closest_to": ""
        },
        "karnataka state": {
            "blogLinks": [
                "https://www.tripoto.com/trip/chikmagalur-trip-places-to-visit-around-chikmagalur-57b221cf71a06"
            ],
            "longitude": "76.6236231",
            "address": "Karnataka State Open University, \u0cb9\u0cc1\u0ca3\u0cb8\u0cc2\u0cb0\u0cc1 \u0cb0\u0cb8\u0ccd\u0ca4\u0cc6, Gokulam, Mysuru, Mysuru taluk, Mysuru district, Karnataka, 570001, India",
            "latitude": "12.315382",
            "locType": "university",
            "closest_to": ""
        },
        "mahabaleshwara": {
            "blogLinks": [
                "https://www.quora.com/What-are-the-best-places-to-visit-on-a-3-day-trip-in-and-around-Karnataka"
            ],
            "longitude": "77.5899749843004",
            "address": "Mahabaleshwara Temple, Mission Road (Kalinga Rao Road ), Sampangirama Nagar, Shanti Nagar, Bengaluru, Bangalore Urban, Karnataka, 560001, India",
            "latitude": "12.96264945",
            "locType": "place_of_worship",
            "closest_to": ""
        },
        "heart lake": {
            "blogLinks": [
                "https://www.quora.com/What-are-the-best-places-to-visit-on-a-3-day-trip-in-and-around-Karnataka"
            ],
            "longitude": "77.6033149073313",
            "address": "Sacred Heart Cemetry, Shanti Nagar, Bengaluru, Bangalore Urban, Karnataka, 560001, India",
            "latitude": "12.9542916",
            "locType": "cemetery",
            "closest_to": ""
        },
        "nandi hills": {
            "blogLinks": [
                "https://www.quora.com/What-are-the-best-places-to-visit-on-a-3-day-trip-in-and-around-Karnataka"
            ],
            "longitude": "77.7194741670394",
            "address": "Nandi Upahara, Nandhi Hills Road, Kottige Thimmanahalli, Devanahalli taluk, Bangalore Rural, Karnataka, India",
            "latitude": "13.268142",
            "locType": "hotel",
            "closest_to": ""
        },
        "chamundi hill": {
            "blogLinks": [
                "https://www.quora.com/What-are-the-best-places-to-visit-on-a-3-day-trip-in-and-around-Karnataka"
            ],
            "longitude": "76.6703937",
            "address": "Chamundi Hill, Mysuru, Mysuru taluk, Mysuru district, Karnataka, 570001, India",
            "latitude": "12.2724017",
            "locType": "peak",
            "closest_to": ""
        },
        "kuvempu": {
            "blogLinks": [
                "https://www.quora.com/What-are-the-best-places-to-visit-on-a-3-day-trip-in-and-around-Karnataka"
            ],
            "longitude": "77.5064032",
            "address": "Kuvempu, Kengeri Main Road, ITI Layout, Jnana Bharathi, Nagadevanahalli, Bangalore Urban, Karnataka, 560056, India",
            "latitude": "12.9560369",
            "locType": "artwork",
            "closest_to": ""
        },
        "gokak": {
            "blogLinks": [
                "https://www.quora.com/What-are-the-best-places-to-visit-on-a-3-day-trip-in-and-around-Karnataka"
            ],
            "longitude": "74.8224338",
            "address": "Gokak, Gokak taluku, Belgaum district, Karnataka, 591307, India",
            "latitude": "16.1693033",
            "locType": "town",
            "closest_to": ""
        },
        "mumbai": {
            "blogLinks": [
                "http://travel.india.com/chikmagalur/",
                "http://www.mygola.com/road-trip-from-bangalore-to-chikmagalur/q9090"
            ],
            "longitude": "77.5718472",
            "address": "Mumbai Spice, 18/2, 10th Cross, Malleswaram, Vyalikaval, Malleswaram, Bengaluru, Bangalore Urban, Karnataka, 560003, India",
            "latitude": "13.0002869",
            "locType": "restaurant",
            "closest_to": ""
        },
        "nagarhole national park": {
            "blogLinks": [
                "https://www.quora.com/What-are-the-best-places-to-visit-on-a-3-day-trip-in-and-around-Karnataka"
            ],
            "longitude": "76.1537073415874",
            "address": "Nagarahole National Park, Virajpet taluk, Kodagu, Karnataka, India",
            "latitude": "12.0600362",
            "locType": "national_park",
            "closest_to": ""
        },
        "hoysala": {
            "blogLinks": [
                "http://travel.india.com/chikmagalur/",
                "https://www.quora.com/What-are-the-best-places-to-visit-on-a-3-day-trip-in-and-around-Karnataka"
            ],
            "longitude": "77.6375990817051",
            "address": "Hoysala Nagar, Bengaluru, Bangalore Urban, Karnataka, 560001, India",
            "latitude": "12.97813815",
            "locType": "administrative",
            "closest_to": ""
        },
        "manjunatha temple": {
            "blogLinks": [
                "https://www.quora.com/What-are-the-best-places-to-visit-on-a-3-day-trip-in-and-around-Karnataka"
            ],
            "longitude": "77.5640116772773",
            "address": "Devagiri Manjunatha Swamy Temple, 30th Cross, Jayanagar 8th Block, Banashankari 2nd Stage, Bengaluru, Bangalore Urban, Karnataka, 560001, India",
            "latitude": "12.9211928",
            "locType": "place_of_worship",
            "closest_to": ""
        },
        "maharaja": {
            "blogLinks": [
                "http://travel.india.com/chikmagalur/"
            ],
            "longitude": "76.6438602",
            "address": "Maharaja, College Road, Vani Vilas, Mysuru, Mysuru taluk, Mysuru district, Karnataka, 570001, India",
            "latitude": "12.3047676",
            "locType": "restaurant",
            "closest_to": ""
        },
        "gulbarga": {
            "blogLinks": [
                "https://www.quora.com/What-are-the-best-places-to-visit-on-a-3-day-trip-in-and-around-Karnataka"
            ],
            "longitude": "77.083333",
            "address": "Kalaburgi, Kalaburagi district, Karnataka, India",
            "latitude": "17.166667",
            "locType": "county",
            "closest_to": ""
        },
        "badami": {
            "blogLinks": [
                "https://www.quora.com/What-are-the-best-places-to-visit-on-a-3-day-trip-in-and-around-Karnataka"
            ],
            "longitude": "75.6807865",
            "address": "Badami, Badami taluku, Bagalkote district, Karnataka, 587200, India",
            "latitude": "15.9203874",
            "locType": "town",
            "closest_to": ""
        },
        "national park": {
            "blogLinks": [
                "http://travel.india.com/chikmagalur/"
            ],
            "longitude": "77.5722783830694",
            "address": "Bannerghatta National Park, Anekal Road, Begihalli, Bangalore Urban, Karnataka, 560076, India",
            "latitude": "12.77900335",
            "locType": "national_park",
            "closest_to": ""
        },
        "bangalore": {
            "blogLinks": [
                "https://www.thrillophilia.com/places-to-visit-in-chikmagalur",
                "https://www.quora.com/What-are-the-best-places-to-visit-on-a-3-day-trip-in-and-around-Karnataka",
                "https://www.mekanagadde.com/",
                "http://www.mygola.com/road-trip-from-bangalore-to-chikmagalur/q9090",
                "http://wikitravel.org/en/Chikmagalur",
                "https://www.tripoto.com/trip/chikmagalur-trip-places-to-visit-around-chikmagalur-57b221cf71a06",
                "http://travel.paintedstork.com/blog/2009/10/a-short-visit-to-chikmagalur.html",
                "http://travel.india.com/chikmagalur/",
                "http://myrecenttrips.blogspot.com/2013/07/chikmagalur.html"
            ],
            "longitude": "77.5912997",
            "address": "Bengaluru, Bangalore Urban, Karnataka, 560001, India",
            "latitude": "12.9791198",
            "locType": "city",
            "closest_to": ""
        },
        "mahadeshwara hills": {
            "blogLinks": [
                "https://www.quora.com/What-are-the-best-places-to-visit-on-a-3-day-trip-in-and-around-Karnataka"
            ],
            "longitude": "77.5414216",
            "address": "Sri Mahadeshwara Filling Station, Outer Ring Road, Seven Hills Layout, Kathriguppe, Bengaluru, Bangalore Urban, Karnataka, 560001, India",
            "latitude": "12.932367",
            "locType": "fuel",
            "closest_to": ""
        },
        "sri krishna temple": {
            "blogLinks": [
                "https://www.quora.com/What-are-the-best-places-to-visit-on-a-3-day-trip-in-and-around-Karnataka"
            ],
            "longitude": "77.6437236",
            "address": "Sri Krishna Temple Road, Old Binnamangala, Hoysala Nagar, Bengaluru, Bangalore Urban, Karnataka, 560001, India",
            "latitude": "12.9791699",
            "locType": "unclassified",
            "closest_to": ""
        },
        "bidar": {
            "blogLinks": [
                "https://www.quora.com/What-are-the-best-places-to-visit-on-a-3-day-trip-in-and-around-Karnataka"
            ],
            "longitude": "77.333333",
            "address": "Bidar, Bidar district, Karnataka, India",
            "latitude": "18.083333",
            "locType": "county",
            "closest_to": ""
        },
        "bangalore karnataka": {
            "blogLinks": [
                "https://www.quora.com/What-are-the-best-places-to-visit-on-a-3-day-trip-in-and-around-Karnataka"
            ],
            "longitude": "77.5912997",
            "address": "Bengaluru, Bangalore Urban, Karnataka, 560001, India",
            "latitude": "12.9791198",
            "locType": "city",
            "closest_to": ""
        },
        "grs fantasy park": {
            "blogLinks": [
                "https://www.quora.com/What-are-the-best-places-to-visit-on-a-3-day-trip-in-and-around-Karnataka"
            ],
            "longitude": "76.6338102194966",
            "address": "GRS Fantasy Park, Ring Road, Kumbara Koppalu, Metagalli Industrial Area, Mysuru, Mysuru taluk, Mysuru district, Karnataka, 570001, India",
            "latitude": "12.3540981",
            "locType": "theme_park",
            "closest_to": ""
        },
        "daria daulat gardens": {
            "blogLinks": [
                "https://www.quora.com/What-are-the-best-places-to-visit-on-a-3-day-trip-in-and-around-Karnataka"
            ],
            "longitude": "76.6969039957315",
            "address": "Daria Daulat Bagh Museum, Bangalore-Mysore Road, Srirangapatna, Srirangapattana taluk, Mandya district, Karnataka, 571438, India",
            "latitude": "12.4200182",
            "locType": "museum",
            "closest_to": ""
        },
        "maddur": {
            "blogLinks": [
                "https://www.quora.com/What-are-the-best-places-to-visit-on-a-3-day-trip-in-and-around-Karnataka"
            ],
            "longitude": "77.0456404",
            "address": "Maddur, Madduru taluk, Mandya district, Karnataka, 571428, India",
            "latitude": "12.5851916",
            "locType": "town",
            "closest_to": ""
        },
        "brahmagiri range": {
            "blogLinks": [
                "https://www.quora.com/What-are-the-best-places-to-visit-on-a-3-day-trip-in-and-around-Karnataka"
            ],
            "longitude": "76.8122474",
            "address": "Brahmagiri Betta, Molakalmuru taluku, Chitradurga district, Karnataka, India",
            "latitude": "14.8001586",
            "locType": "peak",
            "closest_to": ""
        },
        "malgudi": {
            "blogLinks": [
                "http://travel.india.com/chikmagalur/"
            ],
            "longitude": "77.7017267",
            "address": "Malgudi Southern Cuisine, 3, Outer Ring Road, Ananda Nagara, Doddanekundi, Garudacharpalya, Bangalore Urban, Karnataka, 560037, India",
            "latitude": "12.9651193",
            "locType": "restaurant",
            "closest_to": ""
        },
        "rameshwara lake": {
            "blogLinks": [
                "https://www.tripoto.com/trip/chikmagalur-trip-places-to-visit-around-chikmagalur-57b221cf71a06"
            ],
            "longitude": "77.5678621969321",
            "address": "Rameshwara Temple, Kranthikavi Sarvagnya Road, Rajajinagar 4th Block, Sriramapura, Bengaluru, Bangalore Urban, Karnataka, 560001, India",
            "latitude": "12.99365815",
            "locType": "place_of_worship",
            "closest_to": ""
        },
        "kadamba": {
            "blogLinks": [
                "https://www.quora.com/What-are-the-best-places-to-visit-on-a-3-day-trip-in-and-around-Karnataka"
            ],
            "longitude": "77.7436954",
            "address": "Kadamba Avenue, R. Narayanapura, Brookefields, Dodsworth Enclave, Bangalore Urban, Karnataka, 560066, India",
            "latitude": "12.9703178",
            "locType": "residential",
            "closest_to": ""
        },
        "nataraja": {
            "blogLinks": [
                "https://www.quora.com/What-are-the-best-places-to-visit-on-a-3-day-trip-in-and-around-Karnataka"
            ],
            "longitude": "77.5730381173154",
            "address": "Nataraja, Sirur Park Road, Vyalikaval, Seshadripuram, Bengaluru, Bangalore Urban, Karnataka, 560001, India",
            "latitude": "12.9900332",
            "locType": "cinema",
            "closest_to": ""
        },
        "brindavan gardens": {
            "blogLinks": [
                "https://www.quora.com/What-are-the-best-places-to-visit-on-a-3-day-trip-in-and-around-Karnataka"
            ],
            "longitude": "76.5741029405883",
            "address": "Brindavan Gardens, Krishnaraja Sagara Road, Krushnarajasagara, Srirangapattana taluk, Mandya district, Karnataka, India",
            "latitude": "12.4208084",
            "locType": "garden",
            "closest_to": ""
        },
        "india karnataka": {
            "blogLinks": [
                "https://www.quora.com/What-are-the-best-places-to-visit-on-a-3-day-trip-in-and-around-Karnataka"
            ],
            "longitude": "76.6639936",
            "address": "Karnataka, Shalivahana Road, Nazarbad, Mysuru, Mysuru taluk, Mysuru district, Karnataka, 570001, India",
            "latitude": "12.3084901",
            "locType": "atm",
            "closest_to": ""
        },
        "belgaum": {
            "blogLinks": [
                "https://www.quora.com/What-are-the-best-places-to-visit-on-a-3-day-trip-in-and-around-Karnataka"
            ],
            "longitude": "74.75",
            "address": "Belgaum, Belgaum district, Karnataka, India",
            "latitude": "16.333333",
            "locType": "county",
            "closest_to": ""
        }
    }
}