{
    "hassan": {
        "lat": "13.0070817",
        "class": "place",
        "importance": 0.490701435537,
        "osm_type": "node",
        "lon": "76.0992703",
        "place_id": "1806238",
        "display_name": "Hassan, Hasana taluk, Hassan district, Karnataka, 573201, India",
        "osm_id": "340748436",
        "boundingbox": [
            "12.9670817",
            "13.0470817",
            "76.0592703",
            "76.1392703"
        ],
        "type": "town",
        "licence": "Data \u00a9 OpenStreetMap contributors, ODbL 1.0. http://www.openstreetmap.org/copyright",
        "icon": "https://nominatim.openstreetmap.org/images/mapicons/poi_place_town.p.20.png"
    },
    "chitradurga": {
        "lat": "14.2266443",
        "class": "place",
        "importance": 0.5,
        "osm_type": "node",
        "lon": "76.4005122",
        "place_id": "4897275",
        "display_name": "Chitradurga, Chitradurga taluku, Chitradurga district, Karnataka, 577500, India",
        "osm_id": "571409087",
        "boundingbox": [
            "14.1866443",
            "14.2666443",
            "76.3605122",
            "76.4405122"
        ],
        "type": "town",
        "licence": "Data \u00a9 OpenStreetMap contributors, ODbL 1.0. http://www.openstreetmap.org/copyright",
        "icon": "https://nominatim.openstreetmap.org/images/mapicons/poi_place_town.p.20.png"
    },
    "mentions": {
        "kamala": {
            "blogLinks": [
                "https://en.wikipedia.org/wiki/Tourism_in_Karnataka"
            ],
            "longitude": "77.5664867",
            "address": "Kamala Nehru Patashala (Emmanual English School), 5th A Cross Road, Yediyur, Thyagaraja Nagar, Bengaluru, Bangalore Urban, Karnataka, 560001, India",
            "latitude": "12.9339482",
            "locType": "school",
            "closest_to": ""
        },
        "kagal": {
            "blogLinks": [
                "https://en.wikipedia.org/wiki/Tourism_in_Karnataka"
            ],
            "longitude": "74.3575302591262",
            "address": "Kagal Fort, Birkodi Village, Kumata taluk, Uttara Kannada, Karnataka, India",
            "latitude": "14.5055819",
            "locType": "grass",
            "closest_to": ""
        },
        "madurai": {
            "blogLinks": [
                "http://www.indiamike.com/india/karnataka-f38/places-to-go-in-south-karnataka-t102701/"
            ],
            "longitude": "77.6320535",
            "address": "Madurai Idly Shop, 5th Main Road, Teachers Colony, HSR Layout, Bengaluru, Bangalore Urban, Karnataka, 560001, India",
            "latitude": "12.9185419",
            "locType": "restaurant",
            "closest_to": ""
        },
        "bijapur": {
            "blogLinks": [
                "https://en.wikipedia.org/wiki/Tourism_in_Karnataka",
                "http://www.mapsofindia.com/maps/karnataka/"
            ],
            "longitude": "75.7175387",
            "address": "Vijayapura, Vijayapura taluk, Bijapur district, Karnataka, 586101, India",
            "latitude": "16.8269911",
            "locType": "city",
            "closest_to": ""
        },
        "ramanagara": {
            "blogLinks": [
                "http://www.mapsofindia.com/maps/karnataka/"
            ],
            "longitude": "74.4900863",
            "address": "Ramanagara, Khanapura taluku, Belgaum district, Karnataka, India",
            "latitude": "15.422047",
            "locType": "town",
            "closest_to": ""
        },
        "lushington falls": {
            "blogLinks": [
                "https://en.wikipedia.org/wiki/Tourism_in_Karnataka"
            ],
            "longitude": "74.7477592",
            "address": "\u0c89\u0c82\u0c9a\u0cb3\u0ccd\u0cb3\u0cbf \u0c9c\u0cb2\u0caa\u0cbe\u0ca4, Siddapura taluk, Uttara Kannada, Karnataka, India",
            "latitude": "14.4097755",
            "locType": "waterfall",
            "closest_to": ""
        },
        "lokapura": {
            "blogLinks": [
                "https://en.wikipedia.org/wiki/Tourism_in_Karnataka"
            ],
            "longitude": "75.3685939",
            "address": "Lokapura, Mudhola taluku, Bagalkote district, Karnataka, 587122, India",
            "latitude": "16.1627427",
            "locType": "town",
            "closest_to": ""
        },
        "vishnu": {
            "blogLinks": [
                "https://en.wikipedia.org/wiki/Tourism_in_Karnataka"
            ],
            "longitude": "77.7198022157059",
            "address": "Vishnu Residency Apartments, Thubarahalli, Siddapura, Bangalore Urban, Karnataka, 560066, India",
            "latitude": "12.95388635",
            "locType": "residential",
            "closest_to": ""
        },
        "gotagodi village": {
            "blogLinks": [
                "https://en.wikipedia.org/wiki/Tourism_in_Karnataka"
            ],
            "longitude": "75.0452834",
            "address": "Gotagodi, Hanagal taluk, Haveri district, Karnataka, India",
            "latitude": "14.7634556",
            "locType": "village",
            "closest_to": ""
        },
        "kalyani": {
            "blogLinks": [
                "https://en.wikipedia.org/wiki/Tourism_in_Karnataka"
            ],
            "longitude": "77.6286090192686",
            "address": "Kalyani, Neeladri Road, Electronics City Phase 1, Bettadasana Pura, Bangalore Urban, Karnataka, 560100, India",
            "latitude": "12.8406466",
            "locType": "water",
            "closest_to": ""
        },
        "nagareshwara": {
            "blogLinks": [
                "https://en.wikipedia.org/wiki/Tourism_in_Karnataka"
            ],
            "longitude": "77.3934679",
            "address": "Nagareshwara Temple, SH126, Dantapur, Yadagiri taluku, Yadagiri district, Karnataka, India",
            "latitude": "16.8662525",
            "locType": "place_of_worship",
            "closest_to": ""
        },
        "kumta": {
            "blogLinks": [
                "https://en.wikipedia.org/wiki/Tourism_in_Karnataka"
            ],
            "longitude": "74.4107617",
            "address": "Kumta, Kumata taluk, Uttara Kannada, Karnataka, India",
            "latitude": "14.4261647",
            "locType": "town",
            "closest_to": ""
        },
        "chennai": {
            "blogLinks": [
                "https://en.wikipedia.org/wiki/Tourism_in_Karnataka"
            ],
            "longitude": "80.2197941",
            "address": "Karnataka Bank, Postal Colony 2nd Street, Postal Colony, Ashok Nagar, Chennai City Corporation Limits, Chennai district, Tamil Nadu, 600033, India",
            "latitude": "13.0365141",
            "locType": "bank",
            "closest_to": ""
        },
        "hubli": {
            "blogLinks": [
                "https://en.wikipedia.org/wiki/Tourism_in_Karnataka"
            ],
            "longitude": "75.1379848",
            "address": "Hubballi - \u0cb9\u0cc1\u0cac\u0ccd\u0cac\u0cb3\u0ccd\u0cb3\u0cbf, Hubballi taluku, Dharwad district, Karnataka, 580020, India",
            "latitude": "15.3518378",
            "locType": "city",
            "closest_to": ""
        },
        "tamil nadu": {
            "blogLinks": [
                "https://en.wikipedia.org/wiki/Tourism_in_Karnataka",
                "http://www.mapsofindia.com/maps/karnataka/",
                "http://www.inditales.com/chitradurga-chandravalli-jogimatti/",
                "http://goindia.about.com/od/karnataka/tp/karnataka.htm"
            ],
            "longitude": "76.9514152",
            "address": "KARNATAKA BANK, Diwan Bhadur Road, Five Corner, RS Puram, Coimbatore, Coimbatore district, Tamil Nadu, 641001, India",
            "latitude": "11.0025894",
            "locType": "bank",
            "closest_to": ""
        },
        "bankapura": {
            "blogLinks": [
                "https://en.wikipedia.org/wiki/Tourism_in_Karnataka"
            ],
            "longitude": "75.2639298",
            "address": "Bankapura, Shiggaon taluk, Haveri district, Karnataka, 581202, India",
            "latitude": "14.9217443",
            "locType": "town",
            "closest_to": ""
        },
        "garrison": {
            "blogLinks": [
                "http://www.indiamike.com/india/karnataka-f38/places-to-go-in-south-karnataka-t102701/"
            ],
            "longitude": "77.652828",
            "address": "Garrison Engineer (R and D )West, Dr. APJ Abdul Kalam Road, Sudgunte Palya, Thippasandra, Benniganahalli, Bangalore Urban, Karnataka, 560075, India",
            "latitude": "12.9796086",
            "locType": "government",
            "closest_to": ""
        },
        "kodachadri": {
            "blogLinks": [
                "https://en.wikipedia.org/wiki/Tourism_in_Karnataka"
            ],
            "longitude": "74.8705395",
            "address": "Kodachadri, \u0c95\u0cc1\u0c82\u0ca6\u0cbe\u0caa\u0cc1\u0cb0 \u0ca4\u0cbe\u0cb2\u0cc2\u0c95\u0cc1, Udupi district, Karnataka, India",
            "latitude": "13.8565758",
            "locType": "peak",
            "closest_to": ""
        },
        "belgaum railway station": {
            "blogLinks": [
                "http://www.holidayiq.com/Chitradurga-Sightseeing-650.html"
            ],
            "longitude": "74.509065",
            "address": "Belgaum, Belgaum - Panaji Highway, Cantonment, Belagavi, Belagavi taluku, Belgaum district, Karnataka, 590001, India",
            "latitude": "15.8489677",
            "locType": "station",
            "closest_to": ""
        },
        "aihole": {
            "blogLinks": [
                "https://en.wikipedia.org/wiki/Tourism_in_Karnataka",
                "http://goindia.about.com/od/karnataka/tp/karnataka.htm"
            ],
            "longitude": "75.8819129",
            "address": "Aihole, Hunagunda taluku, Bagalkote district, Karnataka, India",
            "latitude": "16.0192298",
            "locType": "village",
            "closest_to": ""
        },
        "siddheshwara": {
            "blogLinks": [
                "https://en.wikipedia.org/wiki/Tourism_in_Karnataka"
            ],
            "longitude": "77.5876527",
            "address": "Siddheshwara Medicals, Judicial Layout, Allalasandra, Bangalore, 7th Main Road, Judicial Layout, Bengaluru, Bangalore Urban, Karnataka, 560001, India",
            "latitude": "13.0797146",
            "locType": "pharmacy",
            "closest_to": ""
        },
        "vijayanagar": {
            "blogLinks": [
                "http://goindia.about.com/od/karnataka/tp/karnataka.htm"
            ],
            "longitude": "77.5375757",
            "address": "Vijayanagar, Chord Road, Marenahalli, Vijaya Nagar, Binny Layout, Bangalore Urban, Karnataka, 560040, India",
            "latitude": "12.9713392",
            "locType": "station",
            "closest_to": ""
        },
        "bhatkal": {
            "blogLinks": [
                "https://en.wikipedia.org/wiki/Tourism_in_Karnataka"
            ],
            "longitude": "74.5485295",
            "address": "Bhatkal, Bhatkala taluk, Uttara Kannada, Karnataka, 581320, India",
            "latitude": "13.9952114",
            "locType": "town",
            "closest_to": ""
        },
        "karwar": {
            "blogLinks": [
                "https://en.wikipedia.org/wiki/Tourism_in_Karnataka"
            ],
            "longitude": "74.1319229",
            "address": "Karwar, Karavara taluk, Uttara Kannada, Karnataka, 581300, India",
            "latitude": "14.8120931",
            "locType": "town",
            "closest_to": ""
        },
        "' river varahi": {
            "blogLinks": [
                "https://en.wikipedia.org/wiki/Tourism_in_Karnataka"
            ],
            "longitude": "74.9489117",
            "address": "Varahi, \u0c95\u0cc1\u0c82\u0ca6\u0cbe\u0caa\u0cc1\u0cb0 \u0ca4\u0cbe\u0cb2\u0cc2\u0c95\u0cc1, Udupi district, Karnataka, India",
            "latitude": "13.6582668",
            "locType": "river",
            "closest_to": ""
        },
        "bandipur national park": {
            "blogLinks": [
                "https://en.wikipedia.org/wiki/Tourism_in_Karnataka"
            ],
            "longitude": "76.4314968740264",
            "address": "Bandipur National Park, Kozhikode - Kollegal Highway, Gundlupet taluk, Chamarajanagar district, Karnataka, India",
            "latitude": "11.76682425",
            "locType": "national_park",
            "closest_to": ""
        },
        "shivanasamudra": {
            "blogLinks": [
                "https://en.wikipedia.org/wiki/Tourism_in_Karnataka"
            ],
            "longitude": "77.1703215",
            "address": "Shivanasamudra, Kollegala taluk, Chamarajanagar district, Karnataka, India",
            "latitude": "12.2719056",
            "locType": "village",
            "closest_to": ""
        },
        "north karnataka": {
            "blogLinks": [
                "https://en.wikipedia.org/wiki/Tourism_in_Karnataka"
            ],
            "longitude": "77.7660547",
            "address": "N, Chaithanya Samarpan, Kadugodi, Kannamangala, Bangalore Urban, Karnataka, 560066, India",
            "latitude": "13.0217151",
            "locType": "service",
            "closest_to": ""
        },
        "malaprabha": {
            "blogLinks": [
                "https://en.wikipedia.org/wiki/Tourism_in_Karnataka"
            ],
            "longitude": "75.1982668",
            "address": "Malaprabha, Ramadurga taluku, Belgaum district, Karnataka, India",
            "latitude": "15.8914192",
            "locType": "river",
            "closest_to": ""
        },
        "sangameshwara": {
            "blogLinks": [
                "https://en.wikipedia.org/wiki/Tourism_in_Karnataka"
            ],
            "longitude": "74.87651",
            "address": "Sangameshwara, Kalaghatagi taluku, Dharwad district, Karnataka, India",
            "latitude": "15.184341",
            "locType": "village",
            "closest_to": ""
        },
        "sagara": {
            "blogLinks": [
                "https://en.wikipedia.org/wiki/Tourism_in_Karnataka"
            ],
            "longitude": "75.0262551",
            "address": "Sagara, Sagara taluk, Shimoga district, Karnataka, 577400, India",
            "latitude": "14.1666594",
            "locType": "town",
            "closest_to": ""
        },
        "parvati": {
            "blogLinks": [
                "http://www.nivalink.com/destination/hassan"
            ],
            "longitude": "75.7898501",
            "address": "Parvati, Badami taluku, Bagalkote district, Karnataka, India",
            "latitude": "16.0395701",
            "locType": "village",
            "closest_to": ""
        },
        "kanakapura road": {
            "blogLinks": [
                "https://en.wikipedia.org/wiki/Tourism_in_Karnataka"
            ],
            "longitude": "77.5733483",
            "address": "Kanakapura Road, Rajotsava Nagar, Kaderenahalli, Bengaluru, Bangalore Urban, Karnataka, 560001, India",
            "latitude": "12.9064528",
            "locType": "trunk",
            "closest_to": ""
        },
        "mookambika": {
            "blogLinks": [
                "https://en.wikipedia.org/wiki/Tourism_in_Karnataka"
            ],
            "longitude": "74.8145296",
            "address": "Mukambika Devasthana, NH766C;SH26, Halkal, \u0c95\u0cc1\u0c82\u0ca6\u0cbe\u0caa\u0cc1\u0cb0 \u0ca4\u0cbe\u0cb2\u0cc2\u0c95\u0cc1, Udupi district, Karnataka, 576220, India",
            "latitude": "13.8638043",
            "locType": "place_of_worship",
            "closest_to": ""
        },
        "manipal": {
            "blogLinks": [
                "https://en.wikipedia.org/wiki/Tourism_in_Karnataka"
            ],
            "longitude": "74.7870308",
            "address": "Manipal, Udupi taluku, Udupi district, Karnataka, India",
            "latitude": "13.3519723",
            "locType": "town",
            "closest_to": ""
        },
        "chalukya": {
            "blogLinks": [
                "https://en.wikipedia.org/wiki/Tourism_in_Karnataka"
            ],
            "longitude": "77.5192989605445",
            "address": "Chalukya Nagar, Chandra Layout, GKW Layout, Bangalore Urban, Karnataka, 560072, India",
            "latitude": "12.9617207",
            "locType": "residential",
            "closest_to": ""
        },
        "north kerala": {
            "blogLinks": [
                "http://www.nivalink.com/destination/hassan"
            ],
            "longitude": "77.6382683",
            "address": "New Life Kerala Mess, Sai Baba Mandira Road, Mottappanapalaya, Indiranagar, Bengaluru, Bangalore Urban, Karnataka, 560001, India",
            "latitude": "12.9726449",
            "locType": "restaurant",
            "closest_to": ""
        },
        "malpe": {
            "blogLinks": [
                "https://en.wikipedia.org/wiki/Tourism_in_Karnataka"
            ],
            "longitude": "74.7036914",
            "address": "Malpe, Udupi taluku, Udupi district, Karnataka, India",
            "latitude": "13.3507423",
            "locType": "village",
            "closest_to": ""
        },
        "bheemeshwari": {
            "blogLinks": [
                "https://en.wikipedia.org/wiki/Tourism_in_Karnataka"
            ],
            "longitude": "77.2778171",
            "address": "Bheemeshwari, Muttatti, Malavalli taluk, Mandya district, Karnataka, India",
            "latitude": "12.3124122",
            "locType": "locality",
            "closest_to": ""
        },
        "gokak": {
            "blogLinks": [
                "https://en.wikipedia.org/wiki/Tourism_in_Karnataka"
            ],
            "longitude": "74.8224338",
            "address": "Gokak, Gokak taluku, Belgaum district, Karnataka, 591307, India",
            "latitude": "16.1693033",
            "locType": "town",
            "closest_to": ""
        },
        "varur": {
            "blogLinks": [
                "https://en.wikipedia.org/wiki/Tourism_in_Karnataka"
            ],
            "longitude": "75.1387568",
            "address": "Varur, Hubballi taluku, Dharwad district, Karnataka, India",
            "latitude": "15.2077105",
            "locType": "village",
            "closest_to": ""
        },
        "gadag": {
            "blogLinks": [
                "https://en.wikipedia.org/wiki/Tourism_in_Karnataka",
                "http://www.mapsofindia.com/maps/karnataka/"
            ],
            "longitude": "75.6300786",
            "address": "Gadag, Gadag taluk, Gadag district, Karnataka, 582101, India",
            "latitude": "15.4263647",
            "locType": "town",
            "closest_to": ""
        },
        "hoysala": {
            "blogLinks": [
                "https://en.wikipedia.org/wiki/Tourism_in_Karnataka"
            ],
            "longitude": "77.6375990817051",
            "address": "Hoysala Nagar, Bengaluru, Bangalore Urban, Karnataka, 560001, India",
            "latitude": "12.97813815",
            "locType": "administrative",
            "closest_to": ""
        },
        "unchalli falls": {
            "blogLinks": [
                "https://en.wikipedia.org/wiki/Tourism_in_Karnataka"
            ],
            "longitude": "74.7477592",
            "address": "\u0c89\u0c82\u0c9a\u0cb3\u0ccd\u0cb3\u0cbf \u0c9c\u0cb2\u0caa\u0cbe\u0ca4, Siddapura taluk, Uttara Kannada, Karnataka, India",
            "latitude": "14.4097755",
            "locType": "waterfall",
            "closest_to": ""
        },
        "gudavi": {
            "blogLinks": [
                "https://en.wikipedia.org/wiki/Tourism_in_Karnataka"
            ],
            "longitude": "75.009649",
            "address": "Gudavi, Soraba taluk, Shimoga district, Karnataka, India",
            "latitude": "14.4400296",
            "locType": "village",
            "closest_to": ""
        },
        "gokarna": {
            "blogLinks": [
                "https://en.wikipedia.org/wiki/Tourism_in_Karnataka"
            ],
            "longitude": "74.3184418",
            "address": "Gokarna, Kumata taluk, Uttara Kannada, Karnataka, 581326, India",
            "latitude": "14.5439629",
            "locType": "town",
            "closest_to": ""
        },
        "district bagalkot": {
            "blogLinks": [
                "https://en.wikipedia.org/wiki/Tourism_in_Karnataka"
            ],
            "longitude": "75.6736388363024",
            "address": "District Commissioner's Office, Bagalkot, Navanagara, Bagalakote, Bagalakote taluk, Bagalkote district, Karnataka, India",
            "latitude": "16.16028195",
            "locType": "commercial",
            "closest_to": ""
        },
        "koppal district": {
            "blogLinks": [
                "https://en.wikipedia.org/wiki/Tourism_in_Karnataka"
            ],
            "longitude": "76.310639117029",
            "address": "Koppal district, Karnataka, India",
            "latitude": "15.57825725",
            "locType": "administrative",
            "closest_to": ""
        },
        "bangalore": {
            "blogLinks": [
                "http://www.mapsofindia.com/maps/karnataka/",
                "http://www.holidayiq.com/destinations/sakleshpur/",
                "https://en.wikipedia.org/wiki/Tourism_in_Karnataka",
                "http://www.nivalink.com/destination/hassan",
                "http://www.inditales.com/chitradurga-chandravalli-jogimatti/",
                "http://goindia.about.com/od/karnataka/tp/karnataka.htm",
                "https://en.wikipedia.org/wiki/Chitradurga_district"
            ],
            "longitude": "77.5912997",
            "address": "Bengaluru, Bangalore Urban, Karnataka, 560001, India",
            "latitude": "12.9791198",
            "locType": "city",
            "closest_to": ""
        },
        "ashoka road": {
            "blogLinks": [
                "http://www.holidayiq.com/destinations/sakleshpur/"
            ],
            "longitude": "77.6198454",
            "address": "Ashoka Road, Richards Town, St Thomastown, Bengaluru, Bangalore Urban, Karnataka, 560001, India",
            "latitude": "13.0033073",
            "locType": "residential",
            "closest_to": ""
        },
        "doddamakali": {
            "blogLinks": [
                "http://www.nivalink.com/destination/hassan"
            ],
            "longitude": "77.2173416",
            "address": "Doddamakali, Dalanakatte, Malavalli taluk, Mandya district, Karnataka, India",
            "latitude": "12.3096676",
            "locType": "locality",
            "closest_to": ""
        },
        "chamarajanagar": {
            "blogLinks": [
                "https://en.wikipedia.org/wiki/Tourism_in_Karnataka",
                "http://www.mapsofindia.com/maps/karnataka/"
            ],
            "longitude": "76.9331345",
            "address": "Chamarajanagar, Nanjangudu-Chamarajanagar Road, Kadahalli, Chamarajanagara taluk, Chamarajanagar district, Karnataka, 571313, India",
            "latitude": "11.9346624",
            "locType": "station",
            "closest_to": ""
        },
        "sagara taluk": {
            "blogLinks": [
                "https://en.wikipedia.org/wiki/Tourism_in_Karnataka"
            ],
            "longitude": "74.9610874491152",
            "address": "Sagara taluk, Shimoga district, Karnataka, India",
            "latitude": "14.09993045",
            "locType": "administrative",
            "closest_to": ""
        },
        "bagalkote": {
            "blogLinks": [
                "https://en.wikipedia.org/wiki/Tourism_in_Karnataka"
            ],
            "longitude": "75.5825586777167",
            "address": "Bagalkote district, Karnataka, India",
            "latitude": "16.28998085",
            "locType": "administrative",
            "closest_to": ""
        },
        "lakshmeshwar": {
            "blogLinks": [
                "https://en.wikipedia.org/wiki/Tourism_in_Karnataka"
            ],
            "longitude": "75.4741167",
            "address": "Lakshmeshwar KSRTC Bus stand, SH6, Bastibana, Lakshmeshvara, Shirahatti taluku, Gadag district, Karnataka, 582116, India",
            "latitude": "15.12373",
            "locType": "bus_station",
            "closest_to": ""
        },
        "sharavati": {
            "blogLinks": [
                "https://en.wikipedia.org/wiki/Tourism_in_Karnataka"
            ],
            "longitude": "74.7647294",
            "address": "Sharavati, Sagara taluk, Shimoga district, Karnataka, India",
            "latitude": "14.2360979",
            "locType": "river",
            "closest_to": ""
        },
        "kudalasangama": {
            "blogLinks": [
                "https://en.wikipedia.org/wiki/Tourism_in_Karnataka"
            ],
            "longitude": "76.0604244",
            "address": "Kudala Sangama, Hunagunda taluku, Bagalkote district, Karnataka, India",
            "latitude": "16.2033992",
            "locType": "village",
            "closest_to": ""
        },
        "kerala": {
            "blogLinks": [
                "http://www.mapsofindia.com/maps/karnataka/",
                "http://www.inditales.com/chitradurga-chandravalli-jogimatti/",
                "http://goindia.about.com/od/karnataka/tp/karnataka.htm"
            ],
            "longitude": "77.6382683",
            "address": "New Life Kerala Mess, Sai Baba Mandira Road, Mottappanapalaya, Indiranagar, Bengaluru, Bangalore Urban, Karnataka, 560001, India",
            "latitude": "12.9726449",
            "locType": "restaurant",
            "closest_to": ""
        },
        "tumkur road": {
            "blogLinks": [
                "http://www.inditales.com/chitradurga-chandravalli-jogimatti/"
            ],
            "longitude": "77.5360458",
            "address": "Tumkur Road, Goragunte Palya, Peenya, Bengaluru, Bangalore Urban, Karnataka, 560001, India",
            "latitude": "13.0311896",
            "locType": "trunk",
            "closest_to": ""
        },
        "south": {
            "blogLinks": [
                "https://en.wikipedia.org/wiki/Tourism_in_Karnataka",
                "http://www.nivalink.com/destination/hassan"
            ],
            "longitude": "77.8040874",
            "address": "s, Vijayapura, Devanahalli taluk, Bangalore Rural, Karnataka, 562135, India",
            "latitude": "13.2942848",
            "locType": "residential",
            "closest_to": ""
        },
        "anshi national park": {
            "blogLinks": [
                "https://en.wikipedia.org/wiki/Tourism_in_Karnataka"
            ],
            "longitude": "74.3934408094182",
            "address": "Anshi National Park, SH46, Bidoli, Joida taluk, Uttara Kannada, Karnataka, India",
            "latitude": "14.9994424",
            "locType": "national_park",
            "closest_to": ""
        },
        "nethrani island": {
            "blogLinks": [
                "https://en.wikipedia.org/wiki/Tourism_in_Karnataka"
            ],
            "longitude": "74.3272086675849",
            "address": "Netrani, Uttara Kannada, Karnataka, India",
            "latitude": "14.0174924",
            "locType": "island",
            "closest_to": ""
        },
        "bagalkot district": {
            "blogLinks": [
                "https://en.wikipedia.org/wiki/Tourism_in_Karnataka"
            ],
            "longitude": "75.6967919",
            "address": "Bagalakote, Bagalakote taluk, Bagalkote district, Karnataka, India",
            "latitude": "16.1853166",
            "locType": "city",
            "closest_to": ""
        },
        "kuknur": {
            "blogLinks": [
                "https://en.wikipedia.org/wiki/Tourism_in_Karnataka"
            ],
            "longitude": "75.9934934",
            "address": "Kukanura, Yelaburga taluku, Koppal district, Karnataka, 583232, India",
            "latitude": "15.4902753",
            "locType": "village",
            "closest_to": ""
        },
        "nilgiris": {
            "blogLinks": [
                "https://en.wikipedia.org/wiki/Tourism_in_Karnataka"
            ],
            "longitude": "77.6069792",
            "address": "Nilgiris, Brigade Road, Tasker Town, Ashok Nagar, Bengaluru, Bangalore Urban, Karnataka, 560001, India",
            "latitude": "12.9725052",
            "locType": "supermarket",
            "closest_to": ""
        },
        "bankpur fort": {
            "blogLinks": [
                "https://en.wikipedia.org/wiki/Tourism_in_Karnataka"
            ],
            "longitude": "75.2512090188504",
            "address": "Bankapura Fort, SH137, Guddada Channapura, Shiggaon taluk, Haveri district, Karnataka, 581202, India",
            "latitude": "14.9231815",
            "locType": "archaeological_site",
            "closest_to": ""
        },
        "mastikatte": {
            "blogLinks": [
                "https://en.wikipedia.org/wiki/Tourism_in_Karnataka"
            ],
            "longitude": "74.4604101",
            "address": "Mastikatte, Ankola taluk, Uttara Kannada, Karnataka, India",
            "latitude": "14.6857168",
            "locType": "village",
            "closest_to": ""
        },
        "chikkaballapur": {
            "blogLinks": [
                "http://www.mapsofindia.com/maps/karnataka/"
            ],
            "longitude": "77.7306866",
            "address": "Chikkaballapura, Chikkaballapura taluk, Chikkaballapura district, Karnataka, 562101, India",
            "latitude": "13.4352549",
            "locType": "town",
            "closest_to": ""
        },
        "shiggaon taluk": {
            "blogLinks": [
                "https://en.wikipedia.org/wiki/Tourism_in_Karnataka"
            ],
            "longitude": "75.1756764988777",
            "address": "Shiggaon taluk, Haveri district, Karnataka, India",
            "latitude": "15.0138079",
            "locType": "administrative",
            "closest_to": ""
        },
        "hubli airport": {
            "blogLinks": [
                "http://www.holidayiq.com/destinations/sakleshpur/"
            ],
            "longitude": "75.0860974",
            "address": "Hubli Airport, \u0c97\u0ccb\u0c95\u0cc1\u0cb2 \u0cb0\u0ccb\u0ca1\u0ccd, Padmaraj Nagar, Gokul, Hubballi taluku, Dharwad district, Karnataka, 580030, India",
            "latitude": "15.3598315",
            "locType": "aerodrome",
            "closest_to": ""
        },
        "netrani island of uttara kannada": {
            "blogLinks": [
                "https://en.wikipedia.org/wiki/Tourism_in_Karnataka"
            ],
            "longitude": "74.3272086675849",
            "address": "Netrani, Uttara Kannada, Karnataka, India",
            "latitude": "14.0174924",
            "locType": "island",
            "closest_to": ""
        },
        "rameshwara": {
            "blogLinks": [
                "http://www.nivalink.com/destination/hassan"
            ],
            "longitude": "77.5678621969321",
            "address": "Rameshwara Temple, Kranthikavi Sarvagnya Road, Rajajinagar 4th Block, Sriramapura, Bengaluru, Bangalore Urban, Karnataka, 560001, India",
            "latitude": "12.99365815",
            "locType": "place_of_worship",
            "closest_to": ""
        },
        "andhra pradesh": {
            "blogLinks": [
                "http://www.mapsofindia.com/maps/karnataka/",
                "http://www.inditales.com/chitradurga-chandravalli-jogimatti/",
                "http://www.holidayiq.com/Chitradurga-Sightseeing-650.html"
            ],
            "longitude": "79.3452447",
            "address": "Karnataka, West Mada Street, Srivari Temple, Tirumala, Chittoor, Andhra Pradesh, 517504, India",
            "latitude": "13.6841958",
            "locType": "hotel",
            "closest_to": ""
        },
        "kaveri": {
            "blogLinks": [
                "http://www.indiamike.com/india/karnataka-f38/places-to-go-in-south-karnataka-t102701/",
                "https://en.wikipedia.org/wiki/Tourism_in_Karnataka"
            ],
            "longitude": "77.0635531",
            "address": "Kaveri, Kollegala taluk, Chamarajanagar district, Karnataka, India",
            "latitude": "12.1687878",
            "locType": "river",
            "closest_to": ""
        },
        "bidar district": {
            "blogLinks": [
                "https://en.wikipedia.org/wiki/Tourism_in_Karnataka"
            ],
            "longitude": "77.2496344350342",
            "address": "Bidar district, Karnataka, India",
            "latitude": "18.0158574",
            "locType": "administrative",
            "closest_to": ""
        },
        "yeshwanthpur": {
            "blogLinks": [
                "http://www.holidayiq.com/destinations/sakleshpur/"
            ],
            "longitude": "77.5451161845771",
            "address": "Yeshwanthpur Yard market, Shankarnagar Main Road, Goragunte Palya, Nandini Layout, Bengaluru, Bangalore Urban, Karnataka, 560001, India",
            "latitude": "13.0159579",
            "locType": "marketplace",
            "closest_to": ""
        },
        "naganur": {
            "blogLinks": [
                "https://en.wikipedia.org/wiki/Tourism_in_Karnataka"
            ],
            "longitude": "74.4824431",
            "address": "Naganur, Hukkeri taluku, Belgaum district, Karnataka, India",
            "latitude": "16.073351",
            "locType": "village",
            "closest_to": ""
        },
        "afzalpur": {
            "blogLinks": [
                "https://en.wikipedia.org/wiki/Tourism_in_Karnataka"
            ],
            "longitude": "76.3605783",
            "address": "Afzalpur, Afzalpura taluku, Kalaburagi district, Karnataka, 585301, India",
            "latitude": "17.2005764",
            "locType": "town",
            "closest_to": ""
        },
        "sannati": {
            "blogLinks": [
                "https://en.wikipedia.org/wiki/Tourism_in_Karnataka"
            ],
            "longitude": "76.9080631",
            "address": "Sannati, Chitapura taluku, Kalaburagi district, Karnataka, India",
            "latitude": "16.8293201",
            "locType": "village",
            "closest_to": ""
        },
        "river cauvery": {
            "blogLinks": [
                "http://www.nivalink.com/destination/hassan",
                "https://en.wikipedia.org/wiki/Chitradurga_district"
            ],
            "longitude": "77.5832796015599",
            "address": "Cauvery, 1st Main Road, Lower Palace Orchard, Guttahalli, Bengaluru, Bangalore Urban, Karnataka, 560001, India",
            "latitude": "13.00262215",
            "locType": "cinema",
            "closest_to": ""
        },
        "bannerghatta": {
            "blogLinks": [
                "https://en.wikipedia.org/wiki/Tourism_in_Karnataka"
            ],
            "longitude": "77.5789509",
            "address": "Bannerghatta, Bangalore Urban, Karnataka, India",
            "latitude": "12.813337",
            "locType": "village",
            "closest_to": ""
        },
        "dharma river": {
            "blogLinks": [
                "https://en.wikipedia.org/wiki/Tourism_in_Karnataka"
            ],
            "longitude": "77.5575864485219",
            "address": "Dharma Naidu Udhyanavana, 44th cross, Rajajinagar 4th Block, Rajaji Nagar, Bengaluru, Bangalore Urban, Karnataka, 560001, India",
            "latitude": "12.98914885",
            "locType": "park",
            "closest_to": ""
        },
        "south karnataka": {
            "blogLinks": [
                "https://en.wikipedia.org/wiki/Tourism_in_Karnataka"
            ],
            "longitude": "77.8040874",
            "address": "s, Vijayapura, Devanahalli taluk, Bangalore Rural, Karnataka, 562135, India",
            "latitude": "13.2942848",
            "locType": "residential",
            "closest_to": ""
        },
        "arabhavi": {
            "blogLinks": [
                "https://en.wikipedia.org/wiki/Tourism_in_Karnataka"
            ],
            "longitude": "74.8213227",
            "address": "Arabhavi, Gokak taluku, Belgaum district, Karnataka, India",
            "latitude": "16.2193552",
            "locType": "village",
            "closest_to": ""
        },
        "banavasi": {
            "blogLinks": [
                "https://en.wikipedia.org/wiki/Tourism_in_Karnataka"
            ],
            "longitude": "75.0129845",
            "address": "Banavasi, Shirasi taluk, Uttara Kannada, Karnataka, India",
            "latitude": "14.5389738",
            "locType": "town",
            "closest_to": ""
        },
        "goa": {
            "blogLinks": [
                "https://en.wikipedia.org/wiki/Tourism_in_Karnataka",
                "http://www.holidayiq.com/destinations/sakleshpur/"
            ],
            "longitude": "77.6200027",
            "address": "Carnival De Goa, Bhaskaran Road, Gupta Layout, Halasuru, Bengaluru, Bangalore Urban, Karnataka, 560001, India",
            "latitude": "12.9750047",
            "locType": "restaurant",
            "closest_to": ""
        },
        "uttara kannada": {
            "blogLinks": [
                "https://en.wikipedia.org/wiki/Tourism_in_Karnataka",
                "http://www.distancesfrom.com/distance-from-Chitradurga-to-Hassan/DistanceHistory/25012.aspx"
            ],
            "longitude": "74.4729163045979",
            "address": "Uttara Kannada, Karnataka, India",
            "latitude": "14.6726379",
            "locType": "administrative",
            "closest_to": ""
        },
        "gulbarga district": {
            "blogLinks": [
                "https://en.wikipedia.org/wiki/Tourism_in_Karnataka"
            ],
            "longitude": "77.083333",
            "address": "Kalaburgi, Kalaburagi district, Karnataka, India",
            "latitude": "17.166667",
            "locType": "county",
            "closest_to": ""
        },
        "coastal karnataka": {
            "blogLinks": [
                "https://en.wikipedia.org/wiki/Tourism_in_Karnataka"
            ],
            "longitude": "74.8137275833157",
            "address": "Bharat Petroleum Mangalore Coastal Installation, Baikampady, Mangaluru taluk, Dakshina Kannada, Karnataka, 575014, India",
            "latitude": "12.96014675",
            "locType": "industrial",
            "closest_to": ""
        },
        "udipi": {
            "blogLinks": [
                "http://www.nivalink.com/destination/hassan"
            ],
            "longitude": "77.652888",
            "address": "Udipi Park, 2nd Cross Road, Muniyappa Layout, Murugeshpalaya, Belure Ambedkar Nagar, Bangalore Urban, Karnataka, 560067, India",
            "latitude": "12.9530588",
            "locType": "restaurant",
            "closest_to": ""
        },
        "gulbarga": {
            "blogLinks": [
                "https://en.wikipedia.org/wiki/Tourism_in_Karnataka",
                "http://www.mapsofindia.com/maps/karnataka/"
            ],
            "longitude": "77.083333",
            "address": "Kalaburgi, Kalaburagi district, Karnataka, India",
            "latitude": "17.166667",
            "locType": "county",
            "closest_to": ""
        },
        "bandipur": {
            "blogLinks": [
                "http://www.indiamike.com/india/karnataka-f38/places-to-go-in-south-karnataka-t102701/",
                "https://en.wikipedia.org/wiki/Tourism_in_Karnataka"
            ],
            "longitude": "76.6285739",
            "address": "Bandipur, Gundlupet taluk, Chamarajanagar district, Karnataka, India",
            "latitude": "11.6662708",
            "locType": "village",
            "closest_to": ""
        },
        "shirali": {
            "blogLinks": [
                "https://en.wikipedia.org/wiki/Tourism_in_Karnataka"
            ],
            "longitude": "74.5286591",
            "address": "Shirali, Bhatkala taluk, Uttara Kannada, Karnataka, 581354, India",
            "latitude": "14.0280925",
            "locType": "village",
            "closest_to": ""
        },
        "east": {
            "blogLinks": [
                "https://en.wikipedia.org/wiki/Tourism_in_Karnataka"
            ],
            "longitude": "77.6601401",
            "address": "East, 43, Velankani Drive, Electronics City Phase 1, Doddathoguru, Bangalore Urban, Karnataka, 560100, India",
            "latitude": "12.8504319",
            "locType": "restaurant",
            "closest_to": ""
        },
        "bannerghatta national park": {
            "blogLinks": [
                "https://en.wikipedia.org/wiki/Tourism_in_Karnataka"
            ],
            "longitude": "77.5722783830694",
            "address": "Bannerghatta National Park, Anekal Road, Begihalli, Bangalore Urban, Karnataka, 560076, India",
            "latitude": "12.77900335",
            "locType": "national_park",
            "closest_to": ""
        },
        "pattadakal": {
            "blogLinks": [
                "https://en.wikipedia.org/wiki/Tourism_in_Karnataka"
            ],
            "longitude": "75.815884048161",
            "address": "Pattadakal Temples, SH14, \u0cac\u0cbe\u0c9a\u0cbf\u0ca8\u0c97\u0cc1\u0ca1\u0ccd\u0ca1, Badami taluku, Bagalkote district, Karnataka, 587211, India",
            "latitude": "15.9506349",
            "locType": "attraction",
            "closest_to": ""
        },
        "mumbai": {
            "blogLinks": [
                "https://en.wikipedia.org/wiki/Chitradurga_district"
            ],
            "longitude": "77.5718472",
            "address": "Mumbai Spice, 18/2, 10th Cross, Malleswaram, Vyalikaval, Malleswaram, Bengaluru, Bangalore Urban, Karnataka, 560003, India",
            "latitude": "13.0002869",
            "locType": "restaurant",
            "closest_to": ""
        },
        "maharashtra": {
            "blogLinks": [
                "https://en.wikipedia.org/wiki/Tourism_in_Karnataka",
                "http://www.mapsofindia.com/maps/karnataka/",
                "http://www.inditales.com/chitradurga-chandravalli-jogimatti/",
                "http://www.holidayiq.com/destinations/sakleshpur/"
            ],
            "longitude": "77.5856013",
            "address": "Bank of Maharashtra, 24th Main, K R Layout, Puttenahalli, Bengaluru, Bangalore Urban, Karnataka, 560001, India",
            "latitude": "12.9049455",
            "locType": "bank",
            "closest_to": ""
        },
        "lakkundi": {
            "blogLinks": [
                "https://en.wikipedia.org/wiki/Tourism_in_Karnataka"
            ],
            "longitude": "76.4084687",
            "address": "Lakkundi, Muddebihala taluku, Bijapur district, Karnataka, India",
            "latitude": "16.5255464",
            "locType": "village",
            "closest_to": ""
        },
        "subramanya": {
            "blogLinks": [
                "https://en.wikipedia.org/wiki/Tourism_in_Karnataka"
            ],
            "longitude": "77.6015800913134",
            "address": "Subramanya Arcade, Marenahalli, Bengaluru, Bangalore Urban, Karnataka, 560001, India",
            "latitude": "12.9251206",
            "locType": "commercial",
            "closest_to": ""
        },
        "badami": {
            "blogLinks": [
                "https://en.wikipedia.org/wiki/Tourism_in_Karnataka",
                "http://goindia.about.com/od/karnataka/tp/karnataka.htm"
            ],
            "longitude": "75.6807865",
            "address": "Badami, Badami taluku, Bagalkote district, Karnataka, 587200, India",
            "latitude": "15.9203874",
            "locType": "town",
            "closest_to": ""
        },
        "dharwad": {
            "blogLinks": [
                "https://en.wikipedia.org/wiki/Tourism_in_Karnataka"
            ],
            "longitude": "75.0066516",
            "address": "Dharwad, Dharawada taluku, Dharwad district, Karnataka, 580001, India",
            "latitude": "15.4540505",
            "locType": "city",
            "closest_to": ""
        },
        "gadag district": {
            "blogLinks": [
                "https://en.wikipedia.org/wiki/Tourism_in_Karnataka"
            ],
            "longitude": "75.6807542794645",
            "address": "Gadag district, Karnataka, India",
            "latitude": "15.416337",
            "locType": "administrative",
            "closest_to": ""
        },
        "vijayanagara": {
            "blogLinks": [
                "https://en.wikipedia.org/wiki/Tourism_in_Karnataka",
                "https://en.wikipedia.org/wiki/Chitradurga_district"
            ],
            "longitude": "74.7380455",
            "address": "Vijayanagara, Chikodi taluk, Belgaum district, Karnataka, India",
            "latitude": "16.3270486",
            "locType": "village",
            "closest_to": ""
        },
        "botanical gardens": {
            "blogLinks": [
                "http://www.indiamike.com/india/karnataka-f38/places-to-go-in-south-karnataka-t102701/"
            ],
            "longitude": "77.5744817798899",
            "address": "Botanical Garden, Cart road, Judicial Layout, Jakkur, Bangalore Urban, Karnataka, 560065, India",
            "latitude": "13.08099125",
            "locType": "protected_area",
            "closest_to": ""
        },
        "udayavani": {
            "blogLinks": [
                "https://en.wikipedia.org/wiki/Chitradurga_district"
            ],
            "longitude": "77.6148055",
            "address": "Udayavani, Cubbon Road, Tasker Town, Ashok Nagar, Bengaluru, Bangalore Urban, Karnataka, 560001, India",
            "latitude": "12.9751718",
            "locType": "newspaper",
            "closest_to": ""
        },
        "kundapura": {
            "blogLinks": [
                "http://www.nivalink.com/destination/hassan"
            ],
            "longitude": "74.6915722",
            "address": "Kundapura, \u0c95\u0cc1\u0c82\u0ca6\u0cbe\u0caa\u0cc1\u0cb0 \u0ca4\u0cbe\u0cb2\u0cc2\u0c95\u0cc1, Udupi district, Karnataka, 576200, India",
            "latitude": "13.6250993",
            "locType": "town",
            "closest_to": ""
        },
        "belgaum fort": {
            "blogLinks": [
                "https://en.wikipedia.org/wiki/Tourism_in_Karnataka"
            ],
            "longitude": "74.5255651",
            "address": "Belgaum Fort, Belagavi, Belagavi taluku, Belgaum district, Karnataka, 590001, India",
            "latitude": "15.8581696",
            "locType": "locality",
            "closest_to": ""
        },
        "varadaraja": {
            "blogLinks": [
                "https://en.wikipedia.org/wiki/Tourism_in_Karnataka"
            ],
            "longitude": "77.5542736",
            "address": "Varadaraja Petrol / Gas Station, Dr. Rajkumar Road, Rajajinagar 1st Block, Subrahmanya Nagar, Bengaluru, Bangalore Urban, Karnataka, 560001, India",
            "latitude": "13.005885",
            "locType": "fuel",
            "closest_to": ""
        },
        "nippani": {
            "blogLinks": [
                "https://en.wikipedia.org/wiki/Tourism_in_Karnataka"
            ],
            "longitude": "74.3842372",
            "address": "Nippani, Chikodi taluk, Belgaum district, Karnataka, 591237, India",
            "latitude": "16.4020402",
            "locType": "town",
            "closest_to": ""
        },
        "brahmi": {
            "blogLinks": [
                "https://en.wikipedia.org/wiki/Chitradurga_district"
            ],
            "longitude": "77.5641994467667",
            "address": "MES Kishore Kendra, 10th Main Road, Vyalikaval, Gayatri Nagar, Bengaluru, Bangalore Urban, Karnataka, 560055, India",
            "latitude": "13.00475195",
            "locType": "school",
            "closest_to": ""
        },
        "udupi": {
            "blogLinks": [
                "https://en.wikipedia.org/wiki/Tourism_in_Karnataka"
            ],
            "longitude": "74.7473232",
            "address": "Udupi, Udupi taluku, Udupi district, Karnataka, 576101, India",
            "latitude": "13.3419169",
            "locType": "city",
            "closest_to": ""
        },
        "ghataprabha river": {
            "blogLinks": [
                "https://en.wikipedia.org/wiki/Tourism_in_Karnataka"
            ],
            "longitude": "74.9165235",
            "address": "Ghataprabha, Gokak taluku, Belgaum district, Karnataka, India",
            "latitude": "16.2124344",
            "locType": "river",
            "closest_to": ""
        },
        "belgaum": {
            "blogLinks": [
                "https://en.wikipedia.org/wiki/Tourism_in_Karnataka"
            ],
            "longitude": "74.75",
            "address": "Belgaum, Belgaum district, Karnataka, India",
            "latitude": "16.333333",
            "locType": "county",
            "closest_to": ""
        }
    }
}