{
    "mentions": {
        "badami": {
            "closest_to": "",
            "address": "Badami, Badami taluku, Bagalkote district, Karnataka, 587200, India",
            "longitude": "75.6807865",
            "latitude": "15.9203874",
            "blogLinks": [
                "https://www.tripoto.com/places-to-visit/india/karnataka"
            ],
            "locType": "town"
        },
        "coimbatore": {
            "closest_to": "",
            "address": "Gundlupet - Coimbatore Highway, Bandipur, Gundlupet taluk, Chamarajanagar district, Karnataka, India",
            "longitude": "76.6318246",
            "latitude": "11.6793976",
            "blogLinks": [
                "http://www.mouthshut.com/review/Mysore-review-rrmrponq",
                "https://www.tripoto.com/places-to-visit/india/karnataka"
            ],
            "locType": "trunk"
        },
        "himavad gopalaswamy betta": {
            "closest_to": "",
            "address": "Gopalaswami Temple, Gopal Swami Betta road, Devarahalli, Gundlupet taluk, Chamarajanagar district, Karnataka, India",
            "longitude": "76.5804063",
            "latitude": "11.7206016",
            "blogLinks": [
                "https://www.tripoto.com/places-to-visit/india/karnataka"
            ],
            "locType": "place_of_worship"
        },
        "ramanagar district": {
            "closest_to": "",
            "address": "Ramanagar-Kanakapura Road, Avverahalli, Ramanagara taluk, Ramanagara district, Karnataka, 562159, India",
            "longitude": "77.3418018",
            "latitude": "12.649356",
            "blogLinks": [
                "https://www.tripoto.com/places-to-visit/india/karnataka"
            ],
            "locType": "primary"
        },
        "maharashtra": {
            "closest_to": "",
            "address": "Bank of Maharashtra, 24th Main, K R Layout, Puttenahalli, Bengaluru, Bangalore Urban, Karnataka, 560001, India",
            "longitude": "77.5856013",
            "latitude": "12.9049455",
            "blogLinks": [
                "http://www.holidayiq.com/destinations/sakleshpur/",
                "http://gandhadaguditravels.blogspot.com/2013/11/bangalore-arasikere-shimoga-tirthalli.html",
                "https://www.tripoto.com/places-to-visit/india/karnataka"
            ],
            "locType": "bank"
        },
        "mysore - mandya": {
            "closest_to": "",
            "address": "Mysore Road, Somanahalli, Madduru taluk, Mandya district, Karnataka, 571428, India",
            "longitude": "77.0544201",
            "latitude": "12.6121234",
            "blogLinks": [
                "https://www.tripoto.com/places-to-visit/india/karnataka"
            ],
            "locType": "trunk"
        },
        "south": {
            "closest_to": "",
            "address": "s, Vijayapura, Devanahalli taluk, Bangalore Rural, Karnataka, 562135, India",
            "longitude": "77.8040874",
            "latitude": "13.2942848",
            "blogLinks": [
                "https://www.tripoto.com/places-to-visit/india/karnataka"
            ],
            "locType": "residential"
        },
        "goa karnataka": {
            "closest_to": "",
            "address": "Carnival De Goa, Bhaskaran Road, Gupta Layout, Halasuru, Bengaluru, Bangalore Urban, Karnataka, 560001, India",
            "longitude": "77.6200027",
            "latitude": "12.9750047",
            "blogLinks": [
                "https://www.tripoto.com/places-to-visit/india/karnataka"
            ],
            "locType": "restaurant"
        },
        "north bangalore": {
            "closest_to": "",
            "address": "N, Chaithanya Samarpan, Kadugodi, Kannamangala, Bangalore Urban, Karnataka, 560066, India",
            "longitude": "77.7660547",
            "latitude": "13.0217151",
            "blogLinks": [
                "http://praveenpn.com/blog/2011/01/05/bangalore-to-goa-by-car/"
            ],
            "locType": "service"
        },
        "hyderabad": {
            "closest_to": "",
            "address": "Hyderabad Road, Old City, Bidar, Bidar taluku, Bidar district, Karnataka, 585400, India",
            "longitude": "77.5344002",
            "latitude": "17.9003114",
            "blogLinks": [
                "https://www.tripoto.com/places-to-visit/india/karnataka"
            ],
            "locType": "primary"
        },
        "kudalasangama": {
            "closest_to": "",
            "address": "Kudala Sangama, Hunagunda taluku, Bagalkote district, Karnataka, India",
            "longitude": "76.0604244",
            "latitude": "16.2033992",
            "blogLinks": [
                "http://visitingplacesofgreatindia.blogspot.com/2013/05/shimoga-district-karnataka.html"
            ],
            "locType": "village"
        },
        "sharadamba temple": {
            "closest_to": "",
            "address": "Sharadamba Temple, 7th Main Road, Yediyur, Thyagaraja Nagar, Bengaluru, Bangalore Urban, Karnataka, 560001, India",
            "longitude": "77.5656194",
            "latitude": "12.9321898",
            "blogLinks": [
                "http://www.udipikrishnamutt.com/tour-packages/id/25",
                "https://www.tripoto.com/places-to-visit/india/karnataka"
            ],
            "locType": "place_of_worship"
        },
        "bagalkot district": {
            "closest_to": "",
            "address": "Bagalakote, Bagalakote taluk, Bagalkote district, Karnataka, India",
            "longitude": "75.6967919",
            "latitude": "16.1853166",
            "blogLinks": [
                "https://www.tripoto.com/places-to-visit/india/karnataka"
            ],
            "locType": "city"
        },
        "tagore park": {
            "closest_to": "",
            "address": "Rabindranath Tagore Nagar, Bengaluru, Bangalore Urban, Karnataka, 560001, India",
            "longitude": "77.595715",
            "latitude": "13.0227204",
            "blogLinks": [
                "https://www.thrillophilia.com/places-to-visit-near-mangalore"
            ],
            "locType": "suburb"
        },
        "gaganachukki": {
            "closest_to": "",
            "address": "Gaganachukki Falls, Malavalli taluk, Mandya district, Karnataka, India",
            "longitude": "77.1684763",
            "latitude": "12.2933696",
            "blogLinks": [
                "https://www.tripoto.com/places-to-visit/india/karnataka"
            ],
            "locType": "waterfall"
        },
        "karanji lake": {
            "closest_to": "",
            "address": "Karanji, Aurad taluku, Bidar district, Karnataka, India",
            "longitude": "77.5474867",
            "latitude": "18.2681849",
            "blogLinks": [
                "https://www.tripoto.com/places-to-visit/india/karnataka"
            ],
            "locType": "village"
        },
        "uttara kannada": {
            "closest_to": "",
            "address": "Uttara Kannada, Karnataka, India",
            "longitude": "74.4729163045979",
            "latitude": "14.6726379",
            "blogLinks": [
                "http://visitingplacesofgreatindia.blogspot.com/2013/05/shimoga-district-karnataka.html"
            ],
            "locType": "administrative"
        },
        "cauvery river": {
            "closest_to": "",
            "address": "Temple Trees Rd, Cauvery Colony, ST Bed Layout, Koramangala, Bengaluru, Bangalore Urban, Karnataka, 560001, India",
            "longitude": "77.635647",
            "latitude": "12.9327668",
            "blogLinks": [
                "https://www.tripoto.com/places-to-visit/india/karnataka"
            ],
            "locType": "unclassified"
        },
        "kanakapura taluk": {
            "closest_to": "",
            "address": "Kanakapura taluk, Ramanagara district, Karnataka, India",
            "longitude": "77.4224204245398",
            "latitude": "12.5199223",
            "blogLinks": [
                "https://www.tripoto.com/places-to-visit/india/karnataka"
            ],
            "locType": "administrative"
        },
        "rose garden": {
            "closest_to": "",
            "address": "Rose Garden, Dr B R Ambedkar Veedhi, Shantala Nagar, Gandhinagar, Bengaluru, Bangalore Urban, Karnataka, 560001, India",
            "longitude": "77.590382853852",
            "latitude": "12.97371325",
            "blogLinks": [
                "https://www.tripoto.com/places-to-visit/india/karnataka"
            ],
            "locType": "garden"
        },
        "gandhi": {
            "closest_to": "",
            "address": "Karnataka High Court, Dr B R Ambedkar Veedhi, Shantala Nagar, Gandhinagar, Bengaluru, Bangalore Urban, Karnataka, 560001, India",
            "longitude": "77.5925914",
            "latitude": "12.977944",
            "blogLinks": [
                "http://visitingplacesofgreatindia.blogspot.com/2013/05/shimoga-district-karnataka.html"
            ],
            "locType": "courthouse"
        },
        "pune": {
            "closest_to": "",
            "address": "Pune - Machilipatnam Highway, Kaudiyala, Basavakalyana taluku, Bidar district, Karnataka, India",
            "longitude": "76.9479122",
            "latitude": "17.8199745",
            "blogLinks": [
                "https://www.tripoto.com/places-to-visit/india/karnataka"
            ],
            "locType": "trunk"
        },
        "orissa": {
            "closest_to": "",
            "address": "Little Orissa, 18th Main Road, Babasaheb Colony, Kodihalli, Bengaluru, Bangalore Urban, Karnataka, 560001, India",
            "longitude": "77.6448007",
            "latitude": "12.9622425",
            "blogLinks": [
                "https://www.tripoto.com/places-to-visit/india/karnataka"
            ],
            "locType": "restaurant"
        },
        "england": {
            "closest_to": "",
            "address": "Peter England Factory, Bommanahalli, Bengaluru, Bangalore Urban, Karnataka, 560001, India",
            "longitude": "77.6219969678622",
            "latitude": "12.90120185",
            "blogLinks": [
                "https://www.tripoto.com/places-to-visit/india/karnataka"
            ],
            "locType": "industrial"
        },
        "brindaban gardens": {
            "closest_to": "",
            "address": "Brindaban Apartments, Hosur Road, Sadgunte Palya, Adugodi, Bengaluru, Bangalore Urban, Karnataka, 560030, India",
            "longitude": "77.6097138932437",
            "latitude": "12.9384553",
            "blogLinks": [
                "https://www.tripoto.com/places-to-visit/india/karnataka"
            ],
            "locType": "yes"
        },
        "maharastra": {
            "closest_to": "",
            "address": "Maharastra Bank, 7th Main Road, BTM Layout 2nd Stage, BTM Layout, Bengaluru, Bangalore Urban, Karnataka, 560001, India",
            "longitude": "77.606263",
            "latitude": "12.9132591",
            "blogLinks": [
                "http://praveenpn.com/blog/2011/01/05/bangalore-to-goa-by-car/"
            ],
            "locType": "atm"
        },
        "chunchi falls": {
            "closest_to": "",
            "address": "Chunchi Falls, Kanakapura taluk, Ramanagara district, Karnataka, India",
            "longitude": "77.4459464",
            "latitude": "12.3515083",
            "blogLinks": [
                "https://www.tripoto.com/places-to-visit/india/karnataka"
            ],
            "locType": "waterfall"
        },
        "panaji": {
            "closest_to": "",
            "address": "Belgaum - Panaji Highway, Londa, Khanapura taluku, Belgaum district, Karnataka, India",
            "longitude": "74.4876784",
            "latitude": "15.4422981",
            "blogLinks": [
                "https://www.tripoto.com/places-to-visit/india/karnataka"
            ],
            "locType": "trunk"
        },
        "palace gardens": {
            "closest_to": "",
            "address": "Bangalore Palace, Jayamahal Road, Jayamahal Extension, Jayamahal, Bengaluru, Bangalore Urban, Karnataka, 560001, India",
            "longitude": "77.5920094892276",
            "latitude": "12.9985963",
            "blogLinks": [
                "https://www.tripoto.com/places-to-visit/india/karnataka"
            ],
            "locType": "attraction"
        },
        "sharavathi valley": {
            "closest_to": "",
            "address": "Sharavathi Block, National Games Village Road, Ambedkar Nagar, Ejipura, Bengaluru, Bangalore Urban, Karnataka, 560001, India",
            "longitude": "77.6216184337102",
            "latitude": "12.9464709",
            "blogLinks": [
                "https://www.tripoto.com/places-to-visit/india/karnataka"
            ],
            "locType": "yes"
        },
        "hubli": {
            "closest_to": "",
            "address": "Hubballi - \u0cb9\u0cc1\u0cac\u0ccd\u0cac\u0cb3\u0ccd\u0cb3\u0cbf, Hubballi taluku, Dharwad district, Karnataka, 580020, India",
            "longitude": "75.1379848",
            "latitude": "15.3518378",
            "blogLinks": [
                "http://praveenpn.com/blog/2011/01/05/bangalore-to-goa-by-car/",
                "http://visitingplacesofgreatindia.blogspot.com/2013/05/shimoga-district-karnataka.html",
                "http://www.nivalink.com/destination/chitradurga"
            ],
            "locType": "city"
        },
        "basaveshwara": {
            "closest_to": "",
            "address": "Basaveshwara Nagara, Old Shahabad, Chitapura taluku, Kalaburagi district, Karnataka, India",
            "longitude": "76.9311912",
            "latitude": "17.1294741",
            "blogLinks": [
                "http://visitingplacesofgreatindia.blogspot.com/2013/05/shimoga-district-karnataka.html"
            ],
            "locType": "locality"
        },
        "bandipur": {
            "closest_to": "",
            "address": "Bandipur, Gundlupet taluk, Chamarajanagar district, Karnataka, India",
            "longitude": "76.6285739",
            "latitude": "11.6662708",
            "blogLinks": [
                "http://www.mouthshut.com/review/Mysore-review-rrmrponq",
                "https://www.tripoto.com/places-to-visit/india/karnataka"
            ],
            "locType": "village"
        },
        "kalyani": {
            "closest_to": "",
            "address": "Kalyani, Neeladri Road, Electronics City Phase 1, Bettadasana Pura, Bangalore Urban, Karnataka, 560100, India",
            "longitude": "77.6286090192686",
            "latitude": "12.8406466",
            "blogLinks": [
                "https://www.tripoto.com/places-to-visit/india/karnataka"
            ],
            "locType": "water"
        },
        "bangalore city": {
            "closest_to": "",
            "address": "Bengaluru, Bangalore Urban, Karnataka, 560001, India",
            "longitude": "77.5912997",
            "latitude": "12.9791198",
            "blogLinks": [
                "http://visitingplacesofgreatindia.blogspot.com/2013/05/shimoga-district-karnataka.html"
            ],
            "locType": "city"
        },
        "shiva temple": {
            "closest_to": "",
            "address": "Shiva Temple, Mangammanapalaya Main Road, Sector 2, HSR Layout, Bengaluru, Bangalore Urban, Karnataka, 560001, India",
            "longitude": "77.6406296",
            "latitude": "12.9046749",
            "blogLinks": [
                "https://www.tripoto.com/places-to-visit/india/karnataka"
            ],
            "locType": "place_of_worship"
        },
        "east": {
            "closest_to": "",
            "address": "East, 43, Velankani Drive, Electronics City Phase 1, Doddathoguru, Bangalore Urban, Karnataka, 560100, India",
            "longitude": "77.6601401",
            "latitude": "12.8504319",
            "blogLinks": [
                "https://www.thrillophilia.com/places-to-visit-near-mangalore"
            ],
            "locType": "restaurant"
        },
        "summer palace": {
            "closest_to": "",
            "address": "Tippu's Summer Palace, A V Road, Ranasingpet, Kalasipalya, Bengaluru, Bangalore Urban, Karnataka, 560 002, India",
            "longitude": "77.5736841970666",
            "latitude": "12.95964655",
            "blogLinks": [
                "https://www.tripoto.com/places-to-visit/india/karnataka"
            ],
            "locType": "attraction"
        },
        "silk town of karnataka": {
            "closest_to": "",
            "address": "Sara: The Silk Store, Museum Road, Shantala Nagar, Ashok Nagar, Bengaluru, Bangalore Urban, Karnataka, 560001, India",
            "longitude": "77.6026229",
            "latitude": "12.975886",
            "blogLinks": [
                "https://www.tripoto.com/places-to-visit/india/karnataka"
            ],
            "locType": "fabric"
        },
        "sharavathi river": {
            "closest_to": "",
            "address": "Sharavathi Block, National Games Village Road, Ambedkar Nagar, Ejipura, Bengaluru, Bangalore Urban, Karnataka, 560001, India",
            "longitude": "77.6216184337102",
            "latitude": "12.9464709",
            "blogLinks": [
                "https://www.tripoto.com/places-to-visit/india/karnataka"
            ],
            "locType": "yes"
        },
        "south karnataka": {
            "closest_to": "",
            "address": "s, Vijayapura, Devanahalli taluk, Bangalore Rural, Karnataka, 562135, India",
            "longitude": "77.8040874",
            "latitude": "13.2942848",
            "blogLinks": [
                "http://wikitravel.org/en/Chikmagalur"
            ],
            "locType": "residential"
        },
        "nadu": {
            "closest_to": "",
            "address": "Tamil Nadu Marcantile Bank, Mahatma Gandhi Road, Gowthampuram, Ashok Nagar, Bengaluru, Bangalore Urban, Karnataka, 560001, India",
            "longitude": "77.6163313",
            "latitude": "12.9734064",
            "blogLinks": [
                "https://www.tripoto.com/places-to-visit/india/karnataka"
            ],
            "locType": "bank"
        },
        "kaveri": {
            "closest_to": "",
            "address": "Kaveri, Kollegala taluk, Chamarajanagar district, Karnataka, India",
            "longitude": "77.0635531",
            "latitude": "12.1687878",
            "blogLinks": [
                "https://www.tripoto.com/places-to-visit/india/karnataka"
            ],
            "locType": "river"
        },
        "chandragupta maurya": {
            "closest_to": "",
            "address": "Chandragupta Maurya playground, 11 Main (Sri Aurobindo Marg), Jayanagar 4th Block, Jayanagar, Bengaluru, Bangalore Urban, Karnataka, 560001, India",
            "longitude": "77.585340318101",
            "latitude": "12.92084805",
            "blogLinks": [
                "https://www.tripoto.com/places-to-visit/india/karnataka"
            ],
            "locType": "pitch"
        },
        "paradise beach": {
            "closest_to": "",
            "address": "Paradise Beach, Om beach road, Gokarna, Kumata taluk, Uttara Kannada, Karnataka, 581326, India",
            "longitude": "74.3375798576938",
            "latitude": "14.5181133",
            "blogLinks": [
                "https://www.tripoto.com/places-to-visit/india/karnataka"
            ],
            "locType": "beach"
        },
        "udipi": {
            "closest_to": "",
            "address": "Udipi Park, 2nd Cross Road, Muniyappa Layout, Murugeshpalaya, Belure Ambedkar Nagar, Bangalore Urban, Karnataka, 560067, India",
            "longitude": "77.652888",
            "latitude": "12.9530588",
            "blogLinks": [
                "http://www.nivalink.com/destination/chitradurga"
            ],
            "locType": "restaurant"
        },
        "bangalore east": {
            "closest_to": "",
            "address": "Bengaluru, Bangalore Urban, Karnataka, 560001, India",
            "longitude": "77.5912997",
            "latitude": "12.9791198",
            "blogLinks": [
                "http://praveenpn.com/blog/2011/01/05/bangalore-to-goa-by-car/"
            ],
            "locType": "city"
        },
        "north canara": {
            "closest_to": "",
            "address": "Canara, 4th Cross, Ashwath Nagar, Marathahalli, Sitaramapalya, Bangalore Urban, Karnataka, 560037, India",
            "longitude": "77.7027141",
            "latitude": "12.9582803",
            "blogLinks": [
                "http://visitingplacesofgreatindia.blogspot.com/2013/05/shimoga-district-karnataka.html"
            ],
            "locType": "atm"
        },
        "sangama": {
            "closest_to": "",
            "address": "Sangam, SH92, Mahalli, Kanakapura taluk, Ramanagara district, Karnataka, India",
            "longitude": "77.4320447",
            "latitude": "12.2880428",
            "blogLinks": [
                "https://www.tripoto.com/places-to-visit/india/karnataka"
            ],
            "locType": "attraction"
        },
        "vedanta": {
            "closest_to": "",
            "address": "Vedanta Mandir Road, Yediyur, Basavanagudi, Bengaluru, Bangalore Urban, Karnataka, 560001, India",
            "longitude": "77.5810054",
            "latitude": "12.9376453",
            "blogLinks": [
                "http://www.holidayiq.com/destinations/mangalore/"
            ],
            "locType": "residential"
        },
        "bangalore": {
            "closest_to": "",
            "address": "Bengaluru, Bangalore Urban, Karnataka, 560001, India",
            "longitude": "77.5912997",
            "latitude": "12.9791198",
            "blogLinks": [
                "http://praveenpn.com/blog/2011/01/05/bangalore-to-goa-by-car/",
                "http://www.nivalink.com/destination/chitradurga",
                "http://gandhadaguditravels.blogspot.com/2013/11/bangalore-arasikere-shimoga-tirthalli.html",
                "http://visitingplacesofgreatindia.blogspot.com/2013/05/shimoga-district-karnataka.html",
                "http://www.holidayiq.com/destinations/sakleshpur/",
                "http://www.mouthshut.com/review/Mysore-review-rrmrponq",
                "http://wikitravel.org/en/Chikmagalur",
                "http://www.mouthshut.com/review/Horanadu-review-olntpmmutm",
                "https://www.tripoto.com/places-to-visit/india/karnataka",
                "https://www.thrillophilia.com/places-to-visit-near-mangalore"
            ],
            "locType": "city"
        },
        "lakshmi": {
            "closest_to": "",
            "address": "Lakshmi, Tavarekere Main Road, Sadgunte Palya, Madivala, Bengaluru, Bangalore Urban, Karnataka, 560001, India",
            "longitude": "77.6075298044091",
            "latitude": "12.9251835",
            "blogLinks": [
                "http://visitingplacesofgreatindia.blogspot.com/2013/05/shimoga-district-karnataka.html",
                "https://www.tripoto.com/places-to-visit/india/karnataka"
            ],
            "locType": "cinema"
        },
        "lalbagh botanical garden": {
            "closest_to": "",
            "address": "Lalbagh Botanical Gardens, Siddapura Road, Mavalli, Someshwaranagar, Bengaluru, Bangalore Urban, Karnataka, 560001, India",
            "longitude": "77.5869868789796",
            "latitude": "12.9489367",
            "blogLinks": [
                "https://www.tripoto.com/places-to-visit/india/karnataka"
            ],
            "locType": "attraction"
        },
        "bangalore highway": {
            "closest_to": "",
            "address": "Bengaluru, Bangalore Urban, Karnataka, 560001, India",
            "longitude": "77.5912997",
            "latitude": "12.9791198",
            "blogLinks": [
                "https://www.tripoto.com/places-to-visit/india/karnataka"
            ],
            "locType": "city"
        },
        "tumkur road": {
            "closest_to": "",
            "address": "Tumkur Road, Goragunte Palya, Peenya, Bengaluru, Bangalore Urban, Karnataka, 560001, India",
            "longitude": "77.5360458",
            "latitude": "13.0311896",
            "blogLinks": [
                "https://www.tripoto.com/places-to-visit/india/karnataka"
            ],
            "locType": "trunk"
        },
        "bannerghatta road": {
            "closest_to": "",
            "address": "Bannerghatta Road, MICO Layout, BTM Layout, Bengaluru, Bangalore Urban, Karnataka, 560001, India",
            "longitude": "77.6003196",
            "latitude": "12.9088191",
            "blogLinks": [
                "https://www.tripoto.com/places-to-visit/india/karnataka"
            ],
            "locType": "trunk"
        },
        "indiranagar": {
            "closest_to": "",
            "address": "Indiranagar, Humanabad taluku, Bidar district, Karnataka, India",
            "longitude": "77.1889052",
            "latitude": "17.7569637",
            "blogLinks": [
                "https://www.tripoto.com/places-to-visit/india/karnataka"
            ],
            "locType": "village"
        },
        "cubbon park": {
            "closest_to": "",
            "address": "Cubbon Park, Cubbon Road, Tasker Town, Shivajinagar, Bengaluru, Bangalore Urban, Karnataka, 560001, India",
            "longitude": "77.5977565",
            "latitude": "12.9808487",
            "blogLinks": [
                "https://www.tripoto.com/places-to-visit/india/karnataka"
            ],
            "locType": "station"
        },
        "national highway": {
            "closest_to": "",
            "address": "National Gallery of Modern Arts (NGMA), Palace Road, Chakravarty Layout, Vasantnagar, Bengaluru, Bangalore Urban, Karnataka, 560001, India",
            "longitude": "77.5881178995539",
            "latitude": "12.9893108",
            "blogLinks": [
                "http://visitingplacesofgreatindia.blogspot.com/2013/05/shimoga-district-karnataka.html"
            ],
            "locType": "museum"
        },
        "north karnataka": {
            "closest_to": "",
            "address": "N, Chaithanya Samarpan, Kadugodi, Kannamangala, Bangalore Urban, Karnataka, 560066, India",
            "longitude": "77.7660547",
            "latitude": "13.0217151",
            "blogLinks": [
                "https://www.tripoto.com/places-to-visit/india/karnataka"
            ],
            "locType": "service"
        },
        "chamundeshwari temple": {
            "closest_to": "",
            "address": "Chamundeshwari Temple, Nagarathpet Main Road, Ganigarpet, Chickpet, Bengaluru, Bangalore Urban, Karnataka, 560001, India",
            "longitude": "77.5793319839087",
            "latitude": "12.96746475",
            "blogLinks": [
                "https://www.tripoto.com/places-to-visit/india/karnataka"
            ],
            "locType": "place_of_worship"
        },
        "rain-tree": {
            "closest_to": "",
            "address": "Rain Tree, 3rd Main Road, Defence Colony, Hoysala Nagar, Bengaluru, Bangalore Urban, Karnataka, 560001, India",
            "longitude": "77.6414765",
            "latitude": "12.9757365",
            "blogLinks": [
                "https://www.tripoto.com/places-to-visit/india/karnataka"
            ],
            "locType": "tree"
        },
        "veerabhadreshwara": {
            "closest_to": "",
            "address": "Sri Veerabhadreshwara Temple, 4th Cross, BEL Colony, Thindlu, Bengaluru, Bangalore Urban, Karnataka, 560001, India",
            "longitude": "77.5667309",
            "latitude": "13.0719157",
            "blogLinks": [
                "http://visitingplacesofgreatindia.blogspot.com/2013/05/shimoga-district-karnataka.html"
            ],
            "locType": "place_of_worship"
        },
        "kamat hotel": {
            "closest_to": "",
            "address": "Kamat Hotel, Subhas Road, Saidapur, Kamalapura, Dharwad, Dharawada taluku, Dharwad district, Karnataka, 580001, India",
            "longitude": "75.0131542",
            "latitude": "15.4595482",
            "blogLinks": [
                "http://praveenpn.com/blog/2011/01/05/bangalore-to-goa-by-car/"
            ],
            "locType": "restaurant"
        },
        "kaveri river": {
            "closest_to": "",
            "address": "Kaveri, Malavalli taluk, Mandya district, Karnataka, India",
            "longitude": "77.1600751",
            "latitude": "12.2873835",
            "blogLinks": [
                "https://www.tripoto.com/places-to-visit/india/karnataka"
            ],
            "locType": "river"
        },
        "aihole": {
            "closest_to": "",
            "address": "Aihole, Hunagunda taluku, Bagalkote district, Karnataka, India",
            "longitude": "75.8819129",
            "latitude": "16.0192298",
            "blogLinks": [
                "https://www.tripoto.com/places-to-visit/india/karnataka"
            ],
            "locType": "village"
        },
        "zostel": {
            "closest_to": "",
            "address": "Zostel, Car St., Gokarna, Kumata taluk, Uttara Kannada, Karnataka, 581326, India",
            "longitude": "74.3148548",
            "latitude": "14.5399074",
            "blogLinks": [
                "https://www.tripoto.com/places-to-visit/india/karnataka"
            ],
            "locType": "hotel"
        },
        "mumbai": {
            "closest_to": "",
            "address": "Mumbai Spice, 18/2, 10th Cross, Malleswaram, Vyalikaval, Malleswaram, Bengaluru, Bangalore Urban, Karnataka, 560003, India",
            "longitude": "77.5718472",
            "latitude": "13.0002869",
            "blogLinks": [
                "https://www.tripoto.com/places-to-visit/india/karnataka"
            ],
            "locType": "restaurant"
        },
        "bombay": {
            "closest_to": "",
            "address": "Bombay tea hotel, Hosahalli Main Road, Rajajinagar 6th Block, Goripalya, Bengaluru, Bangalore Urban, Karnataka, 560001, India",
            "longitude": "77.5500256",
            "latitude": "12.9632318",
            "blogLinks": [
                "https://www.tripoto.com/places-to-visit/india/karnataka"
            ],
            "locType": "cafe"
        },
        "om beach": {
            "closest_to": "",
            "address": "Om Beach, Om beach road, Gokarna, Kumata taluk, Uttara Kannada, Karnataka, 581326, India",
            "longitude": "74.3254331800289",
            "latitude": "14.5190376",
            "blogLinks": [
                "https://www.tripoto.com/places-to-visit/india/karnataka"
            ],
            "locType": "beach"
        },
        "gundlupet": {
            "closest_to": "",
            "address": "Gundlupet, Gundlupet taluk, Chamarajanagar district, Karnataka, 571111, India",
            "longitude": "76.6916141",
            "latitude": "11.808496",
            "blogLinks": [
                "http://gandhadaguditravels.blogspot.com/2013/11/bangalore-arasikere-shimoga-tirthalli.html",
                "https://www.tripoto.com/places-to-visit/india/karnataka"
            ],
            "locType": "town"
        },
        "shaneshwara temple": {
            "closest_to": "",
            "address": "Shaneshwara Temple, Chord Road, Vinayaka Layout, Byataranyapura, Bengaluru, Bangalore Urban, Karnataka, 560001, India",
            "longitude": "77.5368963",
            "latitude": "12.9519559",
            "blogLinks": [
                "http://gandhadaguditravels.blogspot.com/2013/11/bangalore-arasikere-shimoga-tirthalli.html"
            ],
            "locType": "place_of_worship"
        },
        "ramanagara district": {
            "closest_to": "",
            "address": "Ramanagara district, Karnataka, India",
            "longitude": "77.3194722401066",
            "latitude": "12.71338445",
            "blogLinks": [
                "https://www.tripoto.com/places-to-visit/india/karnataka"
            ],
            "locType": "administrative"
        },
        "modern india": {
            "closest_to": "",
            "address": "National Gallery of Modern Arts (NGMA), Palace Road, Chakravarty Layout, Vasantnagar, Bengaluru, Bangalore Urban, Karnataka, 560001, India",
            "longitude": "77.5881178995539",
            "latitude": "12.9893108",
            "blogLinks": [
                "https://www.tripoto.com/places-to-visit/india/karnataka"
            ],
            "locType": "museum"
        },
        "vijaynagar": {
            "closest_to": "",
            "address": "Vijaynagar, Chord Road, Marenahalli, Vijaya Nagar, Binny Layout, Bangalore Urban, Karnataka, 560040, India",
            "longitude": "77.5376657",
            "latitude": "12.9720356",
            "blogLinks": [
                "https://www.tripoto.com/places-to-visit/india/karnataka"
            ],
            "locType": "bus_stop"
        },
        "bellary road": {
            "closest_to": "",
            "address": "Bellary Road, Kanaka Nagar, Hebbal, Bengaluru, Bangalore Urban, Karnataka, 560001, India",
            "longitude": "77.5915237",
            "latitude": "13.0465345",
            "blogLinks": [
                "https://www.tripoto.com/places-to-visit/india/karnataka"
            ],
            "locType": "trunk"
        },
        "margao": {
            "closest_to": "",
            "address": "Karnataka bank, NH66, Aquem, Fatorda, Margao, South Goa, Goa, 403600, India",
            "longitude": "73.9583411",
            "latitude": "15.2740083",
            "blogLinks": [
                "http://praveenpn.com/blog/2011/01/05/bangalore-to-goa-by-car/"
            ],
            "locType": "bank"
        },
        "richmond place": {
            "closest_to": "",
            "address": "Richmond Road, Gowthampuram, Ashok Nagar, Bengaluru, Bangalore Urban, Karnataka, 560001, India",
            "longitude": "77.617066",
            "latitude": "12.970097",
            "blogLinks": [
                "https://www.tripoto.com/places-to-visit/india/karnataka"
            ],
            "locType": "primary"
        },
        "' river sharavathi": {
            "closest_to": "",
            "address": "Vrishabavathi, Bengaluru, Bangalore Urban, Karnataka, 560001, India",
            "longitude": "77.5476521",
            "latitude": "12.967526",
            "blogLinks": [
                "http://visitingplacesofgreatindia.blogspot.com/2013/05/shimoga-district-karnataka.html"
            ],
            "locType": "river"
        },
        "pyramid valley": {
            "closest_to": "",
            "address": "Pyramid Valley International, Kanakapura Road, Vaderahalli, Kanakapura taluk, Ramanagara district, Karnataka, India",
            "longitude": "77.4934813",
            "latitude": "12.7001678",
            "blogLinks": [
                "https://www.tripoto.com/places-to-visit/india/karnataka"
            ],
            "locType": "attraction"
        },
        "bengal": {
            "closest_to": "",
            "address": "Bengal Lamps, Konadasapura, Bangalore Urban, Karnataka, 560066, India",
            "longitude": "77.7517038151245",
            "latitude": "13.0492646",
            "blogLinks": [
                "https://www.tripoto.com/places-to-visit/india/karnataka"
            ],
            "locType": "industrial"
        },
        "karavalli": {
            "closest_to": "",
            "address": "Karavalli, FM Cariappa Road (Residency Road), Tasker Town, Ashok Nagar, Bengaluru, Bangalore Urban, Karnataka, 560001, India",
            "longitude": "77.608763",
            "latitude": "12.9724724",
            "blogLinks": [
                "https://www.tripoto.com/places-to-visit/india/karnataka"
            ],
            "locType": "restaurant"
        },
        "goa": {
            "closest_to": "",
            "address": "Carnival De Goa, Bhaskaran Road, Gupta Layout, Halasuru, Bengaluru, Bangalore Urban, Karnataka, 560001, India",
            "longitude": "77.6200027",
            "latitude": "12.9750047",
            "blogLinks": [
                "http://www.holidayiq.com/destinations/sakleshpur/",
                "http://praveenpn.com/blog/2011/01/05/bangalore-to-goa-by-car/",
                "http://distancecalculator.globefeed.com/India_Distance_Calculator.asp?state=19",
                "http://visitingplacesofgreatindia.blogspot.com/2013/05/shimoga-district-karnataka.html",
                "https://www.tripoto.com/places-to-visit/india/karnataka"
            ],
            "locType": "restaurant"
        },
        "shivalaya": {
            "closest_to": "",
            "address": "Sri Kanyaka Parameshwari & Shivalaya, 8th Cross Road, Old Thippasandra, Indiranagar, Bengaluru, Bangalore Urban, Karnataka, 560001, India",
            "longitude": "77.645704",
            "latitude": "12.9692508",
            "blogLinks": [
                "http://visitingplacesofgreatindia.blogspot.com/2013/05/shimoga-district-karnataka.html"
            ],
            "locType": "place_of_worship"
        },
        "bengaluru": {
            "closest_to": "",
            "address": "Bengaluru, Bangalore Urban, Karnataka, 560001, India",
            "longitude": "77.5912997",
            "latitude": "12.9791198",
            "blogLinks": [
                "https://www.tripoto.com/places-to-visit/india/karnataka"
            ],
            "locType": "city"
        },
        "bijapur": {
            "closest_to": "",
            "address": "Vijayapura, Vijayapura taluk, Bijapur district, Karnataka, 586101, India",
            "longitude": "75.7175387",
            "latitude": "16.8269911",
            "blogLinks": [
                "http://gandhadaguditravels.blogspot.com/2013/11/bangalore-arasikere-shimoga-tirthalli.html",
                "http://visitingplacesofgreatindia.blogspot.com/2013/05/shimoga-district-karnataka.html",
                "https://www.tripoto.com/places-to-visit/india/karnataka"
            ],
            "locType": "city"
        },
        "old madras road": {
            "closest_to": "",
            "address": "Old Madras Road, Devasandra, ITI Colony, Garudacharpalya, Bangalore Urban, Karnataka, 560048, India",
            "longitude": "77.689988",
            "latitude": "13.0076952",
            "blogLinks": [
                "https://www.tripoto.com/places-to-visit/india/karnataka"
            ],
            "locType": "trunk"
        },
        "gokarna beach": {
            "closest_to": "",
            "address": "Gokarna Beach, Gokarna Road, Ganji Gadde, Kumata taluk, Uttara Kannada, Karnataka, 581326, India",
            "longitude": "74.3109489488919",
            "latitude": "14.5516537",
            "blogLinks": [
                "https://www.tripoto.com/places-to-visit/india/karnataka"
            ],
            "locType": "beach"
        },
        "gokarna": {
            "closest_to": "",
            "address": "Gokarna, Kumata taluk, Uttara Kannada, Karnataka, 581326, India",
            "longitude": "74.3184418",
            "latitude": "14.5439629",
            "blogLinks": [
                "https://www.tripoto.com/places-to-visit/india/karnataka"
            ],
            "locType": "town"
        },
        "somanathapura": {
            "closest_to": "",
            "address": "Somanathapura, Bagepalli taluk, Chikkaballapura district, Karnataka, India",
            "longitude": "77.9957587",
            "latitude": "13.75905",
            "blogLinks": [
                "https://www.tripoto.com/places-to-visit/india/karnataka"
            ],
            "locType": "village"
        },
        "garden city": {
            "closest_to": "",
            "address": "Karnataka Bank, Postal Colony 2nd Street, Postal Colony, Ashok Nagar, Chennai City Corporation Limits, Chennai district, Tamil Nadu, 600033, India",
            "longitude": "80.2197941",
            "latitude": "13.0365141",
            "blogLinks": [
                "https://www.tripoto.com/places-to-visit/india/karnataka"
            ],
            "locType": "bank"
        },
        "delhi": {
            "closest_to": "",
            "address": "Outer Ring Road, Green Glen Layout, Iblur, Bengaluru, Bangalore Urban, Karnataka, 560001, India",
            "longitude": "77.6666062",
            "latitude": "12.9212473",
            "blogLinks": [
                "https://www.tripoto.com/places-to-visit/india/karnataka"
            ],
            "locType": "trunk"
        },
        "subramanya": {
            "closest_to": "",
            "address": "Subramanya Arcade, Marenahalli, Bengaluru, Bangalore Urban, Karnataka, 560001, India",
            "longitude": "77.6015800913134",
            "latitude": "12.9251206",
            "blogLinks": [
                "https://www.thrillophilia.com/places-to-visit-near-mangalore",
                "https://www.tripoto.com/places-to-visit/india/karnataka"
            ],
            "locType": "commercial"
        },
        "uttarahalli": {
            "closest_to": "",
            "address": "Uttarahalli, Bengaluru, Bangalore Urban, Karnataka, 560001, India",
            "longitude": "77.5455438",
            "latitude": "12.9055682",
            "blogLinks": [
                "https://www.tripoto.com/places-to-visit/india/karnataka"
            ],
            "locType": "suburb"
        },
        "mysore road": {
            "closest_to": "",
            "address": "Mysore Road, Avalahalli, Bengaluru, Bangalore Urban, Karnataka, 560001, India",
            "longitude": "77.5337558",
            "latitude": "12.9477396",
            "blogLinks": [
                "https://www.tripoto.com/places-to-visit/india/karnataka"
            ],
            "locType": "trunk"
        },
        "varanasi": {
            "closest_to": "",
            "address": "Varanasi, Bangalore Urban, Karnataka, India",
            "longitude": "77.6860657",
            "latitude": "13.0304962",
            "blogLinks": [
                "http://visitingplacesofgreatindia.blogspot.com/2013/05/shimoga-district-karnataka.html",
                "https://www.tripoto.com/places-to-visit/india/karnataka"
            ],
            "locType": "village"
        },
        "river kaveri": {
            "closest_to": "",
            "address": "Kaveri, Kollegala taluk, Chamarajanagar district, Karnataka, India",
            "longitude": "77.0635531",
            "latitude": "12.1687878",
            "blogLinks": [
                "https://www.tripoto.com/places-to-visit/india/karnataka"
            ],
            "locType": "river"
        },
        "chamundeshwari": {
            "closest_to": "",
            "address": "Chamundeshwari, Chidananda Maharashi Ashram Road, Sampangi Rama Nagara, MacIvor Town, Bengaluru, Bangalore Urban, Karnataka, 560027, India",
            "longitude": "77.5924927",
            "latitude": "12.9658588",
            "blogLinks": [
                "https://www.tripoto.com/places-to-visit/india/karnataka"
            ],
            "locType": "clothes"
        },
        "karnatka": {
            "closest_to": "",
            "address": "Karnatka Rajya Kaigarika Sahakari Bank, Bull Temple Road, Mavalli, Chamarajapete, Bengaluru, Bangalore Urban, Karnataka, 560001, India",
            "longitude": "77.5679508",
            "latitude": "12.9500847",
            "blogLinks": [
                "https://www.tripoto.com/places-to-visit/india/karnataka"
            ],
            "locType": "bank"
        },
        "castle rock": {
            "closest_to": "",
            "address": "Castle Rock, Joida taluk, Uttara Kannada, Karnataka, India",
            "longitude": "74.3347387",
            "latitude": "15.3942582",
            "blogLinks": [
                "https://www.tripoto.com/places-to-visit/india/karnataka"
            ],
            "locType": "village"
        },
        "yeshwanthpur": {
            "closest_to": "",
            "address": "Yeshwanthpur Yard market, Shankarnagar Main Road, Goragunte Palya, Nandini Layout, Bengaluru, Bangalore Urban, Karnataka, 560001, India",
            "longitude": "77.5451161845771",
            "latitude": "13.0159579",
            "blogLinks": [
                "http://www.holidayiq.com/destinations/sakleshpur/"
            ],
            "locType": "marketplace"
        },
        "windsor": {
            "closest_to": "",
            "address": "Windsor, 12th Main Road, HAL 2nd Stage, Indiranagar, Bengaluru, Bangalore Urban, Karnataka, 560001, India",
            "longitude": "77.6392137",
            "latitude": "12.9698614",
            "blogLinks": [
                "https://www.tripoto.com/places-to-visit/india/karnataka"
            ],
            "locType": "pub"
        },
        "north western": {
            "closest_to": "",
            "address": "South Western Railways Offices, Kamaripet, Hubballi - \u0cb9\u0cc1\u0cac\u0ccd\u0cac\u0cb3\u0ccd\u0cb3\u0cbf, Hubballi taluku, Dharwad district, Karnataka, 580020, India",
            "longitude": "75.1458521440593",
            "latitude": "15.35527435",
            "blogLinks": [
                "https://www.tripoto.com/places-to-visit/india/karnataka"
            ],
            "locType": "commercial"
        },
        "half moon beach": {
            "closest_to": "",
            "address": "Half Moon Beach, Om beach road, Gokarna, Kumata taluk, Uttara Kannada, Karnataka, 581326, India",
            "longitude": "74.3310971256284",
            "latitude": "14.5179028",
            "blogLinks": [
                "https://www.tripoto.com/places-to-visit/india/karnataka"
            ],
            "locType": "beach"
        },
        "durga temple": {
            "closest_to": "",
            "address": "Durga Temple, 29th Main, Mahadeshwara Nagara, BTM Layout, Bengaluru, Bangalore Urban, Karnataka, 560001, India",
            "longitude": "77.6125928",
            "latitude": "12.9057731",
            "blogLinks": [
                "https://www.tripoto.com/places-to-visit/india/karnataka"
            ],
            "locType": "place_of_worship"
        },
        "hoysala": {
            "closest_to": "",
            "address": "Hoysala Nagar, Bengaluru, Bangalore Urban, Karnataka, 560001, India",
            "longitude": "77.6375990817051",
            "latitude": "12.97813815",
            "blogLinks": [
                "http://visitingplacesofgreatindia.blogspot.com/2013/05/shimoga-district-karnataka.html",
                "https://www.tripoto.com/places-to-visit/india/karnataka"
            ],
            "locType": "administrative"
        },
        "cauvery": {
            "closest_to": "",
            "address": "Cauvery, 1st Main Road, Lower Palace Orchard, Guttahalli, Bengaluru, Bangalore Urban, Karnataka, 560001, India",
            "longitude": "77.5832796015599",
            "latitude": "13.00262215",
            "blogLinks": [
                "http://www.mouthshut.com/review/Mysore-review-rrmrponq"
            ],
            "locType": "cinema"
        },
        "kanva reservoir": {
            "closest_to": "",
            "address": "Kanva Reservoir, Chamanahalli, Ramanagara taluk, Ramanagara district, Karnataka, India",
            "longitude": "77.2039784730662",
            "latitude": "12.73575",
            "blogLinks": [
                "https://www.tripoto.com/places-to-visit/india/karnataka"
            ],
            "locType": "reservoir"
        },
        "sangam": {
            "closest_to": "",
            "address": "Sangam, FM Cariappa Road (Residency Road), Shantala Nagar, MacIvor Town, Bengaluru, Bangalore Urban, Karnataka, 560001, India",
            "longitude": "77.6065672",
            "latitude": "12.9718928",
            "blogLinks": [
                "https://www.tripoto.com/places-to-visit/india/karnataka"
            ],
            "locType": "restaurant"
        },
        "dattatreya temple": {
            "closest_to": "",
            "address": "Dattatreya Temple, 7th Main Road, Seven Hills Layout, Ittamadu, Bengaluru, Bangalore Urban, Karnataka, 560001, India",
            "longitude": "77.5401435953887",
            "latitude": "12.92479825",
            "blogLinks": [
                "https://www.tripoto.com/places-to-visit/india/karnataka"
            ],
            "locType": "place_of_worship"
        },
        "londa": {
            "closest_to": "",
            "address": "Londa, Khanapura taluku, Belgaum district, Karnataka, India",
            "longitude": "74.4932422",
            "latitude": "15.4524311",
            "blogLinks": [
                "https://www.tripoto.com/places-to-visit/india/karnataka"
            ],
            "locType": "village"
        },
        "chennai": {
            "closest_to": "",
            "address": "Karnataka Bank, Postal Colony 2nd Street, Postal Colony, Ashok Nagar, Chennai City Corporation Limits, Chennai district, Tamil Nadu, 600033, India",
            "longitude": "80.2197941",
            "latitude": "13.0365141",
            "blogLinks": [
                "http://gandhadaguditravels.blogspot.com/2013/11/bangalore-arasikere-shimoga-tirthalli.html",
                "https://www.tripoto.com/places-to-visit/india/karnataka"
            ],
            "locType": "bank"
        },
        "kerala": {
            "closest_to": "",
            "address": "New Life Kerala Mess, Sai Baba Mandira Road, Mottappanapalaya, Indiranagar, Bengaluru, Bangalore Urban, Karnataka, 560001, India",
            "longitude": "77.6382683",
            "latitude": "12.9726449",
            "blogLinks": [
                "http://www.holidayiq.com/destinations/mangalore/",
                "http://www.mouthshut.com/review/Mysore-review-rrmrponq",
                "http://visitingplacesofgreatindia.blogspot.com/2013/05/shimoga-district-karnataka.html",
                "https://www.tripoto.com/places-to-visit/india/karnataka"
            ],
            "locType": "restaurant"
        },
        "palace": {
            "closest_to": "",
            "address": "Bangalore Palace, Jayamahal Road, Jayamahal Extension, Jayamahal, Bengaluru, Bangalore Urban, Karnataka, 560001, India",
            "longitude": "77.5920094892276",
            "latitude": "12.9985963",
            "blogLinks": [
                "http://www.mouthshut.com/review/Mysore-review-rrmrponq"
            ],
            "locType": "attraction"
        },
        "pattadakal": {
            "closest_to": "",
            "address": "Pattadakal Temples, SH14, \u0cac\u0cbe\u0c9a\u0cbf\u0ca8\u0c97\u0cc1\u0ca1\u0ccd\u0ca1, Badami taluku, Bagalkote district, Karnataka, 587211, India",
            "longitude": "75.815884048161",
            "latitude": "15.9506349",
            "blogLinks": [
                "https://www.tripoto.com/places-to-visit/india/karnataka"
            ],
            "locType": "attraction"
        },
        "betageri": {
            "closest_to": "",
            "address": "Betageri, Gokak taluku, Belgaum district, Karnataka, India",
            "longitude": "74.9538058",
            "latitude": "16.1144865",
            "blogLinks": [
                "https://www.tripoto.com/places-to-visit/india/karnataka"
            ],
            "locType": "village"
        },
        "yediyur": {
            "closest_to": "",
            "address": "Yediyur, Bangalore Urban, Karnataka, India",
            "longitude": "77.6957681",
            "latitude": "13.1312237",
            "blogLinks": [
                "http://gandhadaguditravels.blogspot.com/2013/11/bangalore-arasikere-shimoga-tirthalli.html"
            ],
            "locType": "village"
        },
        "kudle": {
            "closest_to": "",
            "address": "Kudle Ocean Front resort, Om beach road, Gokarna, Kumata taluk, Uttara Kannada, Karnataka, 581326, India",
            "longitude": "74.3178853",
            "latitude": "14.5290707",
            "blogLinks": [
                "https://www.tripoto.com/places-to-visit/india/karnataka"
            ],
            "locType": "hotel"
        },
        "kuvempu": {
            "closest_to": "",
            "address": "Kuvempu, Kengeri Main Road, ITI Layout, Jnana Bharathi, Nagadevanahalli, Bangalore Urban, Karnataka, 560056, India",
            "longitude": "77.5064032",
            "latitude": "12.9560369",
            "blogLinks": [
                "http://visitingplacesofgreatindia.blogspot.com/2013/05/shimoga-district-karnataka.html"
            ],
            "locType": "artwork"
        },
        "pushpagiri": {
            "closest_to": "",
            "address": "Pushpagiri Nagar, Bengaluru, Bangalore Urban, Karnataka, 560001, India",
            "longitude": "77.5333268",
            "latitude": "12.9297622",
            "blogLinks": [
                "https://www.tripoto.com/places-to-visit/india/karnataka"
            ],
            "locType": "locality"
        },
        "dasara": {
            "closest_to": "",
            "address": "Dasara Timmanahalli, Srinivasapura taluku, Kolar district, Karnataka, India",
            "longitude": "78.2900684",
            "latitude": "13.372046",
            "blogLinks": [
                "http://www.mouthshut.com/review/Mysore-review-rrmrponq"
            ],
            "locType": "village"
        },
        "ramanagar": {
            "closest_to": "",
            "address": "Ramanagar-Kanakapura Road, Avverahalli, Ramanagara taluk, Ramanagara district, Karnataka, 562159, India",
            "longitude": "77.3418018",
            "latitude": "12.649356",
            "blogLinks": [
                "https://www.tripoto.com/places-to-visit/india/karnataka"
            ],
            "locType": "primary"
        },
        "shaneshwara": {
            "closest_to": "",
            "address": "Shaneshwara Temple, Chord Road, Vinayaka Layout, Byataranyapura, Bengaluru, Bangalore Urban, Karnataka, 560001, India",
            "longitude": "77.5368963",
            "latitude": "12.9519559",
            "blogLinks": [
                "http://gandhadaguditravels.blogspot.com/2013/11/bangalore-arasikere-shimoga-tirthalli.html"
            ],
            "locType": "place_of_worship"
        },
        "sharavathi": {
            "closest_to": "",
            "address": "Sharavathi Block, National Games Village Road, Ambedkar Nagar, Ejipura, Bengaluru, Bangalore Urban, Karnataka, 560001, India",
            "longitude": "77.6216184337102",
            "latitude": "12.9464709",
            "blogLinks": [
                "http://visitingplacesofgreatindia.blogspot.com/2013/05/shimoga-district-karnataka.html",
                "https://www.tripoto.com/places-to-visit/india/karnataka"
            ],
            "locType": "yes"
        },
        "river cauvery": {
            "closest_to": "",
            "address": "Cauvery, 1st Main Road, Lower Palace Orchard, Guttahalli, Bengaluru, Bangalore Urban, Karnataka, 560001, India",
            "longitude": "77.5832796015599",
            "latitude": "13.00262215",
            "blogLinks": [
                "https://www.tripoto.com/places-to-visit/india/karnataka"
            ],
            "locType": "cinema"
        },
        "west": {
            "closest_to": "",
            "address": "w, Balmuri Main Road, Hulimavu,, Bannerghatta Road, Mico Arekere Layout 1st Stage, Hulimavu, Bengaluru, Bangalore Urban, Karnataka, 560076, India",
            "longitude": "77.5960999",
            "latitude": "12.8759384",
            "blogLinks": [
                "https://www.thrillophilia.com/places-to-visit-near-mangalore"
            ],
            "locType": "clothes"
        },
        "northern karnataka": {
            "closest_to": "",
            "address": "Northern Operating  Services Pvt Ltd, RMZ Ecospace, Internal Rd, RMZ Ecospace, Bellandur, Doddakannelli, Bangalore Urban, Karnataka, 560037, India",
            "longitude": "77.6804678",
            "latitude": "12.9257442",
            "blogLinks": [
                "http://visitingplacesofgreatindia.blogspot.com/2013/05/shimoga-district-karnataka.html",
                "https://www.tripoto.com/places-to-visit/india/karnataka"
            ],
            "locType": "company"
        },
        "fort": {
            "closest_to": "",
            "address": "Fort, Rauza, Kalaburagi, Gulbarga taluku, Kalaburagi district, Karnataka, 585101, India",
            "longitude": "76.8313091",
            "latitude": "17.3439629",
            "blogLinks": [
                "https://www.tripoto.com/places-to-visit/india/karnataka"
            ],
            "locType": "neighbourhood"
        },
        "sharadamba": {
            "closest_to": "",
            "address": "Sharadamba Temple, 7th Main Road, Yediyur, Thyagaraja Nagar, Bengaluru, Bangalore Urban, Karnataka, 560001, India",
            "longitude": "77.5656194",
            "latitude": "12.9321898",
            "blogLinks": [
                "http://visitingplacesofgreatindia.blogspot.com/2013/05/shimoga-district-karnataka.html"
            ],
            "locType": "place_of_worship"
        },
        "kudle beach": {
            "closest_to": "",
            "address": "Kudle Beach, Om beach road, Gokarna, Kumata taluk, Uttara Kannada, Karnataka, 581326, India",
            "longitude": "74.3156783937192",
            "latitude": "14.5281015",
            "blogLinks": [
                "https://www.tripoto.com/places-to-visit/india/karnataka"
            ],
            "locType": "beach"
        },
        "nataraja": {
            "closest_to": "",
            "address": "Nataraja, Sirur Park Road, Vyalikaval, Seshadripuram, Bengaluru, Bangalore Urban, Karnataka, 560001, India",
            "longitude": "77.5730381173154",
            "latitude": "12.9900332",
            "blogLinks": [
                "https://www.tripoto.com/places-to-visit/india/karnataka"
            ],
            "locType": "cinema"
        },
        "swaswara": {
            "closest_to": "",
            "address": "Swaswara, Om beach road, Gokarna, Kumata taluk, Uttara Kannada, Karnataka, 581326, India",
            "longitude": "74.3201237772373",
            "latitude": "14.5212941",
            "blogLinks": [
                "https://www.tripoto.com/places-to-visit/india/karnataka"
            ],
            "locType": "hotel"
        },
        "andhra pradesh": {
            "closest_to": "",
            "address": "Karnataka, West Mada Street, Srivari Temple, Tirumala, Chittoor, Andhra Pradesh, 517504, India",
            "longitude": "79.3452447",
            "latitude": "13.6841958",
            "blogLinks": [
                "https://www.tripoto.com/places-to-visit/india/karnataka"
            ],
            "locType": "hotel"
        },
        "karwar": {
            "closest_to": "",
            "address": "Karwar, Karavara taluk, Uttara Kannada, Karnataka, 581300, India",
            "longitude": "74.1319229",
            "latitude": "14.8120931",
            "blogLinks": [
                "http://praveenpn.com/blog/2011/01/05/bangalore-to-goa-by-car/",
                "https://www.tripoto.com/places-to-visit/india/karnataka"
            ],
            "locType": "town"
        },
        "tamil nadu": {
            "closest_to": "",
            "address": "KARNATAKA BANK, Diwan Bhadur Road, Five Corner, RS Puram, Coimbatore, Coimbatore district, Tamil Nadu, 641001, India",
            "longitude": "76.9514152",
            "latitude": "11.0025894",
            "blogLinks": [
                "http://www.mouthshut.com/review/Mysore-review-rrmrponq",
                "https://www.tripoto.com/places-to-visit/india/karnataka"
            ],
            "locType": "bank"
        },
        "mallikarjuna temple": {
            "closest_to": "",
            "address": "Mallikarjuna Temple, SH135, Nelavagi, Badami taluku, Bagalkote district, Karnataka, India",
            "longitude": "75.7213492",
            "latitude": "15.9321101",
            "blogLinks": [
                "http://gandhadaguditravels.blogspot.com/2013/11/bangalore-arasikere-shimoga-tirthalli.html",
                "https://www.tripoto.com/places-to-visit/india/karnataka"
            ],
            "locType": "place_of_worship"
        },
        "earth": {
            "closest_to": "",
            "address": "Bharat Earth Movers Limited - BEML, GM Palya, Bengaluru, Bangalore Urban, Karnataka, 560001, India",
            "longitude": "77.659986649248",
            "latitude": "12.9740596",
            "blogLinks": [
                "https://www.tripoto.com/places-to-visit/india/karnataka"
            ],
            "locType": "industrial"
        },
        "venugopalaswamy": {
            "closest_to": "",
            "address": "Venugopalaswamy Temple Street, Konena Agrahara, Vimanapura, Belure Ambedkar Nagar, Bangalore Urban, Karnataka, 560037, India",
            "longitude": "77.6615183",
            "latitude": "12.9592241",
            "blogLinks": [
                "https://www.tripoto.com/places-to-visit/india/karnataka"
            ],
            "locType": "living_street"
        },
        "aranya bhavan": {
            "closest_to": "",
            "address": "Aranya Bhavan, CV Raman Road, Vyalikaval, Malleswaram, Bengaluru, Bangalore Urban, Karnataka, 560001, India",
            "longitude": "77.5708195101909",
            "latitude": "13.01061485",
            "blogLinks": [
                "http://gandhadaguditravels.blogspot.com/2013/11/bangalore-arasikere-shimoga-tirthalli.html"
            ],
            "locType": "public_building"
        },
        "hosur road": {
            "closest_to": "",
            "address": "Hosur Road, BTM 2nd Stage, Bommanahalli, Bengaluru, Bangalore Urban, Karnataka, 560001, India",
            "longitude": "77.6241106",
            "latitude": "12.9147705",
            "blogLinks": [
                "https://www.tripoto.com/places-to-visit/india/karnataka"
            ],
            "locType": "trunk"
        },
        "hanuman temple": {
            "closest_to": "",
            "address": "Hanuman Temple, 1st Cross Road, MEI Colony, Peenya, Bengaluru, Bangalore Urban, Karnataka, 560001, India",
            "longitude": "77.5273276",
            "latitude": "13.0343487",
            "blogLinks": [
                "https://www.tripoto.com/places-to-visit/india/karnataka"
            ],
            "locType": "place_of_worship"
        },
        "park": {
            "closest_to": "",
            "address": "park, 34th Cross Road, Tilak Nagar, Marenahalli, Bengaluru, Bangalore Urban, Karnataka, 560001, India",
            "longitude": "77.5957945764651",
            "latitude": "12.92511275",
            "blogLinks": [
                "http://gandhadaguditravels.blogspot.com/2013/11/bangalore-arasikere-shimoga-tirthalli.html"
            ],
            "locType": "park"
        },
        "venkateshwara temple": {
            "closest_to": "",
            "address": "Venkateshwara Temple, C J Venkatesa Das Road, Seven Hills Layout, Padmanabha Nagar, Bengaluru, Bangalore Urban, Karnataka, 560001, India",
            "longitude": "77.5588384",
            "latitude": "12.9167091",
            "blogLinks": [
                "https://www.tripoto.com/places-to-visit/india/karnataka"
            ],
            "locType": "place_of_worship"
        },
        "state highway": {
            "closest_to": "",
            "address": "Karnataka Bank, Mount Poonamallee Highway, Sri Laxmi Nagar, Ramapuram, Chennai City Corporation Limits, Kanchipuram, Thiruvallur district, Tamil Nadu, 600125, India",
            "longitude": "80.161486",
            "latitude": "13.0330479",
            "blogLinks": [
                "https://www.tripoto.com/places-to-visit/india/karnataka"
            ],
            "locType": "atm"
        },
        "botanical gardens": {
            "closest_to": "",
            "address": "Botanical Garden, Cart road, Judicial Layout, Jakkur, Bangalore Urban, Karnataka, 560065, India",
            "longitude": "77.5744817798899",
            "latitude": "13.08099125",
            "blogLinks": [
                "https://www.tripoto.com/places-to-visit/india/karnataka"
            ],
            "locType": "protected_area"
        },
        "' river cauvery": {
            "closest_to": "",
            "address": "Cauvery, 1st Main Road, Lower Palace Orchard, Guttahalli, Bengaluru, Bangalore Urban, Karnataka, 560001, India",
            "longitude": "77.5832796015599",
            "latitude": "13.00262215",
            "blogLinks": [
                "https://www.tripoto.com/places-to-visit/india/karnataka"
            ],
            "locType": "cinema"
        },
        "bannerghatta national park": {
            "closest_to": "",
            "address": "Bannerghatta National Park, Anekal Road, Begihalli, Bangalore Urban, Karnataka, 560076, India",
            "longitude": "77.5722783830694",
            "latitude": "12.77900335",
            "blogLinks": [
                "https://www.tripoto.com/places-to-visit/india/karnataka"
            ],
            "locType": "national_park"
        },
        "ritz carlton": {
            "closest_to": "",
            "address": "Ritz Carlton, FM Cariappa Road (Residency Road), Shantala Nagar, MacIvor Town, Bengaluru, Bangalore Urban, Karnataka, 560001, India",
            "longitude": "77.6015963682898",
            "latitude": "12.9677378",
            "blogLinks": [
                "https://www.tripoto.com/places-to-visit/india/karnataka"
            ],
            "locType": "hotel"
        },
        "tibet": {
            "closest_to": "",
            "address": "Tibet Bazaar, Brigade Road, Tasker Town, Ashok Nagar, Bengaluru, Bangalore Urban, Karnataka, 560001, India",
            "longitude": "77.6068828",
            "latitude": "12.9722398",
            "blogLinks": [
                "https://www.tripoto.com/places-to-visit/india/karnataka"
            ],
            "locType": "supermarket"
        },
        "lalbagh rock": {
            "closest_to": "",
            "address": "Lalbagh Rock, Siddapura Road, Mavalli, Someshwaranagar, Bengaluru, Bangalore Urban, Karnataka, 560001, India",
            "longitude": "77.5892075522266",
            "latitude": "12.94871895",
            "blogLinks": [
                "https://www.tripoto.com/places-to-visit/india/karnataka"
            ],
            "locType": "bare_rock"
        },
        "gandhi bazaar": {
            "closest_to": "",
            "address": "Gandhi Bazaar, Basavanagudi, Gandhi Bazaar Main Road, Mavalli, Basavanagudi, Bengaluru, Bangalore Urban, Karnataka, 560001, India",
            "longitude": "77.5705779",
            "latitude": "12.9459392",
            "blogLinks": [
                "http://visitingplacesofgreatindia.blogspot.com/2013/05/shimoga-district-karnataka.html"
            ],
            "locType": "bus_stop"
        },
        "wonderla": {
            "closest_to": "",
            "address": "Wonderla, Wonder La Road, Manchanayakanahalli, Ramanagara taluk, Ramanagara district, Karnataka, India",
            "longitude": "77.4026822",
            "latitude": "12.8382986",
            "blogLinks": [
                "https://www.tripoto.com/places-to-visit/india/karnataka"
            ],
            "locType": "bus_stop"
        },
        "badami cave": {
            "closest_to": "",
            "address": "Badami Cave Temples, Bahanpur - Gadankeri Highway, Banashankari, Badami taluku, Bagalkote district, Karnataka, 587200, India",
            "longitude": "75.6842639478391",
            "latitude": "15.9184483",
            "blogLinks": [
                "https://www.tripoto.com/places-to-visit/india/karnataka"
            ],
            "locType": "attraction"
        },
        "outer ring road": {
            "closest_to": "",
            "address": "Outer Ring Road, Green Glen Layout, Iblur, Bengaluru, Bangalore Urban, Karnataka, 560001, India",
            "longitude": "77.6632088",
            "latitude": "12.9210769",
            "blogLinks": [
                "https://www.tripoto.com/places-to-visit/india/karnataka"
            ],
            "locType": "trunk"
        },
        "kanakapura road": {
            "closest_to": "",
            "address": "Kanakapura Road, Rajotsava Nagar, Kaderenahalli, Bengaluru, Bangalore Urban, Karnataka, 560001, India",
            "longitude": "77.5733483",
            "latitude": "12.9064528",
            "blogLinks": [
                "https://www.tripoto.com/places-to-visit/india/karnataka"
            ],
            "locType": "trunk"
        },
        "om": {
            "closest_to": "",
            "address": "Om, 80 Feet Road, Sadgunte Palya, Koramangala, Bengaluru, Bangalore Urban, Karnataka, 560001, India",
            "longitude": "77.613299",
            "latitude": "12.934323",
            "blogLinks": [
                "https://www.tripoto.com/places-to-visit/india/karnataka"
            ],
            "locType": "restaurant"
        },
        "arkavati river": {
            "closest_to": "",
            "address": "Arkavati, Kanakapura taluk, Ramanagara district, Karnataka, India",
            "longitude": "77.3595883",
            "latitude": "12.6444026",
            "blogLinks": [
                "https://www.tripoto.com/places-to-visit/india/karnataka"
            ],
            "locType": "river"
        },
        "bandipur valley": {
            "closest_to": "",
            "address": "Bandipur, Gundlupet taluk, Chamarajanagar district, Karnataka, India",
            "longitude": "76.6285739",
            "latitude": "11.6662708",
            "blogLinks": [
                "https://www.tripoto.com/places-to-visit/india/karnataka"
            ],
            "locType": "village"
        },
        "road": {
            "closest_to": "",
            "address": "road, Shrinivasapura, Srinivasapura taluku, Kolar district, Karnataka, 563135, India",
            "longitude": "78.2122144",
            "latitude": "13.3437512",
            "blogLinks": [
                "http://gandhadaguditravels.blogspot.com/2013/11/bangalore-arasikere-shimoga-tirthalli.html"
            ],
            "locType": "residential"
        },
        "sri krishna temple": {
            "closest_to": "",
            "address": "Sri Krishna Temple Road, Old Binnamangala, Hoysala Nagar, Bengaluru, Bangalore Urban, Karnataka, 560001, India",
            "longitude": "77.6437236",
            "latitude": "12.9791699",
            "blogLinks": [
                "https://www.tripoto.com/places-to-visit/india/karnataka"
            ],
            "locType": "unclassified"
        },
        "kali river": {
            "closest_to": "",
            "address": "Kali, Joida taluk, Uttara Kannada, Karnataka, India",
            "longitude": "74.5802901",
            "latitude": "15.0145378",
            "blogLinks": [
                "https://www.tripoto.com/places-to-visit/india/karnataka"
            ],
            "locType": "river"
        },
        "manjunatha temple": {
            "closest_to": "",
            "address": "Devagiri Manjunatha Swamy Temple, 30th Cross, Jayanagar 8th Block, Banashankari 2nd Stage, Bengaluru, Bangalore Urban, Karnataka, 560001, India",
            "longitude": "77.5640116772773",
            "latitude": "12.9211928",
            "blogLinks": [
                "http://www.udipikrishnamutt.com/tour-packages/id/25",
                "https://www.thrillophilia.com/places-to-visit-near-mangalore"
            ],
            "locType": "place_of_worship"
        },
        "south canara": {
            "closest_to": "",
            "address": "Chikkabellandur, Bangalore Urban, Karnataka, India",
            "longitude": "77.7188315",
            "latitude": "12.9228378",
            "blogLinks": [
                "http://www.holidayiq.com/destinations/mangalore/"
            ],
            "locType": "village"
        },
        "lakkundi": {
            "closest_to": "",
            "address": "Lakkundi, Muddebihala taluku, Bijapur district, Karnataka, India",
            "longitude": "76.4084687",
            "latitude": "16.5255464",
            "blogLinks": [
                "https://www.tripoto.com/places-to-visit/india/karnataka"
            ],
            "locType": "village"
        },
        "madras": {
            "closest_to": "",
            "address": "Swami Vivekananda Road, Swamy Vivekananda Road (Old Madras Road), Sudgunte Palya, Baiyyappanahalli, Benniganahalli, Bangalore Urban, Karnataka, 560016, India",
            "longitude": "77.6449595",
            "latitude": "12.9859442",
            "blogLinks": [
                "http://www.holidayiq.com/destinations/mangalore/"
            ],
            "locType": "station"
        },
        "ganesha temple": {
            "closest_to": "",
            "address": "Ganesha temple, Vidyaranyapura Road, BEL Colony, Doddabomasandra, Bengaluru, Bangalore Urban, Karnataka, 560097, India",
            "longitude": "77.5598029",
            "latitude": "13.0683712",
            "blogLinks": [
                "http://visitingplacesofgreatindia.blogspot.com/2013/05/shimoga-district-karnataka.html"
            ],
            "locType": "place_of_worship"
        },
        "ring road": {
            "closest_to": "",
            "address": "Ring Road, Rauza, Kalaburagi, Gulbarga taluku, Kalaburagi district, Karnataka, 585101, India",
            "longitude": "76.8229563",
            "latitude": "17.3625832",
            "blogLinks": [
                "https://www.tripoto.com/places-to-visit/india/karnataka"
            ],
            "locType": "trunk"
        },
        "central bangalore": {
            "closest_to": "",
            "address": "Central, UG07, UG08, Dr. Rajkumar Road, Rajajinagar 1st Block, Subrahmanya Nagar, Bengaluru, Bangalore Urban, Karnataka, 560001, India",
            "longitude": "77.5548006",
            "latitude": "13.0101286",
            "blogLinks": [
                "https://www.tripoto.com/places-to-visit/india/karnataka"
            ],
            "locType": "clothes"
        },
        "gundulpet": {
            "closest_to": "",
            "address": "Gundlupet, Gundlupet taluk, Chamarajanagar district, Karnataka, 571111, India",
            "longitude": "76.6916141",
            "latitude": "11.808496",
            "blogLinks": [
                "https://www.tripoto.com/places-to-visit/india/karnataka"
            ],
            "locType": "town"
        },
        "hubli - bangalore": {
            "closest_to": "",
            "address": "C.M.Hubli Petrol / Gas Station, Pune Bangalore Road, Sai Nagar, Sirur Park, Hubballi - \u0cb9\u0cc1\u0cac\u0ccd\u0cac\u0cb3\u0ccd\u0cb3\u0cbf, Hubballi taluku, Dharwad district, Karnataka, 580020, India",
            "longitude": "75.1228461",
            "latitude": "15.3656007",
            "blogLinks": [
                "http://visitingplacesofgreatindia.blogspot.com/2013/05/shimoga-district-karnataka.html"
            ],
            "locType": "fuel"
        },
        "ksrtc": {
            "closest_to": "",
            "address": "Kempegowda KSRTC Bus Station, Mofussil Bus Road, Balepet, Gandhinagar, Bengaluru, Bangalore Urban, Karnataka, 560001, India",
            "longitude": "77.5719146478929",
            "latitude": "12.97679135",
            "blogLinks": [
                "http://visitingplacesofgreatindia.blogspot.com/2013/05/shimoga-district-karnataka.html"
            ],
            "locType": "bus_station"
        },
        "river kali": {
            "closest_to": "",
            "address": "Kali, Joida taluk, Uttara Kannada, Karnataka, India",
            "longitude": "74.5802901",
            "latitude": "15.0145378",
            "blogLinks": [
                "https://www.tripoto.com/places-to-visit/india/karnataka"
            ],
            "locType": "river"
        },
        "alur": {
            "closest_to": "",
            "address": "Bugati Alura, Hukkeri taluku, Belgaum district, Karnataka, India",
            "longitude": "74.3516977",
            "latitude": "16.3219583",
            "blogLinks": [
                "https://www.tripoto.com/places-to-visit/india/karnataka"
            ],
            "locType": "village"
        },
        "half moon": {
            "closest_to": "",
            "address": "Half Moon Garden Caf\u00e9, Om beach road, Gokarna, Kumata taluk, Uttara Kannada, Karnataka, 581326, India",
            "longitude": "74.3317205",
            "latitude": "14.5181286",
            "blogLinks": [
                "https://www.tripoto.com/places-to-visit/india/karnataka"
            ],
            "locType": "restaurant"
        },
        "ashoka road": {
            "closest_to": "",
            "address": "Ashoka Road, Richards Town, St Thomastown, Bengaluru, Bangalore Urban, Karnataka, 560001, India",
            "longitude": "77.6198454",
            "latitude": "13.0033073",
            "blogLinks": [
                "http://www.holidayiq.com/destinations/sakleshpur/"
            ],
            "locType": "residential"
        },
        "dandeli": {
            "closest_to": "",
            "address": "Dandeli, Haliyala taluku, Uttara Kannada, Karnataka, 581325, India",
            "longitude": "74.6236037",
            "latitude": "15.2490284",
            "blogLinks": [
                "https://www.tripoto.com/places-to-visit/india/karnataka"
            ],
            "locType": "town"
        },
        "national park": {
            "closest_to": "",
            "address": "Bannerghatta National Park, Anekal Road, Begihalli, Bangalore Urban, Karnataka, 560076, India",
            "longitude": "77.5722783830694",
            "latitude": "12.77900335",
            "blogLinks": [
                "https://www.thrillophilia.com/places-to-visit-near-mangalore",
                "http://www.mouthshut.com/review/Mysore-review-rrmrponq",
                "https://www.tripoto.com/places-to-visit/india/karnataka"
            ],
            "locType": "national_park"
        },
        "ganesha": {
            "closest_to": "",
            "address": "Ganesha, 12th Cross Road, Vyalikaval, Malleswaram, Bengaluru, Bangalore Urban, Karnataka, 560001, India",
            "longitude": "77.5663029",
            "latitude": "13.0029248",
            "blogLinks": [
                "http://visitingplacesofgreatindia.blogspot.com/2013/05/shimoga-district-karnataka.html"
            ],
            "locType": "place_of_worship"
        }
    },
    "chitradurga": {
        "place_id": "4897275",
        "osm_id": "571409087",
        "icon": "https://nominatim.openstreetmap.org/images/mapicons/poi_place_town.p.20.png",
        "osm_type": "node",
        "licence": "Data \u00a9 OpenStreetMap contributors, ODbL 1.0. http://www.openstreetmap.org/copyright",
        "display_name": "Chitradurga, Chitradurga taluku, Chitradurga district, Karnataka, 577500, India",
        "type": "town",
        "lon": "76.4005122",
        "boundingbox": [
            "14.1866443",
            "14.2666443",
            "76.3605122",
            "76.4405122"
        ],
        "importance": 0.5,
        "lat": "14.2266443",
        "class": "place"
    },
    "dharmasthala": {
        "place_id": "638987",
        "osm_id": "245614706",
        "icon": "https://nominatim.openstreetmap.org/images/mapicons/poi_place_village.p.20.png",
        "osm_type": "node",
        "licence": "Data \u00a9 OpenStreetMap contributors, ODbL 1.0. http://www.openstreetmap.org/copyright",
        "display_name": "Dharmasthala, Beltangadi taluk, Dakshina Kannada, Karnataka, 574216, India",
        "type": "village",
        "lon": "75.3813122",
        "boundingbox": [
            "12.9319571",
            "12.9719571",
            "75.3613122",
            "75.4013122"
        ],
        "importance": 0.475,
        "lat": "12.9519571",
        "class": "place"
    }
}