{
    "chitradurga": {
        "place_id": "4897275",
        "osm_id": "571409087",
        "icon": "https://nominatim.openstreetmap.org/images/mapicons/poi_place_town.p.20.png",
        "osm_type": "node",
        "licence": "Data \u00a9 OpenStreetMap contributors, ODbL 1.0. http://www.openstreetmap.org/copyright",
        "display_name": "Chitradurga, Chitradurga taluku, Chitradurga district, Karnataka, 577500, India",
        "type": "town",
        "lon": "76.4005122",
        "boundingbox": [
            "14.1866443",
            "14.2666443",
            "76.3605122",
            "76.4405122"
        ],
        "importance": 0.5,
        "lat": "14.2266443",
        "class": "place"
    },
    "mentions": {
        "mastikatte": {
            "closest_to": "",
            "address": "Mastikatte, Ankola taluk, Uttara Kannada, Karnataka, India",
            "longitude": "74.4604101",
            "latitude": "14.6857168",
            "blogLinks": [
                "https://en.wikipedia.org/wiki/Shimoga_district"
            ],
            "locType": "village"
        },
        "kudle": {
            "closest_to": "",
            "address": "Kudle Ocean Front resort, Om beach road, Gokarna, Kumata taluk, Uttara Kannada, Karnataka, 581326, India",
            "longitude": "74.3178853",
            "latitude": "14.5290707",
            "blogLinks": [
                "https://www.quora.com/What-are-the-places-to-visit-in-around-Shimoga-in-3-days"
            ],
            "locType": "hotel"
        },
        "uttar pradesh": {
            "closest_to": "",
            "address": "Karnataka Bank, Mahatma Gandhi Road, Shahganj, Agra, Uttar Pradesh, 282003, India",
            "longitude": "78.0042192",
            "latitude": "27.2058869",
            "blogLinks": [
                "https://en.wikipedia.org/wiki/Shimoga_district"
            ],
            "locType": "bank"
        },
        "tiptur": {
            "closest_to": "",
            "address": "Tiptur, Tipaturu taluk, Tumkur district, Karnataka, 572200, India",
            "longitude": "76.4724264",
            "latitude": "13.2594418",
            "blogLinks": [
                "http://www.team-bhp.com/forum/route-travel-queries/42482-bangalore-shimoga-route-queries-3.html"
            ],
            "locType": "town"
        },
        "nalluru": {
            "closest_to": "",
            "address": "Nalluru, Mulubagilu taluk, Kolar district, Karnataka, India",
            "longitude": "78.2692604",
            "latitude": "13.1680568",
            "blogLinks": [
                "https://en.wikipedia.org/wiki/Shimoga_district"
            ],
            "locType": "village"
        },
        "udipi": {
            "closest_to": "",
            "address": "Udipi Park, 2nd Cross Road, Muniyappa Layout, Murugeshpalaya, Belure Ambedkar Nagar, Bangalore Urban, Karnataka, 560067, India",
            "longitude": "77.652888",
            "latitude": "12.9530588",
            "blogLinks": [
                "http://www.nivalink.com/destination/shimoga",
                "http://www.nivalink.com/destination/chitradurga"
            ],
            "locType": "restaurant"
        },
        "anandapuram": {
            "closest_to": "",
            "address": "Anandapuram, Jeevan Bhima Nagar, Bengaluru, Bangalore Urban, Karnataka, 560001, India",
            "longitude": "77.659472",
            "latitude": "12.9645936",
            "blogLinks": [
                "http://www.team-bhp.com/forum/route-travel-queries/42482-bangalore-shimoga-route-queries-6.html"
            ],
            "locType": "neighbourhood"
        },
        "tungabhadra river": {
            "closest_to": "",
            "address": "Tungabhadra, Gangavati taluku, Koppal district, Karnataka, India",
            "longitude": "76.4931607",
            "latitude": "15.3446123",
            "blogLinks": [
                "http://www.nivalink.com/destination/shimoga"
            ],
            "locType": "river"
        },
        "kargal": {
            "closest_to": "",
            "address": "Kargal, Arakalagudu taluk, Hassan district, Karnataka, India",
            "longitude": "75.9613152",
            "latitude": "12.627292",
            "blogLinks": [
                "https://en.wikipedia.org/wiki/Shimoga_district"
            ],
            "locType": "village"
        },
        "chennai": {
            "closest_to": "",
            "address": "Karnataka Bank, Postal Colony 2nd Street, Postal Colony, Ashok Nagar, Chennai City Corporation Limits, Chennai district, Tamil Nadu, 600033, India",
            "longitude": "80.2197941",
            "latitude": "13.0365141",
            "blogLinks": [
                "https://en.wikipedia.org/wiki/Shimoga_district"
            ],
            "locType": "bank"
        },
        "bangalore": {
            "closest_to": "",
            "address": "Bengaluru, Bangalore Urban, Karnataka, 560001, India",
            "longitude": "77.5912997",
            "latitude": "12.9791198",
            "blogLinks": [
                "http://www.team-bhp.com/forum/route-travel-queries/42482-bangalore-shimoga-route-queries-3.html",
                "http://www.karnatakatourism.org/",
                "http://www.nivalink.com/destination/shimoga",
                "https://www.tripadvisor.in/ShowTopic-g297628-i2499-k8547966-Best_Route_to_Shimoga-Bengaluru_Bangalore_Karnataka.html",
                "http://www.team-bhp.com/forum/route-travel-queries/42482-bangalore-shimoga-route-queries-6.html",
                "https://www.quora.com/What-are-the-places-to-visit-in-around-Shimoga-in-3-days",
                "http://www.nivalink.com/destination/chitradurga"
            ],
            "locType": "city"
        },
        "hubli airport": {
            "closest_to": "",
            "address": "Hubli Airport, \u0c97\u0ccb\u0c95\u0cc1\u0cb2 \u0cb0\u0ccb\u0ca1\u0ccd, Padmaraj Nagar, Gokul, Hubballi taluku, Dharwad district, Karnataka, 580030, India",
            "longitude": "75.0860974",
            "latitude": "15.3598315",
            "blogLinks": [
                "http://www.nivalink.com/destination/shimoga"
            ],
            "locType": "aerodrome"
        },
        "goa": {
            "closest_to": "",
            "address": "Carnival De Goa, Bhaskaran Road, Gupta Layout, Halasuru, Bengaluru, Bangalore Urban, Karnataka, 560001, India",
            "longitude": "77.6200027",
            "latitude": "12.9750047",
            "blogLinks": [
                "http://www.team-bhp.com/forum/route-travel-queries/42482-bangalore-shimoga-route-queries-3.html"
            ],
            "locType": "restaurant"
        },
        "ranganathaswamy temple": {
            "closest_to": "",
            "address": "Ranganathaswamy Temple, Steps to Ranganathaswami Temple, Halekote, Hole Narasipura taluk, Hassan district, Karnataka, 573211, India",
            "longitude": "76.1812411",
            "latitude": "12.854149",
            "blogLinks": [
                "http://www.holidayiq.com/Chitradurga-Sightseeing-650.html"
            ],
            "locType": "place_of_worship"
        },
        "samskara": {
            "closest_to": "",
            "address": "Sarppa Samskara Yaga Shaala, Car Street, Kukke Subrahmanya, Sulya taluk, Dakshina Kannada, Karnataka, 574238, India",
            "longitude": "75.6177217",
            "latitude": "12.6652402",
            "blogLinks": [
                "https://en.wikipedia.org/wiki/Shimoga_district"
            ],
            "locType": "place_of_worship"
        },
        "tumakuru": {
            "closest_to": "",
            "address": "Tumakuru, Tumkur district, Karnataka, India",
            "longitude": "77.0002445",
            "latitude": "13.4999406",
            "blogLinks": [
                "https://www.quora.com/What-are-the-places-to-visit-in-around-Shimoga-in-3-days"
            ],
            "locType": "county"
        },
        "hoysala": {
            "closest_to": "",
            "address": "Hoysala Nagar, Bengaluru, Bangalore Urban, Karnataka, 560001, India",
            "longitude": "77.6375990817051",
            "latitude": "12.97813815",
            "blogLinks": [
                "https://www.quora.com/What-are-the-places-to-visit-in-around-Shimoga-in-3-days",
                "http://www.nivalink.com/destination/shimoga"
            ],
            "locType": "administrative"
        },
        "hyderabad": {
            "closest_to": "",
            "address": "Hyderabad Road, Old City, Bidar, Bidar taluku, Bidar district, Karnataka, 585400, India",
            "longitude": "77.5344002",
            "latitude": "17.9003114",
            "blogLinks": [
                "https://www.quora.com/What-are-the-places-to-visit-in-around-Shimoga-in-3-days"
            ],
            "locType": "primary"
        },
        "uttara kannada": {
            "closest_to": "",
            "address": "Uttara Kannada, Karnataka, India",
            "longitude": "74.4729163045979",
            "latitude": "14.6726379",
            "blogLinks": [
                "https://en.wikipedia.org/wiki/Shimoga_district"
            ],
            "locType": "administrative"
        },
        "gujarat": {
            "closest_to": "",
            "address": "Gujarat Bhavan, Casualty and Emergency, Ashok Nagar, Vidyanagar, Hubballi - \u0cb9\u0cc1\u0cac\u0ccd\u0cac\u0cb3\u0ccd\u0cb3\u0cbf, Hubballi taluku, Dharwad district, Karnataka, 580020, India",
            "longitude": "75.1370469",
            "latitude": "15.3595169",
            "blogLinks": [
                "https://en.wikipedia.org/wiki/Shimoga_district",
                "https://www.quora.com/What-are-the-places-to-visit-in-around-Shimoga-in-3-days"
            ],
            "locType": "yes"
        },
        "hubli": {
            "closest_to": "",
            "address": "Hubballi - \u0cb9\u0cc1\u0cac\u0ccd\u0cac\u0cb3\u0ccd\u0cb3\u0cbf, Hubballi taluku, Dharwad district, Karnataka, 580020, India",
            "longitude": "75.1379848",
            "latitude": "15.3518378",
            "blogLinks": [
                "http://www.nivalink.com/destination/shimoga",
                "http://www.nivalink.com/destination/chitradurga"
            ],
            "locType": "city"
        },
        "tumkur": {
            "closest_to": "",
            "address": "Tumakuru, Tumkur district, Karnataka, India",
            "longitude": "77.0002445",
            "latitude": "13.4999406",
            "blogLinks": [
                "http://www.team-bhp.com/forum/route-travel-queries/42482-bangalore-shimoga-route-queries-6.html"
            ],
            "locType": "county"
        },
        "tungabhadra": {
            "closest_to": "",
            "address": "Tungabhadra, Gangavati taluku, Koppal district, Karnataka, India",
            "longitude": "76.4931607",
            "latitude": "15.3446123",
            "blogLinks": [
                "https://en.wikipedia.org/wiki/Shimoga_district"
            ],
            "locType": "river"
        },
        "rameshwara temple": {
            "closest_to": "",
            "address": "Rameshwara Temple, Kranthikavi Sarvagnya Road, Rajajinagar 4th Block, Sriramapura, Bengaluru, Bangalore Urban, Karnataka, 560001, India",
            "longitude": "77.5678621969321",
            "latitude": "12.99365815",
            "blogLinks": [
                "https://www.quora.com/What-are-the-places-to-visit-in-around-Shimoga-in-3-days"
            ],
            "locType": "place_of_worship"
        },
        "tamil nadu": {
            "closest_to": "",
            "address": "KARNATAKA BANK, Diwan Bhadur Road, Five Corner, RS Puram, Coimbatore, Coimbatore district, Tamil Nadu, 641001, India",
            "longitude": "76.9514152",
            "latitude": "11.0025894",
            "blogLinks": [
                "https://en.wikipedia.org/wiki/Shimoga_district"
            ],
            "locType": "bank"
        },
        "river sharavathi": {
            "closest_to": "",
            "address": "Vrishabavathi, Bengaluru, Bangalore Urban, Karnataka, 560001, India",
            "longitude": "77.5476521",
            "latitude": "12.967526",
            "blogLinks": [
                "http://distancecalculator.globefeed.com/India_Distance_Calculator.asp?state=19"
            ],
            "locType": "river"
        },
        "hotel athithi": {
            "closest_to": "",
            "address": "Movenpick Hotel and Spa, HMR Industrial Area, HMT Colony, Gokula, Bengaluru, Bangalore Urban, Karnataka, 560001, India",
            "longitude": "77.5547373109765",
            "latitude": "13.04214375",
            "blogLinks": [
                "http://www.team-bhp.com/forum/route-travel-queries/42482-bangalore-shimoga-route-queries-6.html"
            ],
            "locType": "hotel"
        },
        "india bengaluru": {
            "closest_to": "",
            "address": "Karnataka High Court, Dr B R Ambedkar Veedhi, Shantala Nagar, Gandhinagar, Bengaluru, Bangalore Urban, Karnataka, 560001, India",
            "longitude": "77.5925914",
            "latitude": "12.977944",
            "blogLinks": [
                "https://www.quora.com/What-are-the-places-to-visit-in-around-Shimoga-in-3-days"
            ],
            "locType": "courthouse"
        },
        "new delhi": {
            "closest_to": "",
            "address": "Regional Institute of Education, Chaduranga Road, Jayalakshmipuram, Mysuru, Mysuru taluk, Mysuru district, Karnataka, 570001, India",
            "longitude": "76.6142178649055",
            "latitude": "12.30911465",
            "blogLinks": [
                "https://en.wikipedia.org/wiki/Shimoga_district"
            ],
            "locType": "college"
        },
        "lakshmi tiffin room": {
            "closest_to": "",
            "address": "Maha Lakshmi Tiffin Room, DV Gundappa Road, Mavalli, Basavanagudi, Bengaluru, Bangalore Urban, Karnataka, 560004, India",
            "longitude": "77.5714933",
            "latitude": "12.9470578",
            "blogLinks": [
                "https://www.tripadvisor.in/ShowTopic-g297628-i2499-k8547966-Best_Route_to_Shimoga-Bengaluru_Bangalore_Karnataka.html"
            ],
            "locType": "restaurant"
        },
        "nehru": {
            "closest_to": "",
            "address": "Nehru Stadium, Koppikar Road, J C Nagar, Kamaripet, Hubballi - \u0cb9\u0cc1\u0cac\u0ccd\u0cac\u0cb3\u0ccd\u0cb3\u0cbf, Hubballi taluku, Dharwad district, Karnataka, 580020, India",
            "longitude": "75.1428430366112",
            "latitude": "15.3504494",
            "blogLinks": [
                "https://en.wikipedia.org/wiki/Shimoga_district"
            ],
            "locType": "stadium"
        },
        "andhra pradesh": {
            "closest_to": "",
            "address": "Karnataka, West Mada Street, Srivari Temple, Tirumala, Chittoor, Andhra Pradesh, 517504, India",
            "longitude": "79.3452447",
            "latitude": "13.6841958",
            "blogLinks": [
                "http://www.holidayiq.com/Chitradurga-Sightseeing-650.html"
            ],
            "locType": "hotel"
        },
        "mirjan": {
            "closest_to": "",
            "address": "Mirjana, Kumata taluk, Uttara Kannada, Karnataka, 581440, India",
            "longitude": "74.4249588",
            "latitude": "14.4910008",
            "blogLinks": [
                "https://www.quora.com/What-are-the-places-to-visit-in-around-Shimoga-in-3-days"
            ],
            "locType": "village"
        },
        "grevillea": {
            "closest_to": "",
            "address": "Grevillea Robusta A.Cunn - Australian Silver Oak, Krumbiegal Road, Mavalli, VV Puram, Bengaluru, Bangalore Urban, Karnataka, 560001, India",
            "longitude": "77.5845738",
            "latitude": "12.9539614",
            "blogLinks": [
                "https://en.wikipedia.org/wiki/Shimoga_district"
            ],
            "locType": "tree"
        },
        "mumbai": {
            "closest_to": "",
            "address": "Mumbai Spice, 18/2, 10th Cross, Malleswaram, Vyalikaval, Malleswaram, Bengaluru, Bangalore Urban, Karnataka, 560003, India",
            "longitude": "77.5718472",
            "latitude": "13.0002869",
            "blogLinks": [
                "https://www.quora.com/What-are-the-places-to-visit-in-around-Shimoga-in-3-days"
            ],
            "locType": "restaurant"
        },
        "arsikere": {
            "closest_to": "",
            "address": "Arsikere Junction, Subrahmanya Temple Road, Lakshmi Puram, Arasikere, Arasikere taluku, Hassan district, Karnataka, 573103, India",
            "longitude": "76.2528992",
            "latitude": "13.313613",
            "blogLinks": [
                "http://www.team-bhp.com/forum/route-travel-queries/42482-bangalore-shimoga-route-queries-6.html",
                "http://www.team-bhp.com/forum/route-travel-queries/42482-bangalore-shimoga-route-queries-3.html"
            ],
            "locType": "station"
        },
        "hampi": {
            "closest_to": "",
            "address": "Hampe, Hosapete taluk, Bellary district, Karnataka, 583239, India",
            "longitude": "76.4606199",
            "latitude": "15.3359769",
            "blogLinks": [
                "http://www.holidayiq.com/Chitradurga-Sightseeing-650.html"
            ],
            "locType": "village"
        },
        "nelamangala": {
            "closest_to": "",
            "address": "Nelamangala, Nelamangala taluk, Bangalore Rural, Karnataka, India",
            "longitude": "77.3963586",
            "latitude": "13.0953024",
            "blogLinks": [
                "http://www.team-bhp.com/forum/route-travel-queries/42482-bangalore-shimoga-route-queries-6.html"
            ],
            "locType": "town"
        },
        "hosagadde": {
            "closest_to": "",
            "address": "Hosagadde, Kelaginamane, Siddapura taluk, Uttara Kannada, Karnataka, India",
            "longitude": "74.7527463",
            "latitude": "14.3274092",
            "blogLinks": [
                "https://en.wikipedia.org/wiki/Shimoga_district"
            ],
            "locType": "locality"
        },
        "subrahmanya temple": {
            "closest_to": "",
            "address": "Subrahmanya Temple Road, Lakshmi Puram, Arasikere, Arasikere taluku, Hassan district, Karnataka, 573103, India",
            "longitude": "76.2499985",
            "latitude": "13.3105901",
            "blogLinks": [
                "http://www.nivalink.com/destination/shimoga"
            ],
            "locType": "residential"
        },
        "channarayapatna": {
            "closest_to": "",
            "address": "Channarayapatna, Devanahalli taluk, Bangalore Rural, Karnataka, India",
            "longitude": "77.797084",
            "latitude": "13.2455918",
            "blogLinks": [
                "https://www.quora.com/What-are-the-places-to-visit-in-around-Shimoga-in-3-days"
            ],
            "locType": "village"
        },
        "om beach": {
            "closest_to": "",
            "address": "Om Beach, Om beach road, Gokarna, Kumata taluk, Uttara Kannada, Karnataka, 581326, India",
            "longitude": "74.3254331800289",
            "latitude": "14.5190376",
            "blogLinks": [
                "https://www.quora.com/What-are-the-places-to-visit-in-around-Shimoga-in-3-days"
            ],
            "locType": "beach"
        },
        "riversidedam28kundadrikundagiri hills": {
            "closest_to": "",
            "address": "Kadri Hills, Mangaluru, Mangaluru taluk, Dakshina Kannada, Karnataka, 575001, India",
            "longitude": "74.860152",
            "latitude": "12.8935998",
            "blogLinks": [
                "http://www.nivalink.com/destination/shimoga"
            ],
            "locType": "suburb"
        },
        "sharavathi": {
            "closest_to": "",
            "address": "Sharavathi Block, National Games Village Road, Ambedkar Nagar, Ejipura, Bengaluru, Bangalore Urban, Karnataka, 560001, India",
            "longitude": "77.6216184337102",
            "latitude": "12.9464709",
            "blogLinks": [
                "https://en.wikipedia.org/wiki/Shimoga_district"
            ],
            "locType": "yes"
        },
        "bhatkal": {
            "closest_to": "",
            "address": "Bhatkal, Bhatkala taluk, Uttara Kannada, Karnataka, 581320, India",
            "longitude": "74.5485295",
            "latitude": "13.9952114",
            "blogLinks": [
                "https://en.wikipedia.org/wiki/Shimoga_district"
            ],
            "locType": "town"
        },
        "kumta": {
            "closest_to": "",
            "address": "Kumta, Kumata taluk, Uttara Kannada, Karnataka, India",
            "longitude": "74.4107617",
            "latitude": "14.4261647",
            "blogLinks": [
                "https://www.quora.com/What-are-the-places-to-visit-in-around-Shimoga-in-3-days"
            ],
            "locType": "town"
        },
        "parvati": {
            "closest_to": "",
            "address": "Parvati, Badami taluku, Bagalkote district, Karnataka, India",
            "longitude": "75.7898501",
            "latitude": "16.0395701",
            "blogLinks": [
                "https://en.wikipedia.org/wiki/Shimoga_district"
            ],
            "locType": "village"
        },
        "mangalore": {
            "closest_to": "",
            "address": "Mangaluru, Mangaluru taluk, Dakshina Kannada, Karnataka, 575001, India",
            "longitude": "74.8430082",
            "latitude": "12.8698101",
            "blogLinks": [
                "https://www.tripadvisor.in/ShowTopic-g297628-i2499-k8547966-Best_Route_to_Shimoga-Bengaluru_Bangalore_Karnataka.html",
                "http://www.nivalink.com/destination/chitradurga"
            ],
            "locType": "city"
        },
        "marathahalli": {
            "closest_to": "",
            "address": "Marathahalli, Bengaluru, Bangalore Urban, Karnataka, 560001, India",
            "longitude": "77.6984163",
            "latitude": "12.9552572",
            "blogLinks": [
                "http://www.team-bhp.com/forum/route-travel-queries/42482-bangalore-shimoga-route-queries-6.html"
            ],
            "locType": "suburb"
        },
        "malgudi": {
            "closest_to": "",
            "address": "Malgudi Southern Cuisine, 3, Outer Ring Road, Ananda Nagara, Doddanekundi, Garudacharpalya, Bangalore Urban, Karnataka, 560037, India",
            "longitude": "77.7017267",
            "latitude": "12.9651193",
            "blogLinks": [
                "https://en.wikipedia.org/wiki/Shimoga_district"
            ],
            "locType": "restaurant"
        },
        "bangalore city": {
            "closest_to": "",
            "address": "Bengaluru, Bangalore Urban, Karnataka, 560001, India",
            "longitude": "77.5912997",
            "latitude": "12.9791198",
            "blogLinks": [
                "http://www.holidayiq.com/Shimoga-Sightseeing-748.html",
                "https://www.distancecalculator.net/from-chitradurga-to-shimoga"
            ],
            "locType": "city"
        },
        "print.": {
            "closest_to": "",
            "address": "Internet & Print Out Xerox, Church Street, Tasker Town, Ashok Nagar, Bengaluru, Bangalore Urban, Karnataka, 560001, India",
            "longitude": "77.6053275",
            "latitude": "12.9746803",
            "blogLinks": [
                "https://en.wikipedia.org/wiki/Shimoga_district"
            ],
            "locType": "internet_cafe"
        },
        "karnataka": {
            "closest_to": "",
            "address": "Karnataka, Shalivahana Road, Nazarbad, Mysuru, Mysuru taluk, Mysuru district, Karnataka, 570001, India",
            "longitude": "76.6639936",
            "latitude": "12.3084901",
            "blogLinks": [
                "http://www.ticketgoose.com/bus-tickets/shimoga-to-chitradurga",
                "http://www.holidayiq.com/Chitradurga-Sightseeing-650.html",
                "https://en.wikipedia.org/wiki/Shimoga_district",
                "http://www.karnatakatourism.org/",
                "http://www.nivalink.com/destination/shimoga",
                "http://www.onefivenine.com/india/Travel/Place/Chitradurga",
                "http://distancecalculator.globefeed.com/India_Distance_Calculator.asp?state=19",
                "https://www.quora.com/What-are-the-places-to-visit-in-around-Shimoga-in-3-days",
                "http://www.nivalink.com/destination/chitradurga"
            ],
            "locType": "atm"
        },
        "kannada": {
            "closest_to": "",
            "address": "Dakshina Kannada, Karnataka, India",
            "longitude": "75.1008028650794",
            "latitude": "12.8114089",
            "blogLinks": [
                "http://www.ticketgoose.com/bus-tickets/shimoga-to-chitradurga"
            ],
            "locType": "administrative"
        },
        "' river sharavathi": {
            "closest_to": "",
            "address": "Vrishabavathi, Bengaluru, Bangalore Urban, Karnataka, 560001, India",
            "longitude": "77.5476521",
            "latitude": "12.967526",
            "blogLinks": [
                "https://en.wikipedia.org/wiki/Shimoga_district"
            ],
            "locType": "river"
        },
        "fort": {
            "closest_to": "",
            "address": "Fort, Rauza, Kalaburagi, Gulbarga taluku, Kalaburagi district, Karnataka, 585101, India",
            "longitude": "76.8313091",
            "latitude": "17.3439629",
            "blogLinks": [
                "https://www.tripadvisor.in/ShowTopic-g297628-i2499-k8547966-Best_Route_to_Shimoga-Bengaluru_Bangalore_Karnataka.html"
            ],
            "locType": "neighbourhood"
        },
        "venkataramana": {
            "closest_to": "",
            "address": "P. Venkataramana Road, Kuvempunagara, Mysuru, Mysuru taluk, Mysuru district, Karnataka, 570001, India",
            "longitude": "76.6254678",
            "latitude": "12.2823847",
            "blogLinks": [
                "https://en.wikipedia.org/wiki/Shimoga_district"
            ],
            "locType": "tertiary"
        },
        "honnavar": {
            "closest_to": "",
            "address": "Honnavar, Honnavara taluku, Uttara Kannada, Karnataka, 581334, India",
            "longitude": "74.4446716",
            "latitude": "14.2810827",
            "blogLinks": [
                "http://www.team-bhp.com/forum/route-travel-queries/42482-bangalore-shimoga-route-queries-3.html"
            ],
            "locType": "town"
        },
        "koodli": {
            "closest_to": "",
            "address": "Koodli Road, Yadtadi, Udupi taluku, Udupi district, Karnataka, India",
            "longitude": "74.7671",
            "latitude": "13.4868433",
            "blogLinks": [
                "https://en.wikipedia.org/wiki/Shimoga_district",
                "http://www.nivalink.com/destination/shimoga"
            ],
            "locType": "tertiary"
        },
        "mandya": {
            "closest_to": "",
            "address": "Mandya, Mandya taluk, Mandya district, Karnataka, 571401, India",
            "longitude": "76.8937392",
            "latitude": "12.5217836",
            "blogLinks": [
                "https://en.wikipedia.org/wiki/Shimoga_district"
            ],
            "locType": "town"
        },
        "bengaluru": {
            "closest_to": "",
            "address": "Bengaluru, Bangalore Urban, Karnataka, 560001, India",
            "longitude": "77.5912997",
            "latitude": "12.9791198",
            "blogLinks": [
                "https://www.quora.com/What-are-the-places-to-visit-in-around-Shimoga-in-3-days"
            ],
            "locType": "city"
        },
        "indiranagar": {
            "closest_to": "",
            "address": "Indiranagar, Humanabad taluku, Bidar district, Karnataka, India",
            "longitude": "77.1889052",
            "latitude": "17.7569637",
            "blogLinks": [
                "http://www.team-bhp.com/forum/route-travel-queries/42482-bangalore-shimoga-route-queries-6.html"
            ],
            "locType": "village"
        },
        "kundapura": {
            "closest_to": "",
            "address": "Kundapura, \u0c95\u0cc1\u0c82\u0ca6\u0cbe\u0caa\u0cc1\u0cb0 \u0ca4\u0cbe\u0cb2\u0cc2\u0c95\u0cc1, Udupi district, Karnataka, 576200, India",
            "longitude": "74.6915722",
            "latitude": "13.6250993",
            "blogLinks": [
                "http://www.nivalink.com/destination/shimoga",
                "http://www.nivalink.com/destination/chitradurga"
            ],
            "locType": "town"
        },
        "sharavathi river": {
            "closest_to": "",
            "address": "Sharavathi Block, National Games Village Road, Ambedkar Nagar, Ejipura, Bengaluru, Bangalore Urban, Karnataka, 560001, India",
            "longitude": "77.6216184337102",
            "latitude": "12.9464709",
            "blogLinks": [
                "https://www.quora.com/What-are-the-places-to-visit-in-around-Shimoga-in-3-days"
            ],
            "locType": "yes"
        },
        "udupi district": {
            "closest_to": "",
            "address": "Udupi district, Karnataka, India",
            "longitude": "74.7469037178649",
            "latitude": "13.49007305",
            "blogLinks": [
                "https://en.wikipedia.org/wiki/Shimoga_district"
            ],
            "locType": "administrative"
        },
        "gangavati": {
            "closest_to": "",
            "address": "Gangavati taluku, Koppal district, Karnataka, India",
            "longitude": "76.558686294086",
            "latitude": "15.52741825",
            "blogLinks": [
                "https://en.wikipedia.org/wiki/Shimoga_district"
            ],
            "locType": "administrative"
        },
        "prabhudeva": {
            "closest_to": "",
            "address": "Sri Prabhudeva Service Station, Bangalore-Mysore Road, Mayannana Koppalu, Srirangapattana taluk, Mandya district, Karnataka, 571438, India",
            "longitude": "76.6669578",
            "latitude": "12.3927526",
            "blogLinks": [
                "https://en.wikipedia.org/wiki/Shimoga_district"
            ],
            "locType": "fuel"
        },
        "south": {
            "closest_to": "",
            "address": "s, Vijayapura, Devanahalli taluk, Bangalore Rural, Karnataka, 562135, India",
            "longitude": "77.8040874",
            "latitude": "13.2942848",
            "blogLinks": [
                "http://www.nivalink.com/destination/shimoga"
            ],
            "locType": "residential"
        }
    },
    "shimoga": {
        "place_id": "639702",
        "osm_id": "245625473",
        "icon": "https://nominatim.openstreetmap.org/images/mapicons/poi_place_city.p.20.png",
        "osm_type": "node",
        "licence": "Data \u00a9 OpenStreetMap contributors, ODbL 1.0. http://www.openstreetmap.org/copyright",
        "display_name": "Shivamogga, Shivamogga taluku, Shimoga district, Karnataka, 577200, India",
        "type": "city",
        "lon": "75.569737",
        "boundingbox": [
            "13.7711723",
            "14.0911723",
            "75.409737",
            "75.729737"
        ],
        "importance": 0.55,
        "lat": "13.9311723",
        "class": "place"
    }
}