{
    "sakleshpur": {
        "lat": "12.9434349",
        "class": "place",
        "importance": 0.4,
        "osm_type": "node",
        "lon": "75.7862318",
        "place_id": "6499206",
        "display_name": "Sakaleshpura, Sakaleshapura taluk, Hassan district, Karnataka, 573134, India",
        "osm_id": "670593480",
        "boundingbox": [
            "12.9034349",
            "12.9834349",
            "75.7462318",
            "75.8262318"
        ],
        "type": "town",
        "licence": "Data \u00a9 OpenStreetMap contributors, ODbL 1.0. http://www.openstreetmap.org/copyright",
        "icon": "https://nominatim.openstreetmap.org/images/mapicons/poi_place_town.p.20.png"
    },
    "dandeli": {
        "lat": "15.2490284",
        "class": "place",
        "importance": 0.5,
        "osm_type": "node",
        "lon": "74.6236037",
        "place_id": "5820025",
        "display_name": "Dandeli, Haliyala taluku, Uttara Kannada, Karnataka, 581325, India",
        "osm_id": "612546262",
        "boundingbox": [
            "15.2090284",
            "15.2890284",
            "74.5836037",
            "74.6636037"
        ],
        "type": "town",
        "licence": "Data \u00a9 OpenStreetMap contributors, ODbL 1.0. http://www.openstreetmap.org/copyright",
        "icon": "https://nominatim.openstreetmap.org/images/mapicons/poi_place_town.p.20.png"
    },
    "mentions": {
        "gulbarga": {
            "blogLinks": [
                "https://en.wikipedia.org/wiki/Tourism_in_Karnataka"
            ],
            "longitude": "77.083333",
            "address": "Kalaburgi, Kalaburagi district, Karnataka, India",
            "latitude": "17.166667",
            "locType": "county",
            "closest_to": ""
        },
        "chennai": {
            "blogLinks": [
                "https://en.wikipedia.org/wiki/Tourism_in_Karnataka"
            ],
            "longitude": "80.2197941",
            "address": "Karnataka Bank, Postal Colony 2nd Street, Postal Colony, Ashok Nagar, Chennai City Corporation Limits, Chennai district, Tamil Nadu, 600033, India",
            "latitude": "13.0365141",
            "locType": "bank",
            "closest_to": ""
        },
        "sannati": {
            "blogLinks": [
                "https://en.wikipedia.org/wiki/Tourism_in_Karnataka"
            ],
            "longitude": "76.9080631",
            "address": "Sannati, Chitapura taluku, Kalaburagi district, Karnataka, India",
            "latitude": "16.8293201",
            "locType": "village",
            "closest_to": ""
        },
        "mallikarjuna": {
            "blogLinks": [
                "https://en.wikipedia.org/wiki/Tourism_in_Karnataka"
            ],
            "longitude": "77.0590502",
            "address": "Mallikarjuna Vadi, Basavakalyana taluku, Bidar district, Karnataka, India",
            "latitude": "17.8106693",
            "locType": "village",
            "closest_to": ""
        },
        "gulbarga district": {
            "blogLinks": [
                "https://en.wikipedia.org/wiki/Tourism_in_Karnataka"
            ],
            "longitude": "77.083333",
            "address": "Kalaburgi, Kalaburagi district, Karnataka, India",
            "latitude": "17.166667",
            "locType": "county",
            "closest_to": ""
        },
        "afzalpur": {
            "blogLinks": [
                "https://en.wikipedia.org/wiki/Tourism_in_Karnataka"
            ],
            "longitude": "76.3605783",
            "address": "Afzalpur, Afzalpura taluku, Kalaburagi district, Karnataka, 585301, India",
            "latitude": "17.2005764",
            "locType": "town",
            "closest_to": ""
        },
        "bidar district": {
            "blogLinks": [
                "https://en.wikipedia.org/wiki/Tourism_in_Karnataka"
            ],
            "longitude": "77.2496344350342",
            "address": "Bidar district, Karnataka, India",
            "latitude": "18.0158574",
            "locType": "administrative",
            "closest_to": ""
        },
        "nagareshwara": {
            "blogLinks": [
                "https://en.wikipedia.org/wiki/Tourism_in_Karnataka"
            ],
            "longitude": "77.3934679",
            "address": "Nagareshwara Temple, SH126, Dantapur, Yadagiri taluku, Yadagiri district, Karnataka, India",
            "latitude": "16.8662525",
            "locType": "place_of_worship",
            "closest_to": ""
        },
        "pondicherry": {
            "blogLinks": [
                "https://www.thrillophilia.com/around-bangalore"
            ],
            "longitude": "79.831569",
            "address": "Karnataka Bank, Mission Street, Grand Bazaar, Puducherry, Puducherry district, Puducherry, 605001, India",
            "latitude": "11.9365727",
            "locType": "bank",
            "closest_to": ""
        },
        "bahmani": {
            "blogLinks": [
                "http://blog.indianluxurytrains.com/2014/09/best-places-to-visit-in-karnataka.html"
            ],
            "longitude": "76.8315008",
            "address": "Bahmani Fort, Alanda Road, Fort, Rauza, Kalaburagi, Gulbarga taluku, Kalaburagi district, Karnataka, 585101, India",
            "latitude": "17.3415485",
            "locType": "castle",
            "closest_to": ""
        },
        "karanji lake": {
            "blogLinks": [
                "http://blog.indianluxurytrains.com/2014/09/best-places-to-visit-in-karnataka.html"
            ],
            "longitude": "77.5474867",
            "address": "Karanji, Aurad taluku, Bidar district, Karnataka, India",
            "latitude": "18.2681849",
            "locType": "village",
            "closest_to": ""
        }
    }
}