{
    "san francisco": {
        "type": "city",
        "osm_id": "111968",
        "class": "place",
        "importance": 0.78836369596997,
        "lat": "37.7792808",
        "lon": "-122.4192362",
        "boundingbox": [
            "37.6403143",
            "37.9298443",
            "-123.1738249",
            "-122.2817799"
        ],
        "display_name": "SF, California, United States of America",
        "licence": "Data \u00a9 OpenStreetMap contributors, ODbL 1.0. http://www.openstreetmap.org/copyright",
        "icon": "https://nominatim.openstreetmap.org/images/mapicons/poi_place_city.p.20.png",
        "place_id": "158675742",
        "osm_type": "relation"
    },
    "fremont": {
        "type": "city",
        "osm_id": "111943",
        "class": "place",
        "importance": 0.70373394703995,
        "lat": "37.5482697",
        "lon": "-121.9885718",
        "boundingbox": [
            "37.4539501",
            "37.6066739",
            "-122.1509872",
            "-121.8701127"
        ],
        "display_name": "Fremont, Alameda County, California, United States of America",
        "licence": "Data \u00a9 OpenStreetMap contributors, ODbL 1.0. http://www.openstreetmap.org/copyright",
        "icon": "https://nominatim.openstreetmap.org/images/mapicons/poi_place_city.p.20.png",
        "place_id": "159050638",
        "osm_type": "relation"
    },
    "mentions": {
        "pacific coast highway": {
            "latitude": "33.6595127",
            "closest_to": "",
            "address": "Pacific Coast Highway, Huntington Beach, Orange County, California, 92648, United States of America",
            "locType": "primary",
            "blogLinks": [
                "http://traveltips.usatoday.com/fun-things-los-angeles-san-francisco-14664.html",
                "https://www.tripadvisor.com/ShowTopic-g60713-i30-k5261581-Scenic_Route_from_San_Francisco_to_Sacramento-San_Francisco_California.html",
                "https://www.gapyear.com/articles/216212/13-incredible-stops-on-the-pacific-coast-highway"
            ],
            "longitude": "-118.0051687"
        },
        "pacific": {
            "latitude": "38.7601815",
            "closest_to": "",
            "address": "Pacific, El Dorado County, California, United States of America",
            "locType": "hamlet",
            "blogLinks": [
                "http://travelblog.viator.com/road-trip-san-francisco-los-angeles/",
                "https://www.gapyear.com/articles/216212/13-incredible-stops-on-the-pacific-coast-highway",
                "http://www.goldengatetours.net/places"
            ],
            "longitude": "-120.507146"
        },
        "highway 101": {
            "latitude": "32.9967358",
            "closest_to": "",
            "address": "Highway 101, Solana Beach, San Diego County, California, 92075, United States of America",
            "locType": "primary",
            "blogLinks": [
                "http://travelblog.viator.com/road-trip-san-francisco-los-angeles/",
                "http://traveltips.usatoday.com/fun-things-los-angeles-san-francisco-14664.html"
            ],
            "longitude": "-117.2731974"
        },
        "carmel-by-the-sea": {
            "latitude": "36.5552387",
            "closest_to": "",
            "address": "Carmel-by-the-Sea, Monterey County, California, United States of America",
            "locType": "city",
            "blogLinks": [
                "http://travelblog.viator.com/road-trip-san-francisco-los-angeles/",
                "https://www.gapyear.com/articles/216212/13-incredible-stops-on-the-pacific-coast-highway"
            ],
            "longitude": "-121.9232878"
        },
        "san joaquin valley": {
            "latitude": "37.9372901",
            "closest_to": "",
            "address": "San Joaquin County, California, United States of America",
            "locType": "administrative",
            "blogLinks": [
                "http://www.santaclara.org/getting-around/public-transportation/",
                "https://www.tripadvisor.co.uk/Travel-g28926-c182763/California:United-States:Driving.Between.La.And.Sf.html"
            ],
            "longitude": "-121.2773718"
        },
        "monterey bay": {
            "latitude": "36.7999557",
            "closest_to": "",
            "address": "Monterey Bay, Monterey County, California, United States of America",
            "locType": "bay",
            "blogLinks": [
                "http://travelblog.viator.com/road-trip-san-francisco-los-angeles/",
                "https://www.gapyear.com/articles/216212/13-incredible-stops-on-the-pacific-coast-highway"
            ],
            "longitude": "-121.9010667"
        },
        "nepenthe": {
            "latitude": "36.2218116",
            "closest_to": "",
            "address": "Nepenthe, 48510, Cabrillo Highway, Posts, Monterey County, California, 93920-9549, United States of America",
            "locType": "restaurant",
            "blogLinks": [
                "http://travelblog.viator.com/road-trip-san-francisco-los-angeles/"
            ],
            "longitude": "-121.7596564"
        },
        "huntington beach": {
            "latitude": "33.6783336",
            "closest_to": "",
            "address": "Huntington Beach, Orange County, California, United States of America",
            "locType": "city",
            "blogLinks": [
                "https://www.gapyear.com/articles/216212/13-incredible-stops-on-the-pacific-coast-highway"
            ],
            "longitude": "-118.0000165"
        },
        "san luis obispo museum of art": {
            "latitude": "35.2795773",
            "closest_to": "",
            "address": "San Luis Obispo Museum of Art, 1010, Broad Street, San Luis Obispo, San Luis Obispo County, California, 93401, United States of America",
            "locType": "museum",
            "blogLinks": [
                "http://travelblog.viator.com/road-trip-san-francisco-los-angeles/"
            ],
            "longitude": "-120.6649345"
        },
        "sonoma valley": {
            "latitude": "38.29331315",
            "closest_to": "",
            "address": "Sonoma Valley Chevron, 540, West Napa Street, Sonoma, Sonoma County, California, 95476, United States of America",
            "locType": "fuel",
            "blogLinks": [
                "https://www.travelblog.org/Topics/32739-1.html"
            ],
            "longitude": "-122.469385770353"
        },
        "long beach": {
            "latitude": "33.78538945",
            "closest_to": "",
            "address": "Long Beach, Los Angeles County, California, United States of America",
            "locType": "city",
            "blogLinks": [
                "https://www.gapyear.com/articles/216212/13-incredible-stops-on-the-pacific-coast-highway"
            ],
            "longitude": "-118.158049215311"
        },
        "niagara falls": {
            "latitude": "35.3002256",
            "closest_to": "",
            "address": "Niagara Falls Court, Bakersfield, Kern County, California, 93311, United States of America",
            "locType": "residential",
            "blogLinks": [
                "https://www.travelblog.org/Topics/32739-1.html"
            ],
            "longitude": "-119.1057307"
        },
        "disneyland": {
            "latitude": "33.8136367",
            "closest_to": "",
            "address": "DL, 1313, South Harbor Boulevard, Anaheim Resort District, Anaheim, Orange County, California, 92805, United States of America",
            "locType": "theme_park",
            "blogLinks": [
                "http://www.bayareakidfun.com/best-of-the-bay/",
                "http://gocalifornia.about.com/",
                "http://www.goldengatetours.net/places"
            ],
            "longitude": "-117.91971186569"
        },
        "mcway falls trail": {
            "latitude": "36.1578211",
            "closest_to": "",
            "address": "McWay Falls, Monterey County, California, United States of America",
            "locType": "waterfall",
            "blogLinks": [
                "http://travelblog.viator.com/road-trip-san-francisco-los-angeles/"
            ],
            "longitude": "-121.6723957"
        },
        "bixby bridge": {
            "latitude": "36.3710197",
            "closest_to": "",
            "address": "Bixby Creek Bridge, Notleys Landing, Monterey County, California, 93923, United States of America",
            "locType": "primary",
            "blogLinks": [
                "https://www.gapyear.com/articles/216212/13-incredible-stops-on-the-pacific-coast-highway"
            ],
            "longitude": "-121.9017572"
        },
        "wilder ranch state park": {
            "latitude": "36.96021805",
            "closest_to": "",
            "address": "Wilder Ranch State Park, Coast Road, Westside, Santa Cruz County, California, 95060, United States of America",
            "locType": "park",
            "blogLinks": [
                "https://www.gapyear.com/articles/216212/13-incredible-stops-on-the-pacific-coast-highway"
            ],
            "longitude": "-122.079566815934"
        },
        "lobero theatre": {
            "latitude": "34.4216681",
            "closest_to": "",
            "address": "Lobero Theatre, Anacapa Street, Santa Barbara, Santa Barbara County, California, 93105, United States of America",
            "locType": "theatre",
            "blogLinks": [
                "https://www.gapyear.com/articles/216212/13-incredible-stops-on-the-pacific-coast-highway"
            ],
            "longitude": "-119.700020768116"
        },
        "oxnard": {
            "latitude": "34.1976308",
            "closest_to": "",
            "address": "Oxnard, Ventura County, California, United States of America",
            "locType": "city",
            "blogLinks": [
                "http://traveltips.usatoday.com/fun-things-los-angeles-san-francisco-14664.html",
                "https://www.gapyear.com/articles/216212/13-incredible-stops-on-the-pacific-coast-highway",
                "https://www.tripadvisor.co.uk/Travel-g28926-c182763/California:United-States:Driving.Between.La.And.Sf.html"
            ],
            "longitude": "-119.1803817"
        },
        "pacific avenue": {
            "latitude": "34.1571445",
            "closest_to": "",
            "address": "Pacific Avenue, Glendale, Los Angeles County, California, 91203, United States of America",
            "locType": "secondary",
            "blogLinks": [
                "https://www.gapyear.com/articles/216212/13-incredible-stops-on-the-pacific-coast-highway"
            ],
            "longitude": "-118.2641839"
        },
        "north bay": {
            "latitude": "36.9740634",
            "closest_to": "",
            "address": "North Bay, East Morrissey, Seabright, Yacht Harbor Manor, Santa Cruz County, California, 95062, United States of America",
            "locType": "residential",
            "blogLinks": [
                "http://www.bayareakidfun.com/best-of-the-bay/"
            ],
            "longitude": "-121.9943726"
        },
        "seattle": {
            "latitude": "41.9641881",
            "closest_to": "",
            "address": "Seattle, Dorris, Siskiyou County, California, 96023, United States of America",
            "locType": "residential",
            "blogLinks": [
                "https://www.travelblog.org/Topics/32739-1.html"
            ],
            "longitude": "-121.9226289"
        },
        "mission beach": {
            "latitude": "32.7827144",
            "closest_to": "",
            "address": "Mission Beach, San Diego County, California, United States of America",
            "locType": "hamlet",
            "blogLinks": [
                "https://www.gapyear.com/articles/216212/13-incredible-stops-on-the-pacific-coast-highway"
            ],
            "longitude": "-117.2525056"
        },
        "east bay": {
            "latitude": "38.156964",
            "closest_to": "",
            "address": "East Bay, San Joaquin County, California, United States of America",
            "locType": "track",
            "blogLinks": [
                "http://www.bayareakidfun.com/best-of-the-bay/"
            ],
            "longitude": "-121.0270079"
        },
        "santa rosa": {
            "latitude": "38.4404675",
            "closest_to": "",
            "address": "Santa Rosa, Sonoma County, California, United States of America",
            "locType": "city",
            "blogLinks": [
                "https://www.travelblog.org/Topics/32739-1.html"
            ],
            "longitude": "-122.7144313"
        },
        "london": {
            "latitude": "36.4760619",
            "closest_to": "",
            "address": "London, Tulare County, California, United States of America",
            "locType": "village",
            "blogLinks": [
                "http://www.goldengatetours.net/places"
            ],
            "longitude": "-119.4431784"
        },
        "santa monica": {
            "latitude": "34.0195598",
            "closest_to": "",
            "address": "Santa Monica, Los Angeles County, California, United States of America",
            "locType": "city",
            "blogLinks": [
                "http://travelblog.viator.com/road-trip-san-francisco-los-angeles/"
            ],
            "longitude": "-118.4869738"
        },
        "mcway falls": {
            "latitude": "36.1578211",
            "closest_to": "",
            "address": "McWay Falls, Monterey County, California, United States of America",
            "locType": "waterfall",
            "blogLinks": [
                "https://www.gapyear.com/articles/216212/13-incredible-stops-on-the-pacific-coast-highway"
            ],
            "longitude": "-121.6723957"
        },
        "mammoth cave": {
            "latitude": "41.6722473",
            "closest_to": "",
            "address": "Mammoth Cave, 45N11, Mammoth, Modoc County, California, United States of America",
            "locType": "cave_entrance",
            "blogLinks": [
                "http://www.goldengatetours.net/places"
            ],
            "longitude": "-121.3349028"
        },
        "california theatre center": {
            "latitude": "34.10680785",
            "closest_to": "",
            "address": "California Theatre, 562, West 4th Street, San Bernardino, San Bernardino County, California, 92401, United States of America",
            "locType": "cinema",
            "blogLinks": [
                "http://www.bayareakidfun.com/best-of-the-bay/"
            ],
            "longitude": "-117.295461125042"
        },
        "depoe bay": {
            "latitude": "38.9009726",
            "closest_to": "",
            "address": "Depoe Bay Coffee, 893, High Street, Auburn, Placer County, California, 95603, United States of America",
            "locType": "cafe",
            "blogLinks": [
                "https://www.travelblog.org/Topics/32739-1.html"
            ],
            "longitude": "-121.0688748"
        },
        "central coast": {
            "latitude": "35.3611193",
            "closest_to": "",
            "address": "Central Coast Street, Bakersfield, Kern County, California, 93314, United States of America",
            "locType": "residential",
            "blogLinks": [
                "http://travelblog.viator.com/road-trip-san-francisco-los-angeles/"
            ],
            "longitude": "-119.1665989"
        },
        "islay hill": {
            "latitude": "35.2455305",
            "closest_to": "",
            "address": "Islay Hill, San Luis Obispo, San Luis Obispo County, California, United States of America",
            "locType": "peak",
            "blogLinks": [
                "https://www.gapyear.com/articles/216212/13-incredible-stops-on-the-pacific-coast-highway"
            ],
            "longitude": "-120.622392"
        },
        "' soda lake": {
            "latitude": "35.23913735",
            "closest_to": "",
            "address": "Soda Lake, Soda Lake Road, San Luis Obispo County, California, United States of America",
            "locType": "water",
            "blogLinks": [
                "https://www.gapyear.com/articles/216212/13-incredible-stops-on-the-pacific-coast-highway"
            ],
            "longitude": "-119.895515964214"
        },
        "newport beach": {
            "latitude": "33.6170092",
            "closest_to": "",
            "address": "Newport Beach, Orange County, California, United States of America",
            "locType": "city",
            "blogLinks": [
                "https://www.gapyear.com/articles/216212/13-incredible-stops-on-the-pacific-coast-highway"
            ],
            "longitude": "-117.92944"
        },
        "san luis obispo": {
            "latitude": "35.2827525",
            "closest_to": "",
            "address": "San Luis Obispo, San Luis Obispo County, California, United States of America",
            "locType": "city",
            "blogLinks": [
                "http://travelblog.viator.com/road-trip-san-francisco-los-angeles/",
                "http://traveltips.usatoday.com/fun-things-los-angeles-san-francisco-14664.html",
                "https://www.gapyear.com/articles/216212/13-incredible-stops-on-the-pacific-coast-highway",
                "https://www.tripadvisor.co.uk/Travel-g28926-c182763/California:United-States:Driving.Between.La.And.Sf.html"
            ],
            "longitude": "-120.6596155"
        },
        "monterey bay aquarium": {
            "latitude": "36.61809095",
            "closest_to": "",
            "address": "MBA, 886, Cannery Row, Monterey, Monterey County, California, 93940, United States of America",
            "locType": "aquarium",
            "blogLinks": [
                "http://travelblog.viator.com/road-trip-san-francisco-los-angeles/",
                "http://www.citypass.com/san-francisco/things-to-do-san-francisco",
                "http://traveltips.usatoday.com/fun-things-los-angeles-san-francisco-14664.html",
                "https://www.gapyear.com/articles/216212/13-incredible-stops-on-the-pacific-coast-highway",
                "http://www.bayareakidfun.com/best-of-the-bay/"
            ],
            "longitude": "-121.901680002002"
        },
        "oak meadow park": {
            "latitude": "38.5671281",
            "closest_to": "",
            "address": "Oak Meadow Park, American River Drive, Arden Town, Sacramento County, California, 95608, United States of America",
            "locType": "park",
            "blogLinks": [
                "http://www.bayareakidfun.com/best-of-the-bay/"
            ],
            "longitude": "-121.3957858"
        },
        "king city": {
            "latitude": "36.2127439",
            "closest_to": "",
            "address": "King City, Monterey County, California, United States of America",
            "locType": "city",
            "blogLinks": [
                "http://traveltips.usatoday.com/fun-things-los-angeles-san-francisco-14664.html"
            ],
            "longitude": "-121.1260286"
        },
        "tea garden": {
            "latitude": "33.7006659",
            "closest_to": "",
            "address": "Tea Garden, Northwood, Irvine, Orange County, California, 92620, United States of America",
            "locType": "residential",
            "blogLinks": [
                "http://www.citypass.com/san-francisco/things-to-do-san-francisco"
            ],
            "longitude": "-117.7616589"
        },
        "arlington theatre": {
            "latitude": "34.4242119",
            "closest_to": "",
            "address": "Arlington Theatre, 1317, State Street, Santa Barbara, Santa Barbara County, California, 93101, United States of America",
            "locType": "theatre",
            "blogLinks": [
                "https://www.gapyear.com/articles/216212/13-incredible-stops-on-the-pacific-coast-highway"
            ],
            "longitude": "-119.70696995537"
        },
        "ocean beach": {
            "latitude": "32.7477784",
            "closest_to": "",
            "address": "Ocean Beach, San Diego, San Diego County, California, United States of America",
            "locType": "region",
            "blogLinks": [
                "http://travelblog.viator.com/road-trip-san-francisco-los-angeles/",
                "http://www.citypass.com/san-francisco/things-to-do-san-francisco",
                "http://www.goldengatetours.net/places"
            ],
            "longitude": "-117.249321"
        },
        "hearst castle": {
            "latitude": "35.6853689",
            "closest_to": "",
            "address": "Hearst Castle, 750, Hearst Castle Road, San Simeon, San Luis Obispo County, California, 93452, United States of America",
            "locType": "museum",
            "blogLinks": [
                "http://traveltips.usatoday.com/fun-things-los-angeles-san-francisco-14664.html"
            ],
            "longitude": "-121.167587299509"
        },
        "santa cruz beach boardwalk": {
            "latitude": "36.96446855",
            "closest_to": "",
            "address": "Santa Cruz Beach Boardwalk, Boardwalk, Beach & Boardwalk District (Commercial), Seabright, Santa Cruz, Santa Cruz County, California, 1982, United States of America",
            "locType": "attraction",
            "blogLinks": [
                "http://travelblog.viator.com/road-trip-san-francisco-los-angeles/",
                "https://www.gapyear.com/articles/216212/13-incredible-stops-on-the-pacific-coast-highway"
            ],
            "longitude": "-122.016027247326"
        },
        "old town sacramento": {
            "latitude": "38.5740724",
            "closest_to": "",
            "address": "Arden Town, Sacramento County, California, United States of America",
            "locType": "hamlet",
            "blogLinks": [
                "http://www.bayareakidfun.com/best-of-the-bay/"
            ],
            "longitude": "-121.3830077"
        },
        "sunset boulevard": {
            "latitude": "34.0759222",
            "closest_to": "",
            "address": "Sunset Boulevard, Echo Park, Angelino Heights, LA, Los Angeles County, California, 90026, United States of America",
            "locType": "primary",
            "blogLinks": [
                "https://www.gapyear.com/articles/216212/13-incredible-stops-on-the-pacific-coast-highway"
            ],
            "longitude": "-118.2554183"
        },
        "ano nuevo state park": {
            "latitude": "37.1642859",
            "closest_to": "",
            "address": "A\u00f1o Nuevo State Park, White House Canyon Road, San Mateo County, California, United States of America",
            "locType": "park",
            "blogLinks": [
                "https://www.gapyear.com/articles/216212/13-incredible-stops-on-the-pacific-coast-highway"
            ],
            "longitude": "-122.328030779329"
        },
        "california state railroad museum": {
            "latitude": "38.5846424",
            "closest_to": "",
            "address": "California State Railroad Museum, 125, I Street, Sacramento, Sacramento County, California, 95814, United States of America",
            "locType": "museum",
            "blogLinks": [
                "http://www.bayareakidfun.com/best-of-the-bay/",
                "http://www.goldengatetours.net/places"
            ],
            "longitude": "-121.5038909"
        },
        "northern california": {
            "latitude": "32.7349196",
            "closest_to": "",
            "address": "Northern Frontier, San Diego, San Diego County, California, United States of America",
            "locType": "locality",
            "blogLinks": [
                "https://www.travelblog.org/Topics/32739-1.html",
                "http://www.goldengatetours.net/places"
            ],
            "longitude": "-117.1545973"
        },
        "gilroy": {
            "latitude": "37.0065078",
            "closest_to": "",
            "address": "Gilroy, Santa Clara County, California, United States of America",
            "locType": "city",
            "blogLinks": [
                "http://traveltips.usatoday.com/fun-things-los-angeles-san-francisco-14664.html"
            ],
            "longitude": "-121.5631722"
        },
        "black hill": {
            "latitude": "34.1788953",
            "closest_to": "",
            "address": "Black Hill, San Bernardino County, California, United States of America",
            "locType": "peak",
            "blogLinks": [
                "https://www.gapyear.com/articles/216212/13-incredible-stops-on-the-pacific-coast-highway"
            ],
            "longitude": "-116.49196"
        },
        "palomar": {
            "latitude": "23.48019285",
            "closest_to": "",
            "address": "Palomar, Calzada Maestros Misioneros de 1930, Santiago, Los Cabos, Baja California Sur, M\u00e9xico",
            "locType": "hotel",
            "blogLinks": [
                "https://www.gapyear.com/articles/216212/13-incredible-stops-on-the-pacific-coast-highway"
            ],
            "longitude": "-109.715262801301"
        },
        "howland hill road": {
            "latitude": "41.781771",
            "closest_to": "",
            "address": "Howland Hill Road, Hiouchi, Del Norte County, California, 95531, United States of America",
            "locType": "unclassified",
            "blogLinks": [
                "https://www.travelblog.org/Topics/32739-1.html"
            ],
            "longitude": "-124.0925699"
        },
        "tasman drive": {
            "latitude": "33.7394596",
            "closest_to": "",
            "address": "Tasman Drive, Huntington Beach, Orange County, California, 92649, United States of America",
            "locType": "residential",
            "blogLinks": [
                "https://www.tripadvisor.co.uk/Travel-g28926-c182763/California:United-States:Driving.Between.La.And.Sf.html"
            ],
            "longitude": "-118.0395605"
        },
        "los alamos": {
            "latitude": "34.7379311",
            "closest_to": "",
            "address": "Los Alamos, Bell Street, Los Alamos, Santa Barbara County, California, 93455, United States of America",
            "locType": "administrative",
            "blogLinks": [
                "http://travelblog.viator.com/road-trip-san-francisco-los-angeles/"
            ],
            "longitude": "-120.26591036241"
        },
        "napa valley": {
            "latitude": "39.0234679",
            "closest_to": "",
            "address": "Napa Valley, Cold Spring, Campbell County, Kentucky, 41076, United States of America",
            "locType": "residential",
            "blogLinks": [
                "https://www.tripadvisor.com/ShowTopic-g60713-i30-k5261581-Scenic_Route_from_San_Francisco_to_Sacramento-San_Francisco_California.html",
                "https://www.travelblog.org/Topics/32739-1.html"
            ],
            "longitude": "-84.4504647"
        },
        "american riviera": {
            "latitude": "38.576666",
            "closest_to": "",
            "address": "American River Drive, La Riviera, Sacramento County, California, 95608, United States of America",
            "locType": "tertiary",
            "blogLinks": [
                "http://travelblog.viator.com/road-trip-san-francisco-los-angeles/"
            ],
            "longitude": "-121.3602199"
        },
        "west coast": {
            "latitude": "34.0222263",
            "closest_to": "",
            "address": "West Coast, Motor Avenue, Palms, LA, Los Angeles County, California, 90034-5702, United States of America",
            "locType": "plumber",
            "blogLinks": [
                "http://www.citypass.com/san-francisco/things-to-do-san-francisco",
                "http://www.sfgate.com/travel/streetdate/article/Niles-Boulevard-Niles-Fremont-4180678.php",
                "https://www.gapyear.com/articles/216212/13-incredible-stops-on-the-pacific-coast-highway",
                "https://www.travelblog.org/Topics/32739-1.html"
            ],
            "longitude": "-118.4051087"
        },
        "harris ranch": {
            "latitude": "36.2535766",
            "closest_to": "",
            "address": "Harris Ranch, West Dorris Avenue, Fresno County, California, 93210, United States of America",
            "locType": "hotel",
            "blogLinks": [
                "https://www.tripadvisor.co.uk/Travel-g28926-c182763/California:United-States:Driving.Between.La.And.Sf.html"
            ],
            "longitude": "-120.237368306069"
        },
        "algonquin park": {
            "latitude": "33.9022375",
            "closest_to": "",
            "address": "Algonquin Lane, Riverside, Riverside County, California, 92503, United States of America",
            "locType": "residential",
            "blogLinks": [
                "https://www.travelblog.org/Topics/32739-1.html"
            ],
            "longitude": "-117.4564399"
        },
        "cancun": {
            "latitude": "33.653909",
            "closest_to": "",
            "address": "Cancun, Palmia, Mission Viejo, Orange County, California, 92692, United States of America",
            "locType": "residential",
            "blogLinks": [
                "https://www.travelblog.org/Topics/32739-1.html"
            ],
            "longitude": "-117.6345292"
        },
        "jenner": {
            "latitude": "38.4496365",
            "closest_to": "",
            "address": "Jenner, Sonoma County, California, United States of America",
            "locType": "hamlet",
            "blogLinks": [
                "http://www.goldengatetours.net/places"
            ],
            "longitude": "-123.1155587"
        },
        "humboldt redwood state park": {
            "latitude": "40.3528056",
            "closest_to": "",
            "address": "Albee Creek Campground, Humbolt Redwoods State Park Road, Bull Creek, Humboldt County, California, United States of America",
            "locType": "camp_site",
            "blogLinks": [
                "https://www.travelblog.org/Topics/32739-1.html"
            ],
            "longitude": "-124.0095235"
        },
        "san luis": {
            "latitude": "32.4962137",
            "closest_to": "",
            "address": "California Street, Bienestar Estates, San Luis, Yuma County, Arizona, 85336, United States of America",
            "locType": "residential",
            "blogLinks": [
                "https://www.tripadvisor.co.uk/Travel-g28926-c182763/California:United-States:Driving.Between.La.And.Sf.html"
            ],
            "longitude": "-114.7643625"
        },
        "bubblegum alley": {
            "latitude": "35.2791663",
            "closest_to": "",
            "address": "Bubblegum Alley, San Luis Obispo, San Luis Obispo County, California, 93405, United States of America",
            "locType": "attraction",
            "blogLinks": [
                "https://www.gapyear.com/articles/216212/13-incredible-stops-on-the-pacific-coast-highway"
            ],
            "longitude": "-120.6638629"
        },
        "little giants park": {
            "latitude": "40.3410481",
            "closest_to": "",
            "address": "California Federation of Womens Clubs Grove, Avenue of the Giants, Weott, Humboldt County, California, 95565, United States of America",
            "locType": "wood",
            "blogLinks": [
                "http://www.citypass.com/san-francisco/things-to-do-san-francisco"
            ],
            "longitude": "-123.9376025"
        },
        "lake berryessa": {
            "latitude": "35.376803",
            "closest_to": "",
            "address": "Lake Berryessa, Rosedale, Kern County, California, 93314, United States of America",
            "locType": "residential",
            "blogLinks": [
                "https://www.tripadvisor.com/ShowTopic-g60713-i30-k5261581-Scenic_Route_from_San_Francisco_to_Sacramento-San_Francisco_California.html"
            ],
            "longitude": "-119.1745059"
        },
        "macon": {
            "latitude": "33.7137018",
            "closest_to": "",
            "address": "Macon, Northwood, Irvine, Orange County, California, 92620, United States of America",
            "locType": "residential",
            "blogLinks": [
                "https://www.travelblog.org/Topics/32739-1.html"
            ],
            "longitude": "-117.7684202"
        },
        "united kingdom": {
            "latitude": "52.4422729",
            "closest_to": "",
            "address": "California, Birmingham, West Midlands, England, UK",
            "locType": "village",
            "blogLinks": [
                "http://travelblog.viator.com/road-trip-san-francisco-los-angeles/",
                "http://www.sfgate.com/travel/"
            ],
            "longitude": "-1.9796882"
        },
        "old town": {
            "latitude": "35.142943",
            "closest_to": "",
            "address": "Old Town, Golden Hills, Kern County, California, United States of America",
            "locType": "locality",
            "blogLinks": [
                "https://www.gapyear.com/articles/216212/13-incredible-stops-on-the-pacific-coast-highway"
            ],
            "longitude": "-118.4954422"
        },
        "nuevo state park": {
            "latitude": "37.1682019",
            "closest_to": "",
            "address": "A\u00f1o Nuevo State Park Cascade Ranch Unit, White House Canyon Road, San Mateo County, California, United States of America",
            "locType": "park",
            "blogLinks": [
                "http://www.goldengatetours.net/places"
            ],
            "longitude": "-122.3329541"
        },
        "peninsula": {
            "latitude": "33.5987849",
            "closest_to": "",
            "address": "Peninsula, Corona del Mar, Newport Beach, Orange County, California, 92657, United States of America",
            "locType": "residential",
            "blogLinks": [
                "http://www.bayareakidfun.com/best-of-the-bay/"
            ],
            "longitude": "-117.830566223937"
        },
        "santa cruz": {
            "latitude": "36.9735903",
            "closest_to": "",
            "address": "Santa Cruz, Santa Cruz County, California, United States of America",
            "locType": "city",
            "blogLinks": [
                "http://www.bayareakidfun.com/best-of-the-bay/",
                "http://traveltips.usatoday.com/fun-things-los-angeles-san-francisco-14664.html",
                "https://www.gapyear.com/articles/216212/13-incredible-stops-on-the-pacific-coast-highway",
                "http://www.goldengatetours.net/places"
            ],
            "longitude": "-122.0260569"
        },
        "tasman avenue": {
            "latitude": "34.0820384",
            "closest_to": "",
            "address": "Tasman Avenue, Pomona, Los Angeles County, California, 91767, United States of America",
            "locType": "residential",
            "blogLinks": [
                "http://www.santaclara.org/getting-around/public-transportation/"
            ],
            "longitude": "-117.7429842"
        },
        "santa lucia mountain": {
            "latitude": "34.4379129",
            "closest_to": "",
            "address": "Santa Lucia, Santa Barbara County, California, 93111, United States of America",
            "locType": "residential",
            "blogLinks": [
                "http://travelblog.viator.com/road-trip-san-francisco-los-angeles/"
            ],
            "longitude": "-119.8003246"
        },
        "la": {
            "latitude": "36.7014631",
            "closest_to": "",
            "address": "California, United States of America",
            "locType": "administrative",
            "blogLinks": [
                "http://traveltips.usatoday.com/fun-things-los-angeles-san-francisco-14664.html"
            ],
            "longitude": "-118.7559973"
        },
        "coyote point": {
            "latitude": "35.3833071",
            "closest_to": "",
            "address": "Coyote Point, San Luis Obispo County, California, United States of America",
            "locType": "peak",
            "blogLinks": [
                "http://www.bayareakidfun.com/best-of-the-bay/"
            ],
            "longitude": "-120.7329512"
        },
        "downtown ventura": {
            "latitude": "34.15184445",
            "closest_to": "",
            "address": "Downtown Johnny's, 14649, Ventura Boulevard, Sherman Oaks, LA, Los Angeles County, California, 91403, United States of America",
            "locType": "restaurant",
            "blogLinks": [
                "https://www.gapyear.com/articles/216212/13-incredible-stops-on-the-pacific-coast-highway"
            ],
            "longitude": "-118.452523182928"
        },
        "hollywood": {
            "latitude": "34.1028268",
            "closest_to": "",
            "address": "Hollywood, LA, Los Angeles County, California, United States of America",
            "locType": "suburb",
            "blogLinks": [
                "https://www.gapyear.com/articles/216212/13-incredible-stops-on-the-pacific-coast-highway"
            ],
            "longitude": "-118.3299898"
        },
        "alabama": {
            "latitude": "37.413435",
            "closest_to": "",
            "address": "Alabama, Rovana, Inyo County, California, United States of America",
            "locType": "residential",
            "blogLinks": [
                "https://www.travelblog.org/Topics/32739-1.html"
            ],
            "longitude": "-118.6109719"
        },
        "grant avenue": {
            "latitude": "33.27553",
            "closest_to": "",
            "address": "Grant Avenue, Salton City, Imperial County, California, 92275, United States of America",
            "locType": "residential",
            "blogLinks": [
                "http://www.citypass.com/san-francisco/things-to-do-san-francisco"
            ],
            "longitude": "-115.9754509"
        },
        "los cabos": {
            "latitude": "23.27184805",
            "closest_to": "",
            "address": "Los Cabos, Baja California Sur, M\u00e9xico",
            "locType": "administrative",
            "blogLinks": [
                "http://www.10best.com/interests/tours-itineraries/10best-day-trip-scenic-route-from-san-francisco-to-napa/"
            ],
            "longitude": "-109.689768313063"
        },
        "teotihuacan": {
            "latitude": "24.1265846",
            "closest_to": "",
            "address": "Teotihuacan, La Paz, Baja California Sur, 23080, M\u00e9xico",
            "locType": "residential",
            "blogLinks": [
                "http://www.citypass.com/san-francisco/things-to-do-san-francisco"
            ],
            "longitude": "-110.3354894"
        },
        "france": {
            "latitude": "34.2013715",
            "closest_to": "",
            "address": "France, Sherman Way, Canoga Park, LA, Los Angeles County, California, 91307, United States of America",
            "locType": "cafe",
            "blogLinks": [
                "http://www.citypass.com/san-francisco/things-to-do-san-francisco"
            ],
            "longitude": "-118.5935353"
        },
        "yellowstone": {
            "latitude": "34.0671665",
            "closest_to": "",
            "address": "Yellowstone Street, University Hills, Boyle Heights, LA, Los Angeles County, California, 90032-3813, United States of America",
            "locType": "residential",
            "blogLinks": [
                "https://www.travelblog.org/Topics/32739-1.html"
            ],
            "longitude": "-118.1827535"
        },
        "solvang": {
            "latitude": "34.5958572",
            "closest_to": "",
            "address": "Solvang, Santa Barbara County, California, United States of America",
            "locType": "city",
            "blogLinks": [
                "https://www.tripadvisor.co.uk/Travel-g28926-c182763/California:United-States:Driving.Between.La.And.Sf.html"
            ],
            "longitude": "-120.1390893"
        },
        "oceania": {
            "latitude": "32.5186477",
            "closest_to": "",
            "address": "Boulevard Oceania, Rivera, Tijuana, Baja California, 22504, M\u00e9xico",
            "locType": "residential",
            "blogLinks": [
                "http://www.citypass.com/san-francisco/things-to-do-san-francisco"
            ],
            "longitude": "-117.1214054"
        },
        "coronado bridge": {
            "latitude": "32.6904606",
            "closest_to": "",
            "address": "San Diego-Coronado Bridge, San Diego, San Diego County, California, 92118, United States of America",
            "locType": "motorway",
            "blogLinks": [
                "https://www.gapyear.com/articles/216212/13-incredible-stops-on-the-pacific-coast-highway"
            ],
            "longitude": "-117.1524863"
        },
        "santa barbara": {
            "latitude": "34.4221319",
            "closest_to": "",
            "address": "Santa Barbara, Santa Barbara County, California, United States of America",
            "locType": "city",
            "blogLinks": [
                "http://travelblog.viator.com/road-trip-san-francisco-los-angeles/",
                "http://traveltips.usatoday.com/fun-things-los-angeles-san-francisco-14664.html",
                "https://www.gapyear.com/articles/216212/13-incredible-stops-on-the-pacific-coast-highway",
                "https://www.tripadvisor.co.uk/Travel-g28926-c182763/California:United-States:Driving.Between.La.And.Sf.html"
            ],
            "longitude": "-119.7026672"
        },
        "mexico": {
            "latitude": "28.973",
            "closest_to": "",
            "address": "California, Hermosillo, Sonora, M\u00e9xico",
            "locType": "village",
            "blogLinks": [
                "http://www.citypass.com/san-francisco/things-to-do-san-francisco",
                "https://www.travelblog.org/Topics/32739-1.html"
            ],
            "longitude": "-111.8196666"
        },
        "san diego county": {
            "latitude": "32.9637838",
            "closest_to": "",
            "address": "San Diego County, California, United States of America",
            "locType": "administrative",
            "blogLinks": [
                "https://www.gapyear.com/articles/216212/13-incredible-stops-on-the-pacific-coast-highway"
            ],
            "longitude": "-116.7706276"
        },
        "santa barbara mission": {
            "latitude": "34.4662154",
            "closest_to": "",
            "address": "KDB-FM (Santa Barbara), Gibraltar Road, Santa Barbara County, California, 93103, United States of America",
            "locType": "tower",
            "blogLinks": [
                "http://traveltips.usatoday.com/fun-things-los-angeles-san-francisco-14664.html"
            ],
            "longitude": "-119.6779962"
        },
        "buellton": {
            "latitude": "34.6134727",
            "closest_to": "",
            "address": "Buellton, Santa Barbara County, California, United States of America",
            "locType": "city",
            "blogLinks": [
                "http://traveltips.usatoday.com/fun-things-los-angeles-san-francisco-14664.html"
            ],
            "longitude": "-120.1936691"
        },
        "canada": {
            "latitude": "33.7298842",
            "closest_to": "",
            "address": "La Canada, Lower Peters Canyon, Irvine, Orange County, California, 92602, United States of America",
            "locType": "residential",
            "blogLinks": [
                "http://www.timeanddate.com/worldclock/distances.html?n=224",
                "https://www.travelblog.org/Topics/32739-1.html"
            ],
            "longitude": "-117.7641381"
        },
        "middle earth": {
            "latitude": "33.64434515",
            "closest_to": "",
            "address": "Middle Earth, Turtle Rock, Irvine, Orange County, California, 92617, United States of America",
            "locType": "residential",
            "blogLinks": [
                "http://www.sftravel.com/"
            ],
            "longitude": "-117.837186650942"
        },
        "santa monica pier": {
            "latitude": "34.0104809",
            "closest_to": "",
            "address": "Santa Monica Pier, Santa Monica, Los Angeles County, California, CA 90401, United States of America",
            "locType": "service",
            "blogLinks": [
                "https://www.gapyear.com/articles/216212/13-incredible-stops-on-the-pacific-coast-highway"
            ],
            "longitude": "-118.4960541"
        },
        "us": {
            "latitude": "36.7014631",
            "closest_to": "",
            "address": "California, United States of America",
            "locType": "administrative",
            "blogLinks": [
                "https://www.tripadvisor.co.uk/Travel-g28926-c182763/California:United-States:Driving.Between.La.And.Sf.html"
            ],
            "longitude": "-118.7559973"
        },
        "mendocino": {
            "latitude": "39.3176491",
            "closest_to": "",
            "address": "Mendocino County, California, United States of America",
            "locType": "administrative",
            "blogLinks": [
                "https://www.travelblog.org/Topics/32739-1.html"
            ],
            "longitude": "-123.4126398"
        },
        "monterey county": {
            "latitude": "36.2231079",
            "closest_to": "",
            "address": "Monterey County, California, United States of America",
            "locType": "administrative",
            "blogLinks": [
                "http://travelblog.viator.com/road-trip-san-francisco-los-angeles/"
            ],
            "longitude": "-121.3877427"
        },
        "long beach museum of art": {
            "latitude": "33.76347985",
            "closest_to": "",
            "address": "Long Beach Museum of Art, East Ocean Boulevard, Belmont Shore, Long Beach, Los Angeles County, California, 90814, United States of America",
            "locType": "museum",
            "blogLinks": [
                "https://www.gapyear.com/articles/216212/13-incredible-stops-on-the-pacific-coast-highway"
            ],
            "longitude": "-118.164781543159"
        },
        "paris": {
            "latitude": "34.4719383",
            "closest_to": "",
            "address": "Paris, Los Angeles County, California, United States of America",
            "locType": "hamlet",
            "blogLinks": [
                "http://www.citypass.com/san-francisco/things-to-do-san-francisco"
            ],
            "longitude": "-118.1809078"
        },
        "los angeles": {
            "latitude": "34.0543942",
            "closest_to": "",
            "address": "LA, Los Angeles County, California, United States of America",
            "locType": "city",
            "blogLinks": [
                "http://travelblog.viator.com/road-trip-san-francisco-los-angeles/",
                "http://traveltips.usatoday.com/fun-things-los-angeles-san-francisco-14664.html",
                "https://www.tripadvisor.com/ShowTopic-g60713-i30-k5261581-Scenic_Route_from_San_Francisco_to_Sacramento-San_Francisco_California.html",
                "https://www.gapyear.com/articles/216212/13-incredible-stops-on-the-pacific-coast-highway"
            ],
            "longitude": "-118.2439408"
        },
        "toronto": {
            "latitude": "33.5731279",
            "closest_to": "",
            "address": "Toronto, Aliso Viejo, Orange County, California, 92656, United States of America",
            "locType": "residential",
            "blogLinks": [
                "https://www.travelblog.org/Topics/32739-1.html"
            ],
            "longitude": "-117.7355314"
        },
        "pfeiffer beach": {
            "latitude": "36.23934855",
            "closest_to": "",
            "address": "Pfeiffer Beach, Sycamore Canyon Road, Big Sur, Monterey County, California, 93920, United States of America",
            "locType": "beach",
            "blogLinks": [
                "https://www.gapyear.com/articles/216212/13-incredible-stops-on-the-pacific-coast-highway"
            ],
            "longitude": "-121.81778571416"
        },
        "sienna ranch": {
            "latitude": "33.5590148",
            "closest_to": "",
            "address": "Sienna Parkway, Las Flores, Ladera Ranch, Orange County, California, 92697, United States of America",
            "locType": "tertiary",
            "blogLinks": [
                "http://www.bayareakidfun.com/best-of-the-bay/"
            ],
            "longitude": "-117.6360879"
        },
        "portland": {
            "latitude": "33.8979116",
            "closest_to": "",
            "address": "Portland, Riverside, Riverside County, California, 92508, United States of America",
            "locType": "residential",
            "blogLinks": [
                "https://www.travelblog.org/Topics/32739-1.html"
            ],
            "longitude": "-117.3105194"
        },
        "san simeon": {
            "latitude": "35.6438587",
            "closest_to": "",
            "address": "San Simeon, San Luis Obispo County, California, United States of America",
            "locType": "hamlet",
            "blogLinks": [
                "http://traveltips.usatoday.com/fun-things-los-angeles-san-francisco-14664.html",
                "https://www.gapyear.com/articles/216212/13-incredible-stops-on-the-pacific-coast-highway",
                "http://www.goldengatetours.net/places"
            ],
            "longitude": "-121.1907532"
        },
        "edgewood rd": {
            "latitude": "34.4916762",
            "closest_to": "",
            "address": "Edgewood Road, Victorville, San Bernardino County, California, 92392, United States of America",
            "locType": "residential",
            "blogLinks": [
                "http://www.bayareakidfun.com/best-of-the-bay/"
            ],
            "longitude": "-117.4066249"
        },
        "redwood": {
            "latitude": "33.45713595",
            "closest_to": "",
            "address": "Redwood, Wolf Creek, Temecula, Riverside County, California, 92592, United States of America",
            "locType": "residential",
            "blogLinks": [
                "http://www.citypass.com/san-francisco/things-to-do-san-francisco"
            ],
            "longitude": "-117.094843184352"
        },
        "yountville": {
            "latitude": "38.4015781",
            "closest_to": "",
            "address": "Yountville, Napa County, California, United States of America",
            "locType": "administrative",
            "blogLinks": [
                "https://www.travelblog.org/Topics/32739-1.html"
            ],
            "longitude": "-122.3608104"
        },
        "new york": {
            "latitude": "34.0143928",
            "closest_to": "",
            "address": "New York, West Covina, Los Angeles County, California, 91792, United States of America",
            "locType": "service",
            "blogLinks": [
                "https://www.travelblog.org/Topics/32739-1.html"
            ],
            "longitude": "-117.8984509"
        },
        "san diego": {
            "latitude": "32.7174209",
            "closest_to": "",
            "address": "San Diego, San Diego County, California, United States of America",
            "locType": "city",
            "blogLinks": [
                "http://traveltips.usatoday.com/fun-things-los-angeles-san-francisco-14664.html",
                "https://www.gapyear.com/articles/216212/13-incredible-stops-on-the-pacific-coast-highway"
            ],
            "longitude": "-117.1627713"
        },
        "cambria": {
            "latitude": "35.5641381",
            "closest_to": "",
            "address": "Cambria, San Luis Obispo County, California, United States of America",
            "locType": "administrative",
            "blogLinks": [
                "https://www.tripadvisor.co.uk/Travel-g28926-c182763/California:United-States:Driving.Between.La.And.Sf.html"
            ],
            "longitude": "-121.0807467"
        },
        "madonna inn": {
            "latitude": "35.2673282",
            "closest_to": "",
            "address": "Madonna Inn, 100, Madonna Road, San Luis Obispo, San Luis Obispo County, California, 93405, United States of America",
            "locType": "hotel",
            "blogLinks": [
                "http://traveltips.usatoday.com/fun-things-los-angeles-san-francisco-14664.html"
            ],
            "longitude": "-120.674725246222"
        },
        "california coast": {
            "latitude": "32.7586361",
            "closest_to": "",
            "address": "California Coast Credit Union, Park Boulevard, Hillcrest, San Diego, San Diego County, California, 92116, United States of America",
            "locType": "bank",
            "blogLinks": [
                "http://www.citypass.com/san-francisco/things-to-do-san-francisco",
                "http://traveltips.usatoday.com/fun-things-los-angeles-san-francisco-14664.html"
            ],
            "longitude": "-117.1464145"
        },
        "bixby creek bridge": {
            "latitude": "36.3710197",
            "closest_to": "",
            "address": "Bixby Creek Bridge, Notleys Landing, Monterey County, California, 93923, United States of America",
            "locType": "primary",
            "blogLinks": [
                "http://travelblog.viator.com/road-trip-san-francisco-los-angeles/"
            ],
            "longitude": "-121.9017572"
        },
        "england": {
            "latitude": "52.4422729",
            "closest_to": "",
            "address": "California, Birmingham, West Midlands, England, UK",
            "locType": "village",
            "blogLinks": [
                "http://gocalifornia.about.com/"
            ],
            "longitude": "-1.9796882"
        },
        "las vegas": {
            "latitude": "36.17310935",
            "closest_to": "",
            "address": "California Hotel, Sky Walk(Connection from Main Street to California, Cultural Corridor, Vegas Heights, Las Vegas, Clark County, Nevada, 89101, United States of America",
            "locType": "hotel",
            "blogLinks": [
                "http://www.goldengatetours.net/places"
            ],
            "longitude": "-115.144667930325"
        },
        "soledad": {
            "latitude": "36.4269452",
            "closest_to": "",
            "address": "Soledad, Monterey County, California, United States of America",
            "locType": "city",
            "blogLinks": [
                "http://traveltips.usatoday.com/fun-things-los-angeles-san-francisco-14664.html"
            ],
            "longitude": "-121.3272146"
        },
        "santa barbara botanic garden": {
            "latitude": "34.456953",
            "closest_to": "",
            "address": "Santa Barbara Botanic Gardens, Mission Canyon Road, Mission Canyon, Santa Barbara County, California, 93105, United States of America",
            "locType": "park",
            "blogLinks": [
                "https://www.gapyear.com/articles/216212/13-incredible-stops-on-the-pacific-coast-highway"
            ],
            "longitude": "-119.709585108231"
        },
        "ontario": {
            "latitude": "34.065846",
            "closest_to": "",
            "address": "Ontario, San Bernardino County, California, United States of America",
            "locType": "city",
            "blogLinks": [
                "https://www.travelblog.org/Topics/32739-1.html"
            ],
            "longitude": "-117.6484303"
        },
        "lakeshore drive": {
            "latitude": "33.6909623",
            "closest_to": "",
            "address": "Lakeshore Drive, Terra Cotta, Lake Elsinore, Riverside County, California, 92530, United States of America",
            "locType": "secondary",
            "blogLinks": [
                "http://www.santaclara.org/getting-around/public-transportation/"
            ],
            "longitude": "-117.3769389"
        },
        "u.s": {
            "latitude": "-32.5446226",
            "closest_to": "",
            "address": "La California, Municipio de Las Rosas, Departamento Belgrano, Sta. Fe, Argentina",
            "locType": "hamlet",
            "blogLinks": [
                "http://www.citypass.com/san-francisco/things-to-do-san-francisco"
            ],
            "longitude": "-61.5489543"
        },
        "financial district": {
            "latitude": "34.0457621",
            "closest_to": "",
            "address": "Financial District, Bunker Hill, LA, Los Angeles County, California, 90079, United States of America",
            "locType": "neighbourhood",
            "blogLinks": [
                "http://www.citypass.com/san-francisco/things-to-do-san-francisco"
            ],
            "longitude": "-118.2593046"
        },
        "pacific ocean": {
            "latitude": "36.16305775",
            "closest_to": "",
            "address": "Pacific Ocean, Cabrillo Highway, Monterey County, California, 93920, United States of America",
            "locType": "cliff",
            "blogLinks": [
                "http://travelblog.viator.com/road-trip-san-francisco-los-angeles/",
                "http://www.citypass.com/san-francisco/things-to-do-san-francisco",
                "http://www.goldengatetours.net/places"
            ],
            "longitude": "-121.678715787326"
        },
        "fort bragg": {
            "latitude": "39.4447345",
            "closest_to": "",
            "address": "Fort Bragg, Mendocino County, California, United States of America",
            "locType": "city",
            "blogLinks": [
                "http://www.goldengatetours.net/places"
            ],
            "longitude": "-123.802699105743"
        },
        "sacramento": {
            "latitude": "38.5815719",
            "closest_to": "",
            "address": "Sacramento, Sacramento County, California, United States of America",
            "locType": "city",
            "blogLinks": [
                "http://www.santaclara.org/getting-around/public-transportation/",
                "https://www.tripadvisor.com/ShowTopic-g60713-i30-k5261581-Scenic_Route_from_San_Francisco_to_Sacramento-San_Francisco_California.html",
                "http://www.bayareakidfun.com/best-of-the-bay/"
            ],
            "longitude": "-121.4943995"
        },
        "felton": {
            "latitude": "37.0513364",
            "closest_to": "",
            "address": "Felton, Santa Cruz County, California, United States of America",
            "locType": "village",
            "blogLinks": [
                "http://www.goldengatetours.net/places"
            ],
            "longitude": "-122.0732905"
        },
        "united states": {
            "latitude": "36.7014631",
            "closest_to": "",
            "address": "California, United States of America",
            "locType": "administrative",
            "blogLinks": [
                "https://www.tripadvisor.com/Attractions-g32411-Activities-Fremont_California.html",
                "https://www.tripadvisor.co.uk/Travel-g28926-c182763/California:United-States:Driving.Between.La.And.Sf.html"
            ],
            "longitude": "-118.7559973"
        },
        "morro bay": {
            "latitude": "35.3658075",
            "closest_to": "",
            "address": "Morro Bay, San Luis Obispo County, California, United States of America",
            "locType": "city",
            "blogLinks": [
                "http://traveltips.usatoday.com/fun-things-los-angeles-san-francisco-14664.html"
            ],
            "longitude": "-120.8499012"
        },
        "s.f.": {
            "latitude": "19.9908291",
            "closest_to": "",
            "address": "California, Bosque de Canalejas, Jilotepec, M\u00e9xico, 54270, M\u00e9xico",
            "locType": "residential",
            "blogLinks": [
                "http://www.sfgate.com/travel/streetdate/article/Niles-Boulevard-Niles-Fremont-4180678.php"
            ],
            "longitude": "-99.6183945"
        },
        "ventura beach": {
            "latitude": "32.772073",
            "closest_to": "",
            "address": "Ventura Place, Pacific Beach, San Diego, San Diego County, California, 92109, United States of America",
            "locType": "unclassified",
            "blogLinks": [
                "https://www.gapyear.com/articles/216212/13-incredible-stops-on-the-pacific-coast-highway"
            ],
            "longitude": "-117.2514716"
        },
        "orlando": {
            "latitude": "34.070432",
            "closest_to": "",
            "address": "South Orlando Avenue, Carthay Circle, LA, Los Angeles County, California, 90048, United States of America",
            "locType": "residential",
            "blogLinks": [
                "https://www.travelblog.org/Topics/32739-1.html"
            ],
            "longitude": "-118.3735726"
        },
        "oregon": {
            "latitude": "33.7123207",
            "closest_to": "",
            "address": "Oregon, Walnut, Irvine, Orange County, California, 92606, United States of America",
            "locType": "residential",
            "blogLinks": [
                "https://www.gapyear.com/articles/216212/13-incredible-stops-on-the-pacific-coast-highway",
                "https://www.travelblog.org/Topics/32739-1.html"
            ],
            "longitude": "-117.7911567"
        },
        "big sur bakery": {
            "latitude": "36.2359105",
            "closest_to": "",
            "address": "Big Sur Bakery, 47540, Cabrillo Highway, Posts, Monterey County, California, 93920, United States of America",
            "locType": "bakery",
            "blogLinks": [
                "http://travelblog.viator.com/road-trip-san-francisco-los-angeles/"
            ],
            "longitude": "-121.7693642"
        },
        "malibu": {
            "latitude": "33.7932142",
            "closest_to": "",
            "address": "Malibu, Palm Springs, Riverside County, California, 92264, United States of America",
            "locType": "residential",
            "blogLinks": [
                "https://www.gapyear.com/articles/216212/13-incredible-stops-on-the-pacific-coast-highway"
            ],
            "longitude": "-116.5023561"
        },
        "rockefeller grove": {
            "latitude": "35.296713",
            "closest_to": "",
            "address": "Rockefeller Court, Bakersfield, Kern County, California, 93311, United States of America",
            "locType": "residential",
            "blogLinks": [
                "https://www.travelblog.org/Topics/32739-1.html"
            ],
            "longitude": "-119.1033773"
        },
        "rodeo drive": {
            "latitude": "32.824444",
            "closest_to": "",
            "address": "Rodeo Drive, La Jolla, San Diego, San Diego County, California, 92037, United States of America",
            "locType": "residential",
            "blogLinks": [
                "https://www.gapyear.com/articles/216212/13-incredible-stops-on-the-pacific-coast-highway"
            ],
            "longitude": "-117.2609329"
        },
        "san diego bay": {
            "latitude": "32.6500534",
            "closest_to": "",
            "address": "San Diego Bay, Leyte Road, Crown Island, Coronado, San Diego County, California, 92118, United States of America",
            "locType": "bay",
            "blogLinks": [
                "https://www.gapyear.com/articles/216212/13-incredible-stops-on-the-pacific-coast-highway"
            ],
            "longitude": "-117.1341977"
        },
        "washington": {
            "latitude": "40.0657724",
            "closest_to": "",
            "address": "California, Washington County, Pennsylvania, United States of America",
            "locType": "administrative",
            "blogLinks": [
                "https://www.travelblog.org/Topics/32739-1.html"
            ],
            "longitude": "-79.8918435"
        },
        "laguna beach": {
            "latitude": "33.5420888",
            "closest_to": "",
            "address": "Laguna Beach, Orange County, California, United States of America",
            "locType": "city",
            "blogLinks": [
                "https://www.gapyear.com/articles/216212/13-incredible-stops-on-the-pacific-coast-highway"
            ],
            "longitude": "-117.7834146"
        },
        "point sur state historic park": {
            "latitude": "36.315378",
            "closest_to": "",
            "address": "Point Sur State Historic Park, Cabrillo Highway, Big Sur, Monterey County, California, 93923, United States of America",
            "locType": "park",
            "blogLinks": [
                "https://www.gapyear.com/articles/216212/13-incredible-stops-on-the-pacific-coast-highway"
            ],
            "longitude": "-121.881955510784"
        },
        "ventura": {
            "latitude": "34.4458248",
            "closest_to": "",
            "address": "Ventura County, California, United States of America",
            "locType": "administrative",
            "blogLinks": [
                "http://travelblog.viator.com/road-trip-san-francisco-los-angeles/",
                "http://traveltips.usatoday.com/fun-things-los-angeles-san-francisco-14664.html",
                "https://www.gapyear.com/articles/216212/13-incredible-stops-on-the-pacific-coast-highway"
            ],
            "longitude": "-119.0779358"
        },
        "calistoga": {
            "latitude": "38.582615",
            "closest_to": "",
            "address": "Calistoga, Napa County, California, United States of America",
            "locType": "city",
            "blogLinks": [
                "https://www.travelblog.org/Topics/32739-1.html"
            ],
            "longitude": "-122.583325948608"
        },
        "california": {
            "latitude": "7.3480915",
            "closest_to": "",
            "address": "California, Santander, Colombia",
            "locType": "village",
            "blogLinks": [
                "http://www.10best.com/interests/tours-itineraries/10best-day-trip-scenic-route-from-san-francisco-to-napa/",
                "https://www.gapyear.com/articles/216212/13-incredible-stops-on-the-pacific-coast-highway",
                "https://www.tripadvisor.co.uk/Travel-g28926-c182763/California:United-States:Driving.Between.La.And.Sf.html",
                "http://www.sfgate.com/travel/",
                "http://travelblog.viator.com/road-trip-san-francisco-los-angeles/",
                "http://www.santaclara.org/getting-around/public-transportation/",
                "http://www.goldengatetours.net/places",
                "http://traveltips.usatoday.com/fun-things-los-angeles-san-francisco-14664.html",
                "https://www.travelblog.org/Topics/32739-1.html",
                "http://gocalifornia.about.com/"
            ],
            "longitude": "-72.945787"
        },
        "pacific beach": {
            "latitude": "32.7978268",
            "closest_to": "",
            "address": "Pacific Beach, San Diego, San Diego County, California, United States of America",
            "locType": "suburb",
            "blogLinks": [
                "https://www.gapyear.com/articles/216212/13-incredible-stops-on-the-pacific-coast-highway"
            ],
            "longitude": "-117.2403182"
        },
        "bay": {
            "latitude": "33.6899249",
            "closest_to": "",
            "address": "Bay, Meadows Mobile Home Park, El Camino Real, Irvine, Orange County, California, 92406, United States of America",
            "locType": "service",
            "blogLinks": [
                "http://travelblog.viator.com/road-trip-san-francisco-los-angeles/",
                "http://www.citypass.com/san-francisco/things-to-do-san-francisco",
                "http://www.bayareakidfun.com/best-of-the-bay/"
            ],
            "longitude": "-117.7729354"
        },
        "redwood national park": {
            "latitude": "41.27553155",
            "closest_to": "",
            "address": "Redwood National Park, Redwood Creek Trail, Orick, Humboldt County, California, 95555, United States of America",
            "locType": "national_park",
            "blogLinks": [
                "https://www.travelblog.org/Topics/32739-1.html"
            ],
            "longitude": "-124.030095146171"
        },
        "gold country": {
            "latitude": "35.300501",
            "closest_to": "",
            "address": "Gold Country Way, Bakersfield, Kern County, California, 93311, United States of America",
            "locType": "residential",
            "blogLinks": [
                "http://www.goldengatetours.net/places"
            ],
            "longitude": "-119.0856049"
        },
        "america": {
            "latitude": "36.2573198",
            "closest_to": "",
            "address": "America, Kings County, California, 93246, United States of America",
            "locType": "residential",
            "blogLinks": [
                "http://traveltips.usatoday.com/fun-things-los-angeles-san-francisco-14664.html",
                "https://www.travelblog.org/Topics/32739-1.html"
            ],
            "longitude": "-119.8948706"
        },
        "rio theatre": {
            "latitude": "36.9801486",
            "closest_to": "",
            "address": "Rio Theatre, Soquel Avenue, Soquel Avenue Commercial Corridor, Eastside, Santa Cruz, Santa Cruz County, California, 95062, United States of America",
            "locType": "theatre",
            "blogLinks": [
                "https://www.gapyear.com/articles/216212/13-incredible-stops-on-the-pacific-coast-highway"
            ],
            "longitude": "-122.0104295"
        },
        "americas": {
            "latitude": "-13.17169885",
            "closest_to": "",
            "address": "california, Jir\u00f3n Aprovesa, Asociaci\u00f3n de Vivienda Santa Rosa, Distrito de San Juan Bautista, San Juan Bautista, Huamanga, Ayacucho, 05001, Per\u00fa",
            "locType": "hotel",
            "blogLinks": [
                "http://www.citypass.com/san-francisco/things-to-do-san-francisco"
            ],
            "longitude": "-74.206290139264"
        },
        "nashville": {
            "latitude": "38.5787952",
            "closest_to": "",
            "address": "Nashville, El Dorado County, California, United States of America",
            "locType": "hamlet",
            "blogLinks": [
                "https://www.travelblog.org/Topics/32739-1.html"
            ],
            "longitude": "-120.8452144"
        },
        "carmel": {
            "latitude": "38.75511285",
            "closest_to": "",
            "address": "Carmel, Roseville, Placer County, California, 95747, United States of America",
            "locType": "residential",
            "blogLinks": [
                "http://travelblog.viator.com/road-trip-san-francisco-los-angeles/"
            ],
            "longitude": "-121.353308848273"
        },
        "san fernando valley": {
            "latitude": "34.2819461",
            "closest_to": "",
            "address": "San Fernando, Los Angeles County, California, United States of America",
            "locType": "administrative",
            "blogLinks": [
                "https://www.gapyear.com/articles/216212/13-incredible-stops-on-the-pacific-coast-highway"
            ],
            "longitude": "-118.4389718"
        },
        "pebble beach golf course": {
            "latitude": "36.56413635",
            "closest_to": "",
            "address": "Pebble Beach Golf Course, Live Oak Meadow Road, Del Monte Forest, Monterey County, California, 93953, United States of America",
            "locType": "golf_course",
            "blogLinks": [
                "http://traveltips.usatoday.com/fun-things-los-angeles-san-francisco-14664.html"
            ],
            "longitude": "-121.937790801787"
        },
        "chandlier": {
            "latitude": "33.2688585",
            "closest_to": "",
            "address": "South California Street, Chandler, Maricopa County, Arizona, 85248, United States of America",
            "locType": "residential",
            "blogLinks": [
                "https://www.travelblog.org/Topics/32739-1.html"
            ],
            "longitude": "-111.8437957"
        },
        "pismo beach": {
            "latitude": "35.1427533",
            "closest_to": "",
            "address": "Pismo Beach, San Luis Obispo County, California, United States of America",
            "locType": "city",
            "blogLinks": [
                "http://traveltips.usatoday.com/fun-things-los-angeles-san-francisco-14664.html",
                "https://www.gapyear.com/articles/216212/13-incredible-stops-on-the-pacific-coast-highway",
                "https://www.tripadvisor.co.uk/Travel-g28926-c182763/California:United-States:Driving.Between.La.And.Sf.html"
            ],
            "longitude": "-120.6412826"
        },
        "monterey": {
            "latitude": "36.5844165",
            "closest_to": "",
            "address": "Monterey, Monterey County, California, United States of America",
            "locType": "city",
            "blogLinks": [
                "http://www.citypass.com/san-francisco/things-to-do-san-francisco",
                "http://traveltips.usatoday.com/fun-things-los-angeles-san-francisco-14664.html",
                "https://www.gapyear.com/articles/216212/13-incredible-stops-on-the-pacific-coast-highway"
            ],
            "longitude": "-121.866792846206"
        },
        "muir woods": {
            "latitude": "38.049581",
            "closest_to": "",
            "address": "Muir Woods Avenue, Stockton, San Joaquin County, California, 95209, United States of America",
            "locType": "residential",
            "blogLinks": [
                "https://www.travelblog.org/Topics/32739-1.html"
            ],
            "longitude": "-121.3457819"
        },
        "dana point": {
            "latitude": "33.4669721",
            "closest_to": "",
            "address": "Dana Point, Orange County, California, United States of America",
            "locType": "city",
            "blogLinks": [
                "https://www.tripadvisor.co.uk/Travel-g28926-c182763/California:United-States:Driving.Between.La.And.Sf.html"
            ],
            "longitude": "-117.6981074"
        }
    }
}