{
    "mentions": {
        "oregon": {
            "latitude": "33.7123207",
            "closest_to": "",
            "address": "Oregon, Walnut, Irvine, Orange County, California, 92606, United States of America",
            "locType": "residential",
            "blogLinks": [
                "http://www.sonomacounty.com/articles/day-trip-san-francisco-sonoma",
                "http://californiathroughmylens.com/san-francisco-mendocino-guide"
            ],
            "longitude": "-117.7911567"
        },
        "usa": {
            "latitude": "36.7014631",
            "closest_to": "",
            "address": "California, United States of America",
            "locType": "administrative",
            "blogLinks": [
                "http://www.distancesfrom.com/us/how-far-is-Sausalito-from-Fremont/HowFarHistory/19721106.aspx",
                "http://www.distancesfrom.com/us/travel-from-Fremont-to-Sausalito/TravelFromHistory/19721106.aspx",
                "http://www.distancesfrom.com/us/Trip-Cost-from-Fremont-to-Sausalito/TripCostHistory/19721106.aspx"
            ],
            "longitude": "-118.7559973"
        },
        "coyote point": {
            "latitude": "35.3833071",
            "closest_to": "",
            "address": "Coyote Point, San Luis Obispo County, California, United States of America",
            "locType": "peak",
            "blogLinks": [
                "http://www.bayareakidfun.com/best-of-the-bay/"
            ],
            "longitude": "-120.7329512"
        },
        "crescent city": {
            "latitude": "41.8528065",
            "closest_to": "",
            "address": "Crescent City, Del Norte County, California, United States of America",
            "locType": "city",
            "blogLinks": [
                "http://californiathroughmylens.com/san-francisco-mendocino-guide"
            ],
            "longitude": "-124.149861883096"
        },
        "monterey bay": {
            "latitude": "36.7999557",
            "closest_to": "",
            "address": "Monterey Bay, Monterey County, California, United States of America",
            "locType": "bay",
            "blogLinks": [
                "http://www.sfgate.com/travel/fiveplaces/article/5-places-any-John-Steinbeck-fan-should-visit-3686256.php"
            ],
            "longitude": "-121.9010667"
        },
        "santa cruz": {
            "latitude": "36.9735903",
            "closest_to": "",
            "address": "Santa Cruz, Santa Cruz County, California, United States of America",
            "locType": "city",
            "blogLinks": [
                "http://www.bayareakidfun.com/best-of-the-bay/"
            ],
            "longitude": "-122.0260569"
        },
        "east bay": {
            "latitude": "38.156964",
            "closest_to": "",
            "address": "East Bay, San Joaquin County, California, United States of America",
            "locType": "track",
            "blogLinks": [
                "http://www.bayareakidfun.com/best-of-the-bay/",
                "http://www.visitsfbayarea.com/destinations"
            ],
            "longitude": "-121.0270079"
        },
        "monterey county": {
            "latitude": "36.2231079",
            "closest_to": "",
            "address": "Monterey County, California, United States of America",
            "locType": "administrative",
            "blogLinks": [
                "http://www.sfgate.com/travel/fiveplaces/article/5-places-any-John-Steinbeck-fan-should-visit-3686256.php"
            ],
            "longitude": "-121.3877427"
        },
        "united kingdom": {
            "latitude": "52.4422729",
            "closest_to": "",
            "address": "California, Birmingham, West Midlands, England, UK",
            "locType": "village",
            "blogLinks": [
                "http://www.bestplaces.net/city/california/sausalito"
            ],
            "longitude": "-1.9796882"
        },
        "fremont peak state park": {
            "latitude": "36.79712675",
            "closest_to": "",
            "address": "Fremont Peak State Park, San Juan Canyon Road, Morse, San Benito County, California, 95045, United States of America",
            "locType": "park",
            "blogLinks": [
                "http://www.sfgate.com/travel/fiveplaces/article/5-places-any-John-Steinbeck-fan-should-visit-3686256.php"
            ],
            "longitude": "-121.47292145"
        },
        "sonoma county": {
            "latitude": "38.5110803",
            "closest_to": "",
            "address": "Sonoma County, California, United States of America",
            "locType": "administrative",
            "blogLinks": [
                "http://www.upout.com/blog/san-francisco-3/7-easy-weekend-getaways-within-100-miles-of-san-francisco",
                "http://www.sonomacounty.com/articles/day-trip-san-francisco-sonoma",
                "http://www.visitsfbayarea.com/destinations"
            ],
            "longitude": "-122.8473387"
        },
        "sacramento": {
            "latitude": "38.5815719",
            "closest_to": "",
            "address": "Sacramento, Sacramento County, California, United States of America",
            "locType": "city",
            "blogLinks": [
                "http://www.bayareakidfun.com/best-of-the-bay/"
            ],
            "longitude": "-121.4943995"
        },
        "united states": {
            "latitude": "36.7014631",
            "closest_to": "",
            "address": "California, United States of America",
            "locType": "administrative",
            "blogLinks": [
                "http://www.bestplaces.net/city/california/sausalito",
                "https://www.tripadvisor.com/Attractions-g33062-Activities-Sausalito_Marin_County_California.html"
            ],
            "longitude": "-118.7559973"
        },
        "hog island": {
            "latitude": "38.0040892",
            "closest_to": "",
            "address": "Hog Island, San Joaquin County, California, United States of America",
            "locType": "island",
            "blogLinks": [
                "http://californiathroughmylens.com/san-francisco-mendocino-guide"
            ],
            "longitude": "-121.4480058"
        },
        "edgewood rd": {
            "latitude": "34.4916762",
            "closest_to": "",
            "address": "Edgewood Road, Victorville, San Bernardino County, California, 92392, United States of America",
            "locType": "residential",
            "blogLinks": [
                "http://www.bayareakidfun.com/best-of-the-bay/"
            ],
            "longitude": "-117.4066249"
        },
        "seattle": {
            "latitude": "41.9641881",
            "closest_to": "",
            "address": "Seattle, Dorris, Siskiyou County, California, 96023, United States of America",
            "locType": "residential",
            "blogLinks": [
                "http://www.sfgate.com/travel/fiveplaces/article/5-places-any-John-Steinbeck-fan-should-visit-3686256.php"
            ],
            "longitude": "-121.9226289"
        },
        "napa valley": {
            "latitude": "39.0234679",
            "closest_to": "",
            "address": "Napa Valley, Cold Spring, Campbell County, Kentucky, 41076, United States of America",
            "locType": "residential",
            "blogLinks": [
                "http://www.upout.com/blog/san-francisco-3/7-easy-weekend-getaways-within-100-miles-of-san-francisco",
                "http://www.visitsfbayarea.com/destinations"
            ],
            "longitude": "-84.4504647"
        },
        "sienna ranch": {
            "latitude": "33.5590148",
            "closest_to": "",
            "address": "Sienna Parkway, Las Flores, Ladera Ranch, Orange County, California, 92697, United States of America",
            "locType": "tertiary",
            "blogLinks": [
                "http://www.bayareakidfun.com/best-of-the-bay/"
            ],
            "longitude": "-117.6360879"
        },
        "sonoma": {
            "latitude": "38.5110803",
            "closest_to": "",
            "address": "Sonoma County, California, United States of America",
            "locType": "administrative",
            "blogLinks": [
                "http://www.upout.com/blog/san-francisco-3/7-easy-weekend-getaways-within-100-miles-of-san-francisco",
                "http://www.sonomacounty.com/articles/day-trip-san-francisco-sonoma"
            ],
            "longitude": "-122.8473387"
        },
        "point arena": {
            "latitude": "38.908798",
            "closest_to": "",
            "address": "Point Arena, Mendocino County, California, United States of America",
            "locType": "city",
            "blogLinks": [
                "http://californiathroughmylens.com/san-francisco-mendocino-guide"
            ],
            "longitude": "-123.6930725"
        },
        "san juan bautista": {
            "latitude": "36.8455173",
            "closest_to": "",
            "address": "San Juan Bautista, San Benito County, California, United States of America",
            "locType": "city",
            "blogLinks": [
                "http://www.sfgate.com/travel/fiveplaces/article/5-places-any-John-Steinbeck-fan-should-visit-3686256.php"
            ],
            "longitude": "-121.5379893"
        },
        "fort bragg": {
            "latitude": "39.4447345",
            "closest_to": "",
            "address": "Fort Bragg, Mendocino County, California, United States of America",
            "locType": "city",
            "blogLinks": [
                "http://californiathroughmylens.com/san-francisco-mendocino-guide"
            ],
            "longitude": "-123.802699105743"
        },
        "california theatre center": {
            "latitude": "34.10680785",
            "closest_to": "",
            "address": "California Theatre, 562, West 4th Street, San Bernardino, San Bernardino County, California, 92401, United States of America",
            "locType": "cinema",
            "blogLinks": [
                "http://www.bayareakidfun.com/best-of-the-bay/"
            ],
            "longitude": "-117.295461125042"
        },
        "u.s.": {
            "latitude": "-32.5446226",
            "closest_to": "",
            "address": "La California, Municipio de Las Rosas, Departamento Belgrano, Sta. Fe, Argentina",
            "locType": "hamlet",
            "blogLinks": [
                "http://www.bestplaces.net/city/california/sausalito"
            ],
            "longitude": "-61.5489543"
        },
        "jenner": {
            "latitude": "38.4496365",
            "closest_to": "",
            "address": "Jenner, Sonoma County, California, United States of America",
            "locType": "hamlet",
            "blogLinks": [
                "http://californiathroughmylens.com/san-francisco-mendocino-guide"
            ],
            "longitude": "-123.1155587"
        },
        "pike street": {
            "latitude": "33.8016873",
            "closest_to": "",
            "address": "Park Street, Torrance, Los Angeles County, California, 90505, United States of America",
            "locType": "residential",
            "blogLinks": [
                "http://www.sfgate.com/travel/fiveplaces/article/5-places-any-John-Steinbeck-fan-should-visit-3686256.php"
            ],
            "longitude": "-118.3499277"
        },
        "bermuda": {
            "latitude": "34.0167997",
            "closest_to": "",
            "address": "Bermuda, Chino, San Bernardino County, California, 91710, United States of America",
            "locType": "residential",
            "blogLinks": [
                "https://www.tripadvisor.com/Attractions-g33062-Activities-Sausalito_Marin_County_California.html"
            ],
            "longitude": "-117.6681731"
        },
        "gualala": {
            "latitude": "38.7674439",
            "closest_to": "",
            "address": "Gualala, Mendocino County, California, United States of America",
            "locType": "hamlet",
            "blogLinks": [
                "http://californiathroughmylens.com/san-francisco-mendocino-guide"
            ],
            "longitude": "-123.529828"
        },
        "airport road": {
            "latitude": "33.9438886",
            "closest_to": "",
            "address": "Airport Road, LA, Los Angeles County, California, 90045-5663, United States of America",
            "locType": "tertiary",
            "blogLinks": [
                "http://californiathroughmylens.com/san-francisco-mendocino-guide"
            ],
            "longitude": "-118.385856"
        },
        "capitola": {
            "latitude": "36.9762927",
            "closest_to": "",
            "address": "Capitola, Santa Cruz County, California, United States of America",
            "locType": "city",
            "blogLinks": [
                "http://www.upout.com/blog/san-francisco-3/7-easy-weekend-getaways-within-100-miles-of-san-francisco"
            ],
            "longitude": "-121.9540576"
        },
        "old town sacramento": {
            "latitude": "38.5740724",
            "closest_to": "",
            "address": "Arden Town, Sacramento County, California, United States of America",
            "locType": "hamlet",
            "blogLinks": [
                "http://www.bayareakidfun.com/best-of-the-bay/"
            ],
            "longitude": "-121.3830077"
        },
        "brighton state beach": {
            "latitude": "36.98295",
            "closest_to": "",
            "address": "New Brighton State Beach, Capitola, Santa Cruz County, California, 95010, United States of America",
            "locType": "residential",
            "blogLinks": [
                "http://www.upout.com/blog/san-francisco-3/7-easy-weekend-getaways-within-100-miles-of-san-francisco"
            ],
            "longitude": "-121.9361699"
        },
        "highway 12": {
            "latitude": "34.0501274",
            "closest_to": "",
            "address": "12, Riviera, LA, Los Angeles County, California, 90402, United States of America",
            "locType": "grass",
            "blogLinks": [
                "http://www.sonomacounty.com/articles/day-trip-san-francisco-sonoma"
            ],
            "longitude": "-118.495181454064"
        },
        "california state railroad museum": {
            "latitude": "38.5846424",
            "closest_to": "",
            "address": "California State Railroad Museum, 125, I Street, Sacramento, Sacramento County, California, 95814, United States of America",
            "locType": "museum",
            "blogLinks": [
                "http://www.bayareakidfun.com/best-of-the-bay/"
            ],
            "longitude": "-121.5038909"
        },
        "salinas valley": {
            "latitude": "36.6744117",
            "closest_to": "",
            "address": "Salinas, Monterey County, California, United States of America",
            "locType": "city",
            "blogLinks": [
                "http://www.sfgate.com/travel/fiveplaces/article/5-places-any-John-Steinbeck-fan-should-visit-3686256.php"
            ],
            "longitude": "-121.6550371"
        },
        "yosemite national park": {
            "latitude": "37.84054795",
            "closest_to": "",
            "address": "Yosemite National Park, Mt. Hoffmann Trail, Mariposa County, California, United States of America",
            "locType": "national_park",
            "blogLinks": [
                "http://www.bestplaces.net/city/california/sausalito"
            ],
            "longitude": "-119.516587698025"
        },
        "highway 101 north": {
            "latitude": "32.9967358",
            "closest_to": "",
            "address": "Highway 101, Solana Beach, San Diego County, California, 92075, United States of America",
            "locType": "primary",
            "blogLinks": [
                "http://www.sonomacounty.com/articles/day-trip-san-francisco-sonoma"
            ],
            "longitude": "-117.2731974"
        },
        "eureka": {
            "latitude": "40.8020712",
            "closest_to": "",
            "address": "Eureka, Humboldt County, California, United States of America",
            "locType": "city",
            "blogLinks": [
                "http://californiathroughmylens.com/san-francisco-mendocino-guide"
            ],
            "longitude": "-124.1636728"
        },
        "carneros": {
            "latitude": "35.414448",
            "closest_to": "",
            "address": "Carneros Creek, San Luis Obispo County, California, United States of America",
            "locType": "stream",
            "blogLinks": [
                "http://www.sonomacounty.com/articles/day-trip-san-francisco-sonoma"
            ],
            "longitude": "-119.8882131"
        },
        "bodega bay": {
            "latitude": "38.273529",
            "closest_to": "",
            "address": "Bodega Bay, Estero Lane, Bodega Bay, Sonoma County, California, United States of America",
            "locType": "bay",
            "blogLinks": [
                "http://californiathroughmylens.com/san-francisco-mendocino-guide"
            ],
            "longitude": "-123.0061117"
        },
        "san juan canyon road": {
            "latitude": "36.817352",
            "closest_to": "",
            "address": "San Juan Canyon Road, Morse, San Benito County, California, 95045, United States of America",
            "locType": "tertiary",
            "blogLinks": [
                "http://www.sfgate.com/travel/fiveplaces/article/5-places-any-John-Steinbeck-fan-should-visit-3686256.php"
            ],
            "longitude": "-121.5265919"
        },
        "north bay": {
            "latitude": "36.9740634",
            "closest_to": "",
            "address": "North Bay, East Morrissey, Seabright, Yacht Harbor Manor, Santa Cruz County, California, 95062, United States of America",
            "locType": "residential",
            "blogLinks": [
                "http://www.bayareakidfun.com/best-of-the-bay/"
            ],
            "longitude": "-121.9943726"
        },
        "monterey bay aquarium": {
            "latitude": "36.61809095",
            "closest_to": "",
            "address": "MBA, 886, Cannery Row, Monterey, Monterey County, California, 93940, United States of America",
            "locType": "aquarium",
            "blogLinks": [
                "http://www.sfgate.com/travel/fiveplaces/article/5-places-any-John-Steinbeck-fan-should-visit-3686256.php",
                "http://www.bayareakidfun.com/best-of-the-bay/"
            ],
            "longitude": "-121.901680002002"
        },
        "california": {
            "latitude": "7.3480915",
            "closest_to": "",
            "address": "California, Santander, Colombia",
            "locType": "village",
            "blogLinks": [
                "http://californiathroughmylens.com/san-francisco-mendocino-guide"
            ],
            "longitude": "-72.945787"
        },
        "bay": {
            "latitude": "33.6899249",
            "closest_to": "",
            "address": "Bay, Meadows Mobile Home Park, El Camino Real, Irvine, Orange County, California, 92406, United States of America",
            "locType": "service",
            "blogLinks": [
                "http://www.bayareakidfun.com/best-of-the-bay/"
            ],
            "longitude": "-117.7729354"
        },
        "oak meadow park": {
            "latitude": "38.5671281",
            "closest_to": "",
            "address": "Oak Meadow Park, American River Drive, Arden Town, Sacramento County, California, 95608, United States of America",
            "locType": "park",
            "blogLinks": [
                "http://www.bayareakidfun.com/best-of-the-bay/"
            ],
            "longitude": "-121.3957858"
        },
        "reno/lake tahoe": {
            "latitude": "38.9228218",
            "closest_to": "",
            "address": "Reno Avenue, South Lake Tahoe, El Dorado County, California, 96150, United States of America",
            "locType": "residential",
            "blogLinks": [
                "http://www.visitsfbayarea.com/destinations"
            ],
            "longitude": "-119.9810715"
        },
        "yountville": {
            "latitude": "38.4015781",
            "closest_to": "",
            "address": "Yountville, Napa County, California, United States of America",
            "locType": "administrative",
            "blogLinks": [
                "http://www.upout.com/blog/san-francisco-3/7-easy-weekend-getaways-within-100-miles-of-san-francisco"
            ],
            "longitude": "-122.3608104"
        },
        "peninsula": {
            "latitude": "33.5987849",
            "closest_to": "",
            "address": "Peninsula, Corona del Mar, Newport Beach, Orange County, California, 92657, United States of America",
            "locType": "residential",
            "blogLinks": [
                "http://www.bayareakidfun.com/best-of-the-bay/"
            ],
            "longitude": "-117.830566223937"
        },
        "gabilan range": {
            "latitude": "36.7075831",
            "closest_to": "",
            "address": "Gabilan Range, Pescadero Creek, San Benito County, California, United States of America",
            "locType": "range",
            "blogLinks": [
                "http://www.sfgate.com/travel/fiveplaces/article/5-places-any-John-Steinbeck-fan-should-visit-3686256.php"
            ],
            "longitude": "-121.4426352"
        },
        "sonoma ca": {
            "latitude": "38.5110803",
            "closest_to": "",
            "address": "Sonoma County, California, United States of America",
            "locType": "administrative",
            "blogLinks": [
                "http://www.sonomacounty.com/articles/day-trip-san-francisco-sonoma",
                "http://www.sfgate.com/travel/fiveplaces/article/5-places-any-John-Steinbeck-fan-should-visit-3686256.php"
            ],
            "longitude": "-122.8473387"
        },
        "weott": {
            "latitude": "40.3214878",
            "closest_to": "",
            "address": "Weott, Humboldt County, California, United States of America",
            "locType": "hamlet",
            "blogLinks": [
                "http://www.sfgate.com/travel/fiveplaces/article/5-places-any-John-Steinbeck-fan-should-visit-3686256.php"
            ],
            "longitude": "-123.9226033"
        },
        "southern pacific": {
            "latitude": "34.391601",
            "closest_to": "",
            "address": "Southern Pacific, Fillmore, Ventura County, California, 93015, United States of America",
            "locType": "residential",
            "blogLinks": [
                "http://www.bestplaces.net/city/california/sausalito"
            ],
            "longitude": "-118.9223619"
        },
        "monterey bay coastal trail": {
            "latitude": "36.6669291",
            "closest_to": "",
            "address": "Monterey Bay Coastal Trail, Marina, Monterey County, California, 93933, United States of America",
            "locType": "cycleway",
            "blogLinks": [
                "http://www.sfgate.com/travel/fiveplaces/article/5-places-any-John-Steinbeck-fan-should-visit-3686256.php"
            ],
            "longitude": "-121.8149721"
        },
        "mendocino": {
            "latitude": "39.3176491",
            "closest_to": "",
            "address": "Mendocino County, California, United States of America",
            "locType": "administrative",
            "blogLinks": [
                "http://californiathroughmylens.com/san-francisco-mendocino-guide"
            ],
            "longitude": "-123.4126398"
        }
    },
    "fremont": {
        "type": "city",
        "osm_id": "111943",
        "class": "place",
        "importance": 0.70373394703995,
        "lat": "37.5482697",
        "lon": "-121.9885718",
        "boundingbox": [
            "37.4539501",
            "37.6066739",
            "-122.1509872",
            "-121.8701127"
        ],
        "display_name": "Fremont, Alameda County, California, United States of America",
        "licence": "Data \u00a9 OpenStreetMap contributors, ODbL 1.0. http://www.openstreetmap.org/copyright",
        "icon": "https://nominatim.openstreetmap.org/images/mapicons/poi_place_city.p.20.png",
        "place_id": "159050638",
        "osm_type": "relation"
    },
    "sausalito": {
        "type": "administrative",
        "osm_id": "2829689",
        "class": "boundary",
        "importance": 0.64561533453658,
        "lat": "37.8590272",
        "lon": "-122.4854693",
        "boundingbox": [
            "37.8436795",
            "37.8731429",
            "-122.5102612",
            "-122.4753744"
        ],
        "display_name": "Sausalito, Marin County, California, United States of America",
        "licence": "Data \u00a9 OpenStreetMap contributors, ODbL 1.0. http://www.openstreetmap.org/copyright",
        "icon": "https://nominatim.openstreetmap.org/images/mapicons/poi_boundary_administrative.p.20.png",
        "place_id": "159575624",
        "osm_type": "relation"
    }
}