{
    "mentions": {
        "coyote hills": {
            "latitude": "33.8919532",
            "closest_to": "",
            "address": "Coyote Hills, Fullerton, Orange County, California, United States of America",
            "locType": "peak",
            "blogLinks": [
                "https://www.yelp.com/biz/coyote-hills-regional-park-fremont"
            ],
            "longitude": "-117.9021518"
        },
        "green valley": {
            "latitude": "34.6216542",
            "closest_to": "",
            "address": "Green Valley, Los Angeles County, California, United States of America",
            "locType": "hamlet",
            "blogLinks": [
                "https://www.berkeleyparentsnetwork.org/advice/working/sactoroute"
            ],
            "longitude": "-118.4139701"
        },
        "palos verdes peninsula ca": {
            "latitude": "33.77984925",
            "closest_to": "",
            "address": "Palos Verdes Peninsula High School, Hawthorne Boulevard, Rolling Hills Estates, Los Angeles County, California, 90274, United States of America",
            "locType": "school",
            "blogLinks": [
                "http://www.california-blog.com/"
            ],
            "longitude": "-118.372196730215"
        },
        "pacific ocean": {
            "latitude": "36.16305775",
            "closest_to": "",
            "address": "Pacific Ocean, Cabrillo Highway, Monterey County, California, 93920, United States of America",
            "locType": "cliff",
            "blogLinks": [
                "http://www.goldengatetours.net/places"
            ],
            "longitude": "-121.678715787326"
        },
        "ojai valley": {
            "latitude": "34.4480495",
            "closest_to": "",
            "address": "Ojai, Ventura County, California, United States of America",
            "locType": "city",
            "blogLinks": [
                "http://www.california-blog.com/"
            ],
            "longitude": "-119.2428889"
        },
        "mexico": {
            "latitude": "28.973",
            "closest_to": "",
            "address": "California, Hermosillo, Sonora, M\u00e9xico",
            "locType": "village",
            "blogLinks": [
                "http://thisismyhappiness.com/2016/06/17/what-to-do-in-sacramento/"
            ],
            "longitude": "-111.8196666"
        },
        "northern california": {
            "latitude": "32.7349196",
            "closest_to": "",
            "address": "Northern Frontier, San Diego, San Diego County, California, United States of America",
            "locType": "locality",
            "blogLinks": [
                "http://www.goldengatetours.net/places",
                "http://thisismyhappiness.com/2016/06/17/what-to-do-in-sacramento/"
            ],
            "longitude": "-117.1545973"
        },
        "mount san jacinto ca": {
            "latitude": "33.7839084",
            "closest_to": "",
            "address": "San Jacinto, Riverside County, California, United States of America",
            "locType": "city",
            "blogLinks": [
                "http://www.california-blog.com/"
            ],
            "longitude": "-116.9586349"
        },
        "mammoth cave": {
            "latitude": "41.6722473",
            "closest_to": "",
            "address": "Mammoth Cave, 45N11, Mammoth, Modoc County, California, United States of America",
            "locType": "cave_entrance",
            "blogLinks": [
                "http://www.goldengatetours.net/places"
            ],
            "longitude": "-121.3349028"
        },
        "mount san gorgonio ca": {
            "latitude": "33.9121294",
            "closest_to": "",
            "address": "San Gorgonio Avenue, Banning, Riverside County, California, 92220, United States of America",
            "locType": "secondary",
            "blogLinks": [
                "http://www.california-blog.com/"
            ],
            "longitude": "-116.8766731"
        },
        "us": {
            "latitude": "36.7014631",
            "closest_to": "",
            "address": "California, United States of America",
            "locType": "administrative",
            "blogLinks": [
                "https://www.yelp.com/topic/fremont-seattle-vs-sf",
                "http://distancecalculator.globefeed.com/US_Distance_Calculator.asp?state=CA"
            ],
            "longitude": "-118.7559973"
        },
        "moreno valley ca": {
            "latitude": "33.937517",
            "closest_to": "",
            "address": "Moreno Valley, Riverside County, California, United States of America",
            "locType": "city",
            "blogLinks": [
                "http://www.california-blog.com/"
            ],
            "longitude": "-117.2305943"
        },
        "peninsula": {
            "latitude": "33.5987849",
            "closest_to": "",
            "address": "Peninsula, Corona del Mar, Newport Beach, Orange County, California, 92657, United States of America",
            "locType": "residential",
            "blogLinks": [
                "http://www.bayareakidfun.com/best-of-the-bay/"
            ],
            "longitude": "-117.830566223937"
        },
        "central valley": {
            "latitude": "40.5626504",
            "closest_to": "",
            "address": "KNNN-FM (Central Valley), Rattlesnake Drive, Shasta County, California, 96001, United States of America",
            "locType": "tower",
            "blogLinks": [
                "http://thisismyhappiness.com/2016/06/17/what-to-do-in-sacramento/"
            ],
            "longitude": "-122.4530663"
        },
        "seattle": {
            "latitude": "41.9641881",
            "closest_to": "",
            "address": "Seattle, Dorris, Siskiyou County, California, 96023, United States of America",
            "locType": "residential",
            "blogLinks": [
                "https://www.yelp.com/topic/fremont-seattle-vs-sf",
                "http://fremont.com/",
                "http://thisismyhappiness.com/2016/06/17/what-to-do-in-sacramento/"
            ],
            "longitude": "-121.9226289"
        },
        "river road": {
            "latitude": "34.871679",
            "closest_to": "",
            "address": "River Road, Needles, San Bernardino County, California, United States of America",
            "locType": "secondary",
            "blogLinks": [
                "https://www.berkeleyparentsnetwork.org/advice/working/sactoroute"
            ],
            "longitude": "-114.6384652"
        },
        "los angeles": {
            "latitude": "34.0543942",
            "closest_to": "",
            "address": "LA, Los Angeles County, California, United States of America",
            "locType": "city",
            "blogLinks": [
                "https://www.tripadvisor.com/ShowTopic-g60713-i30-k5261581-Scenic_Route_from_San_Francisco_to_Sacramento-San_Francisco_California.html"
            ],
            "longitude": "-118.2439408"
        },
        "sienna ranch": {
            "latitude": "33.5590148",
            "closest_to": "",
            "address": "Sienna Parkway, Las Flores, Ladera Ranch, Orange County, California, 92697, United States of America",
            "locType": "tertiary",
            "blogLinks": [
                "http://www.bayareakidfun.com/best-of-the-bay/"
            ],
            "longitude": "-117.6360879"
        },
        "london": {
            "latitude": "36.4760619",
            "closest_to": "",
            "address": "London, Tulare County, California, United States of America",
            "locType": "village",
            "blogLinks": [
                "http://www.goldengatetours.net/places"
            ],
            "longitude": "-119.4431784"
        },
        "oak park": {
            "latitude": "34.17257405",
            "closest_to": "",
            "address": "Oak Park, Satinwood Avenue, Oak Park, Ventura County, California, 91377, United States of America",
            "locType": "administrative",
            "blogLinks": [
                "http://thisismyhappiness.com/2016/06/17/what-to-do-in-sacramento/"
            ],
            "longitude": "-118.756369157529"
        },
        "bayview": {
            "latitude": "40.7726266",
            "closest_to": "",
            "address": "Bayview, Humboldt County, California, United States of America",
            "locType": "hamlet",
            "blogLinks": [
                "https://www.yelp.com/biz/coyote-hills-regional-park-fremont"
            ],
            "longitude": "-124.1839501"
        },
        "fort bragg": {
            "latitude": "39.4447345",
            "closest_to": "",
            "address": "Fort Bragg, Mendocino County, California, United States of America",
            "locType": "city",
            "blogLinks": [
                "http://www.goldengatetours.net/places"
            ],
            "longitude": "-123.802699105743"
        },
        "mono lake ca": {
            "latitude": "38.0077189",
            "closest_to": "",
            "address": "Mono Lake, Mono County, California, United States of America",
            "locType": "water",
            "blogLinks": [
                "http://www.california-blog.com/"
            ],
            "longitude": "-118.967033937845"
        },
        "california theatre center": {
            "latitude": "34.10680785",
            "closest_to": "",
            "address": "California Theatre, 562, West 4th Street, San Bernardino, San Bernardino County, California, 92401, United States of America",
            "locType": "cinema",
            "blogLinks": [
                "http://www.bayareakidfun.com/best-of-the-bay/"
            ],
            "longitude": "-117.295461125042"
        },
        "u.s.": {
            "latitude": "-32.5446226",
            "closest_to": "",
            "address": "La California, Municipio de Las Rosas, Departamento Belgrano, Sta. Fe, Argentina",
            "locType": "hamlet",
            "blogLinks": [
                "http://www.bestplaces.net/city/california/newark",
                "http://thisismyhappiness.com/2016/06/17/what-to-do-in-sacramento/"
            ],
            "longitude": "-61.5489543"
        },
        "old town san diego": {
            "latitude": "32.7542167",
            "closest_to": "",
            "address": "Old Town San Diego, San Diego County, California, United States of America",
            "locType": "hamlet",
            "blogLinks": [
                "http://www.california-blog.com/"
            ],
            "longitude": "-117.1969792"
        },
        "jenner": {
            "latitude": "38.4496365",
            "closest_to": "",
            "address": "Jenner, Sonoma County, California, United States of America",
            "locType": "hamlet",
            "blogLinks": [
                "http://www.goldengatetours.net/places"
            ],
            "longitude": "-123.1155587"
        },
        "rio": {
            "latitude": "34.24399815",
            "closest_to": "",
            "address": "El Rio, Cortez Street, El Rio, Ventura County, California, 93030, United States of America",
            "locType": "administrative",
            "blogLinks": [
                "https://www.berkeleyparentsnetwork.org/advice/working/sactoroute"
            ],
            "longitude": "-119.156915198615"
        },
        "ontario": {
            "latitude": "34.065846",
            "closest_to": "",
            "address": "Ontario, San Bernardino County, California, United States of America",
            "locType": "city",
            "blogLinks": [
                "http://www.california-blog.com/"
            ],
            "longitude": "-117.6484303"
        },
        "hwy 101": {
            "latitude": "32.9967358",
            "closest_to": "",
            "address": "Highway 101, Solana Beach, San Diego County, California, 92075, United States of America",
            "locType": "primary",
            "blogLinks": [
                "https://www.tripadvisor.com/ShowTopic-g60713-i30-k5261581-Scenic_Route_from_San_Francisco_to_Sacramento-San_Francisco_California.html"
            ],
            "longitude": "-117.2731974"
        },
        "belltown": {
            "latitude": "34.011681",
            "closest_to": "",
            "address": "Belltown, Riverside County, California, United States of America",
            "locType": "hamlet",
            "blogLinks": [
                "https://www.yelp.com/topic/fremont-seattle-vs-sf"
            ],
            "longitude": "-117.3833788"
        },
        "brazil": {
            "latitude": "-23.6672542",
            "closest_to": "",
            "address": "Calif\u00f3rnia, Microrregi\u00e3o Arapucana, Mesorregi\u00e3o Norte Central Paranaense, PR, Regi\u00e3o Sul, Brasil",
            "locType": "administrative",
            "blogLinks": [
                "http://thisismyhappiness.com/2016/06/17/what-to-do-in-sacramento/"
            ],
            "longitude": "-51.3554555"
        },
        "coyote point": {
            "latitude": "35.3833071",
            "closest_to": "",
            "address": "Coyote Point, San Luis Obispo County, California, United States of America",
            "locType": "peak",
            "blogLinks": [
                "http://www.bayareakidfun.com/best-of-the-bay/"
            ],
            "longitude": "-120.7329512"
        },
        "ocean beach": {
            "latitude": "32.7477784",
            "closest_to": "",
            "address": "Ocean Beach, San Diego, San Diego County, California, United States of America",
            "locType": "region",
            "blogLinks": [
                "http://www.goldengatetours.net/places"
            ],
            "longitude": "-117.249321"
        },
        "united states": {
            "latitude": "36.7014631",
            "closest_to": "",
            "address": "California, United States of America",
            "locType": "administrative",
            "blogLinks": [
                "http://www.bestplaces.net/city/california/newark"
            ],
            "longitude": "-118.7559973"
        },
        "mount baldy ca": {
            "latitude": "34.2361168",
            "closest_to": "",
            "address": "Mount Baldy, Los Angeles County, California, United States of America",
            "locType": "hamlet",
            "blogLinks": [
                "http://www.california-blog.com/"
            ],
            "longitude": "-117.6600552"
        },
        "san simeon": {
            "latitude": "35.6438587",
            "closest_to": "",
            "address": "San Simeon, San Luis Obispo County, California, United States of America",
            "locType": "hamlet",
            "blogLinks": [
                "http://www.goldengatetours.net/places"
            ],
            "longitude": "-121.1907532"
        },
        "mount palomar ca": {
            "latitude": "33.1278146",
            "closest_to": "",
            "address": "California Bank & Trust, 2501, Palomar Airport Road, Carlsbad, San Diego County, California, 92011, United States of America",
            "locType": "bank",
            "blogLinks": [
                "http://www.california-blog.com/"
            ],
            "longitude": "-117.270809764613"
        },
        "front street": {
            "latitude": "32.7094945",
            "closest_to": "",
            "address": "Front Street, Hillcrest, San Diego, San Diego County, California, 92101, United States of America",
            "locType": "secondary",
            "blogLinks": [
                "https://www.berkeleyparentsnetwork.org/advice/working/sactoroute"
            ],
            "longitude": "-117.1650276"
        },
        "alaska": {
            "latitude": "33.7147833",
            "closest_to": "",
            "address": "Alaska, Walnut, Irvine, Orange County, California, 92606, United States of America",
            "locType": "residential",
            "blogLinks": [
                "https://www.yelp.com/topic/fremont-seattle-vs-sf"
            ],
            "longitude": "-117.7917164"
        },
        "riverside national cemetery": {
            "latitude": "33.87692125",
            "closest_to": "",
            "address": "Riverside National Cemetery, 22495, Alessandro, Riverside County, California, 92518, United States of America",
            "locType": "cemetery",
            "blogLinks": [
                "http://www.california-blog.com/"
            ],
            "longitude": "-117.270726607134"
        },
        "napa valley": {
            "latitude": "39.0234679",
            "closest_to": "",
            "address": "Napa Valley, Cold Spring, Campbell County, Kentucky, 41076, United States of America",
            "locType": "residential",
            "blogLinks": [
                "https://www.tripadvisor.com/ShowTopic-g60713-i30-k5261581-Scenic_Route_from_San_Francisco_to_Sacramento-San_Francisco_California.html"
            ],
            "longitude": "-84.4504647"
        },
        "morongo valley": {
            "latitude": "34.0537585",
            "closest_to": "",
            "address": "Morongo Valley, Vista Drive, Morongo Valley, San Bernardino County, California, 92256, United States of America",
            "locType": "administrative",
            "blogLinks": [
                "http://www.california-blog.com/"
            ],
            "longitude": "-116.596723958419"
        },
        "zanzibar": {
            "latitude": "28.6866755",
            "closest_to": "",
            "address": "Zanzibar, Fraccionamiento California, Chihuahua, M\u00e9xico",
            "locType": "residential",
            "blogLinks": [
                "http://thisismyhappiness.com/2016/06/17/what-to-do-in-sacramento/"
            ],
            "longitude": "-106.0383677"
        },
        "morro rock ca": {
            "latitude": "35.369669",
            "closest_to": "",
            "address": "Morro Rock, Morro Bay, San Luis Obispo County, California, United States of America",
            "locType": "peak",
            "blogLinks": [
                "http://www.california-blog.com/"
            ],
            "longitude": "-120.8676993"
        },
        "main street": {
            "latitude": "34.10780565",
            "closest_to": "",
            "address": "Main Street, Alta Loma, Rancho Cucamonga, San Bernardino County, California, 91730, United States of America",
            "locType": "residential",
            "blogLinks": [
                "https://www.berkeleyparentsnetwork.org/advice/working/sactoroute"
            ],
            "longitude": "-117.59857297034"
        },
        "morro bay ca": {
            "latitude": "35.3658075",
            "closest_to": "",
            "address": "Morro Bay, San Luis Obispo County, California, United States of America",
            "locType": "city",
            "blogLinks": [
                "http://www.california-blog.com/"
            ],
            "longitude": "-120.8499012"
        },
        "southern pacific": {
            "latitude": "34.391601",
            "closest_to": "",
            "address": "Southern Pacific, Fillmore, Ventura County, California, 93015, United States of America",
            "locType": "residential",
            "blogLinks": [
                "http://www.bestplaces.net/city/california/newark"
            ],
            "longitude": "-118.9223619"
        },
        "mojave desert ca": {
            "latitude": "35.1456319",
            "closest_to": "",
            "address": "Mojave Desert, Utility Road, San Bernardino County, California, United States of America",
            "locType": "desert",
            "blogLinks": [
                "http://www.california-blog.com/"
            ],
            "longitude": "-115.548963686646"
        },
        "edgewood rd": {
            "latitude": "34.4916762",
            "closest_to": "",
            "address": "Edgewood Road, Victorville, San Bernardino County, California, 92392, United States of America",
            "locType": "residential",
            "blogLinks": [
                "http://www.bayareakidfun.com/best-of-the-bay/"
            ],
            "longitude": "-117.4066249"
        },
        "california": {
            "latitude": "7.3480915",
            "closest_to": "",
            "address": "California, Santander, Colombia",
            "locType": "village",
            "blogLinks": [
                "http://distancecalculator.globefeed.com/US_Distance_Calculator.asp?state=CA",
                "http://www.california-blog.com/",
                "https://www.berkeleyparentsnetwork.org/advice/working/sactoroute",
                "http://www.goldengatetours.net/places",
                "http://thisismyhappiness.com/2016/06/17/what-to-do-in-sacramento/",
                "https://www.tripadvisor.com/ShowTopic-g33020-i417-k1773958-San_Jose_to_Sacramento-San_Jose_California.html",
                "http://www.visitsacramento.com/"
            ],
            "longitude": "-72.945787"
        },
        "bay": {
            "latitude": "33.6899249",
            "closest_to": "",
            "address": "Bay, Meadows Mobile Home Park, El Camino Real, Irvine, Orange County, California, 92406, United States of America",
            "locType": "service",
            "blogLinks": [
                "https://www.yelp.com/topic/fremont-seattle-vs-sf",
                "http://www.bayareakidfun.com/best-of-the-bay/",
                "https://www.yelp.com/biz/coyote-hills-regional-park-fremont"
            ],
            "longitude": "-117.7729354"
        },
        "lake berryessa": {
            "latitude": "35.376803",
            "closest_to": "",
            "address": "Lake Berryessa, Rosedale, Kern County, California, 93314, United States of America",
            "locType": "residential",
            "blogLinks": [
                "https://www.tripadvisor.com/ShowTopic-g60713-i30-k5261581-Scenic_Route_from_San_Francisco_to_Sacramento-San_Francisco_California.html"
            ],
            "longitude": "-119.1745059"
        },
        "gold country": {
            "latitude": "35.300501",
            "closest_to": "",
            "address": "Gold Country Way, Bakersfield, Kern County, California, 93311, United States of America",
            "locType": "residential",
            "blogLinks": [
                "http://www.goldengatetours.net/places"
            ],
            "longitude": "-119.0856049"
        },
        "america": {
            "latitude": "36.2573198",
            "closest_to": "",
            "address": "America, Kings County, California, 93246, United States of America",
            "locType": "residential",
            "blogLinks": [
                "http://thisismyhappiness.com/2016/06/17/what-to-do-in-sacramento/"
            ],
            "longitude": "-119.8948706"
        },
        "grange": {
            "latitude": "37.6635433",
            "closest_to": "",
            "address": "La Grange, Stanislaus County, California, United States of America",
            "locType": "hamlet",
            "blogLinks": [
                "http://thisismyhappiness.com/2016/06/17/what-to-do-in-sacramento/"
            ],
            "longitude": "-120.4635288"
        },
        "monrovia": {
            "latitude": "34.1483499",
            "closest_to": "",
            "address": "Monrovia, Los Angeles County, California, United States of America",
            "locType": "city",
            "blogLinks": [
                "http://www.california-blog.com/"
            ],
            "longitude": "-118.0014516"
        },
        "kern river": {
            "latitude": "36.6816956",
            "closest_to": "",
            "address": "Kern River, Tulare County, California, United States of America",
            "locType": "river",
            "blogLinks": [
                "http://www.california-blog.com/"
            ],
            "longitude": "-118.4124188"
        },
        "middle earth": {
            "latitude": "33.64434515",
            "closest_to": "",
            "address": "Middle Earth, Turtle Rock, Irvine, Orange County, California, 92617, United States of America",
            "locType": "residential",
            "blogLinks": [
                "https://www.berkeleyparentsnetwork.org/advice/working/sactoroute"
            ],
            "longitude": "-117.837186650942"
        },
        "newport beach ca": {
            "latitude": "33.6170092",
            "closest_to": "",
            "address": "Newport Beach, Orange County, California, United States of America",
            "locType": "city",
            "blogLinks": [
                "http://www.california-blog.com/"
            ],
            "longitude": "-117.92944"
        },
        "la": {
            "latitude": "36.7014631",
            "closest_to": "",
            "address": "California, United States of America",
            "locType": "administrative",
            "blogLinks": [
                "https://www.tripadvisor.com/ShowTopic-g60713-i30-k5261581-Scenic_Route_from_San_Francisco_to_Sacramento-San_Francisco_California.html",
                "http://distancecalculator.globefeed.com/US_Distance_Calculator.asp?state=CA"
            ],
            "longitude": "-118.7559973"
        },
        "tea garden": {
            "latitude": "33.7006659",
            "closest_to": "",
            "address": "Tea Garden, Northwood, Irvine, Orange County, California, 92620, United States of America",
            "locType": "residential",
            "blogLinks": [
                "https://www.yelp.com/topic/fremont-what-are-some-nice-cool-places-to-go-to-in-ca-bay-area"
            ],
            "longitude": "-117.7616589"
        },
        "san jo": {
            "latitude": "47.3325646",
            "closest_to": "",
            "address": "California, 24, Markt, Goldanger, Wagrain, Sankt Johann im Pongau, Salzburg, 5602, \u00d6sterreich",
            "locType": "restaurant",
            "blogLinks": [
                "https://www.yelp.com/topic/fremont-what-are-some-nice-cool-places-to-go-to-in-ca-bay-area"
            ],
            "longitude": "13.2969635"
        },
        "palm springs air museum ca": {
            "latitude": "33.83250375",
            "closest_to": "",
            "address": "Palm Springs Air Museum, 745, North Gene Autry Trail, Palm Springs, Riverside County, California, 92262, United States of America",
            "locType": "museum",
            "blogLinks": [
                "http://www.california-blog.com/"
            ],
            "longitude": "-116.504677958796"
        }
    },
    "sacramento": {
        "type": "city",
        "osm_id": "6232940",
        "class": "place",
        "importance": 0.80674211027009,
        "lat": "38.5815719",
        "lon": "-121.4943995",
        "boundingbox": [
            "38.437574",
            "38.685507",
            "-121.5601199",
            "-121.3627399"
        ],
        "display_name": "Sacramento, Sacramento County, California, United States of America",
        "licence": "Data \u00a9 OpenStreetMap contributors, ODbL 1.0. http://www.openstreetmap.org/copyright",
        "icon": "https://nominatim.openstreetmap.org/images/mapicons/poi_place_city.p.20.png",
        "place_id": "159758891",
        "osm_type": "relation"
    },
    "fremont": {
        "type": "city",
        "osm_id": "111943",
        "class": "place",
        "importance": 0.70373394703995,
        "lat": "37.5482697",
        "lon": "-121.9885718",
        "boundingbox": [
            "37.4539501",
            "37.6066739",
            "-122.1509872",
            "-121.8701127"
        ],
        "display_name": "Fremont, Alameda County, California, United States of America",
        "licence": "Data \u00a9 OpenStreetMap contributors, ODbL 1.0. http://www.openstreetmap.org/copyright",
        "icon": "https://nominatim.openstreetmap.org/images/mapicons/poi_place_city.p.20.png",
        "place_id": "159050638",
        "osm_type": "relation"
    }
}