{
    "mentions": {
        "loma prieta": {
            "latitude": "37.1107807",
            "closest_to": "",
            "address": "Loma Prieta, Santa Clara County, California, United States of America",
            "locType": "peak",
            "blogLinks": [
                "https://en.wikipedia.org/wiki/Oakland,_California"
            ],
            "longitude": "-121.8446758"
        },
        "spain": {
            "latitude": "37.1412332",
            "closest_to": "",
            "address": "La California, Mor\u00f3n de la Frontera, Sevilla, Andaluc\u00eda, Espa\u00f1a",
            "locType": "locality",
            "blogLinks": [
                "https://en.wikipedia.org/wiki/Oakland,_California"
            ],
            "longitude": "-5.4610806"
        },
        "brentwood": {
            "latitude": "37.9317766",
            "closest_to": "",
            "address": "Brentwood, Contra Costa County, California, United States of America",
            "locType": "city",
            "blogLinks": [
                "http://www.bestplaces.net/city/california/discovery_bay"
            ],
            "longitude": "-121.6960265"
        },
        "santa rosa": {
            "latitude": "38.4404675",
            "closest_to": "",
            "address": "Santa Rosa, Sonoma County, California, United States of America",
            "locType": "city",
            "blogLinks": [
                "https://robertsolis.wordpress.com/2008/05/28/bay-area-best-place-to-raise-a-family/",
                "http://www.bayareaparent.com/"
            ],
            "longitude": "-122.7144313"
        },
        "south carolina": {
            "latitude": "33.195532",
            "closest_to": "",
            "address": "California Branch, Moncks Corner, Berkeley County, South Carolina, United States of America",
            "locType": "stream",
            "blogLinks": [
                "https://en.wikipedia.org/wiki/Oakland,_California"
            ],
            "longitude": "-80.0313539"
        },
        "scranton": {
            "latitude": "36.4518981",
            "closest_to": "",
            "address": "Scranton, Inyo County, California, United States of America",
            "locType": "hamlet",
            "blogLinks": [
                "http://www.americantowns.com/ca/hayward-things-to-do"
            ],
            "longitude": "-116.5036594"
        },
        "west": {
            "latitude": "33.9492548",
            "closest_to": "",
            "address": "W, Service road S, Westchester, Playa del Rey, LA, Los Angeles County, California, 90245, United States of America",
            "locType": "taxiway",
            "blogLinks": [
                "http://www.bestplaces.net/city/california/oakland"
            ],
            "longitude": "-118.4108078"
        },
        "santa cruz": {
            "latitude": "36.9735903",
            "closest_to": "",
            "address": "Santa Cruz, Santa Cruz County, California, United States of America",
            "locType": "city",
            "blogLinks": [
                "http://www.bayareakidfun.com/best-of-the-bay/",
                "https://www.yelp.com/topic/fremont-what-are-some-nice-cool-places-to-go-to-in-ca-bay-area"
            ],
            "longitude": "-122.0260569"
        },
        "us": {
            "latitude": "36.7014631",
            "closest_to": "",
            "address": "California, United States of America",
            "locType": "administrative",
            "blogLinks": [
                "https://en.wikipedia.org/wiki/Oakland,_California",
                "http://www.bayareakidfun.com/best-of-the-bay/",
                "http://distancecalculator.globefeed.com/US_Distance_Calculator.asp?state=CA"
            ],
            "longitude": "-118.7559973"
        },
        "monte vista avenue": {
            "latitude": "32.837078",
            "closest_to": "",
            "address": "Monte Vista Avenue, La Jolla, San Diego, San Diego County, California, 92037, United States of America",
            "locType": "residential",
            "blogLinks": [
                "http://www.mercurynews.com/2014/06/27/july-4th-2014-bay-area-fireworks-parades-and-other-events/"
            ],
            "longitude": "-117.2798769"
        },
        "wa": {
            "latitude": "40.0657724",
            "closest_to": "",
            "address": "California, Washington County, Pennsylvania, United States of America",
            "locType": "administrative",
            "blogLinks": [
                "https://robertsolis.wordpress.com/2008/05/28/bay-area-best-place-to-raise-a-family/"
            ],
            "longitude": "-79.8918435"
        },
        "east": {
            "latitude": "34.0577029",
            "closest_to": "",
            "address": "East, Morongo Valley, San Bernardino County, California, 92256, United States of America",
            "locType": "track",
            "blogLinks": [
                "https://en.wikipedia.org/wiki/Oakland,_California",
                "http://www.bestplaces.net/city/california/oakland"
            ],
            "longitude": "-116.570124"
        },
        "graham hill road": {
            "latitude": "36.9914879",
            "closest_to": "",
            "address": "Graham Hill Road, Tanner Heights, Downtown, Santa Cruz, Santa Cruz County, California, 95018, United States of America",
            "locType": "secondary",
            "blogLinks": [
                "http://www.mercurynews.com/2014/06/27/july-4th-2014-bay-area-fireworks-parades-and-other-events/"
            ],
            "longitude": "-122.0276501"
        },
        "spray park": {
            "latitude": "35.3240652",
            "closest_to": "",
            "address": "Spray Park, Planz Road, Bakersfield, Kern County, California, 93309, United States of America",
            "locType": "playground",
            "blogLinks": [
                "http://www.mercurynews.com/2014/06/27/july-4th-2014-bay-area-fireworks-parades-and-other-events/"
            ],
            "longitude": "-119.019317232493"
        },
        "north bay": {
            "latitude": "36.9740634",
            "closest_to": "",
            "address": "North Bay, East Morrissey, Seabright, Yacht Harbor Manor, Santa Cruz County, California, 95062, United States of America",
            "locType": "residential",
            "blogLinks": [
                "http://www.bayareakidfun.com/best-of-the-bay/"
            ],
            "longitude": "-121.9943726"
        },
        "seattle": {
            "latitude": "41.9641881",
            "closest_to": "",
            "address": "Seattle, Dorris, Siskiyou County, California, 96023, United States of America",
            "locType": "residential",
            "blogLinks": [
                "https://en.wikipedia.org/wiki/Oakland,_California"
            ],
            "longitude": "-121.9226289"
        },
        "east 14th street": {
            "latitude": "34.0253842",
            "closest_to": "",
            "address": "East 14th Street, Nevin, Little Tokyo Historic District, LA, Los Angeles County, California, 90021, United States of America",
            "locType": "primary",
            "blogLinks": [
                "https://en.wikipedia.org/wiki/Oakland,_California"
            ],
            "longitude": "-118.2387069"
        },
        "aptos village park": {
            "latitude": "36.97605015",
            "closest_to": "",
            "address": "Aptos Village Park, Spreckles Drive, Aptos, Santa Cruz County, California, 95003, United States of America",
            "locType": "park",
            "blogLinks": [
                "http://www.mercurynews.com/2014/06/27/july-4th-2014-bay-area-fireworks-parades-and-other-events/"
            ],
            "longitude": "-121.902500129962"
        },
        "sienna ranch": {
            "latitude": "33.5590148",
            "closest_to": "",
            "address": "Sienna Parkway, Las Flores, Ladera Ranch, Orange County, California, 92697, United States of America",
            "locType": "tertiary",
            "blogLinks": [
                "http://www.bayareakidfun.com/best-of-the-bay/"
            ],
            "longitude": "-117.6360879"
        },
        "fruitvale": {
            "latitude": "35.3832924",
            "closest_to": "",
            "address": "Fruitvale, Kern County, California, United States of America",
            "locType": "hamlet",
            "blogLinks": [
                "https://en.wikipedia.org/wiki/Oakland,_California"
            ],
            "longitude": "-119.0831589"
        },
        "metro america": {
            "latitude": "33.6884458",
            "closest_to": "",
            "address": "Bank of America-Metro Center Heliport, San Diego Freeway, Costa Mesa, Orange County, California, 92707, United States of America",
            "locType": "helipad",
            "blogLinks": [
                "https://en.wikipedia.org/wiki/Oakland,_California"
            ],
            "longitude": "-117.8778975"
        },
        "southern california": {
            "latitude": "34.0224149",
            "closest_to": "",
            "address": "University of Southern California, Watt Way, Saint James Park, LA, Los Angeles County, California, 90089, United States of America",
            "locType": "university",
            "blogLinks": [
                "https://en.wikipedia.org/wiki/Oakland,_California"
            ],
            "longitude": "-118.286343973446"
        },
        "normandy": {
            "latitude": "33.1326991",
            "closest_to": "",
            "address": "1120, The Normandy, Escondido, San Diego County, California, 92025, United States of America",
            "locType": "residential",
            "blogLinks": [
                "http://www.bayareaparent.com/"
            ],
            "longitude": "-117.069605317756"
        },
        "pomona ave.": {
            "latitude": "38.01122",
            "closest_to": "",
            "address": "Pomona Avenue, Stockton, San Joaquin County, California, 95207, United States of America",
            "locType": "residential",
            "blogLinks": [
                "http://www.mercurynews.com/2014/06/27/july-4th-2014-bay-area-fireworks-parades-and-other-events/"
            ],
            "longitude": "-121.3077829"
        },
        "california theatre center": {
            "latitude": "34.10680785",
            "closest_to": "",
            "address": "California Theatre, 562, West 4th Street, San Bernardino, San Bernardino County, California, 92401, United States of America",
            "locType": "cinema",
            "blogLinks": [
                "http://www.bayareakidfun.com/best-of-the-bay/"
            ],
            "longitude": "-117.295461125042"
        },
        "colorado": {
            "latitude": "33.71351445",
            "closest_to": "",
            "address": "Colorado, Walnut, Irvine, Orange County, California, 92606, United States of America",
            "locType": "residential",
            "blogLinks": [
                "https://en.wikipedia.org/wiki/Oakland,_California"
            ],
            "longitude": "-117.791165718199"
        },
        "japanese gardens": {
            "latitude": "34.1832291",
            "closest_to": "",
            "address": "The Japanese Garden, Woodley Avenue, Encino, LA, Los Angeles County, California, 91344, United States of America",
            "locType": "attraction",
            "blogLinks": [
                "https://www.yelp.com/biz/hayward-japanese-gardens-hayward"
            ],
            "longitude": "-118.480944037598"
        },
        "uk": {
            "latitude": "52.4422729",
            "closest_to": "",
            "address": "California, Birmingham, West Midlands, England, UK",
            "locType": "village",
            "blogLinks": [
                "http://distancecalculator.globefeed.com/US_Distance_Calculator.asp?state=CA"
            ],
            "longitude": "-1.9796882"
        },
        "santa ana": {
            "latitude": "33.7494951",
            "closest_to": "",
            "address": "Santa Ana, Orange County, California, United States of America",
            "locType": "city",
            "blogLinks": [
                "https://en.wikipedia.org/wiki/Oakland,_California"
            ],
            "longitude": "-117.8732212"
        },
        "monterey bay aquarium": {
            "latitude": "36.61809095",
            "closest_to": "",
            "address": "MBA, 886, Cannery Row, Monterey, Monterey County, California, 93940, United States of America",
            "locType": "aquarium",
            "blogLinks": [
                "http://www.bayareakidfun.com/best-of-the-bay/"
            ],
            "longitude": "-121.901680002002"
        },
        "oak meadow park": {
            "latitude": "38.5671281",
            "closest_to": "",
            "address": "Oak Meadow Park, American River Drive, Arden Town, Sacramento County, California, 95608, United States of America",
            "locType": "park",
            "blogLinks": [
                "http://www.bayareakidfun.com/best-of-the-bay/"
            ],
            "longitude": "-121.3957858"
        },
        "tea garden": {
            "latitude": "33.7006659",
            "closest_to": "",
            "address": "Tea Garden, Northwood, Irvine, Orange County, California, 92620, United States of America",
            "locType": "residential",
            "blogLinks": [
                "https://www.yelp.com/topic/fremont-what-are-some-nice-cool-places-to-go-to-in-ca-bay-area"
            ],
            "longitude": "-117.7616589"
        },
        "capitola": {
            "latitude": "36.9762927",
            "closest_to": "",
            "address": "Capitola, Santa Cruz County, California, United States of America",
            "locType": "city",
            "blogLinks": [
                "https://www.yelp.com/topic/fremont-what-are-some-nice-cool-places-to-go-to-in-ca-bay-area"
            ],
            "longitude": "-121.9540576"
        },
        "northern california": {
            "latitude": "32.7349196",
            "closest_to": "",
            "address": "Northern Frontier, San Diego, San Diego County, California, United States of America",
            "locType": "locality",
            "blogLinks": [
                "https://en.wikipedia.org/wiki/Oakland,_California"
            ],
            "longitude": "-117.1545973"
        },
        "san pablo avenue": {
            "latitude": "35.401325",
            "closest_to": "",
            "address": "San Pablo Avenue, Bakersfield, Kern County, California, 93306, United States of America",
            "locType": "residential",
            "blogLinks": [
                "https://en.wikipedia.org/wiki/Oakland,_California"
            ],
            "longitude": "-118.9630679"
        },
        "old town sacramento": {
            "latitude": "38.5740724",
            "closest_to": "",
            "address": "Arden Town, Sacramento County, California, United States of America",
            "locType": "hamlet",
            "blogLinks": [
                "http://www.bayareakidfun.com/best-of-the-bay/"
            ],
            "longitude": "-121.3830077"
        },
        "railroad avenue": {
            "latitude": "33.9314048",
            "closest_to": "",
            "address": "Railroad Avenue, Riverside, Riverside County, California, 92504, United States of America",
            "locType": "residential",
            "blogLinks": [
                "http://www.mercurynews.com/2014/06/27/july-4th-2014-bay-area-fireworks-parades-and-other-events/"
            ],
            "longitude": "-117.406988"
        },
        "california state railroad museum": {
            "latitude": "38.5846424",
            "closest_to": "",
            "address": "California State Railroad Museum, 125, I Street, Sacramento, Sacramento County, California, 95814, United States of America",
            "locType": "museum",
            "blogLinks": [
                "http://www.bayareakidfun.com/best-of-the-bay/"
            ],
            "longitude": "-121.5038909"
        },
        "solano avenue": {
            "latitude": "34.0781793",
            "closest_to": "",
            "address": "Solano Avenue, Dayton Avenue, Angelino Heights, LA, Los Angeles County, California, 90012, United States of America",
            "locType": "tertiary",
            "blogLinks": [
                "http://www.bayareaparent.com/"
            ],
            "longitude": "-118.2345405"
        },
        "san antonio": {
            "latitude": "38.1838069",
            "closest_to": "",
            "address": "San Antonio, Marin County, California, United States of America",
            "locType": "hamlet",
            "blogLinks": [
                "https://robertsolis.wordpress.com/2008/05/28/bay-area-best-place-to-raise-a-family/"
            ],
            "longitude": "-122.5913722"
        },
        "tennessee": {
            "latitude": "33.7116447",
            "closest_to": "",
            "address": "Tennessee, Walnut, Irvine, Orange County, California, 92606, United States of America",
            "locType": "residential",
            "blogLinks": [
                "https://en.wikipedia.org/wiki/Oakland,_California"
            ],
            "longitude": "-117.7934117"
        },
        "california central valley": {
            "latitude": "34.1825988",
            "closest_to": "",
            "address": "California State University, San Bernardino, Central Walk, San Bernardino, San Bernardino County, California, 92407, United States of America",
            "locType": "university",
            "blogLinks": [
                "https://en.wikipedia.org/wiki/Oakland,_California"
            ],
            "longitude": "-117.321886392209"
        },
        "texas": {
            "latitude": "29.7181118",
            "closest_to": "",
            "address": "California, Baytown, Harris County, Texas, 77520, United States of America",
            "locType": "residential",
            "blogLinks": [
                "https://en.wikipedia.org/wiki/Oakland,_California"
            ],
            "longitude": "-94.997906"
        },
        "morgan hill community park": {
            "latitude": "37.1143579",
            "closest_to": "",
            "address": "Morgan Hill Community Park, Olympic Drive, Morgan Hill, Santa Clara County, California, 95037, United States of America",
            "locType": "park",
            "blogLinks": [
                "http://www.mercurynews.com/2014/06/27/july-4th-2014-bay-area-fireworks-parades-and-other-events/"
            ],
            "longitude": "-121.648475911044"
        },
        "williams freeway": {
            "latitude": "32.9537465",
            "closest_to": "",
            "address": "Ted Williams Freeway, San Diego, San Diego County, California, 92129, United States of America",
            "locType": "motorway",
            "blogLinks": [
                "https://en.wikipedia.org/wiki/Oakland,_California"
            ],
            "longitude": "-117.1445722"
        },
        "mandeville": {
            "latitude": "34.0929085",
            "closest_to": "",
            "address": "Mandeville Canyon, LA, Los Angeles County, California, United States of America",
            "locType": "stream",
            "blogLinks": [
                "http://www.mercurynews.com/2014/06/27/july-4th-2014-bay-area-fireworks-parades-and-other-events/"
            ],
            "longitude": "-118.502988"
        },
        "santa": {
            "latitude": "22.4804035",
            "closest_to": "",
            "address": "California, Santa Isabel de las Lajas, Cienfuegos, Cuba",
            "locType": "hamlet",
            "blogLinks": [
                "http://www.bayareaparent.com/"
            ],
            "longitude": "-80.3796642"
        },
        "west coast": {
            "latitude": "34.0222263",
            "closest_to": "",
            "address": "West Coast, Motor Avenue, Palms, LA, Los Angeles County, California, 90034-5702, United States of America",
            "locType": "plumber",
            "blogLinks": [
                "https://en.wikipedia.org/wiki/Oakland,_California"
            ],
            "longitude": "-118.4051087"
        },
        "missouri": {
            "latitude": "38.6275421",
            "closest_to": "",
            "address": "California, Moniteau County, Missouri, United States of America",
            "locType": "city",
            "blogLinks": [
                "https://en.wikipedia.org/wiki/Oakland,_California"
            ],
            "longitude": "-92.566517"
        },
        "kailua hawaii": {
            "latitude": "21.3937901",
            "closest_to": "",
            "address": "California Pizza Kitchen, Kailua Road, Enchanted Lake, Kailua, Honolulu County, Hawaii, 96734-9998, United States of America",
            "locType": "restaurant",
            "blogLinks": [
                "https://robertsolis.wordpress.com/2008/05/28/bay-area-best-place-to-raise-a-family/"
            ],
            "longitude": "-157.7417053"
        },
        "san jo": {
            "latitude": "47.3325646",
            "closest_to": "",
            "address": "California, 24, Markt, Goldanger, Wagrain, Sankt Johann im Pongau, Salzburg, 5602, \u00d6sterreich",
            "locType": "restaurant",
            "blogLinks": [
                "https://www.yelp.com/topic/fremont-what-are-some-nice-cool-places-to-go-to-in-ca-bay-area"
            ],
            "longitude": "13.2969635"
        },
        "michigan": {
            "latitude": "41.7964383",
            "closest_to": "",
            "address": "California, Branch County, Michigan, United States of America",
            "locType": "village",
            "blogLinks": [
                "https://en.wikipedia.org/wiki/Oakland,_California"
            ],
            "longitude": "-84.883294"
        },
        "pleasonton": {
            "latitude": "33.700996",
            "closest_to": "",
            "address": "Pleasonton, Northwood, Irvine, Orange County, California, 92620, United States of America",
            "locType": "residential",
            "blogLinks": [
                "https://robertsolis.wordpress.com/2008/05/28/bay-area-best-place-to-raise-a-family/"
            ],
            "longitude": "-117.7712929"
        },
        "united kingdom": {
            "latitude": "52.4422729",
            "closest_to": "",
            "address": "California, Birmingham, West Midlands, England, UK",
            "locType": "village",
            "blogLinks": [
                "https://www.yelp.com/biz/hayward-japanese-gardens-hayward"
            ],
            "longitude": "-1.9796882"
        },
        "cal": {
            "latitude": "33.16643595",
            "closest_to": "",
            "address": "CAL, 7018, Blair Road, Calipatria, Imperial County, California, 92233, United States of America",
            "locType": "prison",
            "blogLinks": [
                "https://robertsolis.wordpress.com/2008/05/28/bay-area-best-place-to-raise-a-family/"
            ],
            "longitude": "-115.484614171269"
        },
        "peninsula": {
            "latitude": "33.5987849",
            "closest_to": "",
            "address": "Peninsula, Corona del Mar, Newport Beach, Orange County, California, 92657, United States of America",
            "locType": "residential",
            "blogLinks": [
                "http://www.bayareakidfun.com/best-of-the-bay/",
                "http://www.mercurynews.com/2014/06/27/july-4th-2014-bay-area-fireworks-parades-and-other-events/",
                "http://www.sfgate.com/bayarea/article/TOP-5-BAY-AREA-LAKES-2519085.php"
            ],
            "longitude": "-117.830566223937"
        },
        "veterans memorial building": {
            "latitude": "33.7694623",
            "closest_to": "",
            "address": "Veterans Memorial Building, Broadway, Willowville, Long Beach, Los Angeles County, California, 90802, United States of America",
            "locType": "yes",
            "blogLinks": [
                "http://www.mercurynews.com/2014/06/27/july-4th-2014-bay-area-fireworks-parades-and-other-events/"
            ],
            "longitude": "-118.1945127"
        },
        "alabama": {
            "latitude": "37.413435",
            "closest_to": "",
            "address": "Alabama, Rovana, Inyo County, California, United States of America",
            "locType": "residential",
            "blogLinks": [
                "https://en.wikipedia.org/wiki/Oakland,_California"
            ],
            "longitude": "-118.6109719"
        },
        "southern pacific": {
            "latitude": "34.391601",
            "closest_to": "",
            "address": "Southern Pacific, Fillmore, Ventura County, California, 93015, United States of America",
            "locType": "residential",
            "blogLinks": [
                "https://en.wikipedia.org/wiki/Oakland,_California",
                "http://www.bestplaces.net/city/california/discovery_bay",
                "http://www.bestplaces.net/city/california/oakland",
                "http://www.bestplaces.net/metro/california/san_francisco-oakland-fremont"
            ],
            "longitude": "-118.9223619"
        },
        "california": {
            "latitude": "7.3480915",
            "closest_to": "",
            "address": "California, Santander, Colombia",
            "locType": "village",
            "blogLinks": [
                "https://www.yelp.com/biz/hayward-japanese-gardens-hayward",
                "https://en.wikipedia.org/wiki/Oakland,_California",
                "http://distancecalculator.globefeed.com/US_Distance_Calculator.asp?state=CA",
                "http://www.sfgate.com/travel/",
                "http://www.americantowns.com/ca/hayward-things-to-do",
                "https://robertsolis.wordpress.com/2008/05/28/bay-area-best-place-to-raise-a-family/"
            ],
            "longitude": "-72.945787"
        },
        "west marin": {
            "latitude": "38.0409144",
            "closest_to": "",
            "address": "Marin County, California, United States of America",
            "locType": "administrative",
            "blogLinks": [
                "http://www.bayareaparent.com/"
            ],
            "longitude": "-122.6199637"
        },
        "coyote point": {
            "latitude": "35.3833071",
            "closest_to": "",
            "address": "Coyote Point, San Luis Obispo County, California, United States of America",
            "locType": "peak",
            "blogLinks": [
                "http://www.bayareakidfun.com/best-of-the-bay/"
            ],
            "longitude": "-120.7329512"
        },
        "japan": {
            "latitude": "34.0833889",
            "closest_to": "",
            "address": "Japan LA, Melrose Avenue, Park La Brea, Hollywood, LA, Los Angeles County, California, 90069, United States of America",
            "locType": "clothes",
            "blogLinks": [
                "http://www.bayareaparent.com/"
            ],
            "longitude": "-118.3494693"
        },
        "visitor center": {
            "latitude": "32.9846784",
            "closest_to": "",
            "address": "Visitor Centre, Solana Beach, San Diego County, California, 92075, United States of America",
            "locType": "residential",
            "blogLinks": [
                "http://www.bayareaparent.com/"
            ],
            "longitude": "-117.261024930535"
        },
        "east bay": {
            "latitude": "38.156964",
            "closest_to": "",
            "address": "East Bay, San Joaquin County, California, United States of America",
            "locType": "track",
            "blogLinks": [
                "https://www.yelp.com/biz/hayward-japanese-gardens-hayward",
                "https://en.wikipedia.org/wiki/Oakland,_California",
                "http://www.sfgate.com/bayarea/article/TOP-5-BAY-AREA-LAKES-2519085.php",
                "http://www.bayareakidfun.com/best-of-the-bay/",
                "http://www.americantowns.com/ca/hayward-things-to-do",
                "https://robertsolis.wordpress.com/2008/05/28/bay-area-best-place-to-raise-a-family/"
            ],
            "longitude": "-121.0270079"
        },
        "tea gardens": {
            "latitude": "33.7006659",
            "closest_to": "",
            "address": "Tea Garden, Northwood, Irvine, Orange County, California, 92620, United States of America",
            "locType": "residential",
            "blogLinks": [
                "https://www.yelp.com/biz/hayward-japanese-gardens-hayward"
            ],
            "longitude": "-117.7616589"
        },
        "oakland hills": {
            "latitude": "33.8145007",
            "closest_to": "",
            "address": "Oakland Hills Street, Thousand Palms, Cathedral City, Riverside County, California, 92276, United States of America",
            "locType": "residential",
            "blogLinks": [
                "https://en.wikipedia.org/wiki/Oakland,_California"
            ],
            "longitude": "-116.386065"
        },
        "niles": {
            "latitude": "33.7731643",
            "closest_to": "",
            "address": "Niles, Koreatown, Garden Grove, Orange County, California, 92843, United States of America",
            "locType": "residential",
            "blogLinks": [
                "http://www.americantowns.com/ca/hayward-things-to-do"
            ],
            "longitude": "-117.9463552"
        },
        "los angeles": {
            "latitude": "34.0543942",
            "closest_to": "",
            "address": "LA, Los Angeles County, California, United States of America",
            "locType": "city",
            "blogLinks": [
                "https://en.wikipedia.org/wiki/Oakland,_California"
            ],
            "longitude": "-118.2439408"
        },
        "monterey": {
            "latitude": "36.5844165",
            "closest_to": "",
            "address": "Monterey, Monterey County, California, United States of America",
            "locType": "city",
            "blogLinks": [
                "https://www.yelp.com/topic/fremont-what-are-some-nice-cool-places-to-go-to-in-ca-bay-area"
            ],
            "longitude": "-121.866792846206"
        },
        "lexington ave.": {
            "latitude": "34.092586",
            "closest_to": "",
            "address": "Lexington Avenue, Hollywood, LA, Los Angeles County, California, 90046, United States of America",
            "locType": "residential",
            "blogLinks": [
                "http://www.mercurynews.com/2014/06/27/july-4th-2014-bay-area-fireworks-parades-and-other-events/"
            ],
            "longitude": "-118.3397961"
        },
        "golfland": {
            "latitude": "38.76137875",
            "closest_to": "",
            "address": "Golfland, Roseville, Placer County, California, 95661, United States of America",
            "locType": "commercial",
            "blogLinks": [
                "http://www.americantowns.com/ca/hayward-things-to-do"
            ],
            "longitude": "-121.25768439579"
        },
        "edgewood rd": {
            "latitude": "34.4916762",
            "closest_to": "",
            "address": "Edgewood Road, Victorville, San Bernardino County, California, 92392, United States of America",
            "locType": "residential",
            "blogLinks": [
                "http://www.bayareakidfun.com/best-of-the-bay/"
            ],
            "longitude": "-117.4066249"
        },
        "san andreas": {
            "latitude": "38.1875605",
            "closest_to": "",
            "address": "San Andreas, Angels Road, Toyanza Subdivision, Calaveras County, California, 95249, United States of America",
            "locType": "administrative",
            "blogLinks": [
                "https://en.wikipedia.org/wiki/Oakland,_California"
            ],
            "longitude": "-120.675382525556"
        },
        "lincoln highway": {
            "latitude": "38.9081519",
            "closest_to": "",
            "address": "Pioneer Trail, South Lake Tahoe, El Dorado County, California, 96150, United States of America",
            "locType": "secondary",
            "blogLinks": [
                "https://en.wikipedia.org/wiki/Oakland,_California"
            ],
            "longitude": "-119.9628335"
        },
        "marin county": {
            "latitude": "38.0409144",
            "closest_to": "",
            "address": "Marin County, California, United States of America",
            "locType": "administrative",
            "blogLinks": [
                "http://www.bestplaces.net/city/california/discovery_bay",
                "http://www.bestplaces.net/city/california/oakland",
                "http://www.bestplaces.net/metro/california/san_francisco-oakland-fremont"
            ],
            "longitude": "-122.6199637"
        },
        "new york": {
            "latitude": "34.0143928",
            "closest_to": "",
            "address": "New York, West Covina, Los Angeles County, California, 91792, United States of America",
            "locType": "service",
            "blogLinks": [
                "https://en.wikipedia.org/wiki/Oakland,_California"
            ],
            "longitude": "-117.8984509"
        },
        "pacific islander": {
            "latitude": "36.7366176",
            "closest_to": "",
            "address": "DBH: Asian Pacific Islander Program, Latino Team, S.E.E.S. Program, South Barton Avenue, Fresno County, California, 93702, United States of America",
            "locType": "clinic",
            "blogLinks": [
                "https://en.wikipedia.org/wiki/Oakland,_California"
            ],
            "longitude": "-119.7504685"
        },
        "park street": {
            "latitude": "33.8016873",
            "closest_to": "",
            "address": "Park Street, Torrance, Los Angeles County, California, 90505, United States of America",
            "locType": "residential",
            "blogLinks": [
                "https://en.wikipedia.org/wiki/Oakland,_California"
            ],
            "longitude": "-118.3499277"
        },
        "marin": {
            "latitude": "38.0409144",
            "closest_to": "",
            "address": "Marin County, California, United States of America",
            "locType": "administrative",
            "blogLinks": [
                "http://www.sfgate.com/bayarea/article/TOP-5-BAY-AREA-LAKES-2519085.php"
            ],
            "longitude": "-122.6199637"
        },
        "u.s.": {
            "latitude": "-32.5446226",
            "closest_to": "",
            "address": "La California, Municipio de Las Rosas, Departamento Belgrano, Sta. Fe, Argentina",
            "locType": "hamlet",
            "blogLinks": [
                "https://en.wikipedia.org/wiki/Oakland,_California",
                "http://www.bestplaces.net/city/california/discovery_bay",
                "http://www.bestplaces.net/city/california/oakland",
                "http://www.bestplaces.net/metro/california/san_francisco-oakland-fremont",
                "http://www.americantowns.com/ca/hayward-things-to-do"
            ],
            "longitude": "-61.5489543"
        },
        "georgia": {
            "latitude": "33.9190501",
            "closest_to": "",
            "address": "California, Wildwood, Paulding County, Georgia, United States of America",
            "locType": "neighbourhood",
            "blogLinks": [
                "https://en.wikipedia.org/wiki/Oakland,_California"
            ],
            "longitude": "-84.7458909"
        },
        "santa clara county": {
            "latitude": "37.2333253",
            "closest_to": "",
            "address": "Santa Clara County, California, United States of America",
            "locType": "administrative",
            "blogLinks": [
                "http://www.bayareaparent.com/",
                "http://www.americantowns.com/ca/hayward-things-to-do"
            ],
            "longitude": "-121.6846348"
        },
        "pittsburg": {
            "latitude": "38.0181745",
            "closest_to": "",
            "address": "Pittsburg, Contra Costa County, California, United States of America",
            "locType": "administrative",
            "blogLinks": [
                "http://www.mercurynews.com/2014/06/27/july-4th-2014-bay-area-fireworks-parades-and-other-events/"
            ],
            "longitude": "-121.8901231"
        },
        "montclair": {
            "latitude": "34.0775104",
            "closest_to": "",
            "address": "Montclair, San Bernardino County, California, United States of America",
            "locType": "city",
            "blogLinks": [
                "https://en.wikipedia.org/wiki/Oakland,_California"
            ],
            "longitude": "-117.6897775"
        },
        "oaks park": {
            "latitude": "33.909314",
            "closest_to": "",
            "address": "Oaks Park, East Oaks Street, Compton, Los Angeles County, California, 90221, United States of America",
            "locType": "park",
            "blogLinks": [
                "https://en.wikipedia.org/wiki/Oakland,_California"
            ],
            "longitude": "-118.215709014"
        },
        "rancho san antonio": {
            "latitude": "34.2418957",
            "closest_to": "",
            "address": "Rancho San Antonio, Plummer Street, Chatsworth, LA, Los Angeles County, California, 91311, United States of America",
            "locType": "school",
            "blogLinks": [
                "https://en.wikipedia.org/wiki/Oakland,_California"
            ],
            "longitude": "-118.590839406257"
        },
        "cypress street viaduct": {
            "latitude": "32.5855276",
            "closest_to": "",
            "address": "Cypress Street, Palm City, South San Diego, San Diego, San Diego County, California, 92154, United States of America",
            "locType": "residential",
            "blogLinks": [
                "https://en.wikipedia.org/wiki/Oakland,_California"
            ],
            "longitude": "-117.0944344"
        },
        "sacramento": {
            "latitude": "38.5815719",
            "closest_to": "",
            "address": "Sacramento, Sacramento County, California, United States of America",
            "locType": "city",
            "blogLinks": [
                "https://en.wikipedia.org/wiki/Oakland,_California",
                "http://www.bayareakidfun.com/best-of-the-bay/"
            ],
            "longitude": "-121.4943995"
        },
        "arcadia": {
            "latitude": "34.1362075",
            "closest_to": "",
            "address": "Arcadia, Los Angeles County, California, United States of America",
            "locType": "city",
            "blogLinks": [
                "https://en.wikipedia.org/wiki/Oakland,_California"
            ],
            "longitude": "-118.0401496"
        },
        "united states": {
            "latitude": "36.7014631",
            "closest_to": "",
            "address": "California, United States of America",
            "locType": "administrative",
            "blogLinks": [
                "https://www.tripadvisor.com/Tourism-g32411-Fremont_California-Vacations.html",
                "https://en.wikipedia.org/wiki/Oakland,_California",
                "http://www.bestplaces.net/city/california/discovery_bay",
                "http://www.bestplaces.net/city/california/oakland",
                "http://www.bestplaces.net/metro/california/san_francisco-oakland-fremont"
            ],
            "longitude": "-118.7559973"
        },
        "u.s": {
            "latitude": "-32.5446226",
            "closest_to": "",
            "address": "La California, Municipio de Las Rosas, Departamento Belgrano, Sta. Fe, Argentina",
            "locType": "hamlet",
            "blogLinks": [
                "http://www.americantowns.com/ca/hayward-things-to-do"
            ],
            "longitude": "-61.5489543"
        },
        "s.f.": {
            "latitude": "19.9908291",
            "closest_to": "",
            "address": "California, Bosque de Canalejas, Jilotepec, M\u00e9xico, 54270, M\u00e9xico",
            "locType": "residential",
            "blogLinks": [
                "https://en.wikipedia.org/wiki/Oakland,_California"
            ],
            "longitude": "-99.6183945"
        },
        "mississippi": {
            "latitude": "39.5284355",
            "closest_to": "",
            "address": "Mississippi Creek, Yuba County, California, United States of America",
            "locType": "stream",
            "blogLinks": [
                "https://en.wikipedia.org/wiki/Oakland,_California"
            ],
            "longitude": "-121.1182712"
        },
        "mediterranean": {
            "latitude": "33.7439509",
            "closest_to": "",
            "address": "Mediterranean, Palm Desert, Riverside County, California, 92211, United States of America",
            "locType": "residential",
            "blogLinks": [
                "https://en.wikipedia.org/wiki/Oakland,_California"
            ],
            "longitude": "-116.3534838"
        },
        "park boulevard": {
            "latitude": "32.7242198",
            "closest_to": "",
            "address": "Park Boulevard, Hillcrest, San Diego, San Diego County, California, 92116, United States of America",
            "locType": "secondary",
            "blogLinks": [
                "https://en.wikipedia.org/wiki/Oakland,_California"
            ],
            "longitude": "-117.1511213"
        },
        "south": {
            "latitude": "33.3054766",
            "closest_to": "",
            "address": "South, Los Angeles County, California, United States of America",
            "locType": "peak",
            "blogLinks": [
                "https://en.wikipedia.org/wiki/Oakland,_California"
            ],
            "longitude": "-118.3432299"
        },
        "pershing avenue": {
            "latitude": "32.743958",
            "closest_to": "",
            "address": "Pershing Avenue, North Park, San Diego, San Diego County, California, 92104, United States of America",
            "locType": "residential",
            "blogLinks": [
                "http://www.mercurynews.com/2014/06/27/july-4th-2014-bay-area-fireworks-parades-and-other-events/"
            ],
            "longitude": "-117.1346439"
        },
        "new york city": {
            "latitude": "40.767819",
            "closest_to": "",
            "address": "California Sea Lion, 830, 5th Avenue, Upper East Side, Manhattan, New York County, NYC, New York, 10035, United States of America",
            "locType": "attraction",
            "blogLinks": [
                "https://en.wikipedia.org/wiki/Oakland,_California"
            ],
            "longitude": "-73.9717587"
        },
        "washington": {
            "latitude": "40.0657724",
            "closest_to": "",
            "address": "California, Washington County, Pennsylvania, United States of America",
            "locType": "administrative",
            "blogLinks": [
                "https://en.wikipedia.org/wiki/Oakland,_California"
            ],
            "longitude": "-79.8918435"
        },
        "louisiana": {
            "latitude": "36.8368359",
            "closest_to": "",
            "address": "Louisiana, Fresno County, California, 93650, United States of America",
            "locType": "service",
            "blogLinks": [
                "https://en.wikipedia.org/wiki/Oakland,_California"
            ],
            "longitude": "-119.7958713"
        },
        "jim crow south": {
            "latitude": "39.5267457",
            "closest_to": "",
            "address": "Jim Crow Creek, Sierra County, California, United States of America",
            "locType": "stream",
            "blogLinks": [
                "https://en.wikipedia.org/wiki/Oakland,_California"
            ],
            "longitude": "-120.7685405"
        },
        "entrance plaza": {
            "latitude": "36.9896401",
            "closest_to": "",
            "address": "Moore Creek West Entrance Fork, Santa Cruz, Santa Cruz County, California, United States of America",
            "locType": "stream",
            "blogLinks": [
                "http://www.mercurynews.com/2014/06/27/july-4th-2014-bay-area-fireworks-parades-and-other-events/"
            ],
            "longitude": "-122.0670098"
        },
        "hillsdale": {
            "latitude": "32.7792185",
            "closest_to": "",
            "address": "Hillsdale, San Diego County, California, United States of America",
            "locType": "hamlet",
            "blogLinks": [
                "http://www.bayareaparent.com/"
            ],
            "longitude": "-116.9280812"
        },
        "bay": {
            "latitude": "33.6899249",
            "closest_to": "",
            "address": "Bay, Meadows Mobile Home Park, El Camino Real, Irvine, Orange County, California, 92406, United States of America",
            "locType": "service",
            "blogLinks": [
                "https://robertsolis.wordpress.com/2008/05/28/bay-area-best-place-to-raise-a-family/",
                "http://www.bayareaparent.com/",
                "https://en.wikipedia.org/wiki/Oakland,_California",
                "http://www.bayareakidfun.com/best-of-the-bay/",
                "http://www.sfgate.com/travel/"
            ],
            "longitude": "-117.7729354"
        },
        "thunderdome": {
            "latitude": "34.4137774",
            "closest_to": "",
            "address": "Events Center (Thunderdome), 505, El Colegio Road, Isla Vista, Santa Barbara County, California, 93106, United States of America",
            "locType": "yes",
            "blogLinks": [
                "http://www.bestplaces.net/metro/california/san_francisco-oakland-fremont"
            ],
            "longitude": "-119.8513327875"
        },
        "kings village road": {
            "latitude": "37.0494624",
            "closest_to": "",
            "address": "Kings Village Road, Scotts Valley, Santa Cruz County, California, 95066, United States of America",
            "locType": "tertiary",
            "blogLinks": [
                "http://www.mercurynews.com/2014/06/27/july-4th-2014-bay-area-fireworks-parades-and-other-events/"
            ],
            "longitude": "-122.0281232"
        },
        "new mexico": {
            "latitude": "32.2644096",
            "closest_to": "",
            "address": "California Lateral, Mesilla, Do\u00f1a Ana County, New Mexico, United States of America",
            "locType": "drain",
            "blogLinks": [
                "https://en.wikipedia.org/wiki/Oakland,_California"
            ],
            "longitude": "-106.8036705"
        },
        "radio beach": {
            "latitude": "32.8304298",
            "closest_to": "",
            "address": "Radio Shack, 4725, Vons 2120 Truck Service Ramp, Clairemont Town Square, Pacific Beach, San Diego, San Diego County, California, 92117, United States of America",
            "locType": "electronics",
            "blogLinks": [
                "https://en.wikipedia.org/wiki/Oakland,_California"
            ],
            "longitude": "-117.2046178"
        },
        "america": {
            "latitude": "36.2573198",
            "closest_to": "",
            "address": "America, Kings County, California, 93246, United States of America",
            "locType": "residential",
            "blogLinks": [
                "https://en.wikipedia.org/wiki/Oakland,_California"
            ],
            "longitude": "-119.8948706"
        },
        "santa fe": {
            "latitude": "32.4395109",
            "closest_to": "",
            "address": "Santa Fe, Tijuana, Baja California, M\u00e9xico",
            "locType": "village",
            "blogLinks": [
                "https://en.wikipedia.org/wiki/Oakland,_California"
            ],
            "longitude": "-117.0336822"
        },
        "east oakland hills": {
            "latitude": "42.5252642",
            "closest_to": "",
            "address": "California Pizza Kitchen, 31005C, Orchard Lake Road, Farmington Hills, Oakland County, Michigan, 48334, United States of America",
            "locType": "restaurant",
            "blogLinks": [
                "https://en.wikipedia.org/wiki/Oakland,_California"
            ],
            "longitude": "-83.3616734"
        },
        "franklin street": {
            "latitude": "34.0443205",
            "closest_to": "",
            "address": "Franklin Street, Santa Monica, Los Angeles County, California, 90403, United States of America",
            "locType": "residential",
            "blogLinks": [
                "https://en.wikipedia.org/wiki/Oakland,_California"
            ],
            "longitude": "-118.4765286"
        },
        "western pacific": {
            "latitude": "41.053673",
            "closest_to": "",
            "address": "Old North Western Pacific Railroad Right-of-Way, Westhaven, Humboldt County, California, 95570, United States of America",
            "locType": "residential",
            "blogLinks": [
                "https://en.wikipedia.org/wiki/Oakland,_California"
            ],
            "longitude": "-124.1058819"
        },
        "livermore avenue": {
            "latitude": "36.644046",
            "closest_to": "",
            "address": "Livermore Avenue, Fresno County, California, 93654, United States of America",
            "locType": "residential",
            "blogLinks": [
                "http://www.mercurynews.com/2014/06/27/july-4th-2014-bay-area-fireworks-parades-and-other-events/"
            ],
            "longitude": "-119.4530259"
        },
        "vacaville": {
            "latitude": "38.3565773",
            "closest_to": "",
            "address": "Vacaville, Solano County, California, United States of America",
            "locType": "city",
            "blogLinks": [
                "http://www.bayareaparent.com/"
            ],
            "longitude": "-121.9877443"
        }
    },
    "oakland": {
        "type": "city",
        "osm_id": "2833530",
        "class": "place",
        "importance": 0.80539006393216,
        "lat": "37.8044557",
        "lon": "-122.2713562",
        "boundingbox": [
            "37.632226",
            "37.885368",
            "-122.3558809",
            "-122.1146719"
        ],
        "display_name": "Oakland, Alameda County, California, United States of America",
        "licence": "Data \u00a9 OpenStreetMap contributors, ODbL 1.0. http://www.openstreetmap.org/copyright",
        "icon": "https://nominatim.openstreetmap.org/images/mapicons/poi_place_city.p.20.png",
        "place_id": "159417720",
        "osm_type": "relation"
    },
    "fremont": {
        "type": "city",
        "osm_id": "111943",
        "class": "place",
        "importance": 0.70373394703995,
        "lat": "37.5482697",
        "lon": "-121.9885718",
        "boundingbox": [
            "37.4539501",
            "37.6066739",
            "-122.1509872",
            "-121.8701127"
        ],
        "display_name": "Fremont, Alameda County, California, United States of America",
        "licence": "Data \u00a9 OpenStreetMap contributors, ODbL 1.0. http://www.openstreetmap.org/copyright",
        "icon": "https://nominatim.openstreetmap.org/images/mapicons/poi_place_city.p.20.png",
        "place_id": "159050638",
        "osm_type": "relation"
    }
}