{
    "fresno": {
        "type": "city",
        "osm_id": "33120274",
        "class": "place",
        "importance": 0.79213103374115,
        "lat": "36.748793",
        "lon": "-119.714839601149",
        "boundingbox": [
            "36.747122",
            "36.75042",
            "-119.7159249",
            "-119.7091549"
        ],
        "display_name": "Fresno, Fresno County, California, United States of America",
        "licence": "Data \u00a9 OpenStreetMap contributors, ODbL 1.0. http://www.openstreetmap.org/copyright",
        "icon": "https://nominatim.openstreetmap.org/images/mapicons/poi_place_city.p.20.png",
        "place_id": "72530219",
        "osm_type": "way"
    },
    "mentions": {
        "north hills": {
            "latitude": "-34.9455308",
            "closest_to": "",
            "address": "California, Beverly Hills, Punta Del Este, Maldonado, 20100, Uruguay",
            "locType": "residential",
            "blogLinks": [
                "http://wikitravel.org/en/Los_Angeles"
            ],
            "longitude": "-54.9348719"
        },
        "westwood": {
            "latitude": "40.3024675",
            "closest_to": "",
            "address": "Westwood, 3rd Street, Westwood, Lassen County, California, United States of America",
            "locType": "administrative",
            "blogLinks": [
                "http://wikitravel.org/en/Los_Angeles"
            ],
            "longitude": "-121.010399151458"
        },
        "australia": {
            "latitude": "-32.6649999",
            "closest_to": "",
            "address": "California, Singleton, NSW, Australia",
            "locType": "hamlet",
            "blogLinks": [
                "http://wikitravel.org/en/Los_Angeles"
            ],
            "longitude": "150.9261111"
        },
        "denmark": {
            "latitude": "57.4379493",
            "closest_to": "",
            "address": "California, Lodsgade, Frederikshavn, Frederikshavn Kommune, Region Nordjylland, 9900, Danmark",
            "locType": "cafe",
            "blogLinks": [
                "http://wikitravel.org/en/Los_Angeles"
            ],
            "longitude": "10.5361043"
        },
        "golden state": {
            "latitude": "39.6712719",
            "closest_to": "",
            "address": "Golden State Island, Butte County, California, United States of America",
            "locType": "island",
            "blogLinks": [
                "http://www.movoto.com/blog/top-ten/most-boring-places-in-california/"
            ],
            "longitude": "-121.9619226"
        },
        "l.a.": {
            "latitude": "-13.8305494",
            "closest_to": "",
            "address": "California, Provincia Abel Iturralde, LPZ, Bolivia",
            "locType": "hamlet",
            "blogLinks": [
                "http://www.movoto.com/blog/top-ten/most-boring-places-in-california/",
                "http://wikitravel.org/en/Los_Angeles",
                "http://www.hauntedplaces.org/state/California"
            ],
            "longitude": "-67.9369134"
        },
        "california-nevada": {
            "latitude": "36.17310935",
            "closest_to": "",
            "address": "California Hotel, Sky Walk(Connection from Main Street to California, Cultural Corridor, Vegas Heights, Las Vegas, Clark County, Nevada, 89101, United States of America",
            "locType": "hotel",
            "blogLinks": [
                "http://www.travbuddy.com/California-popular-cities-p85"
            ],
            "longitude": "-115.144667930325"
        },
        "mexico": {
            "latitude": "28.973",
            "closest_to": "",
            "address": "California, Hermosillo, Sonora, M\u00e9xico",
            "locType": "village",
            "blogLinks": [
                "https://www.virtualtourist.com/travel/North_America/United_States_of_America/California/Things_To_Do-California-TG-C-1.html",
                "http://wikitravel.org/en/Los_Angeles"
            ],
            "longitude": "-111.8196666"
        },
        "humboldt county": {
            "latitude": "40.5997415",
            "closest_to": "",
            "address": "Humboldt County, California, United States of America",
            "locType": "administrative",
            "blogLinks": [
                "http://www.travbuddy.com/California-popular-cities-p85"
            ],
            "longitude": "-123.8997733"
        },
        "philippines": {
            "latitude": "9.966227",
            "closest_to": "",
            "address": "California, San Pascual, Bohol, Central Visayas, Philippines",
            "locType": "neighbourhood",
            "blogLinks": [
                "http://wikitravel.org/en/Los_Angeles"
            ],
            "longitude": "124.4144861"
        },
        "switzerland": {
            "latitude": "47.3688306",
            "closest_to": "",
            "address": "California, 22, Schiffl\u00e4nde, Rathaus, Altstadt, Z\u00fcrich, Bezirk Z\u00fcrich, Z\u00fcrich, 8024, Schweiz, Suisse, Svizzera, Svizra",
            "locType": "hotel",
            "blogLinks": [
                "http://wikitravel.org/en/Los_Angeles"
            ],
            "longitude": "8.5445137"
        },
        "brazil": {
            "latitude": "-23.6672542",
            "closest_to": "",
            "address": "Calif\u00f3rnia, Microrregi\u00e3o Arapucana, Mesorregi\u00e3o Norte Central Paranaense, PR, Regi\u00e3o Sul, Brasil",
            "locType": "administrative",
            "blogLinks": [
                "http://wikitravel.org/en/Los_Angeles"
            ],
            "longitude": "-51.3554555"
        },
        "belgium": {
            "latitude": "39.7276351",
            "closest_to": "",
            "address": "Belgium Avenue, Chico, Butte County, California, 95928, United States of America",
            "locType": "residential",
            "blogLinks": [
                "http://wikitravel.org/en/Los_Angeles"
            ],
            "longitude": "-121.785498"
        },
        "croatia": {
            "latitude": "45.4955091",
            "closest_to": "",
            "address": "California, Ravna Dolina, Grad Umag, Istarska \u017eupanija, 524785, Hrvatska",
            "locType": "camp_site",
            "blogLinks": [
                "http://beautifulplacestovisit.com/tag/california/"
            ],
            "longitude": "13.500736"
        },
        "west virginia": {
            "latitude": "38.3380347",
            "closest_to": "",
            "address": "California Avenue, Charleston, Kanawha County, West Virginia, 25311, United States of America",
            "locType": "residential",
            "blogLinks": [
                "https://www.virtualtourist.com/travel/North_America/United_States_of_America/California/Things_To_Do-California-TG-C-1.html"
            ],
            "longitude": "-81.6097297"
        },
        "greece": {
            "latitude": "43.222537",
            "closest_to": "",
            "address": "California Drive, Greece Town, Monroe County, New York, 14616, United States of America",
            "locType": "residential",
            "blogLinks": [
                "http://wikitravel.org/en/Los_Angeles"
            ],
            "longitude": "-77.6362609"
        },
        "southwest": {
            "latitude": "40.4370184",
            "closest_to": "",
            "address": "Southwest, Lassen Peak Highway, Tehama County, California, United States of America",
            "locType": "camp_site",
            "blogLinks": [
                "http://www.hauntedplaces.org/state/California"
            ],
            "longitude": "-121.5324607"
        },
        "new york city": {
            "latitude": "40.767819",
            "closest_to": "",
            "address": "California Sea Lion, 830, 5th Avenue, Upper East Side, Manhattan, New York County, NYC, New York, 10035, United States of America",
            "locType": "attraction",
            "blogLinks": [
                "http://www.movoto.com/blog/top-ten/most-boring-places-in-california/"
            ],
            "longitude": "-73.9717587"
        },
        "argentina": {
            "latitude": "-31.451096",
            "closest_to": "",
            "address": "California, C\u00f3rdoba, Departamento Capital, Cba., Argentina",
            "locType": "administrative",
            "blogLinks": [
                "http://wikitravel.org/en/Los_Angeles"
            ],
            "longitude": "-64.205523"
        },
        "cascade mountains": {
            "latitude": "40.0516768",
            "closest_to": "",
            "address": "Harding Spring, 25N16, Tehama County, California, United States of America",
            "locType": "spring",
            "blogLinks": [
                "https://www.flipkey.com/blog/2011/04/21/top-10-road-trip-destinations-from-seattle-wa/"
            ],
            "longitude": "-122.8213012"
        },
        "seattle": {
            "latitude": "41.9641881",
            "closest_to": "",
            "address": "Seattle, Dorris, Siskiyou County, California, 96023, United States of America",
            "locType": "residential",
            "blogLinks": [
                "https://www.flipkey.com/blog/2011/04/21/top-10-road-trip-destinations-from-seattle-wa/"
            ],
            "longitude": "-121.9226289"
        },
        "los angeles metro": {
            "latitude": "14.7119101",
            "closest_to": "",
            "address": "East Los Angeles, California Village, San Bartolome, Quezon City, District V, Quezon City, Metro Manila, 1116, Philippines",
            "locType": "residential",
            "blogLinks": [
                "http://wikitravel.org/en/Los_Angeles"
            ],
            "longitude": "121.0228751"
        },
        "washington": {
            "latitude": "40.0657724",
            "closest_to": "",
            "address": "California, Washington County, Pennsylvania, United States of America",
            "locType": "administrative",
            "blogLinks": [
                "https://www.flipkey.com/blog/2011/04/21/top-10-road-trip-destinations-from-seattle-wa/"
            ],
            "longitude": "-79.8918435"
        },
        "central valley": {
            "latitude": "40.5626504",
            "closest_to": "",
            "address": "KNNN-FM (Central Valley), Rattlesnake Drive, Shasta County, California, 96001, United States of America",
            "locType": "tower",
            "blogLinks": [
                "https://www.househunt.com/homes/forsale/CA/",
                "http://wikitravel.org/en/Los_Angeles"
            ],
            "longitude": "-122.4530663"
        },
        "az": {
            "latitude": "33.3547482",
            "closest_to": "",
            "address": "California, Gold Canyon RV & Golf Resort, San Tan Valley, Pinal County, Arizona, 85219, United States of America",
            "locType": "service",
            "blogLinks": [
                "http://wikitravel.org/en/Los_Angeles"
            ],
            "longitude": "-111.4698532"
        },
        "armenia": {
            "latitude": "4.5527389",
            "closest_to": "",
            "address": "California, Cl 14 N, La Campi\u00f1a, Armenia, Quind\u00edo, 630004, Colombia",
            "locType": "yes",
            "blogLinks": [
                "http://wikitravel.org/en/Los_Angeles"
            ],
            "longitude": "-75.65735805"
        },
        "eureka": {
            "latitude": "40.8020712",
            "closest_to": "",
            "address": "Eureka, Humboldt County, California, United States of America",
            "locType": "city",
            "blogLinks": [
                "http://www.travbuddy.com/California-popular-cities-p85"
            ],
            "longitude": "-124.1636728"
        },
        "california": {
            "latitude": "7.3480915",
            "closest_to": "",
            "address": "California, Santander, Colombia",
            "locType": "village",
            "blogLinks": [
                "http://beautifulplacestovisit.com/tag/california/",
                "http://www.travelmath.com/places/",
                "http://www.bestplaces.net/cost_of_living/city/california/los_angeles",
                "http://www.hauntedplaces.org/state/California",
                "http://www.movoto.com/blog/top-ten/most-boring-places-in-california/",
                "https://www.flipkey.com/blog/2011/04/21/top-10-road-trip-destinations-from-seattle-wa/",
                "http://wikitravel.org/en/Los_Angeles",
                "http://www.travbuddy.com/California-popular-cities-p85",
                "https://www.househunt.com/homes/forsale/CA/",
                "https://www.virtualtourist.com/travel/North_America/United_States_of_America/California/Things_To_Do-California-TG-C-1.html"
            ],
            "longitude": "-72.945787"
        },
        "spain": {
            "latitude": "37.1412332",
            "closest_to": "",
            "address": "La California, Mor\u00f3n de la Frontera, Sevilla, Andaluc\u00eda, Espa\u00f1a",
            "locType": "locality",
            "blogLinks": [
                "http://wikitravel.org/en/Los_Angeles"
            ],
            "longitude": "-5.4610806"
        },
        "italy": {
            "latitude": "45.659844",
            "closest_to": "",
            "address": "California, MB, LOM, Italia",
            "locType": "village",
            "blogLinks": [
                "http://wikitravel.org/en/Los_Angeles"
            ],
            "longitude": "9.3130453"
        },
        "united kingdom": {
            "latitude": "52.4422729",
            "closest_to": "",
            "address": "California, Birmingham, West Midlands, England, UK",
            "locType": "village",
            "blogLinks": [
                "http://www.timeanddate.com/worldclock/distances.html?n=390",
                "http://www.roadsideamerica.com/location/ca/all",
                "http://wikitravel.org/en/Los_Angeles"
            ],
            "longitude": "-1.9796882"
        },
        "virginia": {
            "latitude": "37.9090178",
            "closest_to": "",
            "address": "California, Rockbridge County, Virginia, United States of America",
            "locType": "hamlet",
            "blogLinks": [
                "http://www.movoto.com/blog/top-ten/most-boring-places-in-california/"
            ],
            "longitude": "-79.5869878"
        },
        "napa valley": {
            "latitude": "39.0234679",
            "closest_to": "",
            "address": "Napa Valley, Cold Spring, Campbell County, Kentucky, 41076, United States of America",
            "locType": "residential",
            "blogLinks": [
                "https://www.househunt.com/homes/forsale/CA/"
            ],
            "longitude": "-84.4504647"
        },
        "los posadas": {
            "latitude": "-27.36738525",
            "closest_to": "",
            "address": "California, 215, C\u00f3rdoba, Centro, Delegaci\u00f3n Municipal Centro, Posadas, Municipio de Posadas, Departamento Capital, Mnes., 3300, Argentina",
            "locType": "supermarket",
            "blogLinks": [
                "http://wikitravel.org/en/Los_Angeles"
            ],
            "longitude": "-55.8965126230186"
        },
        "washington state": {
            "latitude": "47.5681177",
            "closest_to": "",
            "address": "California Creek, Spokane County, Washington, United States of America",
            "locType": "stream",
            "blogLinks": [
                "https://www.flipkey.com/blog/2011/04/21/top-10-road-trip-destinations-from-seattle-wa/"
            ],
            "longitude": "-117.1638588"
        },
        "u.s.": {
            "latitude": "-32.5446226",
            "closest_to": "",
            "address": "La California, Municipio de Las Rosas, Departamento Belgrano, Sta. Fe, Argentina",
            "locType": "hamlet",
            "blogLinks": [
                "https://www.househunt.com/homes/forsale/CA/",
                "http://wikitravel.org/en/Los_Angeles",
                "http://www.hauntedplaces.org/state/California"
            ],
            "longitude": "-61.5489543"
        },
        "west side": {
            "latitude": "41.101001",
            "closest_to": "",
            "address": "California Street, Youngstown, Mahoning County, Ohio, 44509, United States of America",
            "locType": "residential",
            "blogLinks": [
                "http://wikitravel.org/en/Los_Angeles"
            ],
            "longitude": "-80.7072619"
        },
        "south central": {
            "latitude": "-23.6672542",
            "closest_to": "",
            "address": "Calif\u00f3rnia, Microrregi\u00e3o Arapucana, Mesorregi\u00e3o Norte Central Paranaense, PR, Regi\u00e3o Sul, Brasil",
            "locType": "administrative",
            "blogLinks": [
                "http://wikitravel.org/en/Los_Angeles"
            ],
            "longitude": "-51.3554555"
        },
        "germany": {
            "latitude": "50.9590814",
            "closest_to": "",
            "address": "California, Lassallestra\u00dfe, M\u00fclheim, K\u00f6ln, Regierungsbezirk K\u00f6ln, Nordrhein-Westfalen, 50667-51149, Deutschland",
            "locType": "beauty",
            "blogLinks": [
                "http://wikitravel.org/en/Los_Angeles"
            ],
            "longitude": "7.009217"
        },
        "washington , dc": {
            "latitude": "38.915572",
            "closest_to": "",
            "address": "California Street Northwest, Kalorama Heights, Washington, District of Columbia, 20008, United States of America",
            "locType": "residential",
            "blogLinks": [
                "https://www.virtualtourist.com/travel/North_America/United_States_of_America/California/Things_To_Do-California-TG-C-1.html",
                "http://wikitravel.org/en/Los_Angeles"
            ],
            "longitude": "-77.0526014"
        },
        "redwood national park": {
            "latitude": "41.27553155",
            "closest_to": "",
            "address": "Redwood National Park, Redwood Creek Trail, Orick, Humboldt County, California, 95555, United States of America",
            "locType": "national_park",
            "blogLinks": [
                "https://www.househunt.com/homes/forsale/CA/"
            ],
            "longitude": "-124.030095146171"
        },
        "las vegas": {
            "latitude": "36.17310935",
            "closest_to": "",
            "address": "California Hotel, Sky Walk(Connection from Main Street to California, Cultural Corridor, Vegas Heights, Las Vegas, Clark County, Nevada, 89101, United States of America",
            "locType": "hotel",
            "blogLinks": [
                "https://www.flipkey.com/blog/2011/04/21/top-10-road-trip-destinations-from-seattle-wa/",
                "http://wikitravel.org/en/Los_Angeles"
            ],
            "longitude": "-115.144667930325"
        }
    },
    "long beach": {
        "type": "city",
        "osm_id": "112100",
        "class": "place",
        "importance": 0.87291598958998,
        "lat": "33.78538945",
        "lon": "-118.158049215311",
        "boundingbox": [
            "33.6905847",
            "33.8855951",
            "-118.2489659",
            "-118.0632824"
        ],
        "display_name": "Long Beach, Los Angeles County, California, United States of America",
        "licence": "Data \u00a9 OpenStreetMap contributors, ODbL 1.0. http://www.openstreetmap.org/copyright",
        "icon": "https://nominatim.openstreetmap.org/images/mapicons/poi_place_city.p.20.png",
        "place_id": "158641779",
        "osm_type": "relation"
    }
}