{
    "fresno": {
        "type": "city",
        "osm_id": "33120274",
        "class": "place",
        "importance": 0.79213103374115,
        "lat": "36.748793",
        "lon": "-119.714839601149",
        "boundingbox": [
            "36.747122",
            "36.75042",
            "-119.7159249",
            "-119.7091549"
        ],
        "display_name": "Fresno, Fresno County, California, United States of America",
        "licence": "Data \u00a9 OpenStreetMap contributors, ODbL 1.0. http://www.openstreetmap.org/copyright",
        "icon": "https://nominatim.openstreetmap.org/images/mapicons/poi_place_city.p.20.png",
        "place_id": "72530219",
        "osm_type": "way"
    },
    "san francisco": {
        "type": "city",
        "osm_id": "111968",
        "class": "place",
        "importance": 0.78836369596997,
        "lat": "37.7792808",
        "lon": "-122.4192362",
        "boundingbox": [
            "37.6403143",
            "37.9298443",
            "-123.1738249",
            "-122.2817799"
        ],
        "display_name": "SF, California, United States of America",
        "licence": "Data \u00a9 OpenStreetMap contributors, ODbL 1.0. http://www.openstreetmap.org/copyright",
        "icon": "https://nominatim.openstreetmap.org/images/mapicons/poi_place_city.p.20.png",
        "place_id": "158675742",
        "osm_type": "relation"
    },
    "mentions": {
        "highway 101": {
            "latitude": "32.9967358",
            "closest_to": "",
            "address": "Highway 101, Solana Beach, San Diego County, California, 92075, United States of America",
            "locType": "primary",
            "blogLinks": [
                "https://answers.yahoo.com/question/index?qid=20110609171224AAMpcvd"
            ],
            "longitude": "-117.2731974"
        },
        "palos verdes peninsula ca": {
            "latitude": "33.77984925",
            "closest_to": "",
            "address": "Palos Verdes Peninsula High School, Hawthorne Boulevard, Rolling Hills Estates, Los Angeles County, California, 90274, United States of America",
            "locType": "school",
            "blogLinks": [
                "http://www.california-blog.com/"
            ],
            "longitude": "-118.372196730215"
        },
        "arizona": {
            "latitude": "34.4631398",
            "closest_to": "",
            "address": "Arizona, San Bernardino County, California, 92371, United States of America",
            "locType": "track",
            "blogLinks": [
                "http://www.usatourist.com/english/destinations/california/california-driving-tour.html"
            ],
            "longitude": "-117.5060679"
        },
        "yreka": {
            "latitude": "41.7326157",
            "closest_to": "",
            "address": "Yreka, Siskiyou County, California, United States of America",
            "locType": "city",
            "blogLinks": [
                "https://www.yelp.com/topic/san-francisco-driving-from-sf-to-portland-what-to-see-along-the-way"
            ],
            "longitude": "-122.6377654"
        },
        "ferndale": {
            "latitude": "40.5762406",
            "closest_to": "",
            "address": "Ferndale, Humboldt County, California, United States of America",
            "locType": "city",
            "blogLinks": [
                "https://answers.yahoo.com/question/index?qid=20110609171224AAMpcvd"
            ],
            "longitude": "-124.2639441"
        },
        "mount san gorgonio ca": {
            "latitude": "33.9121294",
            "closest_to": "",
            "address": "San Gorgonio Avenue, Banning, Riverside County, California, 92220, United States of America",
            "locType": "secondary",
            "blogLinks": [
                "http://www.california-blog.com/"
            ],
            "longitude": "-116.8766731"
        },
        "portland": {
            "latitude": "33.8979116",
            "closest_to": "",
            "address": "Portland, Riverside, Riverside County, California, 92508, United States of America",
            "locType": "residential",
            "blogLinks": [
                "https://www.yelp.com/topic/san-francisco-driving-from-sf-to-portland-what-to-see-along-the-way",
                "https://answers.yahoo.com/question/index?qid=20110609171224AAMpcvd"
            ],
            "longitude": "-117.3105194"
        },
        "moreno valley ca": {
            "latitude": "33.937517",
            "closest_to": "",
            "address": "Moreno Valley, Riverside County, California, United States of America",
            "locType": "city",
            "blogLinks": [
                "http://www.california-blog.com/"
            ],
            "longitude": "-117.2305943"
        },
        "redding": {
            "latitude": "40.5863563",
            "closest_to": "",
            "address": "Redding, Shasta County, California, United States of America",
            "locType": "city",
            "blogLinks": [
                "https://www.yelp.com/topic/san-francisco-driving-from-sf-to-portland-what-to-see-along-the-way"
            ],
            "longitude": "-122.3916753"
        },
        "pacific coast": {
            "latitude": "33.8047323",
            "closest_to": "",
            "address": "Pacific Coast, Florista Street, Los Alamitos, Orange County, California, 90720, United States of America",
            "locType": "yes",
            "blogLinks": [
                "http://www.usatourist.com/english/destinations/california/california-driving-tour.html",
                "https://www.tripadvisor.com/ShowTopic-g28926-i29-k7861322-Things_to_See_Visit_between_Fresno_and_San_Francisco-California.html"
            ],
            "longitude": "-118.063517668143"
        },
        "central valley": {
            "latitude": "40.5626504",
            "closest_to": "",
            "address": "KNNN-FM (Central Valley), Rattlesnake Drive, Shasta County, California, 96001, United States of America",
            "locType": "tower",
            "blogLinks": [
                "http://blog.bluepipes.com/travel-nursing-in-california/"
            ],
            "longitude": "-122.4530663"
        },
        "seattle": {
            "latitude": "41.9641881",
            "closest_to": "",
            "address": "Seattle, Dorris, Siskiyou County, California, 96023, United States of America",
            "locType": "residential",
            "blogLinks": [
                "http://www.sandiego.org/members/trains/amtrak.aspx"
            ],
            "longitude": "-121.9226289"
        },
        "colorado river": {
            "latitude": "33.58648635",
            "closest_to": "",
            "address": "Colorado River, Riviera Drive, East Blythe, Riverside County, California, 92225, United States of America",
            "locType": "water",
            "blogLinks": [
                "http://www.usatourist.com/english/destinations/california/california-driving-tour.html"
            ],
            "longitude": "-114.542164096234"
        },
        "oceania": {
            "latitude": "32.5186477",
            "closest_to": "",
            "address": "Boulevard Oceania, Rivera, Tijuana, Baja California, 22504, M\u00e9xico",
            "locType": "residential",
            "blogLinks": [
                "http://www.citypass.com/san-francisco/things-to-do-san-francisco"
            ],
            "longitude": "-117.1214054"
        },
        "encinitas": {
            "latitude": "33.0369867",
            "closest_to": "",
            "address": "Encinitas, San Diego County, California, United States of America",
            "locType": "city",
            "blogLinks": [
                "http://blog.bluepipes.com/travel-nursing-in-california/"
            ],
            "longitude": "-117.2919817"
        },
        "southern california": {
            "latitude": "34.0224149",
            "closest_to": "",
            "address": "University of Southern California, Watt Way, Saint James Park, LA, Los Angeles County, California, 90089, United States of America",
            "locType": "university",
            "blogLinks": [
                "http://www.usatourist.com/english/destinations/california/california-driving-tour.html",
                "http://blog.bluepipes.com/travel-nursing-in-california/"
            ],
            "longitude": "-118.286343973446"
        },
        "old town san diego": {
            "latitude": "32.7542167",
            "closest_to": "",
            "address": "Old Town San Diego, San Diego County, California, United States of America",
            "locType": "hamlet",
            "blogLinks": [
                "http://www.california-blog.com/"
            ],
            "longitude": "-117.1969792"
        },
        "grant avenue": {
            "latitude": "33.27553",
            "closest_to": "",
            "address": "Grant Avenue, Salton City, Imperial County, California, 92275, United States of America",
            "locType": "residential",
            "blogLinks": [
                "http://www.citypass.com/san-francisco/things-to-do-san-francisco"
            ],
            "longitude": "-115.9754509"
        },
        "redwood": {
            "latitude": "33.45713595",
            "closest_to": "",
            "address": "Redwood, Wolf Creek, Temecula, Riverside County, California, 92592, United States of America",
            "locType": "residential",
            "blogLinks": [
                "http://www.citypass.com/san-francisco/things-to-do-san-francisco"
            ],
            "longitude": "-117.094843184352"
        },
        "tea garden": {
            "latitude": "33.7006659",
            "closest_to": "",
            "address": "Tea Garden, Northwood, Irvine, Orange County, California, 92620, United States of America",
            "locType": "residential",
            "blogLinks": [
                "http://www.citypass.com/san-francisco/things-to-do-san-francisco"
            ],
            "longitude": "-117.7616589"
        },
        "ocean beach": {
            "latitude": "32.7477784",
            "closest_to": "",
            "address": "Ocean Beach, San Diego, San Diego County, California, United States of America",
            "locType": "region",
            "blogLinks": [
                "http://www.citypass.com/san-francisco/things-to-do-san-francisco"
            ],
            "longitude": "-117.249321"
        },
        "new orleans": {
            "latitude": "33.8116219",
            "closest_to": "",
            "address": "New Orleans Square, Anaheim, Orange County, California, United States of America",
            "locType": "locality",
            "blogLinks": [
                "http://www.sandiego.org/members/trains/amtrak.aspx"
            ],
            "longitude": "-117.9206364"
        },
        "hollywood": {
            "latitude": "34.1028268",
            "closest_to": "",
            "address": "Hollywood, LA, Los Angeles County, California, United States of America",
            "locType": "suburb",
            "blogLinks": [
                "http://www.usatourist.com/english/destinations/california/california-driving-tour.html"
            ],
            "longitude": "-118.3299898"
        },
        "mount baldy ca": {
            "latitude": "34.2361168",
            "closest_to": "",
            "address": "Mount Baldy, Los Angeles County, California, United States of America",
            "locType": "hamlet",
            "blogLinks": [
                "http://www.california-blog.com/"
            ],
            "longitude": "-117.6600552"
        },
        "paris": {
            "latitude": "34.4719383",
            "closest_to": "",
            "address": "Paris, Los Angeles County, California, United States of America",
            "locType": "hamlet",
            "blogLinks": [
                "http://www.citypass.com/san-francisco/things-to-do-san-francisco"
            ],
            "longitude": "-118.1809078"
        },
        "morongo valley": {
            "latitude": "34.0537585",
            "closest_to": "",
            "address": "Morongo Valley, Vista Drive, Morongo Valley, San Bernardino County, California, 92256, United States of America",
            "locType": "administrative",
            "blogLinks": [
                "http://www.california-blog.com/"
            ],
            "longitude": "-116.596723958419"
        },
        "west coast": {
            "latitude": "34.0222263",
            "closest_to": "",
            "address": "West Coast, Motor Avenue, Palms, LA, Los Angeles County, California, 90034-5702, United States of America",
            "locType": "plumber",
            "blogLinks": [
                "http://www.citypass.com/san-francisco/things-to-do-san-francisco"
            ],
            "longitude": "-118.4051087"
        },
        "tillamook": {
            "latitude": "32.728329",
            "closest_to": "",
            "address": "Tillamook Bay Drive, San Diego, San Diego County, California, 92114, United States of America",
            "locType": "residential",
            "blogLinks": [
                "https://www.yelp.com/topic/san-francisco-driving-from-sf-to-portland-what-to-see-along-the-way"
            ],
            "longitude": "-117.0726319"
        },
        "san luis": {
            "latitude": "32.4962137",
            "closest_to": "",
            "address": "California Street, Bienestar Estates, San Luis, Yuma County, Arizona, 85336, United States of America",
            "locType": "residential",
            "blogLinks": [
                "https://www.tripadvisor.co.uk/Travel-g28926-c182763/California:United-States:Driving.Between.La.And.Sf.html"
            ],
            "longitude": "-114.7643625"
        },
        "west hills hospital": {
            "latitude": "34.20281535",
            "closest_to": "",
            "address": "West Hills Hospital, Medical Center Drive, West Hills, LA, Los Angeles County, California, 91307, United States of America",
            "locType": "hospital",
            "blogLinks": [
                "http://blog.bluepipes.com/travel-nursing-in-california/"
            ],
            "longitude": "-118.628636377065"
        },
        "little giants park": {
            "latitude": "40.3410481",
            "closest_to": "",
            "address": "California Federation of Womens Clubs Grove, Avenue of the Giants, Weott, Humboldt County, California, 95565, United States of America",
            "locType": "wood",
            "blogLinks": [
                "http://www.citypass.com/san-francisco/things-to-do-san-francisco"
            ],
            "longitude": "-123.9376025"
        },
        "financial district": {
            "latitude": "34.0457621",
            "closest_to": "",
            "address": "Financial District, Bunker Hill, LA, Los Angeles County, California, 90079, United States of America",
            "locType": "neighbourhood",
            "blogLinks": [
                "http://www.citypass.com/san-francisco/things-to-do-san-francisco"
            ],
            "longitude": "-118.2593046"
        },
        "united kingdom": {
            "latitude": "52.4422729",
            "closest_to": "",
            "address": "California, Birmingham, West Midlands, England, UK",
            "locType": "village",
            "blogLinks": [
                "https://answers.yahoo.com/question/index?qid=20090523180633AAtsnTw",
                "https://answers.yahoo.com/question/index?qid=20110609171224AAMpcvd"
            ],
            "longitude": "-1.9796882"
        },
        "mojave desert": {
            "latitude": "35.1456319",
            "closest_to": "",
            "address": "Mojave Desert, Utility Road, San Bernardino County, California, United States of America",
            "locType": "desert",
            "blogLinks": [
                "http://www.usatourist.com/english/destinations/california/california-driving-tour.html"
            ],
            "longitude": "-115.548963686646"
        },
        "thousand oaks": {
            "latitude": "34.17142715",
            "closest_to": "",
            "address": "Thousand Oaks, Ventura County, California, United States of America",
            "locType": "city",
            "blogLinks": [
                "http://blog.bluepipes.com/travel-nursing-in-california/"
            ],
            "longitude": "-118.910587629744"
        },
        "monrovia": {
            "latitude": "34.1483499",
            "closest_to": "",
            "address": "Monrovia, Los Angeles County, California, United States of America",
            "locType": "city",
            "blogLinks": [
                "http://www.california-blog.com/"
            ],
            "longitude": "-118.0014516"
        },
        "boulder city": {
            "latitude": "35.974186",
            "closest_to": "",
            "address": "California Avenue, Boulder City, Clark County, Nevada, 89005, United States of America",
            "locType": "residential",
            "blogLinks": [
                "http://www.usatourist.com/english/destinations/california/california-driving-tour.html"
            ],
            "longitude": "-114.8341879"
        },
        "kingman": {
            "latitude": "33.3508348",
            "closest_to": "",
            "address": "Kingman, 31422, Borrego Palm Canyon Road, San Diego County, California, United States of America",
            "locType": "camp_site",
            "blogLinks": [
                "http://www.usatourist.com/english/destinations/california/california-driving-tour.html"
            ],
            "longitude": "-116.5745266"
        },
        "klamath": {
            "latitude": "41.533995",
            "closest_to": "",
            "address": "Klamath, Klamath Glen Road, Klamath Glen, Del Norte County, California, 95548, United States of America",
            "locType": "administrative",
            "blogLinks": [
                "https://www.yelp.com/topic/san-francisco-driving-from-sf-to-portland-what-to-see-along-the-way"
            ],
            "longitude": "-124.015565064009"
        },
        "kaiser": {
            "latitude": "34.0938998",
            "closest_to": "",
            "address": "Kaiser, San Bernardino County, California, United States of America",
            "locType": "hamlet",
            "blogLinks": [
                "http://blog.bluepipes.com/travel-nursing-in-california/"
            ],
            "longitude": "-117.4889387"
        },
        "palm springs air museum ca": {
            "latitude": "33.83250375",
            "closest_to": "",
            "address": "Palm Springs Air Museum, 745, North Gene Autry Trail, Palm Springs, Riverside County, California, 92262, United States of America",
            "locType": "museum",
            "blogLinks": [
                "http://www.california-blog.com/"
            ],
            "longitude": "-116.504677958796"
        },
        "sedona": {
            "latitude": "33.6916439",
            "closest_to": "",
            "address": "Sedona, Foothill Ranch, Lake Forest, Orange County, California, 92610, United States of America",
            "locType": "residential",
            "blogLinks": [
                "http://www.usatourist.com/english/destinations/california/california-driving-tour.html"
            ],
            "longitude": "-117.6689202"
        },
        "mount san jacinto ca": {
            "latitude": "33.7839084",
            "closest_to": "",
            "address": "San Jacinto, Riverside County, California, United States of America",
            "locType": "city",
            "blogLinks": [
                "http://www.california-blog.com/"
            ],
            "longitude": "-116.9586349"
        },
        "houston": {
            "latitude": "34.4422871",
            "closest_to": "",
            "address": "Houston, Plum Canyon, Canyon Country, Los Angeles County, California, 91351, United States of America",
            "locType": "residential",
            "blogLinks": [
                "http://www.sandiego.org/members/trains/amtrak.aspx"
            ],
            "longitude": "-118.4777157"
        },
        "france": {
            "latitude": "34.2013715",
            "closest_to": "",
            "address": "France, Sherman Way, Canoga Park, LA, Los Angeles County, California, 91307, United States of America",
            "locType": "cafe",
            "blogLinks": [
                "http://www.citypass.com/san-francisco/things-to-do-san-francisco"
            ],
            "longitude": "-118.5935353"
        },
        "grand canyon": {
            "latitude": "33.9332326",
            "closest_to": "",
            "address": "Grand Canyon, Downtown Brea, Brea, Orange County, California, 92821, United States of America",
            "locType": "residential",
            "blogLinks": [
                "http://www.usatourist.com/english/destinations/california/california-driving-tour.html"
            ],
            "longitude": "-117.8915409"
        },
        "oregon": {
            "latitude": "33.7123207",
            "closest_to": "",
            "address": "Oregon, Walnut, Irvine, Orange County, California, 92606, United States of America",
            "locType": "residential",
            "blogLinks": [
                "https://www.yelp.com/topic/san-francisco-driving-from-sf-to-portland-what-to-see-along-the-way",
                "https://answers.yahoo.com/question/index?qid=20110609171224AAMpcvd"
            ],
            "longitude": "-117.7911567"
        },
        "mexico": {
            "latitude": "28.973",
            "closest_to": "",
            "address": "California, Hermosillo, Sonora, M\u00e9xico",
            "locType": "village",
            "blogLinks": [
                "http://www.citypass.com/san-francisco/things-to-do-san-francisco"
            ],
            "longitude": "-111.8196666"
        },
        "northern california": {
            "latitude": "32.7349196",
            "closest_to": "",
            "address": "Northern Frontier, San Diego, San Diego County, California, United States of America",
            "locType": "locality",
            "blogLinks": [
                "https://www.yelp.com/topic/san-francisco-driving-from-sf-to-portland-what-to-see-along-the-way",
                "http://blog.bluepipes.com/travel-nursing-in-california/"
            ],
            "longitude": "-117.1545973"
        },
        "crater lake": {
            "latitude": "33.8197471",
            "closest_to": "",
            "address": "Crater Lake, Orange, Orange County, California, 92867, United States of America",
            "locType": "residential",
            "blogLinks": [
                "https://answers.yahoo.com/question/index?qid=20110609171224AAMpcvd"
            ],
            "longitude": "-117.7946566"
        },
        "shasta": {
            "latitude": "40.7965121",
            "closest_to": "",
            "address": "Shasta County, California, United States of America",
            "locType": "administrative",
            "blogLinks": [
                "https://www.yelp.com/topic/san-francisco-driving-from-sf-to-portland-what-to-see-along-the-way"
            ],
            "longitude": "-121.9979193"
        },
        "los angeles": {
            "latitude": "34.0543942",
            "closest_to": "",
            "address": "LA, Los Angeles County, California, United States of America",
            "locType": "city",
            "blogLinks": [
                "http://www.usatourist.com/english/destinations/california/california-driving-tour.html",
                "http://blog.bluepipes.com/travel-nursing-in-california/",
                "http://www.sandiego.org/members/trains/amtrak.aspx"
            ],
            "longitude": "-118.2439408"
        },
        "teotihuacan": {
            "latitude": "24.1265846",
            "closest_to": "",
            "address": "Teotihuacan, La Paz, Baja California Sur, 23080, M\u00e9xico",
            "locType": "residential",
            "blogLinks": [
                "http://www.citypass.com/san-francisco/things-to-do-san-francisco"
            ],
            "longitude": "-110.3354894"
        },
        "los angeles union station": {
            "latitude": "34.0558624",
            "closest_to": "",
            "address": "Los Angeles Union Station, LA Union Station Underground Walkway, Naud Junction, Little Tokyo Historic District, LA, Los Angeles County, California, 90012, United States of America",
            "locType": "station",
            "blogLinks": [
                "http://www.sandiego.org/members/trains/amtrak.aspx"
            ],
            "longitude": "-118.2342858"
        },
        "napa valley": {
            "latitude": "39.0234679",
            "closest_to": "",
            "address": "Napa Valley, Cold Spring, Campbell County, Kentucky, 41076, United States of America",
            "locType": "residential",
            "blogLinks": [
                "http://blog.bluepipes.com/travel-nursing-in-california/"
            ],
            "longitude": "-84.4504647"
        },
        "san diego": {
            "latitude": "32.7174209",
            "closest_to": "",
            "address": "San Diego, San Diego County, California, United States of America",
            "locType": "city",
            "blogLinks": [
                "http://www.usatourist.com/english/destinations/california/california-driving-tour.html",
                "http://blog.bluepipes.com/travel-nursing-in-california/",
                "https://www.yelp.com/topic/fresno-day-trips-where-do-you-go",
                "http://www.sandiego.org/members/trains/amtrak.aspx"
            ],
            "longitude": "-117.1627713"
        },
        "orange county": {
            "latitude": "33.7500378",
            "closest_to": "",
            "address": "Orange County, California, United States of America",
            "locType": "administrative",
            "blogLinks": [
                "http://blog.bluepipes.com/travel-nursing-in-california/"
            ],
            "longitude": "-117.870493"
        },
        "california coast": {
            "latitude": "32.7586361",
            "closest_to": "",
            "address": "California Coast Credit Union, Park Boulevard, Hillcrest, San Diego, San Diego County, California, 92116, United States of America",
            "locType": "bank",
            "blogLinks": [
                "http://www.citypass.com/san-francisco/things-to-do-san-francisco"
            ],
            "longitude": "-117.1464145"
        },
        "portland or": {
            "latitude": "45.52104405",
            "closest_to": "",
            "address": "Union Bank of California Tower, 707, Southwest Washington Street, Pearl District, Portland, Multnomah County, Oregon, 97205, United States of America",
            "locType": "yes",
            "blogLinks": [
                "https://www.yelp.com/topic/san-francisco-driving-from-sf-to-portland-what-to-see-along-the-way"
            ],
            "longitude": "-122.679251295494"
        },
        "las vegas": {
            "latitude": "36.17310935",
            "closest_to": "",
            "address": "California Hotel, Sky Walk(Connection from Main Street to California, Cultural Corridor, Vegas Heights, Las Vegas, Clark County, Nevada, 89101, United States of America",
            "locType": "hotel",
            "blogLinks": [
                "http://www.usatourist.com/english/destinations/california/california-driving-tour.html"
            ],
            "longitude": "-115.144667930325"
        },
        "tucson": {
            "latitude": "33.5678303",
            "closest_to": "",
            "address": "Tucson, Coto de Caza, Orange County, California, 92690, United States of America",
            "locType": "residential",
            "blogLinks": [
                "http://www.sandiego.org/members/trains/amtrak.aspx"
            ],
            "longitude": "-117.5934281"
        },
        "ontario": {
            "latitude": "34.065846",
            "closest_to": "",
            "address": "Ontario, San Bernardino County, California, United States of America",
            "locType": "city",
            "blogLinks": [
                "http://www.california-blog.com/"
            ],
            "longitude": "-117.6484303"
        },
        "pismo": {
            "latitude": "24.1378257",
            "closest_to": "",
            "address": "Pismo, La Paz, Baja California Sur, 23206, M\u00e9xico",
            "locType": "residential",
            "blogLinks": [
                "http://www.fresno.gov/Visitors/ThingsToDo/Default.htm"
            ],
            "longitude": "-110.3437034"
        },
        "needles": {
            "latitude": "34.8480597",
            "closest_to": "",
            "address": "Needles, San Bernardino County, California, United States of America",
            "locType": "city",
            "blogLinks": [
                "http://www.usatourist.com/english/destinations/california/california-driving-tour.html"
            ],
            "longitude": "-114.6141315"
        },
        "oxnard": {
            "latitude": "34.1976308",
            "closest_to": "",
            "address": "Oxnard, Ventura County, California, United States of America",
            "locType": "city",
            "blogLinks": [
                "https://www.tripadvisor.co.uk/Travel-g28926-c182763/California:United-States:Driving.Between.La.And.Sf.html"
            ],
            "longitude": "-119.1803817"
        },
        "west hills": {
            "latitude": "34.2032325",
            "closest_to": "",
            "address": "West Hills, LA, Los Angeles County, California, United States of America",
            "locType": "suburb",
            "blogLinks": [
                "http://blog.bluepipes.com/travel-nursing-in-california/"
            ],
            "longitude": "-118.6454759"
        },
        "las vegas nevada": {
            "latitude": "36.17310935",
            "closest_to": "",
            "address": "California Hotel, Sky Walk(Connection from Main Street to California, Cultural Corridor, Vegas Heights, Las Vegas, Clark County, Nevada, 89101, United States of America",
            "locType": "hotel",
            "blogLinks": [
                "http://www.usatourist.com/english/destinations/california/california-driving-tour.html"
            ],
            "longitude": "-115.144667930325"
        },
        "cali": {
            "latitude": "3.41023085",
            "closest_to": "",
            "address": "California, Cali, Valle del Cauca, 760040, Colombia",
            "locType": "residential",
            "blogLinks": [
                "http://blog.bluepipes.com/travel-nursing-in-california/"
            ],
            "longitude": "-76.5647481471698"
        },
        "mount palomar ca": {
            "latitude": "33.1278146",
            "closest_to": "",
            "address": "California Bank & Trust, 2501, Palomar Airport Road, Carlsbad, San Diego County, California, 92011, United States of America",
            "locType": "bank",
            "blogLinks": [
                "http://www.california-blog.com/"
            ],
            "longitude": "-117.270809764613"
        },
        "salem": {
            "latitude": "39.0652059",
            "closest_to": "",
            "address": "California, Cincinnati, Hamilton County, Ohio, United States of America",
            "locType": "suburb",
            "blogLinks": [
                "https://www.yelp.com/topic/san-francisco-driving-from-sf-to-portland-what-to-see-along-the-way"
            ],
            "longitude": "-84.4272385"
        },
        "albuquerque": {
            "latitude": "32.8074701",
            "closest_to": "",
            "address": "Albuquerque Street, Pacific Beach, San Diego, San Diego County, California, 92109, United States of America",
            "locType": "residential",
            "blogLinks": [
                "http://www.sandiego.org/members/trains/amtrak.aspx"
            ],
            "longitude": "-117.2184314"
        },
        "lake shasta": {
            "latitude": "40.7965121",
            "closest_to": "",
            "address": "Shasta County, California, United States of America",
            "locType": "administrative",
            "blogLinks": [
                "https://www.yelp.com/topic/san-francisco-driving-from-sf-to-portland-what-to-see-along-the-way"
            ],
            "longitude": "-121.9979193"
        },
        "barstow": {
            "latitude": "34.8957684",
            "closest_to": "",
            "address": "Barstow, San Bernardino County, California, United States of America",
            "locType": "administrative",
            "blogLinks": [
                "http://www.usatourist.com/english/destinations/california/california-driving-tour.html"
            ],
            "longitude": "-117.0172076"
        },
        "beverly hills": {
            "latitude": "34.0736204",
            "closest_to": "",
            "address": "Beverly Hills, Los Angeles County, California, United States of America",
            "locType": "city",
            "blogLinks": [
                "http://www.usatourist.com/english/destinations/california/california-driving-tour.html"
            ],
            "longitude": "-118.4003562"
        },
        "portland oregon": {
            "latitude": "45.52104405",
            "closest_to": "",
            "address": "Union Bank of California Tower, 707, Southwest Washington Street, Pearl District, Portland, Multnomah County, Oregon, 97205, United States of America",
            "locType": "yes",
            "blogLinks": [
                "https://answers.yahoo.com/question/index?qid=20110609171224AAMpcvd"
            ],
            "longitude": "-122.679251295494"
        },
        "baylor": {
            "latitude": "33.8381386",
            "closest_to": "",
            "address": "West Baylor Circle, West Anaheim, Anaheim, Orange County, California, 92801, United States of America",
            "locType": "residential",
            "blogLinks": [
                "http://blog.bluepipes.com/travel-nursing-in-california/"
            ],
            "longitude": "-117.9768747"
        },
        "americas": {
            "latitude": "-13.17169885",
            "closest_to": "",
            "address": "california, Jir\u00f3n Aprovesa, Asociaci\u00f3n de Vivienda Santa Rosa, Distrito de San Juan Bautista, San Juan Bautista, Huamanga, Ayacucho, 05001, Per\u00fa",
            "locType": "hotel",
            "blogLinks": [
                "http://www.citypass.com/san-francisco/things-to-do-san-francisco"
            ],
            "longitude": "-74.206290139264"
        },
        "north carolina": {
            "latitude": "35.9043367",
            "closest_to": "",
            "address": "California, Dare County, North Carolina, United States of America",
            "locType": "hamlet",
            "blogLinks": [
                "https://www.yelp.com/topic/san-francisco-driving-from-sf-to-portland-what-to-see-along-the-way"
            ],
            "longitude": "-75.6804524"
        },
        "klamath falls": {
            "latitude": "42.2387465",
            "closest_to": "",
            "address": "The Dalles-California Highway, Klamath Falls, Klamath County, Oregon, 97601, United States of America",
            "locType": "motorway",
            "blogLinks": [
                "https://answers.yahoo.com/question/index?qid=20110609171224AAMpcvd"
            ],
            "longitude": "-121.7965174"
        },
        "mojave desert ca": {
            "latitude": "35.1456319",
            "closest_to": "",
            "address": "Mojave Desert, Utility Road, San Bernardino County, California, United States of America",
            "locType": "desert",
            "blogLinks": [
                "http://www.california-blog.com/"
            ],
            "longitude": "-115.548963686646"
        },
        "mount lassen": {
            "latitude": "40.4881308",
            "closest_to": "",
            "address": "Lassen Peak, Shasta County, California, United States of America",
            "locType": "peak",
            "blogLinks": [
                "https://www.yelp.com/topic/san-francisco-driving-from-sf-to-portland-what-to-see-along-the-way"
            ],
            "longitude": "-121.5049199"
        },
        "california": {
            "latitude": "7.3480915",
            "closest_to": "",
            "address": "California, Santander, Colombia",
            "locType": "village",
            "blogLinks": [
                "https://answers.yahoo.com/question/index?qid=20110609171224AAMpcvd",
                "http://www.california-blog.com/",
                "http://www.sandiego.org/members/trains/amtrak.aspx",
                "https://www.tripadvisor.com/ShowTopic-g28926-i29-k7861322-Things_to_See_Visit_between_Fresno_and_San_Francisco-California.html",
                "http://www.usatourist.com/english/destinations/california/california-driving-tour.html",
                "http://www.citypass.com/san-francisco/things-to-do-san-francisco",
                "http://blog.bluepipes.com/travel-nursing-in-california/",
                "https://www.tripadvisor.co.uk/Travel-g28926-c182763/California:United-States:Driving.Between.La.And.Sf.html"
            ],
            "longitude": "-72.945787"
        },
        "las vegas strip": {
            "latitude": "36.12050715",
            "closest_to": "",
            "address": "California Pizza Kitchen, South Las Vegas Boulevard, Hughes Center, Paradise, Clark County, Nevada, 89123, United States of America",
            "locType": "restaurant",
            "blogLinks": [
                "http://www.usatourist.com/english/destinations/california/california-driving-tour.html"
            ],
            "longitude": "-115.173775796208"
        },
        "bay": {
            "latitude": "33.6899249",
            "closest_to": "",
            "address": "Bay, Meadows Mobile Home Park, El Camino Real, Irvine, Orange County, California, 92406, United States of America",
            "locType": "service",
            "blogLinks": [
                "http://www.citypass.com/san-francisco/things-to-do-san-francisco"
            ],
            "longitude": "-117.7729354"
        },
        "palm springs": {
            "latitude": "33.8246269",
            "closest_to": "",
            "address": "Palm Springs, Riverside County, California, United States of America",
            "locType": "city",
            "blogLinks": [
                "http://www.usatourist.com/english/destinations/california/california-driving-tour.html"
            ],
            "longitude": "-116.5403029"
        },
        "arcata": {
            "latitude": "40.8665166",
            "closest_to": "",
            "address": "Arcata, Humboldt County, California, United States of America",
            "locType": "city",
            "blogLinks": [
                "https://www.yelp.com/topic/san-francisco-driving-from-sf-to-portland-what-to-see-along-the-way"
            ],
            "longitude": "-124.0828395"
        },
        "newport beach ca": {
            "latitude": "33.6170092",
            "closest_to": "",
            "address": "Newport Beach, Orange County, California, United States of America",
            "locType": "city",
            "blogLinks": [
                "http://www.california-blog.com/"
            ],
            "longitude": "-117.92944"
        },
        "dana point": {
            "latitude": "33.4669721",
            "closest_to": "",
            "address": "Dana Point, Orange County, California, United States of America",
            "locType": "city",
            "blogLinks": [
                "https://www.tripadvisor.co.uk/Travel-g28926-c182763/California:United-States:Driving.Between.La.And.Sf.html"
            ],
            "longitude": "-117.6981074"
        },
        "lincoln city": {
            "latitude": "34.2209765",
            "closest_to": "",
            "address": "Galpin Lincoln, 15500, Roscoe Boulevard, Raymer, Sepulveda, LA, Los Angeles County, California, 91406, United States of America",
            "locType": "car",
            "blogLinks": [
                "https://www.yelp.com/topic/san-francisco-driving-from-sf-to-portland-what-to-see-along-the-way"
            ],
            "longitude": "-118.4710273"
        },
        "riverside national cemetery": {
            "latitude": "33.87692125",
            "closest_to": "",
            "address": "Riverside National Cemetery, 22495, Alessandro, Riverside County, California, 92518, United States of America",
            "locType": "cemetery",
            "blogLinks": [
                "http://www.california-blog.com/"
            ],
            "longitude": "-117.270726607134"
        }
    }
}