{
    "hassan": {
        "place_id": "1806238",
        "osm_id": "340748436",
        "icon": "https://nominatim.openstreetmap.org/images/mapicons/poi_place_town.p.20.png",
        "osm_type": "node",
        "licence": "Data \u00a9 OpenStreetMap contributors, ODbL 1.0. http://www.openstreetmap.org/copyright",
        "display_name": "Hassan, Hasana taluk, Hassan district, Karnataka, 573201, India",
        "type": "town",
        "lon": "76.0992703",
        "boundingbox": [
            "12.9670817",
            "13.0470817",
            "76.0592703",
            "76.1392703"
        ],
        "importance": 0.490701435537,
        "lat": "13.0070817",
        "class": "place"
    },
    "mentions": {
        "pune": {
            "closest_to": "",
            "address": "Pune - Machilipatnam Highway, Kaudiyala, Basavakalyana taluku, Bidar district, Karnataka, India",
            "longitude": "76.9479122",
            "latitude": "17.8199745",
            "blogLinks": [
                "https://www.makemytrip.com/holidays-india/places-to-visit-hubli.html"
            ],
            "locType": "trunk"
        },
        "gulbarga": {
            "closest_to": "",
            "address": "Kalaburgi, Kalaburagi district, Karnataka, India",
            "longitude": "77.083333",
            "latitude": "17.166667",
            "blogLinks": [
                "https://en.wikipedia.org/wiki/Tourism_in_Karnataka",
                "http://www.ticketgoose.com/bus-tickets/hubli-to-hassan"
            ],
            "locType": "county"
        },
        "rajasthan": {
            "closest_to": "",
            "address": "Karnataka Bank, Mirza Ismail Road, Hasanpura, Bani Park, Jaipur, Rajasthan, 302006, India",
            "longitude": "75.7985653",
            "latitude": "26.91869",
            "blogLinks": [
                "https://www.makemytrip.com/holidays-india/places-to-visit-hubli.html"
            ],
            "locType": "atm"
        },
        "nagareshwara": {
            "closest_to": "",
            "address": "Nagareshwara Temple, SH126, Dantapur, Yadagiri taluku, Yadagiri district, Karnataka, India",
            "longitude": "77.3934679",
            "latitude": "16.8662525",
            "blogLinks": [
                "https://en.wikipedia.org/wiki/Tourism_in_Karnataka"
            ],
            "locType": "place_of_worship"
        },
        "chennai": {
            "closest_to": "",
            "address": "Karnataka Bank, Postal Colony 2nd Street, Postal Colony, Ashok Nagar, Chennai City Corporation Limits, Chennai district, Tamil Nadu, 600033, India",
            "longitude": "80.2197941",
            "latitude": "13.0365141",
            "blogLinks": [
                "https://en.wikipedia.org/wiki/Tourism_in_Karnataka",
                "https://www.makemytrip.com/holidays-india/places-to-visit-hubli.html"
            ],
            "locType": "bank"
        },
        "bidar district": {
            "closest_to": "",
            "address": "Bidar district, Karnataka, India",
            "longitude": "77.2496344350342",
            "latitude": "18.0158574",
            "blogLinks": [
                "https://en.wikipedia.org/wiki/Tourism_in_Karnataka"
            ],
            "locType": "administrative"
        },
        "hyderabad": {
            "closest_to": "",
            "address": "Hyderabad Road, Old City, Bidar, Bidar taluku, Bidar district, Karnataka, 585400, India",
            "longitude": "77.5344002",
            "latitude": "17.9003114",
            "blogLinks": [
                "http://www.travelhaathi.com/hampi-travel-guide/",
                "https://www.makemytrip.com/holidays-india/places-to-visit-hubli.html",
                "http://wildplanetresort.com/blog/2016/03/top-11-places-to-visit-in-karnataka/",
                "http://www.ticketgoose.com/bus-tickets/hubli-to-hassan"
            ],
            "locType": "primary"
        },
        "jaipur": {
            "closest_to": "",
            "address": "Karnataka Bank, Mirza Ismail Road, Hasanpura, Bani Park, Jaipur, Rajasthan, 302006, India",
            "longitude": "75.7985653",
            "latitude": "26.91869",
            "blogLinks": [
                "https://www.makemytrip.com/holidays-india/places-to-visit-hubli.html"
            ],
            "locType": "atm"
        },
        "gulbarga district": {
            "closest_to": "",
            "address": "Kalaburgi, Kalaburagi district, Karnataka, India",
            "longitude": "77.083333",
            "latitude": "17.166667",
            "blogLinks": [
                "https://en.wikipedia.org/wiki/Tourism_in_Karnataka"
            ],
            "locType": "county"
        }
    },
    "hubli": {
        "place_id": "6298582",
        "osm_id": "670289984",
        "icon": "https://nominatim.openstreetmap.org/images/mapicons/poi_place_city.p.20.png",
        "osm_type": "node",
        "licence": "Data \u00a9 OpenStreetMap contributors, ODbL 1.0. http://www.openstreetmap.org/copyright",
        "display_name": "Hubballi - \u0cb9\u0cc1\u0cac\u0ccd\u0cac\u0cb3\u0ccd\u0cb3\u0cbf, Hubballi taluku, Dharwad district, Karnataka, 580020, India",
        "type": "city",
        "lon": "75.1379848",
        "boundingbox": [
            "15.1918378",
            "15.5118378",
            "74.9779848",
            "75.2979848"
        ],
        "importance": 0.45,
        "lat": "15.3518378",
        "class": "place"
    }
}