{
    "huntington beach": {
        "type": "city",
        "osm_id": "5986511",
        "class": "place",
        "importance": 0.77972866689719,
        "lat": "33.6783336",
        "lon": "-118.0000165",
        "boundingbox": [
            "33.628892",
            "33.7561955",
            "-118.0824699",
            "-117.940379"
        ],
        "display_name": "Huntington Beach, Orange County, California, United States of America",
        "licence": "Data \u00a9 OpenStreetMap contributors, ODbL 1.0. http://www.openstreetmap.org/copyright",
        "icon": "https://nominatim.openstreetmap.org/images/mapicons/poi_place_city.p.20.png",
        "place_id": "159846085",
        "osm_type": "relation"
    },
    "mentions": {
        "korea": {
            "latitude": "32.742474",
            "closest_to": "",
            "address": "Korea Road, Old Town, San Diego, San Diego County, California, 92140, United States of America",
            "locType": "residential",
            "blogLinks": [
                "https://en.wikipedia.org/wiki/Orange_County,_CA"
            ],
            "longitude": "-117.2033459"
        },
        "anaheim hills": {
            "latitude": "33.8444082",
            "closest_to": "",
            "address": "Anaheim Hills, Anaheim, Orange County, California, United States of America",
            "locType": "suburb",
            "blogLinks": [
                "https://en.wikipedia.org/wiki/Orange_County,_CA"
            ],
            "longitude": "-117.7773861"
        },
        "san gabriel river": {
            "latitude": "34.1135293",
            "closest_to": "",
            "address": "San Gabriel River, Irwindale, Los Angeles County, California, United States of America",
            "locType": "river",
            "blogLinks": [
                "https://en.wikipedia.org/wiki/Orange_County,_CA"
            ],
            "longitude": "-117.9681697"
        },
        "arizona": {
            "latitude": "34.4631398",
            "closest_to": "",
            "address": "Arizona, San Bernardino County, California, 92371, United States of America",
            "locType": "track",
            "blogLinks": [
                "https://en.wikipedia.org/wiki/Orange_County,_CA"
            ],
            "longitude": "-117.5060679"
        },
        "laguna niguel": {
            "latitude": "33.5225261",
            "closest_to": "",
            "address": "Laguna Niguel, Orange County, California, United States of America",
            "locType": "city",
            "blogLinks": [
                "https://www.tripadvisor.com/ShowTopic-g32588-i355-k3413966-Laguna_Beach_Vs_Newport_vs_Huntington_Beach-Laguna_Beach_California.html"
            ],
            "longitude": "-117.7075525"
        },
        "brea": {
            "latitude": "33.9170444",
            "closest_to": "",
            "address": "Brea, Orange County, California, United States of America",
            "locType": "city",
            "blogLinks": [
                "https://en.wikipedia.org/wiki/Orange_County,_CA",
                "http://entertainmentguide.local.com/secret-spots-visit-orange-county-california-1484.html"
            ],
            "longitude": "-117.8888556"
        },
        "legoland": {
            "latitude": "33.1334161",
            "closest_to": "",
            "address": "Legoland Drive, Carlsbad, San Diego County, California, 92009, United States of America",
            "locType": "tertiary",
            "blogLinks": [
                "https://www.tripadvisor.com/ShowTopic-g32588-i355-k3413966-Laguna_Beach_Vs_Newport_vs_Huntington_Beach-Laguna_Beach_California.html"
            ],
            "longitude": "-117.3171628"
        },
        "montage resort": {
            "latitude": "33.51472775",
            "closest_to": "",
            "address": "Montage Resort & Spa, Laguna Beach, Orange County, California, 92651, United States of America",
            "locType": "commercial",
            "blogLinks": [
                "https://www.expedia.com/Costa-Mesa-Hotels.d7674.Travel-Guide-Hotels"
            ],
            "longitude": "-117.75712426585"
        },
        "north": {
            "latitude": "-11.2141388",
            "closest_to": "",
            "address": "Canton Victoria, California, Provincia de Manuripi, PND, Bolivia",
            "locType": "hamlet",
            "blogLinks": [
                "https://en.wikipedia.org/wiki/Orange_County,_CA"
            ],
            "longitude": "-67.7071862"
        },
        "brea mall": {
            "latitude": "33.9152037",
            "closest_to": "",
            "address": "Brea Mall, Downtown Brea, Brea, Orange County, California, 92821, United States of America",
            "locType": "retail",
            "blogLinks": [
                "https://en.wikipedia.org/wiki/Orange_County,_CA"
            ],
            "longitude": "-117.88632442245"
        },
        "disneyland": {
            "latitude": "33.8136367",
            "closest_to": "",
            "address": "DL, 1313, South Harbor Boulevard, Anaheim Resort District, Anaheim, Orange County, California, 92805, United States of America",
            "locType": "theme_park",
            "blogLinks": [
                "http://visitanaheim.org/itinerary/free-and-almost-free"
            ],
            "longitude": "-117.91971186569"
        },
        "dana point": {
            "latitude": "33.4669721",
            "closest_to": "",
            "address": "Dana Point, Orange County, California, United States of America",
            "locType": "city",
            "blogLinks": [
                "http://entertainmentguide.local.com/secret-spots-visit-orange-county-california-1484.html"
            ],
            "longitude": "-117.6981074"
        },
        "peninsula of lower california": {
            "latitude": "32.52409355",
            "closest_to": "",
            "address": "Torre Peninsula, 2280, Avenida Doctor Atl, Zona Rio, Colonia Federal, Tijuana, Baja California, 22010, M\u00e9xico",
            "locType": "yes",
            "blogLinks": [
                "https://en.wikipedia.org/wiki/Orange_County,_CA"
            ],
            "longitude": "-117.014787342934"
        },
        "white house": {
            "latitude": "37.8057638",
            "closest_to": "",
            "address": "White House, Castro Street, San Pablo Gateway, Oakland, Alameda County, California, 94607, United States of America",
            "locType": "yes",
            "blogLinks": [
                "https://en.wikipedia.org/wiki/Orange_County,_CA"
            ],
            "longitude": "-122.277429256835"
        },
        "lax": {
            "latitude": "33.94211345",
            "closest_to": "",
            "address": "Los Angeles International Airport, Gate 41, Westchester, Playa del Rey, LA, Los Angeles County, California, 90245, United States of America",
            "locType": "aerodrome",
            "blogLinks": [
                "https://www.tripadvisor.com/ShowTopic-g32588-i355-k3413966-Laguna_Beach_Vs_Newport_vs_Huntington_Beach-Laguna_Beach_California.html"
            ],
            "longitude": "-118.407057290249"
        },
        "santa ana river": {
            "latitude": "33.847255",
            "closest_to": "",
            "address": "Santa Ana River, Anaheim, Orange County, California, United States of America",
            "locType": "river",
            "blogLinks": [
                "https://en.wikipedia.org/wiki/Orange_County,_CA"
            ],
            "longitude": "-117.8400508"
        },
        "main beach": {
            "latitude": "33.541692",
            "closest_to": "",
            "address": "Main Beach, South Coast Highway, Laguna Beach, Orange County, California, 92651, United States of America",
            "locType": "beach",
            "blogLinks": [
                "https://www.tripadvisor.com/ShowTopic-g32588-i355-k3413966-Laguna_Beach_Vs_Newport_vs_Huntington_Beach-Laguna_Beach_California.html"
            ],
            "longitude": "-117.7847769"
        },
        "huntington city": {
            "latitude": "37.7689243",
            "closest_to": "",
            "address": "Huntington Falls, SF, California, United States of America",
            "locType": "stream",
            "blogLinks": [
                "http://ocmomblog.com/family-guide-orange-county-beaches/"
            ],
            "longitude": "-122.4739414"
        },
        "santa monica": {
            "latitude": "34.0195598",
            "closest_to": "",
            "address": "Santa Monica, Los Angeles County, California, United States of America",
            "locType": "city",
            "blogLinks": [
                "https://www.tripadvisor.com/ShowTopic-g32588-i355-k3413966-Laguna_Beach_Vs_Newport_vs_Huntington_Beach-Laguna_Beach_California.html"
            ],
            "longitude": "-118.4869738"
        },
        "st. louis": {
            "latitude": "39.6985046",
            "closest_to": "",
            "address": "Saint Louis, Sierra County, California, United States of America",
            "locType": "hamlet",
            "blogLinks": [
                "https://en.wikipedia.org/wiki/Orange_County,_CA"
            ],
            "longitude": "-120.9249513"
        },
        "modjeska canyon": {
            "latitude": "33.76943365",
            "closest_to": "",
            "address": "Modjeska Canyon, Arcilla, Temescal Valley, Riverside County, California, 92883, United States of America",
            "locType": "residential",
            "blogLinks": [
                "https://en.wikipedia.org/wiki/Orange_County,_CA"
            ],
            "longitude": "-117.505712039223"
        },
        "u.s.a.": {
            "latitude": "37.7959257",
            "closest_to": "",
            "address": "Pacific Overseas Group (U.S.A) Inc., Grant Avenue, Chinatown, SF, California, 94133, United States of America",
            "locType": "yes",
            "blogLinks": [
                "https://en.wikipedia.org/wiki/Orange_County,_CA"
            ],
            "longitude": "-122.4067326"
        },
        "pacific": {
            "latitude": "38.7601815",
            "closest_to": "",
            "address": "Pacific, El Dorado County, California, United States of America",
            "locType": "hamlet",
            "blogLinks": [
                "https://en.wikipedia.org/wiki/Orange_County,_CA"
            ],
            "longitude": "-120.507146"
        },
        "southern california": {
            "latitude": "34.0224149",
            "closest_to": "",
            "address": "University of Southern California, Watt Way, Saint James Park, LA, Los Angeles County, California, 90089, United States of America",
            "locType": "university",
            "blogLinks": [
                "https://www.ooklnet.com/web/places_to_visit_in/Huntington+Beach,+California/US",
                "http://ulclimos.com/blog/best-places-to-visit-in-orange-county-in-a-party-bus",
                "http://www.coastalgroupoc.com/blog/2015-awards-the-99-best-places-to-take-your-kids-in-orange-county.html",
                "https://www.thrillist.com/eat/los-angeles/best-orange-county-restaurants-oc-la",
                "https://www.expedia.com/Costa-Mesa-Hotels.d7674.Travel-Guide-Hotels",
                "https://en.wikipedia.org/wiki/Orange_County,_CA",
                "http://visitanaheim.org/itinerary/free-and-almost-free"
            ],
            "longitude": "-118.286343973446"
        },
        "usa": {
            "latitude": "36.7014631",
            "closest_to": "",
            "address": "California, United States of America",
            "locType": "administrative",
            "blogLinks": [
                "https://www.pinterest.com/ocevents/beautiful-places-in-orange-county/"
            ],
            "longitude": "-118.7559973"
        },
        "los angeles county": {
            "latitude": "34.3155072",
            "closest_to": "",
            "address": "Los Angeles County, California, United States of America",
            "locType": "administrative",
            "blogLinks": [
                "https://en.wikipedia.org/wiki/Orange_County,_CA"
            ],
            "longitude": "-118.2096813"
        },
        "san clemente": {
            "latitude": "33.4270275",
            "closest_to": "",
            "address": "San Clemente, Orange County, California, United States of America",
            "locType": "city",
            "blogLinks": [
                "https://en.wikipedia.org/wiki/Orange_County,_CA",
                "https://www.tripadvisor.com/ShowTopic-g32588-i355-k3413966-Laguna_Beach_Vs_Newport_vs_Huntington_Beach-Laguna_Beach_California.html"
            ],
            "longitude": "-117.6124178"
        },
        "san francisco": {
            "latitude": "37.7792808",
            "closest_to": "",
            "address": "SF, California, United States of America",
            "locType": "city",
            "blogLinks": [
                "https://en.wikipedia.org/wiki/Orange_County,_CA"
            ],
            "longitude": "-122.4192362"
        },
        "bravo": {
            "latitude": "35.3980161",
            "closest_to": "",
            "address": "Rio Bravo, Calders Corner, Kern County, California, United States of America",
            "locType": "locality",
            "blogLinks": [
                "https://en.wikipedia.org/wiki/Orange_County,_CA"
            ],
            "longitude": "-119.290944"
        },
        "saddleback valley": {
            "latitude": "34.67534675",
            "closest_to": "",
            "address": "Saddleback Butte State Park, 175th Street East, Wilsona Gardens, Los Angeles County, California, United States of America",
            "locType": "park",
            "blogLinks": [
                "https://en.wikipedia.org/wiki/Orange_County,_CA"
            ],
            "longitude": "-117.805161708143"
        },
        "great plains": {
            "latitude": "33.009857",
            "closest_to": "",
            "address": "Great Plains Road, Poway, San Diego County, California, 92064, United States of America",
            "locType": "residential",
            "blogLinks": [
                "https://en.wikipedia.org/wiki/Orange_County,_CA"
            ],
            "longitude": "-117.0251769"
        },
        "earth": {
            "latitude": "35.4780569",
            "closest_to": "",
            "address": "Mountain Pass Rare Earth Mine, Mountain Pass, San Bernardino County, California, 92364, United States of America",
            "locType": "quarry",
            "blogLinks": [
                "http://losangeles.cbslocal.com/top-lists/most-haunted-places-in-orange-county/"
            ],
            "longitude": "-115.541994345811"
        },
        "staples center": {
            "latitude": "34.0430046",
            "closest_to": "",
            "address": "Staples Center, Figueroa Street, South Park, Saint James Park, LA, Los Angeles County, California, 90015, United States of America",
            "locType": "stadium",
            "blogLinks": [
                "https://en.wikipedia.org/wiki/Orange_County,_CA"
            ],
            "longitude": "-118.267052502794"
        },
        "laguna beach": {
            "latitude": "33.5420888",
            "closest_to": "",
            "address": "Laguna Beach, Orange County, California, United States of America",
            "locType": "city",
            "blogLinks": [
                "https://www.yelp.com/topic/irvine-untraditonal-places-to-go-to-in-oc-for-a-1-month-visit",
                "http://ulclimos.com/blog/best-places-to-visit-in-orange-county-in-a-party-bus",
                "http://entertainmentguide.local.com/secret-spots-visit-orange-county-california-1484.html",
                "http://www.coastalgroupoc.com/blog/2015-awards-the-99-best-places-to-take-your-kids-in-orange-county.html",
                "https://en.wikipedia.org/wiki/Orange_County,_CA",
                "http://ocmomblog.com/family-guide-orange-county-beaches/",
                "https://www.pinterest.com/ocevents/beautiful-places-in-orange-county/",
                "https://www.tripadvisor.com/ShowTopic-g32588-i355-k3413966-Laguna_Beach_Vs_Newport_vs_Huntington_Beach-Laguna_Beach_California.html"
            ],
            "longitude": "-117.7834146"
        },
        "hollywood": {
            "latitude": "34.1028268",
            "closest_to": "",
            "address": "Hollywood, LA, Los Angeles County, California, United States of America",
            "locType": "suburb",
            "blogLinks": [
                "https://en.wikipedia.org/wiki/Orange_County,_CA"
            ],
            "longitude": "-118.3299898"
        },
        "maricopa county": {
            "latitude": "33.4248191",
            "closest_to": "",
            "address": "California, Tempe Cascade, Maricopa County, Arizona, 8, United States of America",
            "locType": "service",
            "blogLinks": [
                "https://en.wikipedia.org/wiki/Orange_County,_CA"
            ],
            "longitude": "-111.8872863"
        },
        "del taco": {
            "latitude": "33.8875444",
            "closest_to": "",
            "address": "Del taco, Van Buren Boulevard, Riverside, Riverside County, California, 92508, United States of America",
            "locType": "yes",
            "blogLinks": [
                "https://en.wikipedia.org/wiki/Orange_County,_CA"
            ],
            "longitude": "-117.331656337122"
        },
        "logan park": {
            "latitude": "36.8164747",
            "closest_to": "",
            "address": "Logan Park, North Santa Fe Avenue, Figarden, Fresno County, California, 93711, United States of America",
            "locType": "park",
            "blogLinks": [
                "https://en.wikipedia.org/wiki/Orange_County,_CA"
            ],
            "longitude": "-119.852223847482"
        },
        "craig regional park": {
            "latitude": "33.9021101",
            "closest_to": "",
            "address": "Craig Regional Park, Belinda Court, Fullerton, Orange County, California, 92835, United States of America",
            "locType": "park",
            "blogLinks": [
                "http://entertainmentguide.local.com/secret-spots-visit-orange-county-california-1484.html"
            ],
            "longitude": "-117.886391934199"
        },
        "fullerton": {
            "latitude": "33.8708215",
            "closest_to": "",
            "address": "Fullerton, Orange County, California, United States of America",
            "locType": "city",
            "blogLinks": [
                "https://en.wikipedia.org/wiki/Orange_County,_CA",
                "https://www.tripadvisor.com/ShowTopic-g32588-i355-k3413966-Laguna_Beach_Vs_Newport_vs_Huntington_Beach-Laguna_Beach_California.html",
                "http://entertainmentguide.local.com/secret-spots-visit-orange-county-california-1484.html"
            ],
            "longitude": "-117.9294164"
        },
        "pelican hill resort": {
            "latitude": "33.5254289",
            "closest_to": "",
            "address": "Pelican Drive, Montage Resort & Spa, Laguna Beach, Orange County, California, 92651, United States of America",
            "locType": "residential",
            "blogLinks": [
                "https://www.expedia.com/Costa-Mesa-Hotels.d7674.Travel-Guide-Hotels"
            ],
            "longitude": "-117.7568196"
        },
        "south county": {
            "latitude": "-32.5446226",
            "closest_to": "",
            "address": "La California, Municipio de Las Rosas, Departamento Belgrano, Sta. Fe, Argentina",
            "locType": "hamlet",
            "blogLinks": [
                "https://en.wikipedia.org/wiki/Orange_County,_CA"
            ],
            "longitude": "-61.5489543"
        },
        "loma ridge": {
            "latitude": "37.0400666",
            "closest_to": "",
            "address": "Epicenter, 1989 Loma Prieta earthquake, Santa Cruz County, California, United States of America",
            "locType": "locality",
            "blogLinks": [
                "https://en.wikipedia.org/wiki/Orange_County,_CA"
            ],
            "longitude": "-121.8770254"
        },
        "buena park": {
            "latitude": "33.870413",
            "closest_to": "",
            "address": "Buena Park, Orange County, California, United States of America",
            "locType": "city",
            "blogLinks": [
                "https://en.wikipedia.org/wiki/Orange_County,_CA"
            ],
            "longitude": "-117.9962164"
        },
        "alta california": {
            "latitude": "37.3964868",
            "closest_to": "",
            "address": "Alta California, 20421, Geer Avenue, Irwin, Merced County, California, 95324, United States of America",
            "locType": "house",
            "blogLinks": [
                "https://en.wikipedia.org/wiki/Orange_County,_CA"
            ],
            "longitude": "-120.8579018"
        },
        "louisiana": {
            "latitude": "36.8368359",
            "closest_to": "",
            "address": "Louisiana, Fresno County, California, 93650, United States of America",
            "locType": "service",
            "blogLinks": [
                "https://en.wikipedia.org/wiki/Orange_County,_CA"
            ],
            "longitude": "-119.7958713"
        },
        "hyatt": {
            "latitude": "37.794246",
            "closest_to": "",
            "address": "Hyatt Regency San Francisco, 5, Sacramento Street, Financial District, SF, California, 94111, United States of America",
            "locType": "hotel",
            "blogLinks": [
                "https://www.tripadvisor.com/ShowTopic-g32588-i355-k3413966-Laguna_Beach_Vs_Newport_vs_Huntington_Beach-Laguna_Beach_California.html"
            ],
            "longitude": "-122.395871093088"
        },
        "san juan creek": {
            "latitude": "35.5378042",
            "closest_to": "",
            "address": "San Juan Creek, Paso Robles, San Luis Obispo County, California, United States of America",
            "locType": "stream",
            "blogLinks": [
                "https://en.wikipedia.org/wiki/Orange_County,_CA"
            ],
            "longitude": "-120.2326307"
        },
        "ca": {
            "latitude": "37.8242285466918",
            "closest_to": "",
            "address": "Piedmont, Alameda County, California, ca, United States of America",
            "locType": "postcode",
            "blogLinks": [
                "https://www.ridebooker.com/transfers/irvine-ca/huntington-beach-ca/luxury-suv"
            ],
            "longitude": "-122.232613735941"
        },
        "laguna reef": {
            "latitude": "33.5462786",
            "closest_to": "",
            "address": "Sulphur Creek Reservoir, Access Drive To Park, Laguna Niguel, Orange County, California, 92677, United States of America",
            "locType": "water",
            "blogLinks": [
                "https://www.tripadvisor.com/ShowTopic-g32588-i355-k3413966-Laguna_Beach_Vs_Newport_vs_Huntington_Beach-Laguna_Beach_California.html"
            ],
            "longitude": "-117.704611141504"
        },
        "octa": {
            "latitude": "33.8546846",
            "closest_to": "",
            "address": "OCTA, La Palma Avenue, Anaheim, Orange County, California, 92807, United States of America",
            "locType": "bus_stop",
            "blogLinks": [
                "https://en.wikipedia.org/wiki/Orange_County,_CA"
            ],
            "longitude": "-117.8426734"
        },
        "berkeley": {
            "latitude": "37.8708393",
            "closest_to": "",
            "address": "Berkeley, Alameda County, California, United States of America",
            "locType": "city",
            "blogLinks": [
                "https://en.wikipedia.org/wiki/Orange_County,_CA"
            ],
            "longitude": "-122.2728638"
        },
        "west coast": {
            "latitude": "34.0222263",
            "closest_to": "",
            "address": "West Coast, Motor Avenue, Palms, LA, Los Angeles County, California, 90034-5702, United States of America",
            "locType": "plumber",
            "blogLinks": [
                "https://en.wikipedia.org/wiki/Orange_County,_CA"
            ],
            "longitude": "-118.4051087"
        },
        "charleston": {
            "latitude": "33.53745",
            "closest_to": "",
            "address": "Charleston, Harveston, Temecula, Riverside County, California, United States of America",
            "locType": "administrative",
            "blogLinks": [
                "https://en.wikipedia.org/wiki/Orange_County,_CA"
            ],
            "longitude": "-117.160560207655"
        },
        "fullerton arboretum": {
            "latitude": "33.88646005",
            "closest_to": "",
            "address": "Fullerton Arboretum, Orange Freeway, Fullerton, Orange County, California, 92831, United States of America",
            "locType": "park",
            "blogLinks": [
                "http://visitanaheim.org/itinerary/free-and-almost-free"
            ],
            "longitude": "-117.88275473955"
        },
        "zimbabwe": {
            "latitude": "37.8756795",
            "closest_to": "",
            "address": "Casa Zimbabwe, 2422, Ridge Road, Northside, Berkeley, Alameda County, California, 94709, United States of America",
            "locType": "yes",
            "blogLinks": [
                "https://en.wikipedia.org/wiki/Orange_County,_CA"
            ],
            "longitude": "-122.260974045536"
        },
        "el morro campground": {
            "latitude": "35.37824545",
            "closest_to": "",
            "address": "Morro Dunes Travel Trailer Park & Resort Campground, 1700, Embarcadero, Morro Bay, San Luis Obispo County, California, 93442, United States of America",
            "locType": "caravan_site",
            "blogLinks": [
                "http://ocmomblog.com/family-guide-orange-county-beaches/"
            ],
            "longitude": "-120.861579290963"
        },
        "salt creek beach": {
            "latitude": "33.4787536",
            "closest_to": "",
            "address": "Salt Creek Beach, Ritz Cove Drive, Dana Point, Orange County, California, 92629, United States of America",
            "locType": "beach",
            "blogLinks": [
                "http://entertainmentguide.local.com/secret-spots-visit-orange-county-california-1484.html"
            ],
            "longitude": "-117.723735840282"
        },
        "surf city usa": {
            "latitude": "37.8588436",
            "closest_to": "",
            "address": "Surf City, Tuolumne County, California, United States of America",
            "locType": "rapids",
            "blogLinks": [
                "http://visitanaheim.org/itinerary/free-and-almost-free",
                "https://www.tripadvisor.com/ShowTopic-g32588-i355-k3413966-Laguna_Beach_Vs_Newport_vs_Huntington_Beach-Laguna_Beach_California.html"
            ],
            "longitude": "-120.6349548"
        },
        "santa fe railroad": {
            "latitude": "37.9313328",
            "closest_to": "",
            "address": "Santa Fe Railroad, West Ohio Avenue, Atchison Village, Richmond, Contra Costa County, California, 94804, United States of America",
            "locType": "abandoned",
            "blogLinks": [
                "https://en.wikipedia.org/wiki/Orange_County,_CA"
            ],
            "longitude": "-122.3742068"
        },
        "titan stadium": {
            "latitude": "33.8866744",
            "closest_to": "",
            "address": "Titan Stadium, Yorba Linda Boulevard, Fullerton, Orange County, California, 92831, United States of America",
            "locType": "stadium",
            "blogLinks": [
                "https://en.wikipedia.org/wiki/Orange_County,_CA"
            ],
            "longitude": "-117.886978160197"
        },
        "laguna riviera": {
            "latitude": "33.146705",
            "closest_to": "",
            "address": "Laguna Riviera City Park, Park Drive, Carlsbad, San Diego County, California, 92008, United States of America",
            "locType": "park",
            "blogLinks": [
                "https://www.tripadvisor.com/ShowTopic-g32588-i355-k3413966-Laguna_Beach_Vs_Newport_vs_Huntington_Beach-Laguna_Beach_California.html"
            ],
            "longitude": "-117.311704"
        },
        "italy": {
            "latitude": "45.659844",
            "closest_to": "",
            "address": "California, MB, LOM, Italia",
            "locType": "village",
            "blogLinks": [
                "http://ulclimos.com/blog/best-places-to-visit-in-orange-county-in-a-party-bus"
            ],
            "longitude": "9.3130453"
        },
        "capistrano beach": {
            "latitude": "33.4625277",
            "closest_to": "",
            "address": "Capistrano Beach, Orange County, California, United States of America",
            "locType": "hamlet",
            "blogLinks": [
                "https://www.tripadvisor.com/ShowTopic-g32588-i355-k3413966-Laguna_Beach_Vs_Newport_vs_Huntington_Beach-Laguna_Beach_California.html"
            ],
            "longitude": "-117.6717174"
        },
        "san clemente state beach": {
            "latitude": "33.40386765",
            "closest_to": "",
            "address": "San Clemente State Beach, Avenida Calafia, San Clemente, Orange County, California, 92672, United States of America",
            "locType": "beach",
            "blogLinks": [
                "http://entertainmentguide.local.com/secret-spots-visit-orange-county-california-1484.html"
            ],
            "longitude": "-117.601669898625"
        },
        "hotel laguna": {
            "latitude": "33.5411778",
            "closest_to": "",
            "address": "Hotel Laguna, Laguna Avenue, Laguna Beach, Orange County, California, 92651, United States of America",
            "locType": "hotel",
            "blogLinks": [
                "https://www.tripadvisor.com/ShowTopic-g32588-i355-k3413966-Laguna_Beach_Vs_Newport_vs_Huntington_Beach-Laguna_Beach_California.html"
            ],
            "longitude": "-117.7829393"
        },
        "south pacific": {
            "latitude": "37.103159",
            "closest_to": "",
            "address": "South Pacific, Glenwood Cutoff, Glenwood, Santa Cruz County, California, 95066, United States of America",
            "locType": "abandoned",
            "blogLinks": [
                "http://visitanaheim.org/itinerary/free-and-almost-free"
            ],
            "longitude": "-121.9875908"
        },
        "main beach park": {
            "latitude": "33.54196035",
            "closest_to": "",
            "address": "Main Beach Park, South Coast Highway, Laguna Beach, Orange County, California, 92651, United States of America",
            "locType": "park",
            "blogLinks": [
                "http://www.coastalgroupoc.com/blog/2015-awards-the-99-best-places-to-take-your-kids-in-orange-county.html"
            ],
            "longitude": "-117.784452064861"
        },
        "san gabriel river freeway": {
            "latitude": "33.858588",
            "closest_to": "",
            "address": "San Gabriel River Freeway, Cerritos, Los Angeles County, California, 90713, United States of America",
            "locType": "motorway",
            "blogLinks": [
                "https://en.wikipedia.org/wiki/Orange_County,_CA"
            ],
            "longitude": "-118.0960848"
        },
        "la": {
            "latitude": "36.7014631",
            "closest_to": "",
            "address": "California, United States of America",
            "locType": "administrative",
            "blogLinks": [
                "https://www.tripadvisor.com/ShowTopic-g32588-i355-k3413966-Laguna_Beach_Vs_Newport_vs_Huntington_Beach-Laguna_Beach_California.html",
                "https://www.ooklnet.com/web/places_to_visit_in/Huntington+Beach,+California/US"
            ],
            "longitude": "-118.7559973"
        },
        "artesia freeway": {
            "latitude": "33.8562322",
            "closest_to": "",
            "address": "Artesia Freeway, West Anaheim, Anaheim, Orange County, California, 90621, United States of America",
            "locType": "motorway",
            "blogLinks": [
                "https://en.wikipedia.org/wiki/Orange_County,_CA"
            ],
            "longitude": "-117.9841536"
        },
        "ladera ranch": {
            "latitude": "33.5510165",
            "closest_to": "",
            "address": "Ladera Ranch, Orange County, California, United States of America",
            "locType": "town",
            "blogLinks": [
                "https://en.wikipedia.org/wiki/Orange_County,_CA"
            ],
            "longitude": "-117.63854"
        },
        "camelot golfland": {
            "latitude": "33.84998315",
            "closest_to": "",
            "address": "Camelot Golfland Family Fun Center, East Carpenter Avenue, Anaheim, Orange County, California, 92806, United States of America",
            "locType": "theme_park",
            "blogLinks": [
                "http://www.coastalgroupoc.com/blog/2015-awards-the-99-best-places-to-take-your-kids-in-orange-county.html"
            ],
            "longitude": "-117.851055664083"
        },
        "woodbridge": {
            "latitude": "38.1540849",
            "closest_to": "",
            "address": "Woodbridge, San Joaquin County, California, United States of America",
            "locType": "hamlet",
            "blogLinks": [
                "https://en.wikipedia.org/wiki/Orange_County,_CA"
            ],
            "longitude": "-121.3013369"
        },
        "hilton": {
            "latitude": "38.5046346",
            "closest_to": "",
            "address": "Hilton, Sonoma County, California, United States of America",
            "locType": "hamlet",
            "blogLinks": [
                "https://www.tripadvisor.com/ShowTopic-g32588-i355-k3413966-Laguna_Beach_Vs_Newport_vs_Huntington_Beach-Laguna_Beach_California.html"
            ],
            "longitude": "-122.9402742"
        },
        "solvang": {
            "latitude": "34.5958572",
            "closest_to": "",
            "address": "Solvang, Santa Barbara County, California, United States of America",
            "locType": "city",
            "blogLinks": [
                "http://ocmomblog.com/family-guide-orange-county-beaches/"
            ],
            "longitude": "-120.1390893"
        },
        "san francisco county": {
            "latitude": "38.1396167",
            "closest_to": "",
            "address": "KCBS-AM (San Francisco), Bahia Trail, Novato, Marin County, California, 94945, United States of America",
            "locType": "tower",
            "blogLinks": [
                "https://en.wikipedia.org/wiki/Orange_County,_CA"
            ],
            "longitude": "-122.5302269"
        },
        "little saigon": {
            "latitude": "37.3311452",
            "closest_to": "",
            "address": "Little Saigon, San Jos\u00e9, Santa Clara County, California, United States of America",
            "locType": "suburb",
            "blogLinks": [
                "https://www.thrillist.com/eat/los-angeles/best-orange-county-restaurants-oc-la",
                "https://en.wikipedia.org/wiki/Orange_County,_CA"
            ],
            "longitude": "-121.8560175"
        },
        "long beach": {
            "latitude": "33.78538945",
            "closest_to": "",
            "address": "Long Beach, Los Angeles County, California, United States of America",
            "locType": "city",
            "blogLinks": [
                "https://en.wikipedia.org/wiki/Orange_County,_CA"
            ],
            "longitude": "-118.158049215311"
        },
        "chicago": {
            "latitude": "37.7850531",
            "closest_to": "",
            "address": "Chicago, Woodstock, Alameda, Alameda County, California, 94501, United States of America",
            "locType": "residential",
            "blogLinks": [
                "https://en.wikipedia.org/wiki/Orange_County,_CA"
            ],
            "longitude": "-122.2872948"
        },
        "san juan capistrano": {
            "latitude": "33.5016932",
            "closest_to": "",
            "address": "San Juan Capistrano, Orange County, California, United States of America",
            "locType": "city",
            "blogLinks": [
                "https://www.pinterest.com/ocevents/beautiful-places-in-orange-county/",
                "https://en.wikipedia.org/wiki/Orange_County,_CA",
                "https://www.tripadvisor.com/ShowTopic-g32588-i355-k3413966-Laguna_Beach_Vs_Newport_vs_Huntington_Beach-Laguna_Beach_California.html"
            ],
            "longitude": "-117.6625508"
        },
        "santiago creek": {
            "latitude": "35.0035876",
            "closest_to": "",
            "address": "Santiago Creek, Kern County, California, United States of America",
            "locType": "stream",
            "blogLinks": [
                "https://en.wikipedia.org/wiki/Orange_County,_CA"
            ],
            "longitude": "-119.2913576"
        },
        "big thunder mountain railroad": {
            "latitude": "33.8126707",
            "closest_to": "",
            "address": "BTMRR, Wheelchair Queue, Anaheim Resort District, Anaheim, Orange County, California, 217, United States of America",
            "locType": "attraction",
            "blogLinks": [
                "http://ulclimos.com/blog/best-places-to-visit-in-orange-county-in-a-party-bus"
            ],
            "longitude": "-117.920345611169"
        },
        "fairview park": {
            "latitude": "33.74579525",
            "closest_to": "",
            "address": "Fairview Park, Valle Vista, Riverside County, California, 92554, United States of America",
            "locType": "residential",
            "blogLinks": [
                "http://www.coastalgroupoc.com/blog/2015-awards-the-99-best-places-to-take-your-kids-in-orange-county.html"
            ],
            "longitude": "-116.880757406863"
        },
        "us": {
            "latitude": "36.7014631",
            "closest_to": "",
            "address": "California, United States of America",
            "locType": "administrative",
            "blogLinks": [
                "https://www.thrillist.com/eat/los-angeles/best-orange-county-restaurants-oc-la",
                "https://www.expedia.com/Costa-Mesa-Hotels.d7674.Travel-Guide-Hotels",
                "https://en.wikipedia.org/wiki/Orange_County,_CA"
            ],
            "longitude": "-118.7559973"
        },
        "newport landing": {
            "latitude": "38.0594413",
            "closest_to": "",
            "address": "Newport Landing Drive, Novato, Marin County, California, 94949, United States of America",
            "locType": "residential",
            "blogLinks": [
                "http://www.coastalgroupoc.com/blog/2015-awards-the-99-best-places-to-take-your-kids-in-orange-county.html"
            ],
            "longitude": "-122.524732"
        },
        "university park": {
            "latitude": "34.18269725",
            "closest_to": "",
            "address": "University Park, San Bernardino, San Bernardino County, California, 92407, United States of America",
            "locType": "residential",
            "blogLinks": [
                "https://en.wikipedia.org/wiki/Orange_County,_CA"
            ],
            "longitude": "-117.333909295321"
        },
        "los angeles": {
            "latitude": "34.0543942",
            "closest_to": "",
            "address": "LA, Los Angeles County, California, United States of America",
            "locType": "city",
            "blogLinks": [
                "https://www.expedia.com/Costa-Mesa-Hotels.d7674.Travel-Guide-Hotels",
                "https://en.wikipedia.org/wiki/Orange_County,_CA",
                "http://losangeles.cbslocal.com/top-lists/most-haunted-places-in-orange-county/"
            ],
            "longitude": "-118.2439408"
        },
        "lucca": {
            "latitude": "36.2452281",
            "closest_to": "",
            "address": "Lucca, Tonyville, Tulare County, California, United States of America",
            "locType": "locality",
            "blogLinks": [
                "https://www.thrillist.com/eat/los-angeles/best-orange-county-restaurants-oc-la"
            ],
            "longitude": "-119.0898267"
        },
        "coastal california": {
            "latitude": "52.0854118",
            "closest_to": "",
            "address": "California, Woodbridge, Suffolk Coastal, Suffolk, East of England, England, IP12 4DQ, UK",
            "locType": "residential",
            "blogLinks": [
                "https://en.wikipedia.org/wiki/Orange_County,_CA"
            ],
            "longitude": "1.297487"
        },
        "anaheim": {
            "latitude": "33.8347516",
            "closest_to": "",
            "address": "Anaheim, Orange County, California, United States of America",
            "locType": "city",
            "blogLinks": [
                "http://www.coastalgroupoc.com/blog/2015-awards-the-99-best-places-to-take-your-kids-in-orange-county.html",
                "http://visitanaheim.org/itinerary/free-and-almost-free",
                "https://www.yelp.com/topic/irvine-untraditonal-places-to-go-to-in-oc-for-a-1-month-visit",
                "https://en.wikipedia.org/wiki/Orange_County,_CA",
                "http://entertainmentguide.local.com/secret-spots-visit-orange-county-california-1484.html"
            ],
            "longitude": "-117.9117319"
        },
        "united states of america": {
            "latitude": "36.7014631",
            "closest_to": "",
            "address": "California, United States of America",
            "locType": "administrative",
            "blogLinks": [
                "https://www.expedia.com/Costa-Mesa-Hotels.d7674.Travel-Guide-Hotels"
            ],
            "longitude": "-118.7559973"
        },
        "mission san juan capistrano": {
            "latitude": "33.50381465",
            "closest_to": "",
            "address": "Mission San Juan Capistrano, El Camino Real, San Juan Capistrano, Orange County, California, 92675, United States of America",
            "locType": "place_of_worship",
            "blogLinks": [
                "https://en.wikipedia.org/wiki/Orange_County,_CA"
            ],
            "longitude": "-117.663061669391"
        },
        "laguna lakes": {
            "latitude": "33.71742965",
            "closest_to": "",
            "address": "Heritage Lake, Lake Ridge Drive, Menifee Lakes, Menifee, Riverside County, California, 92585, United States of America",
            "locType": "water",
            "blogLinks": [
                "https://en.wikipedia.org/wiki/Orange_County,_CA"
            ],
            "longitude": "-117.147114112633"
        },
        "huntington": {
            "latitude": "38.77704615",
            "closest_to": "",
            "address": "Huntington, Roseville, Placer County, California, 95678, United States of America",
            "locType": "residential",
            "blogLinks": [
                "https://www.yelp.com/topic/irvine-untraditonal-places-to-go-to-in-oc-for-a-1-month-visit",
                "http://ocmomblog.com/family-guide-orange-county-beaches/",
                "https://www.tripadvisor.com/ShowTopic-g32588-i355-k3413966-Laguna_Beach_Vs_Newport_vs_Huntington_Beach-Laguna_Beach_California.html"
            ],
            "longitude": "-121.295904358288"
        },
        "soak city": {
            "latitude": "33.8412877",
            "closest_to": "",
            "address": "Knott's Soak City USA, Beach Boulevard, Buena Park, Orange County, California, 90620, United States of America",
            "locType": "theme_park",
            "blogLinks": [
                "https://en.wikipedia.org/wiki/Orange_County,_CA"
            ],
            "longitude": "-117.994935228187"
        },
        "montage laguna beach": {
            "latitude": "33.51472775",
            "closest_to": "",
            "address": "Montage Resort & Spa, Laguna Beach, Orange County, California, 92651, United States of America",
            "locType": "commercial",
            "blogLinks": [
                "https://www.expedia.com/Costa-Mesa-Hotels.d7674.Travel-Guide-Hotels"
            ],
            "longitude": "-117.75712426585"
        },
        "san diego": {
            "latitude": "32.7174209",
            "closest_to": "",
            "address": "San Diego, San Diego County, California, United States of America",
            "locType": "city",
            "blogLinks": [
                "https://en.wikipedia.org/wiki/Orange_County,_CA",
                "https://www.tripadvisor.com/ShowTopic-g32588-i355-k3413966-Laguna_Beach_Vs_Newport_vs_Huntington_Beach-Laguna_Beach_California.html"
            ],
            "longitude": "-117.1627713"
        },
        "placentia": {
            "latitude": "33.8714814",
            "closest_to": "",
            "address": "Placentia, Orange County, California, United States of America",
            "locType": "city",
            "blogLinks": [
                "https://en.wikipedia.org/wiki/Orange_County,_CA"
            ],
            "longitude": "-117.8617336"
        },
        "pacific islander": {
            "latitude": "36.7366176",
            "closest_to": "",
            "address": "DBH: Asian Pacific Islander Program, Latino Team, S.E.E.S. Program, South Barton Avenue, Fresno County, California, 93702, United States of America",
            "locType": "clinic",
            "blogLinks": [
                "https://en.wikipedia.org/wiki/Orange_County,_CA"
            ],
            "longitude": "-119.7504685"
        },
        "hollywood ca": {
            "latitude": "34.1028268",
            "closest_to": "",
            "address": "Hollywood, LA, Los Angeles County, California, United States of America",
            "locType": "suburb",
            "blogLinks": [
                "https://www.pinterest.com/ocevents/beautiful-places-in-orange-county/"
            ],
            "longitude": "-118.3299898"
        },
        "vietnam": {
            "latitude": "37.7979399",
            "closest_to": "",
            "address": "Vietnam, 618-626, Broadway Street, Nob Hill, SF, California, 94109, United States of America",
            "locType": "restaurant",
            "blogLinks": [
                "https://en.wikipedia.org/wiki/Orange_County,_CA",
                "http://entertainmentguide.local.com/secret-spots-visit-orange-county-california-1484.html"
            ],
            "longitude": "-122.4074503"
        },
        "england": {
            "latitude": "52.4422729",
            "closest_to": "",
            "address": "California, Birmingham, West Midlands, England, UK",
            "locType": "village",
            "blogLinks": [
                "https://www.thrillist.com/eat/los-angeles/best-orange-county-restaurants-oc-la"
            ],
            "longitude": "-1.9796882"
        },
        "u.s.": {
            "latitude": "-32.5446226",
            "closest_to": "",
            "address": "La California, Municipio de Las Rosas, Departamento Belgrano, Sta. Fe, Argentina",
            "locType": "hamlet",
            "blogLinks": [
                "https://en.wikipedia.org/wiki/Orange_County,_CA"
            ],
            "longitude": "-61.5489543"
        },
        "united states": {
            "latitude": "36.7014631",
            "closest_to": "",
            "address": "California, United States of America",
            "locType": "administrative",
            "blogLinks": [
                "https://en.wikipedia.org/wiki/Orange_County,_CA"
            ],
            "longitude": "-118.7559973"
        },
        "riverside": {
            "latitude": "33.9533546",
            "closest_to": "",
            "address": "Riverside, Riverside County, California, United States of America",
            "locType": "city",
            "blogLinks": [
                "https://en.wikipedia.org/wiki/Orange_County,_CA"
            ],
            "longitude": "-117.3961622"
        },
        "horsethief creek": {
            "latitude": "37.2863155",
            "closest_to": "",
            "address": "Horsethief Creek, Fresno County, California, United States of America",
            "locType": "stream",
            "blogLinks": [
                "https://en.wikipedia.org/wiki/Orange_County,_CA"
            ],
            "longitude": "-119.2775624"
        },
        "abilene": {
            "latitude": "33.3519443",
            "closest_to": "",
            "address": "Abilene, 31422, Borrego Palm Canyon Road, San Diego County, California, United States of America",
            "locType": "camp_site",
            "blogLinks": [
                "https://en.wikipedia.org/wiki/Orange_County,_CA"
            ],
            "longitude": "-116.5717963"
        },
        "el morro": {
            "latitude": "33.6503247",
            "closest_to": "",
            "address": "El Morro, Rancho Santa Margarita, Orange County, California, 92688, United States of America",
            "locType": "residential",
            "blogLinks": [
                "http://ocmomblog.com/family-guide-orange-county-beaches/"
            ],
            "longitude": "-117.6212148"
        },
        "costa mesa freeway": {
            "latitude": "33.8423894",
            "closest_to": "",
            "address": "Costa Mesa Freeway, Anaheim, Orange County, California, 92865, United States of America",
            "locType": "motorway",
            "blogLinks": [
                "https://en.wikipedia.org/wiki/Orange_County,_CA"
            ],
            "longitude": "-117.830154"
        },
        "surf city": {
            "latitude": "37.8588436",
            "closest_to": "",
            "address": "Surf City, Tuolumne County, California, United States of America",
            "locType": "rapids",
            "blogLinks": [
                "https://www.pinterest.com/ocevents/beautiful-places-in-orange-county/",
                "https://en.wikipedia.org/wiki/Orange_County,_CA"
            ],
            "longitude": "-120.6349548"
        },
        "newport": {
            "latitude": "39.5773839",
            "closest_to": "",
            "address": "Newport, Mendocino County, California, United States of America",
            "locType": "hamlet",
            "blogLinks": [
                "http://ocmomblog.com/family-guide-orange-county-beaches/"
            ],
            "longitude": "-123.7747387"
        },
        "hyatt regency": {
            "latitude": "34.05472945",
            "closest_to": "",
            "address": "Hyatt Regency, The LA Hotel Downtown, Figueroa Street, Financial District, Bunker Hill, LA, Los Angeles County, California, 90071, United States of America",
            "locType": "hotel",
            "blogLinks": [
                "https://www.tripadvisor.com/ShowTopic-g32588-i355-k3413966-Laguna_Beach_Vs_Newport_vs_Huntington_Beach-Laguna_Beach_California.html"
            ],
            "longitude": "-118.255604370831"
        },
        "irvine park": {
            "latitude": "33.9082151",
            "closest_to": "",
            "address": "Irvine Park, Beaumont, Riverside County, California, 92223, United States of America",
            "locType": "residential",
            "blogLinks": [
                "http://www.coastalgroupoc.com/blog/2015-awards-the-99-best-places-to-take-your-kids-in-orange-county.html"
            ],
            "longitude": "-116.9604311"
        },
        "langham huntington": {
            "latitude": "34.1202821",
            "closest_to": "",
            "address": "The Langham Huntington, 1401, Huntington Circle, Pasadena, Los Angeles County, California, 91106, United States of America",
            "locType": "hotel",
            "blogLinks": [
                "https://www.expedia.com/Costa-Mesa-Hotels.d7674.Travel-Guide-Hotels"
            ],
            "longitude": "-118.1333115"
        },
        "san bernardino": {
            "latitude": "34.1083449",
            "closest_to": "",
            "address": "San Bernardino, San Bernardino County, California, United States of America",
            "locType": "city",
            "blogLinks": [
                "https://en.wikipedia.org/wiki/Orange_County,_CA"
            ],
            "longitude": "-117.2897651"
        },
        "pasadena": {
            "latitude": "34.1476452",
            "closest_to": "",
            "address": "Pasadena, Los Angeles County, California, United States of America",
            "locType": "city",
            "blogLinks": [
                "https://www.expedia.com/Costa-Mesa-Hotels.d7674.Travel-Guide-Hotels"
            ],
            "longitude": "-118.1444778"
        },
        "downtown disney": {
            "latitude": "33.8102758",
            "closest_to": "",
            "address": "DtD, Anaheim, Orange County, California, United States of America",
            "locType": "locality",
            "blogLinks": [
                "http://www.coastalgroupoc.com/blog/2015-awards-the-99-best-places-to-take-your-kids-in-orange-county.html"
            ],
            "longitude": "-117.925070268824"
        },
        "disneyland resort": {
            "latitude": "33.81193845",
            "closest_to": "",
            "address": "DLR, Mill View Lane, Anaheim Resort District, Anaheim, Orange County, California, 217, United States of America",
            "locType": "administrative",
            "blogLinks": [
                "https://en.wikipedia.org/wiki/Orange_County,_CA"
            ],
            "longitude": "-117.921900616601"
        },
        "harbor boulevard": {
            "latitude": "33.8172821",
            "closest_to": "",
            "address": "Harbor Boulevard, Anaheim Resort District, Anaheim, Orange County, California, 217, United States of America",
            "locType": "primary",
            "blogLinks": [
                "https://en.wikipedia.org/wiki/Orange_County,_CA"
            ],
            "longitude": "-117.9152933"
        },
        "northwood": {
            "latitude": "38.4754693",
            "closest_to": "",
            "address": "Northwood, Sonoma County, California, United States of America",
            "locType": "hamlet",
            "blogLinks": [
                "https://en.wikipedia.org/wiki/Orange_County,_CA"
            ],
            "longitude": "-123.001666"
        },
        "radford avenue studio city": {
            "latitude": "34.1447608",
            "closest_to": "",
            "address": "Radford Avenue, Studio City, Valley Village, LA, Los Angeles County, California, 91604, United States of America",
            "locType": "residential",
            "blogLinks": [
                "http://losangeles.cbslocal.com/top-lists/most-haunted-places-in-orange-county/"
            ],
            "longitude": "-118.3925972"
        },
        "santa ana freeway": {
            "latitude": "33.8512853",
            "closest_to": "",
            "address": "Santa Ana Freeway, West Anaheim, Anaheim, Orange County, California, 92801, United States of America",
            "locType": "motorway",
            "blogLinks": [
                "https://en.wikipedia.org/wiki/Orange_County,_CA"
            ],
            "longitude": "-117.9707394"
        },
        "indiana": {
            "latitude": "34.0342567",
            "closest_to": "",
            "address": "Indiana, South Indiana Street, Boyle Heights, LA, Los Angeles County, California, 90023, United States of America",
            "locType": "station",
            "blogLinks": [
                "http://ulclimos.com/blog/best-places-to-visit-in-orange-county-in-a-party-bus"
            ],
            "longitude": "-118.1922122"
        },
        "wilshire blvd": {
            "latitude": "34.0617231",
            "closest_to": "",
            "address": "Wilshire Boulevard, Koreatown, Saint James Park, LA, Los Angeles County, California, 90005, United States of America",
            "locType": "primary",
            "blogLinks": [
                "http://losangeles.cbslocal.com/top-lists/most-haunted-places-in-orange-county/"
            ],
            "longitude": "-118.3036614"
        },
        "laguna beach california": {
            "latitude": "33.5420888",
            "closest_to": "",
            "address": "Laguna Beach, Orange County, California, United States of America",
            "locType": "city",
            "blogLinks": [
                "https://www.pinterest.com/ocevents/beautiful-places-in-orange-county/"
            ],
            "longitude": "-117.7834146"
        },
        "new york": {
            "latitude": "34.0143928",
            "closest_to": "",
            "address": "New York, West Covina, Los Angeles County, California, 91792, United States of America",
            "locType": "service",
            "blogLinks": [
                "https://en.wikipedia.org/wiki/Orange_County,_CA"
            ],
            "longitude": "-117.8984509"
        },
        "san diego freeway": {
            "latitude": "32.7285162",
            "closest_to": "",
            "address": "San Diego Freeway, Hillcrest, San Diego, San Diego County, California, 92101, United States of America",
            "locType": "motorway",
            "blogLinks": [
                "https://en.wikipedia.org/wiki/Orange_County,_CA"
            ],
            "longitude": "-117.1690377"
        },
        "petaluma": {
            "latitude": "38.295411",
            "closest_to": "",
            "address": "Petaluma, Sonoma County, California, United States of America",
            "locType": "city",
            "blogLinks": [
                "https://www.thrillist.com/eat/los-angeles/best-orange-county-restaurants-oc-la"
            ],
            "longitude": "-122.613693402033"
        },
        "anaheim canyon": {
            "latitude": "33.8542053",
            "closest_to": "",
            "address": "Anaheim Canyon, La Palma Avenue, Anaheim, Orange County, California, 92807, United States of America",
            "locType": "station",
            "blogLinks": [
                "https://en.wikipedia.org/wiki/Orange_County,_CA"
            ],
            "longitude": "-117.8404978"
        },
        "ritz-carlton": {
            "latitude": "37.791867",
            "closest_to": "",
            "address": "Ritz-Carlton, 600, Stockton Street, Chinatown, SF, California, 94108, United States of America",
            "locType": "hotel",
            "blogLinks": [
                "https://www.expedia.com/Costa-Mesa-Hotels.d7674.Travel-Guide-Hotels"
            ],
            "longitude": "-122.406834213408"
        },
        "california": {
            "latitude": "7.3480915",
            "closest_to": "",
            "address": "California, Santander, Colombia",
            "locType": "village",
            "blogLinks": [
                "https://www.yelp.com/topic/irvine-untraditonal-places-to-go-to-in-oc-for-a-1-month-visit",
                "https://www.ridebooker.com/transfers/irvine-ca/huntington-beach-ca/luxury-suv",
                "http://entertainmentguide.local.com/secret-spots-visit-orange-county-california-1484.html",
                "http://www.coastalgroupoc.com/blog/2015-awards-the-99-best-places-to-take-your-kids-in-orange-county.html",
                "https://www.thrillist.com/eat/los-angeles/best-orange-county-restaurants-oc-la",
                "http://www.sunset.com/travel/california/huntington-beach-vacation",
                "https://en.wikipedia.org/wiki/Orange_County,_CA",
                "http://visitanaheim.org/itinerary/free-and-almost-free",
                "https://www.pinterest.com/ocevents/beautiful-places-in-orange-county/"
            ],
            "longitude": "-72.945787"
        },
        "mesa": {
            "latitude": "32.7678288",
            "closest_to": "",
            "address": "La Mesa, San Diego County, California, United States of America",
            "locType": "city",
            "blogLinks": [
                "https://www.expedia.com/Costa-Mesa-Hotels.d7674.Travel-Guide-Hotels"
            ],
            "longitude": "-117.0230838"
        },
        "adana": {
            "latitude": "33.8823826",
            "closest_to": "",
            "address": "East Adana Street, Compton, Los Angeles County, California, 90221, United States of America",
            "locType": "residential",
            "blogLinks": [
                "https://www.thrillist.com/eat/los-angeles/best-orange-county-restaurants-oc-la"
            ],
            "longitude": "-118.19551"
        },
        "oc": {
            "latitude": "42.2076569",
            "closest_to": "",
            "address": "OC&E Woods Line State Trail, Altamont, Klamath County, Oregon, 97603, United States of America",
            "locType": "abandoned",
            "blogLinks": [
                "https://www.yelp.com/topic/irvine-untraditonal-places-to-go-to-in-oc-for-a-1-month-visit"
            ],
            "longitude": "-121.7529539"
        },
        "modjeska peak": {
            "latitude": "33.7195856",
            "closest_to": "",
            "address": "Modjeska Peak, Orange County, California, United States of America",
            "locType": "peak",
            "blogLinks": [
                "https://en.wikipedia.org/wiki/Orange_County,_CA"
            ],
            "longitude": "-117.5441954"
        },
        "laguna hills": {
            "latitude": "33.5948758",
            "closest_to": "",
            "address": "Laguna Hills, Orange County, California, United States of America",
            "locType": "city",
            "blogLinks": [
                "https://www.thrillist.com/eat/los-angeles/best-orange-county-restaurants-oc-la"
            ],
            "longitude": "-117.6882066"
        },
        "america": {
            "latitude": "36.2573198",
            "closest_to": "",
            "address": "America, Kings County, California, 93246, United States of America",
            "locType": "residential",
            "blogLinks": [
                "https://en.wikipedia.org/wiki/Orange_County,_CA"
            ],
            "longitude": "-119.8948706"
        },
        "laguna": {
            "latitude": "38.4210209",
            "closest_to": "",
            "address": "Laguna, Sacramento County, California, United States of America",
            "locType": "hamlet",
            "blogLinks": [
                "https://www.thrillist.com/eat/los-angeles/best-orange-county-restaurants-oc-la",
                "http://ocmomblog.com/family-guide-orange-county-beaches/",
                "https://en.wikipedia.org/wiki/Orange_County,_CA",
                "https://www.tripadvisor.com/ShowTopic-g32588-i355-k3413966-Laguna_Beach_Vs_Newport_vs_Huntington_Beach-Laguna_Beach_California.html"
            ],
            "longitude": "-121.4238413"
        },
        "peralta hills": {
            "latitude": "33.8444601",
            "closest_to": "",
            "address": "Peralta Hills, Orange County, California, United States of America",
            "locType": "hamlet",
            "blogLinks": [
                "https://en.wikipedia.org/wiki/Orange_County,_CA"
            ],
            "longitude": "-117.817834"
        },
        "hollister": {
            "latitude": "36.8524545",
            "closest_to": "",
            "address": "Hollister, San Benito County, California, United States of America",
            "locType": "administrative",
            "blogLinks": [
                "http://ulclimos.com/blog/best-places-to-visit-in-orange-county-in-a-party-bus"
            ],
            "longitude": "-121.401602"
        },
        "laos": {
            "latitude": "35.3602368",
            "closest_to": "",
            "address": "Laos Temple, L Street, Bakersfield, Kern County, California, 93301, United States of America",
            "locType": "place_of_worship",
            "blogLinks": [
                "https://www.thrillist.com/eat/los-angeles/best-orange-county-restaurants-oc-la"
            ],
            "longitude": "-119.0164903"
        },
        "turtle rock": {
            "latitude": "34.0105918",
            "closest_to": "",
            "address": "Turtle Rock, Riverside County, California, United States of America",
            "locType": "peak",
            "blogLinks": [
                "https://en.wikipedia.org/wiki/Orange_County,_CA"
            ],
            "longitude": "-116.1667775"
        },
        "arcadia": {
            "latitude": "34.1362075",
            "closest_to": "",
            "address": "Arcadia, Los Angeles County, California, United States of America",
            "locType": "city",
            "blogLinks": [
                "https://en.wikipedia.org/wiki/Orange_County,_CA"
            ],
            "longitude": "-118.0401496"
        }
    },
    "irvine": {
        "type": "city",
        "osm_id": "114485",
        "class": "place",
        "importance": 0.55,
        "lat": "33.6856969",
        "lon": "-117.8259818",
        "boundingbox": [
            "33.5993914",
            "33.7736521",
            "-117.8687518",
            "-117.6780258"
        ],
        "display_name": "Irvine, Orange County, California, United States of America",
        "licence": "Data \u00a9 OpenStreetMap contributors, ODbL 1.0. http://www.openstreetmap.org/copyright",
        "icon": "https://nominatim.openstreetmap.org/images/mapicons/poi_place_city.p.20.png",
        "place_id": "159062335",
        "osm_type": "relation"
    }
}