{
    "santa barbara": {
        "type": "city",
        "osm_id": "33113642",
        "class": "place",
        "importance": 0.84553400574646,
        "lat": "34.4221319",
        "lon": "-119.7026672",
        "boundingbox": [
            "34.336029",
            "34.463922",
            "-119.8597817",
            "-119.6399339"
        ],
        "display_name": "Santa Barbara, Santa Barbara County, California, United States of America",
        "licence": "Data \u00a9 OpenStreetMap contributors, ODbL 1.0. http://www.openstreetmap.org/copyright",
        "icon": "https://nominatim.openstreetmap.org/images/mapicons/poi_place_city.p.20.png",
        "place_id": "71537873",
        "osm_type": "way"
    },
    "huntington beach": {
        "type": "city",
        "osm_id": "5986511",
        "class": "place",
        "importance": 0.77972866689719,
        "lat": "33.6783336",
        "lon": "-118.0000165",
        "boundingbox": [
            "33.628892",
            "33.7561955",
            "-118.0824699",
            "-117.940379"
        ],
        "display_name": "Huntington Beach, Orange County, California, United States of America",
        "licence": "Data \u00a9 OpenStreetMap contributors, ODbL 1.0. http://www.openstreetmap.org/copyright",
        "icon": "https://nominatim.openstreetmap.org/images/mapicons/poi_place_city.p.20.png",
        "place_id": "159846085",
        "osm_type": "relation"
    },
    "mentions": {
        "golden gate bridge": {
            "latitude": "37.8302809",
            "closest_to": "",
            "address": "Golden Gate Bridge, Waldo, Marin County, California, 94965, United States of America",
            "locType": "motorway",
            "blogLinks": [
                "http://moon.com/2011/02/fun-road-trip-ideas-road-trip-the-california-coast/"
            ],
            "longitude": "-122.4798473"
        },
        "usa": {
            "latitude": "36.7014631",
            "closest_to": "",
            "address": "California, United States of America",
            "locType": "administrative",
            "blogLinks": [
                "http://www.movoto.com/blog/opinions/move-to-santa-barbara/",
                "http://www.mytravelguideposts.com/2010/07/places-to-visit-along-california-coast.html",
                "https://www.gogobot.com/santa-barbara"
            ],
            "longitude": "-118.7559973"
        },
        "carmel-by-the-sea": {
            "latitude": "36.5552387",
            "closest_to": "",
            "address": "Carmel-by-the-Sea, Monterey County, California, United States of America",
            "locType": "city",
            "blogLinks": [
                "https://www.gapyear.com/articles/216212/13-incredible-stops-on-the-pacific-coast-highway"
            ],
            "longitude": "-121.9232878"
        },
        "ferndale": {
            "latitude": "40.5762406",
            "closest_to": "",
            "address": "Ferndale, Humboldt County, California, United States of America",
            "locType": "city",
            "blogLinks": [
                "http://moon.com/2011/02/fun-road-trip-ideas-road-trip-the-california-coast/"
            ],
            "longitude": "-124.2639441"
        },
        "mackerricher state park": {
            "latitude": "39.4932207",
            "closest_to": "",
            "address": "MacKerricher State Park, Mackerricher State Park Road, Cleone, Mendocino County, California, 95437, United States of America",
            "locType": "park",
            "blogLinks": [
                "https://www.pinterest.com/pin/146718900339064286/"
            ],
            "longitude": "-123.7936267"
        },
        "monterey bay": {
            "latitude": "36.7999557",
            "closest_to": "",
            "address": "Monterey Bay, Monterey County, California, United States of America",
            "locType": "bay",
            "blogLinks": [
                "https://www.gapyear.com/articles/216212/13-incredible-stops-on-the-pacific-coast-highway",
                "http://www.wildlife.ca.gov/Fishing/Ocean/Grunion"
            ],
            "longitude": "-121.9010667"
        },
        "sea ranch": {
            "latitude": "38.7151899",
            "closest_to": "",
            "address": "Sea Ranch, Sonoma County, California, United States of America",
            "locType": "hamlet",
            "blogLinks": [
                "http://moon.com/2011/02/fun-road-trip-ideas-road-trip-the-california-coast/"
            ],
            "longitude": "-123.4544531"
        },
        "santa cruz": {
            "latitude": "36.9735903",
            "closest_to": "",
            "address": "Santa Cruz, Santa Cruz County, California, United States of America",
            "locType": "city",
            "blogLinks": [
                "http://moon.com/2011/02/fun-road-trip-ideas-road-trip-the-california-coast/",
                "https://www.gapyear.com/articles/216212/13-incredible-stops-on-the-pacific-coast-highway",
                "http://www.10best.com/awards/travel/best-california-beach/"
            ],
            "longitude": "-122.0260569"
        },
        "us": {
            "latitude": "36.7014631",
            "closest_to": "",
            "address": "California, United States of America",
            "locType": "administrative",
            "blogLinks": [
                "http://www.movoto.com/blog/opinions/move-to-santa-barbara/",
                "https://www.audleytravel.com/usa/california/accommodation/hyatt-regency-huntington-beach-resort-and-spa",
                "http://www.mytravelguideposts.com/2010/07/places-to-visit-along-california-coast.html",
                "http://distancecalculator.globefeed.com/US_Distance_Calculator.asp?state=CA",
                "http://www.10best.com/awards/travel/best-california-beach/",
                "https://www.pinterest.com/pin/146718900339064286/",
                "https://www.tripadvisor.com/ShowTopic-g32655-i61-k4372160-AMTRAK_Santa_Barbara_to_huntington_beach-Los_Angeles_California.html"
            ],
            "longitude": "-118.7559973"
        },
        "bixby bridge": {
            "latitude": "36.3710197",
            "closest_to": "",
            "address": "Bixby Creek Bridge, Notleys Landing, Monterey County, California, 93923, United States of America",
            "locType": "primary",
            "blogLinks": [
                "https://www.gapyear.com/articles/216212/13-incredible-stops-on-the-pacific-coast-highway"
            ],
            "longitude": "-121.9017572"
        },
        "wilder ranch state park": {
            "latitude": "36.96021805",
            "closest_to": "",
            "address": "Wilder Ranch State Park, Coast Road, Westside, Santa Cruz County, California, 95060, United States of America",
            "locType": "park",
            "blogLinks": [
                "https://www.gapyear.com/articles/216212/13-incredible-stops-on-the-pacific-coast-highway"
            ],
            "longitude": "-122.079566815934"
        },
        "route 101": {
            "latitude": "37.7881229",
            "closest_to": "",
            "address": "Route 101, 1332, Van Ness Avenue, Japantown, SF, California, 94109, United States of America",
            "locType": "bar",
            "blogLinks": [
                "http://www.mytravelguideposts.com/2010/07/places-to-visit-along-california-coast.html"
            ],
            "longitude": "-122.4216319"
        },
        "piedras blancas": {
            "latitude": "35.6647403",
            "closest_to": "",
            "address": "Piedras Blancas, San Luis Obispo County, California, United States of America",
            "locType": "peak",
            "blogLinks": [
                "http://moon.com/2011/02/fun-road-trip-ideas-road-trip-the-california-coast/"
            ],
            "longitude": "-121.2889962"
        },
        "pacific": {
            "latitude": "38.7601815",
            "closest_to": "",
            "address": "Pacific, El Dorado County, California, United States of America",
            "locType": "hamlet",
            "blogLinks": [
                "https://answers.yahoo.com/question/index?qid=20080530211242AArXWMD",
                "http://www.movoto.com/blog/opinions/move-to-santa-barbara/"
            ],
            "longitude": "-120.507146"
        },
        "mcway falls": {
            "latitude": "36.1578211",
            "closest_to": "",
            "address": "McWay Falls, Monterey County, California, United States of America",
            "locType": "waterfall",
            "blogLinks": [
                "https://www.gapyear.com/articles/216212/13-incredible-stops-on-the-pacific-coast-highway"
            ],
            "longitude": "-121.6723957"
        },
        "berkeley": {
            "latitude": "37.8708393",
            "closest_to": "",
            "address": "Berkeley, Alameda County, California, United States of America",
            "locType": "city",
            "blogLinks": [
                "http://www.wildlife.ca.gov/Fishing/Ocean/Grunion"
            ],
            "longitude": "-122.2728638"
        },
        "griffith park": {
            "latitude": "38.68813",
            "closest_to": "",
            "address": "Griffith Park, Citrus Heights, Sacramento County, California, 95621, United States of America",
            "locType": "service",
            "blogLinks": [
                "https://answers.yahoo.com/question/index?qid=20080530211242AArXWMD"
            ],
            "longitude": "-121.3121659"
        },
        "london": {
            "latitude": "36.4760619",
            "closest_to": "",
            "address": "London, Tulare County, California, United States of America",
            "locType": "village",
            "blogLinks": [
                "http://www.10best.com/awards/travel/best-california-beach/",
                "http://www.wildlife.ca.gov/Fishing/Ocean/Grunion"
            ],
            "longitude": "-119.4431784"
        },
        "davenport": {
            "latitude": "37.0116166",
            "closest_to": "",
            "address": "Davenport, Santa Cruz County, California, United States of America",
            "locType": "village",
            "blogLinks": [
                "http://moon.com/2011/02/fun-road-trip-ideas-road-trip-the-california-coast/"
            ],
            "longitude": "-122.1919133"
        },
        "baja california": {
            "latitude": "27.35789705",
            "closest_to": "",
            "address": "Pen\u00ednsula de Baja California, Muleg\u00e9, Baja California Sur, M\u00e9xico",
            "locType": "peninsula",
            "blogLinks": [
                "http://www.wildlife.ca.gov/Fishing/Ocean/Grunion"
            ],
            "longitude": "-113.380835042571"
        },
        "moonstone beach": {
            "latitude": "35.573855",
            "closest_to": "",
            "address": "Moonstone Beach, Cambria, San Luis Obispo County, California, CA 93428, United States of America",
            "locType": "path",
            "blogLinks": [
                "http://moon.com/2011/02/fun-road-trip-ideas-road-trip-the-california-coast/",
                "http://www.10best.com/awards/travel/best-california-beach/"
            ],
            "longitude": "-121.1128747"
        },
        "hermosa": {
            "latitude": "38.0172961",
            "closest_to": "",
            "address": "Hermosa, Pittsburg, Contra Costa County, California, 94565, United States of America",
            "locType": "residential",
            "blogLinks": [
                "http://moon.com/2011/02/fun-road-trip-ideas-road-trip-the-california-coast/",
                "http://www.10best.com/awards/travel/best-california-beach/"
            ],
            "longitude": "-121.8724176"
        },
        "l.a.": {
            "latitude": "-13.8305494",
            "closest_to": "",
            "address": "California, Provincia Abel Iturralde, LPZ, Bolivia",
            "locType": "hamlet",
            "blogLinks": [
                "http://moon.com/2011/02/fun-road-trip-ideas-road-trip-the-california-coast/",
                "http://www.movoto.com/blog/opinions/move-to-santa-barbara/",
                "https://www.tripadvisor.com/ShowTopic-g32655-i61-k4372160-AMTRAK_Santa_Barbara_to_huntington_beach-Los_Angeles_California.html",
                "http://www.10best.com/awards/travel/best-california-beach/"
            ],
            "longitude": "-67.9369134"
        },
        "australia": {
            "latitude": "-32.6649999",
            "closest_to": "",
            "address": "California, Singleton, NSW, Australia",
            "locType": "hamlet",
            "blogLinks": [
                "http://www.mytravelguideposts.com/2010/07/places-to-visit-along-california-coast.html"
            ],
            "longitude": "150.9261111"
        },
        "chicago": {
            "latitude": "37.7850531",
            "closest_to": "",
            "address": "Chicago, Woodstock, Alameda, Alameda County, California, 94501, United States of America",
            "locType": "residential",
            "blogLinks": [
                "http://www.movoto.com/blog/opinions/move-to-santa-barbara/"
            ],
            "longitude": "-122.2872948"
        },
        "bubba gump": {
            "latitude": "36.61674695",
            "closest_to": "",
            "address": "Bubba Gump, 720, Cannery Row, Monterey, Monterey County, California, 93940, United States of America",
            "locType": "restaurant",
            "blogLinks": [
                "https://answers.yahoo.com/question/index?qid=20080530211242AArXWMD"
            ],
            "longitude": "-121.900200090787"
        },
        "calif": {
            "latitude": "37.786376",
            "closest_to": "",
            "address": "California, Woodstock, Alameda, Alameda County, California, 94501, United States of America",
            "locType": "residential",
            "blogLinks": [
                "https://www.tripadvisor.com/ShowTopic-g32655-i61-k4372160-AMTRAK_Santa_Barbara_to_huntington_beach-Los_Angeles_California.html",
                "http://www.wildlife.ca.gov/Fishing/Ocean/Grunion"
            ],
            "longitude": "-122.2902806"
        },
        "ano nuevo state park": {
            "latitude": "37.1642859",
            "closest_to": "",
            "address": "A\u00f1o Nuevo State Park, White House Canyon Road, San Mateo County, California, United States of America",
            "locType": "park",
            "blogLinks": [
                "https://www.gapyear.com/articles/216212/13-incredible-stops-on-the-pacific-coast-highway"
            ],
            "longitude": "-122.328030779329"
        },
        "san francisco bay": {
            "latitude": "37.708264",
            "closest_to": "",
            "address": "San Francisco Bay, Ferry Landing, Alameda, Alameda County, California, 94502, United States of America",
            "locType": "bay",
            "blogLinks": [
                "http://www.10best.com/awards/travel/best-california-beach/",
                "http://www.wildlife.ca.gov/Fishing/Ocean/Grunion"
            ],
            "longitude": "-122.2802469"
        },
        "east coast": {
            "latitude": "37.858337",
            "closest_to": "",
            "address": "Coast, Ashby Avenue, Claremont, Berkeley, Alameda County, California, 94705, United States of America",
            "locType": "fuel",
            "blogLinks": [
                "http://www.movoto.com/blog/opinions/move-to-santa-barbara/"
            ],
            "longitude": "-122.2447393"
        },
        "palomar": {
            "latitude": "23.48019285",
            "closest_to": "",
            "address": "Palomar, Calzada Maestros Misioneros de 1930, Santiago, Los Cabos, Baja California Sur, M\u00e9xico",
            "locType": "hotel",
            "blogLinks": [
                "https://www.gapyear.com/articles/216212/13-incredible-stops-on-the-pacific-coast-highway"
            ],
            "longitude": "-109.715262801301"
        },
        "alcatraz island": {
            "latitude": "37.8267283",
            "closest_to": "",
            "address": "Alcatraz Island, SF, California, United States of America",
            "locType": "island",
            "blogLinks": [
                "https://www.gapyear.com/articles/216212/13-incredible-stops-on-the-pacific-coast-highway"
            ],
            "longitude": "-122.422746492409"
        },
        "south america": {
            "latitude": "3.60107",
            "closest_to": "",
            "address": "California, Microrregi\u00e3o de Boa Vista, Mesorregi\u00e3o Norte de Roraima, RR, Regi\u00e3o Norte, Brasil",
            "locType": "hamlet",
            "blogLinks": [
                "http://moon.com/2011/02/fun-road-trip-ideas-road-trip-the-california-coast/"
            ],
            "longitude": "-61.5606166"
        },
        "europe": {
            "latitude": "37.3491727",
            "closest_to": "",
            "address": "Europe Court, Santa Clara, Santa Clara County, California, 95051, United States of America",
            "locType": "residential",
            "blogLinks": [
                "http://www.mytravelguideposts.com/2010/07/places-to-visit-along-california-coast.html"
            ],
            "longitude": "-121.9980641"
        },
        "la county": {
            "latitude": "10.94592975",
            "closest_to": "",
            "address": "California, Barranquilla, Atl\u00e1ntico, Colombia",
            "locType": "administrative",
            "blogLinks": [
                "http://www.10best.com/awards/travel/best-california-beach/"
            ],
            "longitude": "-74.8261348940972"
        },
        "santa": {
            "latitude": "22.4804035",
            "closest_to": "",
            "address": "California, Santa Isabel de las Lajas, Cienfuegos, Cuba",
            "locType": "hamlet",
            "blogLinks": [
                "https://www.gogobot.com/santa-barbara"
            ],
            "longitude": "-80.3796642"
        },
        "greece": {
            "latitude": "43.222537",
            "closest_to": "",
            "address": "California Drive, Greece Town, Monroe County, New York, 14616, United States of America",
            "locType": "residential",
            "blogLinks": [
                "http://www.wildlife.ca.gov/Fishing/Ocean/Grunion"
            ],
            "longitude": "-77.6362609"
        },
        "x9csurf city usa": {
            "latitude": "37.4852152",
            "closest_to": "",
            "address": "Redwood City, San Mateo County, California, United States of America",
            "locType": "city",
            "blogLinks": [
                "http://www.10best.com/awards/travel/best-california-beach/"
            ],
            "longitude": "-122.2363547"
        },
        "bodega bay": {
            "latitude": "38.273529",
            "closest_to": "",
            "address": "Bodega Bay, Estero Lane, Bodega Bay, Sonoma County, California, United States of America",
            "locType": "bay",
            "blogLinks": [
                "http://moon.com/2011/02/fun-road-trip-ideas-road-trip-the-california-coast/"
            ],
            "longitude": "-123.0061117"
        },
        "ensenada": {
            "latitude": "30.1927661",
            "closest_to": "",
            "address": "Ensenada, Baja California, M\u00e9xico",
            "locType": "administrative",
            "blogLinks": [
                "http://www.wildlife.ca.gov/Fishing/Ocean/Grunion"
            ],
            "longitude": "-115.231462477994"
        },
        "balboa park": {
            "latitude": "37.72494875",
            "closest_to": "",
            "address": "Balboa Park, Sergeant John V Young Lane, Ingleside, SF, California, 94112, United States of America",
            "locType": "park",
            "blogLinks": [
                "https://www.gapyear.com/articles/216212/13-incredible-stops-on-the-pacific-coast-highway"
            ],
            "longitude": "-122.444804424152"
        },
        "east beach": {
            "latitude": "37.8061771",
            "closest_to": "",
            "address": "East Beach, Mason Street, Presidio Heights, SF, California, 94129, United States of America",
            "locType": "beach",
            "blogLinks": [
                "http://www.movoto.com/blog/opinions/move-to-santa-barbara/",
                "https://www.gapyear.com/articles/216212/13-incredible-stops-on-the-pacific-coast-highway",
                "http://www.10best.com/awards/travel/best-california-beach/"
            ],
            "longitude": "-122.452368017781"
        },
        "monterey bay aquarium": {
            "latitude": "36.61809095",
            "closest_to": "",
            "address": "MBA, 886, Cannery Row, Monterey, Monterey County, California, 93940, United States of America",
            "locType": "aquarium",
            "blogLinks": [
                "http://moon.com/2011/02/fun-road-trip-ideas-road-trip-the-california-coast/",
                "https://www.gapyear.com/articles/216212/13-incredible-stops-on-the-pacific-coast-highway"
            ],
            "longitude": "-121.901680002002"
        },
        "west mesa": {
            "latitude": "32.9525512",
            "closest_to": "",
            "address": "West Mesa, San Diego County, California, United States of America",
            "locType": "peak",
            "blogLinks": [
                "http://www.movoto.com/blog/opinions/move-to-santa-barbara/"
            ],
            "longitude": "-116.2066784"
        },
        "san jose": {
            "latitude": "37.3361905",
            "closest_to": "",
            "address": "San Jos\u00e9, Santa Clara County, California, United States of America",
            "locType": "city",
            "blogLinks": [
                "http://moon.com/2011/02/fun-road-trip-ideas-road-trip-the-california-coast/",
                "https://www.gapyear.com/articles/216212/13-incredible-stops-on-the-pacific-coast-highway"
            ],
            "longitude": "-121.8905832"
        },
        "el capitan": {
            "latitude": "41.8690059",
            "closest_to": "",
            "address": "El Capitan, Siskiyou County, California, United States of America",
            "locType": "peak",
            "blogLinks": [
                "https://www.gogobot.com/santa-barbara"
            ],
            "longitude": "-123.6122864"
        },
        "rio theatre": {
            "latitude": "36.9801486",
            "closest_to": "",
            "address": "Rio Theatre, Soquel Avenue, Soquel Avenue Commercial Corridor, Eastside, Santa Cruz, Santa Cruz County, California, 95062, United States of America",
            "locType": "theatre",
            "blogLinks": [
                "https://www.gapyear.com/articles/216212/13-incredible-stops-on-the-pacific-coast-highway"
            ],
            "longitude": "-122.0104295"
        },
        "redwood highway": {
            "latitude": "37.8379549",
            "closest_to": "",
            "address": "Redwood Highway, Waldo, Marin County, California, 94965, United States of America",
            "locType": "motorway",
            "blogLinks": [
                "http://moon.com/2011/02/fun-road-trip-ideas-road-trip-the-california-coast/"
            ],
            "longitude": "-122.4860838"
        },
        "golden gate park": {
            "latitude": "37.7693681",
            "closest_to": "",
            "address": "Golden Gate Park, Overlook Drive, Richmond District, SF, California, 94122, United States of America",
            "locType": "park",
            "blogLinks": [
                "https://www.gapyear.com/articles/216212/13-incredible-stops-on-the-pacific-coast-highway"
            ],
            "longitude": "-122.482183611177"
        },
        "la": {
            "latitude": "36.7014631",
            "closest_to": "",
            "address": "California, United States of America",
            "locType": "administrative",
            "blogLinks": [
                "https://answers.yahoo.com/question/index?qid=20080530211242AArXWMD",
                "http://www.distancesfrom.com/us/distance-from-Huntington-Beach-to-Santa-Barbara-CA/DistanceHistory/229902.aspx",
                "http://www.movoto.com/blog/opinions/move-to-santa-barbara/",
                "http://www.mytravelguideposts.com/2010/07/places-to-visit-along-california-coast.html",
                "https://www.gogobot.com/santa-barbara"
            ],
            "longitude": "-118.7559973"
        },
        "pfeiffer big sur state park": {
            "latitude": "36.25330545",
            "closest_to": "",
            "address": "Pfeiffer Big Sur State Park, Valley View Trail, Big Sur, Monterey County, California, United States of America",
            "locType": "park",
            "blogLinks": [
                "http://moon.com/2011/02/fun-road-trip-ideas-road-trip-the-california-coast/"
            ],
            "longitude": "-121.783295208903"
        },
        "new zealand": {
            "latitude": "-41.1069272",
            "closest_to": "",
            "address": "California Drive, Totara Park, Upper Hutt, Upper Hutt City, Wellington, 5371, New Zealand/Aotearoa",
            "locType": "tertiary",
            "blogLinks": [
                "http://www.mytravelguideposts.com/2010/07/places-to-visit-along-california-coast.html"
            ],
            "longitude": "175.0832904"
        },
        "union square": {
            "latitude": "37.78794125",
            "closest_to": "",
            "address": "Union Square, Post Street, Chinatown, SF, California, 94115, United States of America",
            "locType": "park",
            "blogLinks": [
                "https://www.gapyear.com/articles/216212/13-incredible-stops-on-the-pacific-coast-highway"
            ],
            "longitude": "-122.407502671706"
        },
        "pittsburgh": {
            "latitude": "39.5151683",
            "closest_to": "",
            "address": "Pittsburgh Hill, Yuba County, California, United States of America",
            "locType": "peak",
            "blogLinks": [
                "http://www.movoto.com/blog/opinions/move-to-santa-barbara/"
            ],
            "longitude": "-121.1002348"
        },
        "point state park": {
            "latitude": "35.5818461",
            "closest_to": "",
            "address": "State Park, Cambria, San Luis Obispo County, California, 93428, United States of America",
            "locType": "service",
            "blogLinks": [
                "http://moon.com/2011/02/fun-road-trip-ideas-road-trip-the-california-coast/"
            ],
            "longitude": "-121.1198923"
        },
        "san roque": {
            "latitude": "27.9647157",
            "closest_to": "",
            "address": "California, San Roque, Guaymas, Sonora, 85506, M\u00e9xico",
            "locType": "residential",
            "blogLinks": [
                "http://www.movoto.com/blog/opinions/move-to-santa-barbara/"
            ],
            "longitude": "-111.0221864"
        },
        "mexico": {
            "latitude": "28.973",
            "closest_to": "",
            "address": "California, Hermosillo, Sonora, M\u00e9xico",
            "locType": "village",
            "blogLinks": [
                "http://www.mytravelguideposts.com/2010/07/places-to-visit-along-california-coast.html",
                "https://www.tripadvisor.com/ShowTopic-g32655-i61-k4372160-AMTRAK_Santa_Barbara_to_huntington_beach-Los_Angeles_California.html",
                "http://www.wildlife.ca.gov/Fishing/Ocean/Grunion"
            ],
            "longitude": "-111.8196666"
        },
        "hog island oyster company": {
            "latitude": "37.7960191",
            "closest_to": "",
            "address": "Hog Island Oyster Company, Gate B, Financial District, SF, California, 94111, United States of America",
            "locType": "restaurant",
            "blogLinks": [
                "http://moon.com/2011/02/fun-road-trip-ideas-road-trip-the-california-coast/"
            ],
            "longitude": "-122.3936028"
        },
        "half moon bay": {
            "latitude": "37.4635519",
            "closest_to": "",
            "address": "Half Moon Bay, San Mateo County, California, United States of America",
            "locType": "city",
            "blogLinks": [
                "http://moon.com/2011/02/fun-road-trip-ideas-road-trip-the-california-coast/",
                "https://www.gapyear.com/articles/216212/13-incredible-stops-on-the-pacific-coast-highway"
            ],
            "longitude": "-122.4285861"
        },
        "tomales bay": {
            "latitude": "38.0812158",
            "closest_to": "",
            "address": "Tomales Bay, Bivalve, Marin County, California, 94948, United States of America",
            "locType": "path",
            "blogLinks": [
                "http://moon.com/2011/02/fun-road-trip-ideas-road-trip-the-california-coast/"
            ],
            "longitude": "-122.8225806"
        },
        "santa cruz beach boardwalk": {
            "latitude": "36.96446855",
            "closest_to": "",
            "address": "Santa Cruz Beach Boardwalk, Boardwalk, Beach & Boardwalk District (Commercial), Seabright, Santa Cruz, Santa Cruz County, California, 1982, United States of America",
            "locType": "attraction",
            "blogLinks": [
                "http://moon.com/2011/02/fun-road-trip-ideas-road-trip-the-california-coast/",
                "https://www.gapyear.com/articles/216212/13-incredible-stops-on-the-pacific-coast-highway"
            ],
            "longitude": "-122.016027247326"
        },
        "mendocino": {
            "latitude": "39.3176491",
            "closest_to": "",
            "address": "Mendocino County, California, United States of America",
            "locType": "administrative",
            "blogLinks": [
                "http://moon.com/2011/02/fun-road-trip-ideas-road-trip-the-california-coast/"
            ],
            "longitude": "-123.4126398"
        },
        "alta mesa": {
            "latitude": "37.398829",
            "closest_to": "",
            "address": "Alta Mesa, Santa Clara County, California, United States of America",
            "locType": "hamlet",
            "blogLinks": [
                "http://www.movoto.com/blog/opinions/move-to-santa-barbara/"
            ],
            "longitude": "-122.1346858"
        },
        "best california beach": {
            "latitude": "37.7975226",
            "closest_to": "",
            "address": "Best Food, Broadway, North Beach, SF, California, 94133, United States of America",
            "locType": "convenience",
            "blogLinks": [
                "http://www.10best.com/awards/travel/best-california-beach/"
            ],
            "longitude": "-122.4084386"
        },
        "surf city usa": {
            "latitude": "37.8588436",
            "closest_to": "",
            "address": "Surf City, Tuolumne County, California, United States of America",
            "locType": "rapids",
            "blogLinks": [
                "http://www.10best.com/awards/travel/best-california-beach/"
            ],
            "longitude": "-120.6349548"
        },
        "monterey": {
            "latitude": "36.5844165",
            "closest_to": "",
            "address": "Monterey, Monterey County, California, United States of America",
            "locType": "city",
            "blogLinks": [
                "http://moon.com/2011/02/fun-road-trip-ideas-road-trip-the-california-coast/",
                "https://www.gapyear.com/articles/216212/13-incredible-stops-on-the-pacific-coast-highway",
                "http://www.10best.com/awards/travel/best-california-beach/"
            ],
            "longitude": "-121.866792846206"
        },
        "pfeiffer beach": {
            "latitude": "36.23934855",
            "closest_to": "",
            "address": "Pfeiffer Beach, Sycamore Canyon Road, Big Sur, Monterey County, California, 93920, United States of America",
            "locType": "beach",
            "blogLinks": [
                "https://www.gapyear.com/articles/216212/13-incredible-stops-on-the-pacific-coast-highway",
                "http://www.10best.com/awards/travel/best-california-beach/"
            ],
            "longitude": "-121.81778571416"
        },
        "lombard street": {
            "latitude": "37.802076",
            "closest_to": "",
            "address": "1079, Lombard Street, Russian Hill, SF, California, 94109, United States of America",
            "locType": "residential",
            "blogLinks": [
                "https://www.gapyear.com/articles/216212/13-incredible-stops-on-the-pacific-coast-highway"
            ],
            "longitude": "-122.418809"
        },
        "san francisco bay area": {
            "latitude": "37.7884969",
            "closest_to": "",
            "address": "San Francisco Bay Area, SF, California, United States of America",
            "locType": "region",
            "blogLinks": [
                "http://www.10best.com/awards/travel/best-california-beach/"
            ],
            "longitude": "-122.3558472"
        },
        "point sur state historic park": {
            "latitude": "36.315378",
            "closest_to": "",
            "address": "Point Sur State Historic Park, Cabrillo Highway, Big Sur, Monterey County, California, 93923, United States of America",
            "locType": "park",
            "blogLinks": [
                "https://www.gapyear.com/articles/216212/13-incredible-stops-on-the-pacific-coast-highway"
            ],
            "longitude": "-121.881955510784"
        },
        "julia pfeiffer burns state park": {
            "latitude": "36.16998345",
            "closest_to": "",
            "address": "Julia Pfeiffer Burns State Park, Ewoldsen trail, Monterey County, California, United States of America",
            "locType": "park",
            "blogLinks": [
                "http://moon.com/2011/02/fun-road-trip-ideas-road-trip-the-california-coast/"
            ],
            "longitude": "-121.665388254615"
        },
        "cambria": {
            "latitude": "35.5641381",
            "closest_to": "",
            "address": "Cambria, San Luis Obispo County, California, United States of America",
            "locType": "administrative",
            "blogLinks": [
                "http://moon.com/2011/02/fun-road-trip-ideas-road-trip-the-california-coast/"
            ],
            "longitude": "-121.0807467"
        },
        "capitola beach": {
            "latitude": "36.9715255",
            "closest_to": "",
            "address": "Capitola Beach, Esplanade, Capitola, Santa Cruz County, California, 95010, United States of America",
            "locType": "beach",
            "blogLinks": [
                "http://www.10best.com/awards/travel/best-california-beach/"
            ],
            "longitude": "-121.9515645"
        },
        "muir beach": {
            "latitude": "37.8621493",
            "closest_to": "",
            "address": "Muir Beach, Marin County, California, United States of America",
            "locType": "hamlet",
            "blogLinks": [
                "http://moon.com/2011/02/fun-road-trip-ideas-road-trip-the-california-coast/"
            ],
            "longitude": "-122.5813666"
        },
        "marin": {
            "latitude": "38.0409144",
            "closest_to": "",
            "address": "Marin County, California, United States of America",
            "locType": "administrative",
            "blogLinks": [
                "http://moon.com/2011/02/fun-road-trip-ideas-road-trip-the-california-coast/"
            ],
            "longitude": "-122.6199637"
        },
        "u.s.": {
            "latitude": "-32.5446226",
            "closest_to": "",
            "address": "La California, Municipio de Las Rosas, Departamento Belgrano, Sta. Fe, Argentina",
            "locType": "hamlet",
            "blogLinks": [
                "http://moon.com/2011/02/fun-road-trip-ideas-road-trip-the-california-coast/",
                "http://www.movoto.com/blog/opinions/move-to-santa-barbara/",
                "http://www.mytravelguideposts.com/2010/07/places-to-visit-along-california-coast.html",
                "http://www.10best.com/awards/travel/best-california-beach/"
            ],
            "longitude": "-61.5489543"
        },
        "las vegas": {
            "latitude": "36.17310935",
            "closest_to": "",
            "address": "California Hotel, Sky Walk(Connection from Main Street to California, Cultural Corridor, Vegas Heights, Las Vegas, Clark County, Nevada, 89101, United States of America",
            "locType": "hotel",
            "blogLinks": [
                "http://moon.com/2011/02/fun-road-trip-ideas-road-trip-the-california-coast/"
            ],
            "longitude": "-115.144667930325"
        },
        "humboldt redwoods state park": {
            "latitude": "40.376048",
            "closest_to": "",
            "address": "Humboldt Redwoods State Park, Englewood, Humboldt County, California, 95569, United States of America",
            "locType": "residential",
            "blogLinks": [
                "http://moon.com/2011/02/fun-road-trip-ideas-road-trip-the-california-coast/"
            ],
            "longitude": "-123.9263449"
        },
        "silicon valley": {
            "latitude": "37.4105333",
            "closest_to": "",
            "address": "Carnegie Mellon Silicon Valley, South Akron Road, Santa Clara County, California, 94035-0016, United States of America",
            "locType": "school",
            "blogLinks": [
                "https://www.gapyear.com/articles/216212/13-incredible-stops-on-the-pacific-coast-highway"
            ],
            "longitude": "-122.0597491"
        },
        "pismo": {
            "latitude": "24.1378257",
            "closest_to": "",
            "address": "Pismo, La Paz, Baja California Sur, 23206, M\u00e9xico",
            "locType": "residential",
            "blogLinks": [
                "http://moon.com/2011/02/fun-road-trip-ideas-road-trip-the-california-coast/"
            ],
            "longitude": "-110.3437034"
        },
        "pacific ocean": {
            "latitude": "36.16305775",
            "closest_to": "",
            "address": "Pacific Ocean, Cabrillo Highway, Monterey County, California, 93920, United States of America",
            "locType": "cliff",
            "blogLinks": [
                "http://moon.com/2011/02/fun-road-trip-ideas-road-trip-the-california-coast/",
                "https://www.audleytravel.com/usa/california/accommodation/hyatt-regency-huntington-beach-resort-and-spa",
                "http://www.movoto.com/blog/opinions/move-to-santa-barbara/",
                "http://www.mytravelguideposts.com/2010/07/places-to-visit-along-california-coast.html"
            ],
            "longitude": "-121.678715787326"
        },
        "san francisco": {
            "latitude": "37.7792808",
            "closest_to": "",
            "address": "SF, California, United States of America",
            "locType": "city",
            "blogLinks": [
                "http://moon.com/2011/02/fun-road-trip-ideas-road-trip-the-california-coast/",
                "http://www.mytravelguideposts.com/2010/07/places-to-visit-along-california-coast.html",
                "https://www.gapyear.com/articles/216212/13-incredible-stops-on-the-pacific-coast-highway",
                "http://www.10best.com/awards/travel/best-california-beach/"
            ],
            "longitude": "-122.4192362"
        },
        "prairie creek redwoods state park": {
            "latitude": "41.40951025",
            "closest_to": "",
            "address": "Prairie Creek Redwoods State Park, West Ridge Trail, Humboldt County, California, United States of America",
            "locType": "national_park",
            "blogLinks": [
                "http://moon.com/2011/02/fun-road-trip-ideas-road-trip-the-california-coast/"
            ],
            "longitude": "-124.036052276854"
        },
        "big sur": {
            "latitude": "36.270241",
            "closest_to": "",
            "address": "Big Sur, Monterey County, California, United States of America",
            "locType": "village",
            "blogLinks": [
                "http://moon.com/2011/02/fun-road-trip-ideas-road-trip-the-california-coast/"
            ],
            "longitude": "-121.8074544"
        },
        "sacramento": {
            "latitude": "38.5815719",
            "closest_to": "",
            "address": "Sacramento, Sacramento County, California, United States of America",
            "locType": "city",
            "blogLinks": [
                "http://www.movoto.com/blog/opinions/move-to-santa-barbara/"
            ],
            "longitude": "-121.4943995"
        },
        "bay area": {
            "latitude": "37.7884969",
            "closest_to": "",
            "address": "San Francisco Bay Area, SF, California, United States of America",
            "locType": "region",
            "blogLinks": [
                "http://www.10best.com/awards/travel/best-california-beach/"
            ],
            "longitude": "-122.3558472"
        },
        "united states": {
            "latitude": "36.7014631",
            "closest_to": "",
            "address": "California, United States of America",
            "locType": "administrative",
            "blogLinks": [
                "http://www.mytravelguideposts.com/2010/07/places-to-visit-along-california-coast.html"
            ],
            "longitude": "-118.7559973"
        },
        "san simeon": {
            "latitude": "35.6438587",
            "closest_to": "",
            "address": "San Simeon, San Luis Obispo County, California, United States of America",
            "locType": "hamlet",
            "blogLinks": [
                "http://moon.com/2011/02/fun-road-trip-ideas-road-trip-the-california-coast/",
                "https://www.gapyear.com/articles/216212/13-incredible-stops-on-the-pacific-coast-highway"
            ],
            "longitude": "-121.1907532"
        },
        "mattole road": {
            "latitude": "40.361367",
            "closest_to": "",
            "address": "Mattole Road, Humboldt County, California, 95558, United States of America",
            "locType": "secondary",
            "blogLinks": [
                "http://moon.com/2011/02/fun-road-trip-ideas-road-trip-the-california-coast/"
            ],
            "longitude": "-124.3616759"
        },
        "fort bragg": {
            "latitude": "39.4447345",
            "closest_to": "",
            "address": "Fort Bragg, Mendocino County, California, United States of America",
            "locType": "city",
            "blogLinks": [
                "http://moon.com/2011/02/fun-road-trip-ideas-road-trip-the-california-coast/",
                "https://www.pinterest.com/pin/146718900339064286/"
            ],
            "longitude": "-123.802699105743"
        },
        "asia": {
            "latitude": "37.7949149",
            "closest_to": "",
            "address": "Asia, 6th Avenue, San Antonio, Oakland, Alameda County, California, 94606, United States of America",
            "locType": "restaurant",
            "blogLinks": [
                "http://www.mytravelguideposts.com/2010/07/places-to-visit-along-california-coast.html"
            ],
            "longitude": "-122.2533348"
        },
        "california highway": {
            "latitude": "36.7014631",
            "closest_to": "",
            "address": "California, United States of America",
            "locType": "administrative",
            "blogLinks": [
                "http://www.mytravelguideposts.com/2010/07/places-to-visit-along-california-coast.html"
            ],
            "longitude": "-118.7559973"
        },
        "fairfax": {
            "latitude": "37.9872935",
            "closest_to": "",
            "address": "Fairfax, Marin County, California, United States of America",
            "locType": "administrative",
            "blogLinks": [
                "https://answers.yahoo.com/question/index?qid=20080530211242AArXWMD"
            ],
            "longitude": "-122.5879673"
        },
        "california highway 1": {
            "latitude": "37.7931799",
            "closest_to": "",
            "address": "One California Street Building, 1, California Street, Financial District, SF, California, 94121, United States of America",
            "locType": "yes",
            "blogLinks": [
                "http://www.mytravelguideposts.com/2010/07/places-to-visit-along-california-coast.html"
            ],
            "longitude": "-122.397168822203"
        },
        "ventana inn": {
            "latitude": "36.2269124",
            "closest_to": "",
            "address": "The Restaurant at Ventana, Coast Ridge Road, Posts, Monterey County, California, United States of America",
            "locType": "restaurant",
            "blogLinks": [
                "http://moon.com/2011/02/fun-road-trip-ideas-road-trip-the-california-coast/"
            ],
            "longitude": "-121.759462751273"
        },
        "washington": {
            "latitude": "40.0657724",
            "closest_to": "",
            "address": "California, Washington County, Pennsylvania, United States of America",
            "locType": "administrative",
            "blogLinks": [
                "http://moon.com/2011/02/fun-road-trip-ideas-road-trip-the-california-coast/"
            ],
            "longitude": "-79.8918435"
        },
        "esalen": {
            "latitude": "36.1248106",
            "closest_to": "",
            "address": "Esalen Institute, Cabrillo Highway, Slates Hot Springs, Monterey County, California, 93920, United States of America",
            "locType": "school",
            "blogLinks": [
                "http://moon.com/2011/02/fun-road-trip-ideas-road-trip-the-california-coast/"
            ],
            "longitude": "-121.6377439"
        },
        "pebble beach": {
            "latitude": "36.5664874",
            "closest_to": "",
            "address": "Pebble Beach, Monterey County, California, United States of America",
            "locType": "hamlet",
            "blogLinks": [
                "http://moon.com/2011/02/fun-road-trip-ideas-road-trip-the-california-coast/"
            ],
            "longitude": "-121.9466112"
        },
        "central america": {
            "latitude": "13.69924915",
            "closest_to": "",
            "address": "Banco de America Central, 53 Avenida Sur, Residencial Ol\u00edmpica, Colonia Flor Blanca, San Salvador, Municipio de San Salvador, Departamento de San Salvador, 00503, El Salvador",
            "locType": "bank",
            "blogLinks": [
                "http://www.mytravelguideposts.com/2010/07/places-to-visit-along-california-coast.html"
            ],
            "longitude": "-89.2185341551046"
        },
        "denmark": {
            "latitude": "57.4379493",
            "closest_to": "",
            "address": "California, Lodsgade, Frederikshavn, Frederikshavn Kommune, Region Nordjylland, 9900, Danmark",
            "locType": "cafe",
            "blogLinks": [
                "http://www.movoto.com/blog/opinions/move-to-santa-barbara/"
            ],
            "longitude": "10.5361043"
        },
        "stinson beach": {
            "latitude": "37.9008084",
            "closest_to": "",
            "address": "Stinson Beach, Marin County, California, United States of America",
            "locType": "hamlet",
            "blogLinks": [
                "http://moon.com/2011/02/fun-road-trip-ideas-road-trip-the-california-coast/"
            ],
            "longitude": "-122.64508"
        },
        "california": {
            "latitude": "7.3480915",
            "closest_to": "",
            "address": "California, Santander, Colombia",
            "locType": "village",
            "blogLinks": [
                "http://www.movoto.com/blog/opinions/move-to-santa-barbara/",
                "https://www.gapyear.com/articles/216212/13-incredible-stops-on-the-pacific-coast-highway",
                "http://moon.com/2011/02/fun-road-trip-ideas-road-trip-the-california-coast/",
                "https://www.audleytravel.com/usa/california/accommodation/hyatt-regency-huntington-beach-resort-and-spa",
                "http://www.mytravelguideposts.com/2010/07/places-to-visit-along-california-coast.html",
                "https://www.gogobot.com/santa-barbara",
                "http://distancecalculator.globefeed.com/US_Distance_Calculator.asp?state=CA",
                "http://www.10best.com/awards/travel/best-california-beach/",
                "https://answers.yahoo.com/question/index?qid=20080530211242AArXWMD",
                "http://www.wildlife.ca.gov/Fishing/Ocean/Grunion"
            ],
            "longitude": "-72.945787"
        },
        "havana": {
            "latitude": "37.8999481",
            "closest_to": "",
            "address": "Havana, 1516, Bonanza Street, Walnut Creek, Contra Costa County, California, 94596, United States of America",
            "locType": "restaurant",
            "blogLinks": [
                "http://www.mytravelguideposts.com/2010/07/places-to-visit-along-california-coast.html"
            ],
            "longitude": "-122.0615613"
        },
        "virginia": {
            "latitude": "37.9090178",
            "closest_to": "",
            "address": "California, Rockbridge County, Virginia, United States of America",
            "locType": "hamlet",
            "blogLinks": [
                "http://www.movoto.com/blog/opinions/move-to-santa-barbara/"
            ],
            "longitude": "-79.5869878"
        },
        "america": {
            "latitude": "36.2573198",
            "closest_to": "",
            "address": "America, Kings County, California, 93246, United States of America",
            "locType": "residential",
            "blogLinks": [
                "http://www.movoto.com/blog/opinions/move-to-santa-barbara/"
            ],
            "longitude": "-119.8948706"
        },
        "carmel": {
            "latitude": "38.75511285",
            "closest_to": "",
            "address": "Carmel, Roseville, Placer County, California, 95747, United States of America",
            "locType": "residential",
            "blogLinks": [
                "http://moon.com/2011/02/fun-road-trip-ideas-road-trip-the-california-coast/"
            ],
            "longitude": "-121.353308848273"
        },
        "carmel valley": {
            "latitude": "36.4796839",
            "closest_to": "",
            "address": "Carmel Valley, Monterey County, California, United States of America",
            "locType": "village",
            "blogLinks": [
                "http://moon.com/2011/02/fun-road-trip-ideas-road-trip-the-california-coast/"
            ],
            "longitude": "-121.7324475"
        },
        "punta abreojos": {
            "latitude": "26.7130706",
            "closest_to": "",
            "address": "Punta Abreojos, Muleg\u00e9, Baja California Sur, M\u00e9xico",
            "locType": "village",
            "blogLinks": [
                "http://www.wildlife.ca.gov/Fishing/Ocean/Grunion"
            ],
            "longitude": "-113.5741334"
        }
    }
}