{
    "huntington beach": {
        "type": "city",
        "osm_id": "5986511",
        "class": "place",
        "importance": 0.77972866689719,
        "lat": "33.6783336",
        "lon": "-118.0000165",
        "boundingbox": [
            "33.628892",
            "33.7561955",
            "-118.0824699",
            "-117.940379"
        ],
        "display_name": "Huntington Beach, Orange County, California, United States of America",
        "licence": "Data \u00a9 OpenStreetMap contributors, ODbL 1.0. http://www.openstreetmap.org/copyright",
        "icon": "https://nominatim.openstreetmap.org/images/mapicons/poi_place_city.p.20.png",
        "place_id": "159846085",
        "osm_type": "relation"
    },
    "mentions": {
        "hollywood boulevard": {
            "latitude": "34.1016312",
            "closest_to": "",
            "address": "Hollywood Boulevard, Hollywood, LA, Los Angeles County, California, 90028, United States of America",
            "locType": "secondary",
            "blogLinks": [
                "https://answers.yahoo.com/question/index?qid=20080530211242AArXWMD"
            ],
            "longitude": "-118.32684"
        },
        "ventura": {
            "latitude": "34.4458248",
            "closest_to": "",
            "address": "Ventura County, California, United States of America",
            "locType": "administrative",
            "blogLinks": [
                "https://www.gapyear.com/articles/216212/13-incredible-stops-on-the-pacific-coast-highway"
            ],
            "longitude": "-119.0779358"
        },
        "carmel-by-the-sea": {
            "latitude": "36.5552387",
            "closest_to": "",
            "address": "Carmel-by-the-Sea, Monterey County, California, United States of America",
            "locType": "city",
            "blogLinks": [
                "https://www.gapyear.com/articles/216212/13-incredible-stops-on-the-pacific-coast-highway"
            ],
            "longitude": "-121.9232878"
        },
        "mount san gorgonio ca": {
            "latitude": "33.9121294",
            "closest_to": "",
            "address": "San Gorgonio Avenue, Banning, Riverside County, California, 92220, United States of America",
            "locType": "secondary",
            "blogLinks": [
                "http://www.california-blog.com/"
            ],
            "longitude": "-116.8766731"
        },
        "central park": {
            "latitude": "37.391994",
            "closest_to": "",
            "address": "Central Park, Central Park At Whisman Station, Mountain View, Santa Clara County, California, 94043, United States of America",
            "locType": "service",
            "blogLinks": [
                "http://historichuntingtonbeach.blogspot.com/"
            ],
            "longitude": "-122.0638948"
        },
        "mission bay ca": {
            "latitude": "37.7707742",
            "closest_to": "",
            "address": "Mission Bay, SF, California, 94158, United States of America",
            "locType": "neighbourhood",
            "blogLinks": [
                "http://www.california-blog.com/"
            ],
            "longitude": "-122.3911711"
        },
        "bixby bridge": {
            "latitude": "36.3710197",
            "closest_to": "",
            "address": "Bixby Creek Bridge, Notleys Landing, Monterey County, California, 93923, United States of America",
            "locType": "primary",
            "blogLinks": [
                "https://www.gapyear.com/articles/216212/13-incredible-stops-on-the-pacific-coast-highway"
            ],
            "longitude": "-121.9017572"
        },
        "moreno valley ca": {
            "latitude": "33.937517",
            "closest_to": "",
            "address": "Moreno Valley, Riverside County, California, United States of America",
            "locType": "city",
            "blogLinks": [
                "http://www.california-blog.com/"
            ],
            "longitude": "-117.2305943"
        },
        "main beach": {
            "latitude": "33.541692",
            "closest_to": "",
            "address": "Main Beach, South Coast Highway, Laguna Beach, Orange County, California, 92651, United States of America",
            "locType": "beach",
            "blogLinks": [
                "https://www.tripadvisor.com/ShowTopic-g32588-i355-k3413966-Laguna_Beach_Vs_Newport_vs_Huntington_Beach-Laguna_Beach_California.html"
            ],
            "longitude": "-117.7847769"
        },
        "mesa": {
            "latitude": "32.7678288",
            "closest_to": "",
            "address": "La Mesa, San Diego County, California, United States of America",
            "locType": "city",
            "blogLinks": [
                "https://www.expedia.com/Costa-Mesa-Hotels.d7674.Travel-Guide-Hotels"
            ],
            "longitude": "-117.0230838"
        },
        "venice beach": {
            "latitude": "33.9862012",
            "closest_to": "",
            "address": "Venice Beach, Venice Beach Bike Path, Venice, LA, Los Angeles County, California, 90405, United States of America",
            "locType": "police",
            "blogLinks": [
                "https://www.yelp.com/biz/huntington-beach-bicycle-trail-huntington-beach"
            ],
            "longitude": "-118.4739815"
        },
        "mission beach": {
            "latitude": "32.7827144",
            "closest_to": "",
            "address": "Mission Beach, San Diego County, California, United States of America",
            "locType": "hamlet",
            "blogLinks": [
                "https://www.gapyear.com/articles/216212/13-incredible-stops-on-the-pacific-coast-highway"
            ],
            "longitude": "-117.2525056"
        },
        "morongo valley": {
            "latitude": "34.0537585",
            "closest_to": "",
            "address": "Morongo Valley, Vista Drive, Morongo Valley, San Bernardino County, California, 92256, United States of America",
            "locType": "administrative",
            "blogLinks": [
                "http://www.california-blog.com/"
            ],
            "longitude": "-116.596723958419"
        },
        "spain": {
            "latitude": "37.1412332",
            "closest_to": "",
            "address": "La California, Mor\u00f3n de la Frontera, Sevilla, Andaluc\u00eda, Espa\u00f1a",
            "locType": "locality",
            "blogLinks": [
                "http://www.ocweekly.com/restaurants/10-essential-huntington-beach-restaurants-6631563"
            ],
            "longitude": "-5.4610806"
        },
        "santa monica": {
            "latitude": "34.0195598",
            "closest_to": "",
            "address": "Santa Monica, Los Angeles County, California, United States of America",
            "locType": "city",
            "blogLinks": [
                "https://www.yelp.com/biz/huntington-beach-bicycle-trail-huntington-beach",
                "https://www.tripadvisor.com/ShowTopic-g32588-i355-k3413966-Laguna_Beach_Vs_Newport_vs_Huntington_Beach-Laguna_Beach_California.html"
            ],
            "longitude": "-118.4869738"
        },
        "chapman": {
            "latitude": "37.9186775",
            "closest_to": "",
            "address": "Chapman, Marin County, California, United States of America",
            "locType": "hamlet",
            "blogLinks": [
                "http://visitanaheim.org/oc-recommended-50-must-sees-must-eats-must-dos-oc"
            ],
            "longitude": "-122.5239389"
        },
        "old town san diego": {
            "latitude": "32.7542167",
            "closest_to": "",
            "address": "Old Town San Diego, San Diego County, California, United States of America",
            "locType": "hamlet",
            "blogLinks": [
                "http://www.california-blog.com/"
            ],
            "longitude": "-117.1969792"
        },
        "san jose": {
            "latitude": "37.3361905",
            "closest_to": "",
            "address": "San Jos\u00e9, Santa Clara County, California, United States of America",
            "locType": "city",
            "blogLinks": [
                "https://www.gapyear.com/articles/216212/13-incredible-stops-on-the-pacific-coast-highway"
            ],
            "longitude": "-121.8905832"
        },
        "laguna niguel": {
            "latitude": "33.5225261",
            "closest_to": "",
            "address": "Laguna Niguel, Orange County, California, United States of America",
            "locType": "city",
            "blogLinks": [
                "https://www.expedia.com/Newport-Beach-Hotels.d8111.Travel-Guide-Hotels",
                "https://www.tripadvisor.com/ShowTopic-g32588-i355-k3413966-Laguna_Beach_Vs_Newport_vs_Huntington_Beach-Laguna_Beach_California.html"
            ],
            "longitude": "-117.7075525"
        },
        "santa monica beach": {
            "latitude": "34.159111",
            "closest_to": "",
            "address": "Santa Monica Drive, Channel Islands Beach, Ventura County, California, 93035, United States of America",
            "locType": "residential",
            "blogLinks": [
                "https://answers.yahoo.com/question/index?qid=20080530211242AArXWMD"
            ],
            "longitude": "-119.2203179"
        },
        "arlington theatre": {
            "latitude": "34.4242119",
            "closest_to": "",
            "address": "Arlington Theatre, 1317, State Street, Santa Barbara, Santa Barbara County, California, 93101, United States of America",
            "locType": "theatre",
            "blogLinks": [
                "https://www.gapyear.com/articles/216212/13-incredible-stops-on-the-pacific-coast-highway"
            ],
            "longitude": "-119.70696995537"
        },
        "santa cruz beach boardwalk": {
            "latitude": "36.96446855",
            "closest_to": "",
            "address": "Santa Cruz Beach Boardwalk, Boardwalk, Beach & Boardwalk District (Commercial), Seabright, Santa Cruz, Santa Cruz County, California, 1982, United States of America",
            "locType": "attraction",
            "blogLinks": [
                "https://www.gapyear.com/articles/216212/13-incredible-stops-on-the-pacific-coast-highway"
            ],
            "longitude": "-122.016027247326"
        },
        "hollywood": {
            "latitude": "34.1028268",
            "closest_to": "",
            "address": "Hollywood, LA, Los Angeles County, California, United States of America",
            "locType": "suburb",
            "blogLinks": [
                "https://www.gapyear.com/articles/216212/13-incredible-stops-on-the-pacific-coast-highway",
                "https://answers.yahoo.com/question/index?qid=20080530211242AArXWMD",
                "http://www.ocweekly.com/restaurants/10-essential-huntington-beach-restaurants-6631563"
            ],
            "longitude": "-118.3299898"
        },
        "ano nuevo state park": {
            "latitude": "37.1642859",
            "closest_to": "",
            "address": "A\u00f1o Nuevo State Park, White House Canyon Road, San Mateo County, California, United States of America",
            "locType": "park",
            "blogLinks": [
                "https://www.gapyear.com/articles/216212/13-incredible-stops-on-the-pacific-coast-highway"
            ],
            "longitude": "-122.328030779329"
        },
        "san francisco": {
            "latitude": "37.7792808",
            "closest_to": "",
            "address": "SF, California, United States of America",
            "locType": "city",
            "blogLinks": [
                "https://www.gapyear.com/articles/216212/13-incredible-stops-on-the-pacific-coast-highway",
                "http://www.ocweekly.com/restaurants/10-essential-huntington-beach-restaurants-6631563"
            ],
            "longitude": "-122.4192362"
        },
        "mount palomar ca": {
            "latitude": "33.1278146",
            "closest_to": "",
            "address": "California Bank & Trust, 2501, Palomar Airport Road, Carlsbad, San Diego County, California, 92011, United States of America",
            "locType": "bank",
            "blogLinks": [
                "http://www.california-blog.com/"
            ],
            "longitude": "-117.270809764613"
        },
        "legoland": {
            "latitude": "33.1334161",
            "closest_to": "",
            "address": "Legoland Drive, Carlsbad, San Diego County, California, 92009, United States of America",
            "locType": "tertiary",
            "blogLinks": [
                "https://www.tripadvisor.com/ShowTopic-g32588-i355-k3413966-Laguna_Beach_Vs_Newport_vs_Huntington_Beach-Laguna_Beach_California.html"
            ],
            "longitude": "-117.3171628"
        },
        "palomar": {
            "latitude": "23.48019285",
            "closest_to": "",
            "address": "Palomar, Calzada Maestros Misioneros de 1930, Santiago, Los Cabos, Baja California Sur, M\u00e9xico",
            "locType": "hotel",
            "blogLinks": [
                "https://www.gapyear.com/articles/216212/13-incredible-stops-on-the-pacific-coast-highway"
            ],
            "longitude": "-109.715262801301"
        },
        "hyatt": {
            "latitude": "37.794246",
            "closest_to": "",
            "address": "Hyatt Regency San Francisco, 5, Sacramento Street, Financial District, SF, California, 94111, United States of America",
            "locType": "hotel",
            "blogLinks": [
                "https://www.tripadvisor.com/ShowTopic-g32588-i355-k3413966-Laguna_Beach_Vs_Newport_vs_Huntington_Beach-Laguna_Beach_California.html"
            ],
            "longitude": "-122.395871093088"
        },
        "downtown santa ana": {
            "latitude": "33.7489063",
            "closest_to": "",
            "address": "Downtown Santa Ana Historic District, North Sycamore Street, Santa Ana, Orange County, California, 92701, United States of America",
            "locType": "park",
            "blogLinks": [
                "http://visitanaheim.org/oc-recommended-50-must-sees-must-eats-must-dos-oc"
            ],
            "longitude": "-117.8686671"
        },
        "laguna canyon": {
            "latitude": "33.5613752",
            "closest_to": "",
            "address": "Laguna College of Art and Design, Laguna Canyon Road, Laguna Beach, Orange County, California, 92651, United States of America",
            "locType": "school",
            "blogLinks": [
                "https://www.tripadvisor.com/ShowTopic-g32588-i355-k3413966-Laguna_Beach_Vs_Newport_vs_Huntington_Beach-Laguna_Beach_California.html"
            ],
            "longitude": "-117.7724545"
        },
        "morro rock ca": {
            "latitude": "35.369669",
            "closest_to": "",
            "address": "Morro Rock, Morro Bay, San Luis Obispo County, California, United States of America",
            "locType": "peak",
            "blogLinks": [
                "http://www.california-blog.com/"
            ],
            "longitude": "-120.8676993"
        },
        "san luis obispo": {
            "latitude": "35.2827525",
            "closest_to": "",
            "address": "San Luis Obispo, San Luis Obispo County, California, United States of America",
            "locType": "city",
            "blogLinks": [
                "https://www.gapyear.com/articles/216212/13-incredible-stops-on-the-pacific-coast-highway"
            ],
            "longitude": "-120.6596155"
        },
        "morro bay ca": {
            "latitude": "35.3658075",
            "closest_to": "",
            "address": "Morro Bay, San Luis Obispo County, California, United States of America",
            "locType": "city",
            "blogLinks": [
                "http://www.california-blog.com/"
            ],
            "longitude": "-120.8499012"
        },
        "monterey peninsula ca": {
            "latitude": "36.5878734",
            "closest_to": "",
            "address": "Monterey Regional Airport, Airport Road, Seaside, Del Monte Heights, Monterey County, California, 93940, United States of America",
            "locType": "aerodrome",
            "blogLinks": [
                "http://www.california-blog.com/"
            ],
            "longitude": "-121.843618374407"
        },
        "east beach": {
            "latitude": "37.8061771",
            "closest_to": "",
            "address": "East Beach, Mason Street, Presidio Heights, SF, California, 94129, United States of America",
            "locType": "beach",
            "blogLinks": [
                "https://www.gapyear.com/articles/216212/13-incredible-stops-on-the-pacific-coast-highway"
            ],
            "longitude": "-122.452368017781"
        },
        "bubblegum alley": {
            "latitude": "35.2791663",
            "closest_to": "",
            "address": "Bubblegum Alley, San Luis Obispo, San Luis Obispo County, California, 93405, United States of America",
            "locType": "attraction",
            "blogLinks": [
                "https://www.gapyear.com/articles/216212/13-incredible-stops-on-the-pacific-coast-highway"
            ],
            "longitude": "-120.6638629"
        },
        "old town": {
            "latitude": "35.142943",
            "closest_to": "",
            "address": "Old Town, Golden Hills, Kern County, California, United States of America",
            "locType": "locality",
            "blogLinks": [
                "https://www.gapyear.com/articles/216212/13-incredible-stops-on-the-pacific-coast-highway"
            ],
            "longitude": "-118.4954422"
        },
        "santa cruz": {
            "latitude": "36.9735903",
            "closest_to": "",
            "address": "Santa Cruz, Santa Cruz County, California, United States of America",
            "locType": "city",
            "blogLinks": [
                "https://www.gapyear.com/articles/216212/13-incredible-stops-on-the-pacific-coast-highway"
            ],
            "longitude": "-122.0260569"
        },
        "frontierland": {
            "latitude": "33.81314275",
            "closest_to": "",
            "address": "Frontierland, Anaheim, Orange County, California, United States of America",
            "locType": "locality",
            "blogLinks": [
                "http://visitanaheim.org/oc-recommended-50-must-sees-must-eats-must-dos-oc"
            ],
            "longitude": "-117.921339068848"
        },
        "washington crossing": {
            "latitude": "33.6151858",
            "closest_to": "",
            "address": "Washington Street, Keller Crossing, Country Road Estates, Riverside County, California, 92587, United States of America",
            "locType": "secondary",
            "blogLinks": [
                "http://historichuntingtonbeach.blogspot.com/"
            ],
            "longitude": "-117.0867905"
        },
        "olvera street": {
            "latitude": "34.0581578",
            "closest_to": "",
            "address": "Olvera Street, Naud Junction, Little Tokyo Historic District, LA, Los Angeles County, California, 90012, United States of America",
            "locType": "pedestrian",
            "blogLinks": [
                "https://answers.yahoo.com/question/index?qid=20080530211242AArXWMD"
            ],
            "longitude": "-118.2373201"
        },
        "mount san jacinto ca": {
            "latitude": "33.7839084",
            "closest_to": "",
            "address": "San Jacinto, Riverside County, California, United States of America",
            "locType": "city",
            "blogLinks": [
                "http://www.california-blog.com/"
            ],
            "longitude": "-116.9586349"
        },
        "france": {
            "latitude": "34.2013715",
            "closest_to": "",
            "address": "France, Sherman Way, Canoga Park, LA, Los Angeles County, California, 91307, United States of America",
            "locType": "cafe",
            "blogLinks": [
                "http://www.ocweekly.com/restaurants/10-essential-huntington-beach-restaurants-6631563"
            ],
            "longitude": "-118.5935353"
        },
        "lobero theatre": {
            "latitude": "34.4216681",
            "closest_to": "",
            "address": "Lobero Theatre, Anacapa Street, Santa Barbara, Santa Barbara County, California, 93105, United States of America",
            "locType": "theatre",
            "blogLinks": [
                "https://www.gapyear.com/articles/216212/13-incredible-stops-on-the-pacific-coast-highway"
            ],
            "longitude": "-119.700020768116"
        },
        "pacific avenue": {
            "latitude": "34.1571445",
            "closest_to": "",
            "address": "Pacific Avenue, Glendale, Los Angeles County, California, 91203, United States of America",
            "locType": "secondary",
            "blogLinks": [
                "https://www.gapyear.com/articles/216212/13-incredible-stops-on-the-pacific-coast-highway"
            ],
            "longitude": "-118.2641839"
        },
        "santa barbara": {
            "latitude": "34.4221319",
            "closest_to": "",
            "address": "Santa Barbara, Santa Barbara County, California, United States of America",
            "locType": "city",
            "blogLinks": [
                "https://www.gapyear.com/articles/216212/13-incredible-stops-on-the-pacific-coast-highway",
                "https://answers.yahoo.com/question/index?qid=20080530211242AArXWMD"
            ],
            "longitude": "-119.7026672"
        },
        "oceanfront boulevard": {
            "latitude": "38.488039",
            "closest_to": "",
            "address": "Oceanfront Court, Sacramento, Sacramento County, California, 95831, United States of America",
            "locType": "residential",
            "blogLinks": [
                "https://www.yelp.com/biz/huntington-beach-bicycle-trail-huntington-beach"
            ],
            "longitude": "-121.5437699"
        },
        "canada": {
            "latitude": "33.7298842",
            "closest_to": "",
            "address": "La Canada, Lower Peters Canyon, Irvine, Orange County, California, 92602, United States of America",
            "locType": "residential",
            "blogLinks": [
                "https://www.tripadvisor.com/ShowTopic-g32588-i355-k3413966-Laguna_Beach_Vs_Newport_vs_Huntington_Beach-Laguna_Beach_California.html"
            ],
            "longitude": "-117.7641381"
        },
        "santa monica pier": {
            "latitude": "34.0104809",
            "closest_to": "",
            "address": "Santa Monica Pier, Santa Monica, Los Angeles County, California, CA 90401, United States of America",
            "locType": "service",
            "blogLinks": [
                "https://www.gapyear.com/articles/216212/13-incredible-stops-on-the-pacific-coast-highway"
            ],
            "longitude": "-118.4960541"
        },
        "disneyland park": {
            "latitude": "33.8136367",
            "closest_to": "",
            "address": "Disneyland Park, Attraction Exit, Anaheim Resort District, Anaheim, Orange County, California, 217, United States of America",
            "locType": "theme_park",
            "blogLinks": [
                "http://visitanaheim.org/oc-recommended-50-must-sees-must-eats-must-dos-oc"
            ],
            "longitude": "-117.91971186569"
        },
        "morocco": {
            "latitude": "35.7806169",
            "closest_to": "",
            "address": "California, Tanger-Medina \u2d5f\u2d30\u2d4f\u2d4a\u2d30 \u2d5c\u2d49\u2d56\u2d55\u2d4e\u2d5c \u0637\u0646\u062c\u0629 \u0627\u0644\u0645\u062f\u064a\u0646\u0629, arrondissement de Tanger-Medina \u0637\u0646\u062c\u0629 \u0627\u0644\u0645\u062f\u064a\u0646\u0629, Tanger \u2d5c\u2d49\u2d4f \u2d49\u2d33\u2d33\u2d49 \u0637\u0646\u062c\u0629, pachalik de Tanger \u0637\u0646\u062c\u0629, Pr\u00e9fecture de Tanger-Assilah \u0639\u0645\u0627\u0644\u0629 \u0637\u0646\u062c\u0629-\u0623\u0635\u064a\u0644\u0629, Tanger-T\u00e9touan-Al Hoceima \u2d5f\u2d30\u2d4f\u2d4a-\u2d5f\u2d49\u2d5c\u2d30\u2d61\u2d49\u2d4f-\u2d4d\u2d43\u2d53\u2d59\u2d49\u2d4e\u2d30 \u0637\u0646\u062c\u0629-\u062a\u0637\u0648\u0627\u0646-\u0627\u0644\u062d\u0633\u064a\u0645\u0629, 90005, Maroc \u2d4d\u2d4e\u2d56\u2d54\u2d49\u2d31 \u0627\u0644\u0645\u063a\u0631\u0628",
            "locType": "tertiary",
            "blogLinks": [
                "http://www.ocweekly.com/restaurants/10-essential-huntington-beach-restaurants-6631563"
            ],
            "longitude": "-5.8368526"
        },
        "los angeles": {
            "latitude": "34.0543942",
            "closest_to": "",
            "address": "LA, Los Angeles County, California, United States of America",
            "locType": "city",
            "blogLinks": [
                "https://www.gapyear.com/articles/216212/13-incredible-stops-on-the-pacific-coast-highway",
                "https://www.expedia.com/Costa-Mesa-Hotels.d7674.Travel-Guide-Hotels",
                "http://historichuntingtonbeach.blogspot.com/"
            ],
            "longitude": "-118.2439408"
        },
        "monterey": {
            "latitude": "36.5844165",
            "closest_to": "",
            "address": "Monterey, Monterey County, California, United States of America",
            "locType": "city",
            "blogLinks": [
                "https://www.gapyear.com/articles/216212/13-incredible-stops-on-the-pacific-coast-highway"
            ],
            "longitude": "-121.866792846206"
        },
        "pfeiffer beach": {
            "latitude": "36.23934855",
            "closest_to": "",
            "address": "Pfeiffer Beach, Sycamore Canyon Road, Big Sur, Monterey County, California, 93920, United States of America",
            "locType": "beach",
            "blogLinks": [
                "https://www.gapyear.com/articles/216212/13-incredible-stops-on-the-pacific-coast-highway"
            ],
            "longitude": "-121.81778571416"
        },
        "el capitan": {
            "latitude": "41.8690059",
            "closest_to": "",
            "address": "El Capitan, Siskiyou County, California, United States of America",
            "locType": "peak",
            "blogLinks": [
                "https://answers.yahoo.com/question/index?qid=20080530211242AArXWMD"
            ],
            "longitude": "-123.6122864"
        },
        "anaheim": {
            "latitude": "33.8347516",
            "closest_to": "",
            "address": "Anaheim, Orange County, California, United States of America",
            "locType": "city",
            "blogLinks": [
                "http://visitanaheim.org/oc-recommended-50-must-sees-must-eats-must-dos-oc"
            ],
            "longitude": "-117.9117319"
        },
        "united states of america": {
            "latitude": "36.7014631",
            "closest_to": "",
            "address": "California, United States of America",
            "locType": "administrative",
            "blogLinks": [
                "https://www.expedia.com/Costa-Mesa-Hotels.d7674.Travel-Guide-Hotels",
                "https://www.expedia.com/Newport-Beach-Hotels.d8111.Travel-Guide-Hotels"
            ],
            "longitude": "-118.7559973"
        },
        "point sur state historic park": {
            "latitude": "36.315378",
            "closest_to": "",
            "address": "Point Sur State Historic Park, Cabrillo Highway, Big Sur, Monterey County, California, 93923, United States of America",
            "locType": "park",
            "blogLinks": [
                "https://www.gapyear.com/articles/216212/13-incredible-stops-on-the-pacific-coast-highway"
            ],
            "longitude": "-121.881955510784"
        },
        "marina del rey": {
            "latitude": "33.9774017",
            "closest_to": "",
            "address": "Marina del Rey, Ocean Park, Los Angeles County, California, United States of America",
            "locType": "suburb",
            "blogLinks": [
                "https://www.yelp.com/biz/huntington-beach-bicycle-trail-huntington-beach"
            ],
            "longitude": "-118.4508017"
        },
        "huntington": {
            "latitude": "38.77704615",
            "closest_to": "",
            "address": "Huntington, Roseville, Placer County, California, 95678, United States of America",
            "locType": "residential",
            "blogLinks": [
                "http://www.parks.ca.gov/?page_id=643",
                "https://www.yelp.com/biz/huntington-beach-bicycle-trail-huntington-beach",
                "https://www.tripadvisor.com/ShowTopic-g32588-i355-k3413966-Laguna_Beach_Vs_Newport_vs_Huntington_Beach-Laguna_Beach_California.html"
            ],
            "longitude": "-121.295904358288"
        },
        "new york": {
            "latitude": "34.0143928",
            "closest_to": "",
            "address": "New York, West Covina, Los Angeles County, California, 91792, United States of America",
            "locType": "service",
            "blogLinks": [
                "http://visitanaheim.org/oc-recommended-50-must-sees-must-eats-must-dos-oc"
            ],
            "longitude": "-117.8984509"
        },
        "langham huntington": {
            "latitude": "34.1202821",
            "closest_to": "",
            "address": "The Langham Huntington, 1401, Huntington Circle, Pasadena, Los Angeles County, California, 91106, United States of America",
            "locType": "hotel",
            "blogLinks": [
                "https://www.expedia.com/Costa-Mesa-Hotels.d7674.Travel-Guide-Hotels",
                "https://www.expedia.com/Newport-Beach-Hotels.d8111.Travel-Guide-Hotels"
            ],
            "longitude": "-118.1333115"
        },
        "santa ana river": {
            "latitude": "33.847255",
            "closest_to": "",
            "address": "Santa Ana River, Anaheim, Orange County, California, United States of America",
            "locType": "river",
            "blogLinks": [
                "http://www.parks.ca.gov/?page_id=643",
                "https://www.yelp.com/biz/huntington-beach-bicycle-trail-huntington-beach"
            ],
            "longitude": "-117.8400508"
        },
        "mono lake ca": {
            "latitude": "38.0077189",
            "closest_to": "",
            "address": "Mono Lake, Mono County, California, United States of America",
            "locType": "water",
            "blogLinks": [
                "http://www.california-blog.com/"
            ],
            "longitude": "-118.967033937845"
        },
        "u.s.": {
            "latitude": "-32.5446226",
            "closest_to": "",
            "address": "La California, Municipio de Las Rosas, Departamento Belgrano, Sta. Fe, Argentina",
            "locType": "hamlet",
            "blogLinks": [
                "http://historichuntingtonbeach.blogspot.com/"
            ],
            "longitude": "-61.5489543"
        },
        "las vegas": {
            "latitude": "36.17310935",
            "closest_to": "",
            "address": "California Hotel, Sky Walk(Connection from Main Street to California, Cultural Corridor, Vegas Heights, Las Vegas, Clark County, Nevada, 89101, United States of America",
            "locType": "hotel",
            "blogLinks": [
                "https://www.gapyear.com/articles/216212/13-incredible-stops-on-the-pacific-coast-highway",
                "https://www.yelp.com/biz/huntington-beach-bicycle-trail-huntington-beach"
            ],
            "longitude": "-115.144667930325"
        },
        "napa valley ca": {
            "latitude": "38.2972603",
            "closest_to": "",
            "address": "California Boulevard, Napa, Napa County, California, 94558, United States of America",
            "locType": "secondary",
            "blogLinks": [
                "http://www.california-blog.com/"
            ],
            "longitude": "-122.3002947"
        },
        "old town tustin": {
            "latitude": "33.7442545",
            "closest_to": "",
            "address": "The Village @ Old Town, Browning, Tustin, Orange County, California, 92780, United States of America",
            "locType": "residential",
            "blogLinks": [
                "http://visitanaheim.org/oc-recommended-50-must-sees-must-eats-must-dos-oc"
            ],
            "longitude": "-117.819883699223"
        },
        "seal beach": {
            "latitude": "33.741176",
            "closest_to": "",
            "address": "Seal Beach, Orange County, California, United States of America",
            "locType": "city",
            "blogLinks": [
                "https://www.yelp.com/biz/huntington-beach-bicycle-trail-huntington-beach"
            ],
            "longitude": "-118.1046355"
        },
        "little mermaid": {
            "latitude": "33.8063623",
            "closest_to": "",
            "address": "Little Mermaid: Ariel's Undersea Adventure, 1620, South Disneyland Drive, Anaheim Resort District, Anaheim, Orange County, California, 92802, United States of America",
            "locType": "attraction",
            "blogLinks": [
                "https://answers.yahoo.com/question/index?qid=20080530211242AArXWMD"
            ],
            "longitude": "-117.9213663"
        },
        "pasadena": {
            "latitude": "34.1476452",
            "closest_to": "",
            "address": "Pasadena, Los Angeles County, California, United States of America",
            "locType": "city",
            "blogLinks": [
                "https://www.expedia.com/Costa-Mesa-Hotels.d7674.Travel-Guide-Hotels",
                "https://www.expedia.com/Newport-Beach-Hotels.d8111.Travel-Guide-Hotels"
            ],
            "longitude": "-118.1444778"
        },
        "san simeon": {
            "latitude": "35.6438587",
            "closest_to": "",
            "address": "San Simeon, San Luis Obispo County, California, United States of America",
            "locType": "hamlet",
            "blogLinks": [
                "https://www.gapyear.com/articles/216212/13-incredible-stops-on-the-pacific-coast-highway"
            ],
            "longitude": "-121.1907532"
        },
        "downtown fullerton": {
            "latitude": "33.8739385",
            "closest_to": "",
            "address": "Downtown Fullerton, Fullerton, Orange County, California, United States of America",
            "locType": "suburb",
            "blogLinks": [
                "https://www.expedia.com/Newport-Beach-Hotels.d8111.Travel-Guide-Hotels",
                "http://visitanaheim.org/oc-recommended-50-must-sees-must-eats-must-dos-oc"
            ],
            "longitude": "-117.9243398"
        },
        "mediterranean": {
            "latitude": "33.7439509",
            "closest_to": "",
            "address": "Mediterranean, Palm Desert, Riverside County, California, 92211, United States of America",
            "locType": "residential",
            "blogLinks": [
                "http://www.visitnewportbeach.com/beaches-and-parks/newport-pier-located-at-balboa-peninsula/"
            ],
            "longitude": "-116.3534838"
        },
        "hotel laguna": {
            "latitude": "33.5411778",
            "closest_to": "",
            "address": "Hotel Laguna, Laguna Avenue, Laguna Beach, Orange County, California, 92651, United States of America",
            "locType": "hotel",
            "blogLinks": [
                "https://www.tripadvisor.com/ShowTopic-g32588-i355-k3413966-Laguna_Beach_Vs_Newport_vs_Huntington_Beach-Laguna_Beach_California.html"
            ],
            "longitude": "-117.7829393"
        },
        "south": {
            "latitude": "33.3054766",
            "closest_to": "",
            "address": "South, Los Angeles County, California, United States of America",
            "locType": "peak",
            "blogLinks": [
                "http://www.parks.ca.gov/?page_id=643",
                "https://www.yelp.com/biz/huntington-beach-bicycle-trail-huntington-beach"
            ],
            "longitude": "-118.3432299"
        },
        "malibu": {
            "latitude": "33.7932142",
            "closest_to": "",
            "address": "Malibu, Palm Springs, Riverside County, California, 92264, United States of America",
            "locType": "residential",
            "blogLinks": [
                "https://www.gapyear.com/articles/216212/13-incredible-stops-on-the-pacific-coast-highway",
                "https://www.yelp.com/biz/huntington-beach-bicycle-trail-huntington-beach"
            ],
            "longitude": "-116.5023561"
        },
        "chase palm park": {
            "latitude": "34.41527625",
            "closest_to": "",
            "address": "Chase Palm Park, East Cabrillo Boulevard, Santa Barbara, Santa Barbara County, California, 93103, United States of America",
            "locType": "park",
            "blogLinks": [
                "https://answers.yahoo.com/question/index?qid=20080530211242AArXWMD"
            ],
            "longitude": "-119.679267670006"
        },
        "marina": {
            "latitude": "36.6900785",
            "closest_to": "",
            "address": "Marina, Monterey County, California, United States of America",
            "locType": "city",
            "blogLinks": [
                "http://www.ocweekly.com/restaurants/10-essential-huntington-beach-restaurants-6631563"
            ],
            "longitude": "-121.800639730262"
        },
        "santa ana": {
            "latitude": "33.7494951",
            "closest_to": "",
            "address": "Santa Ana, Orange County, California, United States of America",
            "locType": "city",
            "blogLinks": [
                "http://www.ocweekly.com/restaurants/10-essential-huntington-beach-restaurants-6631563"
            ],
            "longitude": "-117.8732212"
        },
        "san fernando valley": {
            "latitude": "34.2819461",
            "closest_to": "",
            "address": "San Fernando, Los Angeles County, California, United States of America",
            "locType": "administrative",
            "blogLinks": [
                "https://www.gapyear.com/articles/216212/13-incredible-stops-on-the-pacific-coast-highway"
            ],
            "longitude": "-118.4389718"
        },
        "trabuco canyon": {
            "latitude": "33.6626232",
            "closest_to": "",
            "address": "Trabuco Canyon, Orange County, California, United States of America",
            "locType": "village",
            "blogLinks": [
                "http://visitanaheim.org/oc-recommended-50-must-sees-must-eats-must-dos-oc"
            ],
            "longitude": "-117.5893799"
        },
        "mojave desert ca": {
            "latitude": "35.1456319",
            "closest_to": "",
            "address": "Mojave Desert, Utility Road, San Bernardino County, California, United States of America",
            "locType": "desert",
            "blogLinks": [
                "http://www.california-blog.com/"
            ],
            "longitude": "-115.548963686646"
        },
        "ventura beach": {
            "latitude": "32.772073",
            "closest_to": "",
            "address": "Ventura Place, Pacific Beach, San Diego, San Diego County, California, 92109, United States of America",
            "locType": "unclassified",
            "blogLinks": [
                "https://www.gapyear.com/articles/216212/13-incredible-stops-on-the-pacific-coast-highway"
            ],
            "longitude": "-117.2514716"
        },
        "california": {
            "latitude": "7.3480915",
            "closest_to": "",
            "address": "California, Santander, Colombia",
            "locType": "village",
            "blogLinks": [
                "https://www.gapyear.com/articles/216212/13-incredible-stops-on-the-pacific-coast-highway",
                "https://www.yelp.com/biz/huntington-beach-bicycle-trail-huntington-beach",
                "http://www.california-blog.com/",
                "https://www.surfcityusa.com/hotels/hotels-motels/",
                "http://historichuntingtonbeach.blogspot.com/",
                "http://www.parks.ca.gov/?page_id=643",
                "http://visitanaheim.org/oc-recommended-50-must-sees-must-eats-must-dos-oc",
                "https://answers.yahoo.com/question/index?qid=20080530211242AArXWMD",
                "http://www.ocweekly.com/restaurants/10-essential-huntington-beach-restaurants-6631563"
            ],
            "longitude": "-72.945787"
        },
        "long beach": {
            "latitude": "33.78538945",
            "closest_to": "",
            "address": "Long Beach, Los Angeles County, California, United States of America",
            "locType": "city",
            "blogLinks": [
                "https://www.gapyear.com/articles/216212/13-incredible-stops-on-the-pacific-coast-highway",
                "https://www.yelp.com/biz/huntington-beach-bicycle-trail-huntington-beach",
                "https://answers.yahoo.com/question/index?qid=20080530211242AArXWMD"
            ],
            "longitude": "-118.158049215311"
        },
        "heisler park": {
            "latitude": "33.54377575",
            "closest_to": "",
            "address": "Heisler Park, Cliff Drive, Laguna Beach, Orange County, California, 92651, United States of America",
            "locType": "park",
            "blogLinks": [
                "http://visitanaheim.org/oc-recommended-50-must-sees-must-eats-must-dos-oc"
            ],
            "longitude": "-117.791768369303"
        },
        "america": {
            "latitude": "36.2573198",
            "closest_to": "",
            "address": "America, Kings County, California, 93246, United States of America",
            "locType": "residential",
            "blogLinks": [
                "http://historichuntingtonbeach.blogspot.com/"
            ],
            "longitude": "-119.8948706"
        },
        "santa barbara botanic garden": {
            "latitude": "34.456953",
            "closest_to": "",
            "address": "Santa Barbara Botanic Gardens, Mission Canyon Road, Mission Canyon, Santa Barbara County, California, 93105, United States of America",
            "locType": "park",
            "blogLinks": [
                "https://www.gapyear.com/articles/216212/13-incredible-stops-on-the-pacific-coast-highway"
            ],
            "longitude": "-119.709585108231"
        },
        "kern river": {
            "latitude": "36.6816956",
            "closest_to": "",
            "address": "Kern River, Tulare County, California, United States of America",
            "locType": "river",
            "blogLinks": [
                "http://www.california-blog.com/"
            ],
            "longitude": "-118.4124188"
        },
        "san diego county": {
            "latitude": "32.9637838",
            "closest_to": "",
            "address": "San Diego County, California, United States of America",
            "locType": "administrative",
            "blogLinks": [
                "https://www.gapyear.com/articles/216212/13-incredible-stops-on-the-pacific-coast-highway"
            ],
            "longitude": "-116.7706276"
        },
        "union square": {
            "latitude": "37.78794125",
            "closest_to": "",
            "address": "Union Square, Post Street, Chinatown, SF, California, 94115, United States of America",
            "locType": "park",
            "blogLinks": [
                "https://www.gapyear.com/articles/216212/13-incredible-stops-on-the-pacific-coast-highway"
            ],
            "longitude": "-122.407502671706"
        },
        "pismo beach": {
            "latitude": "35.1427533",
            "closest_to": "",
            "address": "Pismo Beach, San Luis Obispo County, California, United States of America",
            "locType": "city",
            "blogLinks": [
                "https://www.gapyear.com/articles/216212/13-incredible-stops-on-the-pacific-coast-highway"
            ],
            "longitude": "-120.6412826"
        },
        "anaheim stadium": {
            "latitude": "33.8002599",
            "closest_to": "",
            "address": "Angel Stadium of Anaheim, South Douglass Road, Anaheim Resort District, Anaheim, Orange County, California, 92806, United States of America",
            "locType": "stadium",
            "blogLinks": [
                "http://visitanaheim.org/oc-recommended-50-must-sees-must-eats-must-dos-oc"
            ],
            "longitude": "-117.881742527598"
        },
        "palos verdes peninsula ca": {
            "latitude": "33.77984925",
            "closest_to": "",
            "address": "Palos Verdes Peninsula High School, Hawthorne Boulevard, Rolling Hills Estates, Los Angeles County, California, 90274, United States of America",
            "locType": "school",
            "blogLinks": [
                "http://www.california-blog.com/"
            ],
            "longitude": "-118.372196730215"
        },
        "griffith park": {
            "latitude": "38.68813",
            "closest_to": "",
            "address": "Griffith Park, Citrus Heights, Sacramento County, California, 95621, United States of America",
            "locType": "service",
            "blogLinks": [
                "https://answers.yahoo.com/question/index?qid=20080530211242AArXWMD"
            ],
            "longitude": "-121.3121659"
        },
        "monterey bay": {
            "latitude": "36.7999557",
            "closest_to": "",
            "address": "Monterey Bay, Monterey County, California, United States of America",
            "locType": "bay",
            "blogLinks": [
                "https://www.gapyear.com/articles/216212/13-incredible-stops-on-the-pacific-coast-highway"
            ],
            "longitude": "-121.9010667"
        },
        "delaware": {
            "latitude": "33.7106462",
            "closest_to": "",
            "address": "Delaware, Northwood, Irvine, Orange County, California, 92620, United States of America",
            "locType": "residential",
            "blogLinks": [
                "http://historichuntingtonbeach.blogspot.com/"
            ],
            "longitude": "-117.7758213"
        },
        "disneyland": {
            "latitude": "33.8136367",
            "closest_to": "",
            "address": "DL, 1313, South Harbor Boulevard, Anaheim Resort District, Anaheim, Orange County, California, 92805, United States of America",
            "locType": "theme_park",
            "blogLinks": [
                "http://visitanaheim.org/oc-recommended-50-must-sees-must-eats-must-dos-oc"
            ],
            "longitude": "-117.91971186569"
        },
        "us": {
            "latitude": "36.7014631",
            "closest_to": "",
            "address": "California, United States of America",
            "locType": "administrative",
            "blogLinks": [
                "https://www.expedia.com/Costa-Mesa-Hotels.d7674.Travel-Guide-Hotels",
                "https://www.expedia.com/Newport-Beach-Hotels.d8111.Travel-Guide-Hotels"
            ],
            "longitude": "-118.7559973"
        },
        "alameda park": {
            "latitude": "34.4283605",
            "closest_to": "",
            "address": "Alameda Park (Alameda Plaza), Santa Barbara Street, Santa Barbara, Santa Barbara County, California, 93105, United States of America",
            "locType": "park",
            "blogLinks": [
                "https://answers.yahoo.com/question/index?qid=20080530211242AArXWMD"
            ],
            "longitude": "-119.704842654656"
        },
        "lax": {
            "latitude": "33.94211345",
            "closest_to": "",
            "address": "Los Angeles International Airport, Gate 41, Westchester, Playa del Rey, LA, Los Angeles County, California, 90245, United States of America",
            "locType": "aerodrome",
            "blogLinks": [
                "https://www.tripadvisor.com/ShowTopic-g32588-i355-k3413966-Laguna_Beach_Vs_Newport_vs_Huntington_Beach-Laguna_Beach_California.html"
            ],
            "longitude": "-118.407057290249"
        },
        "wilder ranch state park": {
            "latitude": "36.96021805",
            "closest_to": "",
            "address": "Wilder Ranch State Park, Coast Road, Westside, Santa Cruz County, California, 95060, United States of America",
            "locType": "park",
            "blogLinks": [
                "https://www.gapyear.com/articles/216212/13-incredible-stops-on-the-pacific-coast-highway"
            ],
            "longitude": "-122.079566815934"
        },
        "pebble beach ca": {
            "latitude": "36.5664874",
            "closest_to": "",
            "address": "Pebble Beach, Monterey County, California, United States of America",
            "locType": "hamlet",
            "blogLinks": [
                "http://www.california-blog.com/"
            ],
            "longitude": "-121.9466112"
        },
        "oxnard": {
            "latitude": "34.1976308",
            "closest_to": "",
            "address": "Oxnard, Ventura County, California, United States of America",
            "locType": "city",
            "blogLinks": [
                "https://www.gapyear.com/articles/216212/13-incredible-stops-on-the-pacific-coast-highway"
            ],
            "longitude": "-119.1803817"
        },
        "southern california": {
            "latitude": "34.0224149",
            "closest_to": "",
            "address": "University of Southern California, Watt Way, Saint James Park, LA, Los Angeles County, California, 90089, United States of America",
            "locType": "university",
            "blogLinks": [
                "https://www.yelp.com/biz/huntington-beach-bicycle-trail-huntington-beach",
                "http://historichuntingtonbeach.blogspot.com/",
                "http://www.visitnewportbeach.com/beaches-and-parks/newport-pier-located-at-balboa-peninsula/",
                "https://www.expedia.com/Costa-Mesa-Hotels.d7674.Travel-Guide-Hotels",
                "https://www.expedia.com/Newport-Beach-Hotels.d8111.Travel-Guide-Hotels",
                "http://visitanaheim.org/oc-recommended-50-must-sees-must-eats-must-dos-oc"
            ],
            "longitude": "-118.286343973446"
        },
        "pacific": {
            "latitude": "38.7601815",
            "closest_to": "",
            "address": "Pacific, El Dorado County, California, United States of America",
            "locType": "hamlet",
            "blogLinks": [
                "http://visitanaheim.org/oc-recommended-50-must-sees-must-eats-must-dos-oc",
                "https://answers.yahoo.com/question/index?qid=20080530211242AArXWMD"
            ],
            "longitude": "-120.507146"
        },
        "state park": {
            "latitude": "35.5818461",
            "closest_to": "",
            "address": "State Park, Cambria, San Luis Obispo County, California, 93428, United States of America",
            "locType": "service",
            "blogLinks": [
                "http://www.ocweekly.com/restaurants/10-essential-huntington-beach-restaurants-6631563"
            ],
            "longitude": "-121.1198923"
        },
        "21st place": {
            "latitude": "34.0423584",
            "closest_to": "",
            "address": "21st Place, Santa Monica, Los Angeles County, California, 90402, United States of America",
            "locType": "residential",
            "blogLinks": [
                "https://www.yelp.com/biz/huntington-beach-bicycle-trail-huntington-beach"
            ],
            "longitude": "-118.4932389"
        },
        "mcway falls": {
            "latitude": "36.1578211",
            "closest_to": "",
            "address": "McWay Falls, Monterey County, California, United States of America",
            "locType": "waterfall",
            "blogLinks": [
                "https://www.gapyear.com/articles/216212/13-incredible-stops-on-the-pacific-coast-highway"
            ],
            "longitude": "-121.6723957"
        },
        "ojai valley": {
            "latitude": "34.4480495",
            "closest_to": "",
            "address": "Ojai, Ventura County, California, United States of America",
            "locType": "city",
            "blogLinks": [
                "http://www.california-blog.com/"
            ],
            "longitude": "-119.2428889"
        },
        "monterey bay aquarium": {
            "latitude": "36.61809095",
            "closest_to": "",
            "address": "MBA, 886, Cannery Row, Monterey, Monterey County, California, 93940, United States of America",
            "locType": "aquarium",
            "blogLinks": [
                "https://www.gapyear.com/articles/216212/13-incredible-stops-on-the-pacific-coast-highway"
            ],
            "longitude": "-121.901680002002"
        },
        "tokyo": {
            "latitude": "34.0431787",
            "closest_to": "",
            "address": "Southern California Institute of Architecture, 960, East 3rd Street, Arts District, Little Tokyo Historic District, LA, Los Angeles County, California, 90013, United States of America",
            "locType": "school",
            "blogLinks": [
                "http://historichuntingtonbeach.blogspot.com/"
            ],
            "longitude": "-118.2328066"
        },
        "carpinteria": {
            "latitude": "34.3988838",
            "closest_to": "",
            "address": "Carpinteria, Santa Barbara County, California, United States of America",
            "locType": "city",
            "blogLinks": [
                "https://answers.yahoo.com/question/index?qid=20080530211242AArXWMD"
            ],
            "longitude": "-119.5184563"
        },
        "new orleans": {
            "latitude": "33.8116219",
            "closest_to": "",
            "address": "New Orleans Square, Anaheim, Orange County, California, United States of America",
            "locType": "locality",
            "blogLinks": [
                "http://visitanaheim.org/oc-recommended-50-must-sees-must-eats-must-dos-oc"
            ],
            "longitude": "-117.9206364"
        },
        "toronto": {
            "latitude": "33.5731279",
            "closest_to": "",
            "address": "Toronto, Aliso Viejo, Orange County, California, 92656, United States of America",
            "locType": "residential",
            "blogLinks": [
                "https://www.tripadvisor.com/ShowTopic-g32588-i355-k3413966-Laguna_Beach_Vs_Newport_vs_Huntington_Beach-Laguna_Beach_California.html"
            ],
            "longitude": "-117.7355314"
        },
        "bubba gump": {
            "latitude": "36.61674695",
            "closest_to": "",
            "address": "Bubba Gump, 720, Cannery Row, Monterey, Monterey County, California, 93940, United States of America",
            "locType": "restaurant",
            "blogLinks": [
                "https://answers.yahoo.com/question/index?qid=20080530211242AArXWMD"
            ],
            "longitude": "-121.900200090787"
        },
        "mount baldy ca": {
            "latitude": "34.2361168",
            "closest_to": "",
            "address": "Mount Baldy, Los Angeles County, California, United States of America",
            "locType": "hamlet",
            "blogLinks": [
                "http://www.california-blog.com/"
            ],
            "longitude": "-117.6600552"
        },
        "san clemente": {
            "latitude": "33.4270275",
            "closest_to": "",
            "address": "San Clemente, Orange County, California, United States of America",
            "locType": "city",
            "blogLinks": [
                "https://www.tripadvisor.com/ShowTopic-g32588-i355-k3413966-Laguna_Beach_Vs_Newport_vs_Huntington_Beach-Laguna_Beach_California.html"
            ],
            "longitude": "-117.6124178"
        },
        "west coast": {
            "latitude": "34.0222263",
            "closest_to": "",
            "address": "West Coast, Motor Avenue, Palms, LA, Los Angeles County, California, 90034-5702, United States of America",
            "locType": "plumber",
            "blogLinks": [
                "https://www.gapyear.com/articles/216212/13-incredible-stops-on-the-pacific-coast-highway"
            ],
            "longitude": "-118.4051087"
        },
        "summit house": {
            "latitude": "35.1277437",
            "closest_to": "",
            "address": "Summit, Tehachapi, Kern County, California, United States of America",
            "locType": "locality",
            "blogLinks": [
                "http://visitanaheim.org/oc-recommended-50-must-sees-must-eats-must-dos-oc"
            ],
            "longitude": "-118.4139725"
        },
        "black hill": {
            "latitude": "34.1788953",
            "closest_to": "",
            "address": "Black Hill, San Bernardino County, California, United States of America",
            "locType": "peak",
            "blogLinks": [
                "https://www.gapyear.com/articles/216212/13-incredible-stops-on-the-pacific-coast-highway"
            ],
            "longitude": "-116.49196"
        },
        "state beach": {
            "latitude": "34.03385755",
            "closest_to": "",
            "address": "Malibu Lagoon State Beach, Pacific Coast Highway, Malibu, Los Angeles County, California, 90265, United States of America",
            "locType": "beach",
            "blogLinks": [
                "http://www.parks.ca.gov/?page_id=643"
            ],
            "longitude": "-118.679064060789"
        },
        "san juan capistrano": {
            "latitude": "33.5016932",
            "closest_to": "",
            "address": "San Juan Capistrano, Orange County, California, United States of America",
            "locType": "city",
            "blogLinks": [
                "https://www.tripadvisor.com/ShowTopic-g32588-i355-k3413966-Laguna_Beach_Vs_Newport_vs_Huntington_Beach-Laguna_Beach_California.html"
            ],
            "longitude": "-117.6625508"
        },
        "hawaii": {
            "latitude": "36.8347819",
            "closest_to": "",
            "address": "Hawaii, Fresno County, California, 93650, United States of America",
            "locType": "service",
            "blogLinks": [
                "http://www.parks.ca.gov/?page_id=643"
            ],
            "longitude": "-119.7966952"
        },
        "laguna reef": {
            "latitude": "33.5462786",
            "closest_to": "",
            "address": "Sulphur Creek Reservoir, Access Drive To Park, Laguna Niguel, Orange County, California, 92677, United States of America",
            "locType": "water",
            "blogLinks": [
                "https://www.tripadvisor.com/ShowTopic-g32588-i355-k3413966-Laguna_Beach_Vs_Newport_vs_Huntington_Beach-Laguna_Beach_California.html"
            ],
            "longitude": "-117.704611141504"
        },
        "greece": {
            "latitude": "43.222537",
            "closest_to": "",
            "address": "California Drive, Greece Town, Monroe County, New York, 14616, United States of America",
            "locType": "residential",
            "blogLinks": [
                "http://www.ocweekly.com/restaurants/10-essential-huntington-beach-restaurants-6631563"
            ],
            "longitude": "-77.6362609"
        },
        "x9csurf city usa": {
            "latitude": "37.4852152",
            "closest_to": "",
            "address": "Redwood City, San Mateo County, California, United States of America",
            "locType": "city",
            "blogLinks": [
                "http://www.parks.ca.gov/?page_id=643"
            ],
            "longitude": "-122.2363547"
        },
        "balboa park": {
            "latitude": "37.72494875",
            "closest_to": "",
            "address": "Balboa Park, Sergeant John V Young Lane, Ingleside, SF, California, 94112, United States of America",
            "locType": "park",
            "blogLinks": [
                "https://www.gapyear.com/articles/216212/13-incredible-stops-on-the-pacific-coast-highway"
            ],
            "longitude": "-122.444804424152"
        },
        "rio theatre": {
            "latitude": "36.9801486",
            "closest_to": "",
            "address": "Rio Theatre, Soquel Avenue, Soquel Avenue Commercial Corridor, Eastside, Santa Cruz, Santa Cruz County, California, 95062, United States of America",
            "locType": "theatre",
            "blogLinks": [
                "https://www.gapyear.com/articles/216212/13-incredible-stops-on-the-pacific-coast-highway"
            ],
            "longitude": "-122.0104295"
        },
        "laguna riviera": {
            "latitude": "33.146705",
            "closest_to": "",
            "address": "Laguna Riviera City Park, Park Drive, Carlsbad, San Diego County, California, 92008, United States of America",
            "locType": "park",
            "blogLinks": [
                "https://www.tripadvisor.com/ShowTopic-g32588-i355-k3413966-Laguna_Beach_Vs_Newport_vs_Huntington_Beach-Laguna_Beach_California.html"
            ],
            "longitude": "-117.311704"
        },
        "italy": {
            "latitude": "45.659844",
            "closest_to": "",
            "address": "California, MB, LOM, Italia",
            "locType": "village",
            "blogLinks": [
                "http://visitanaheim.org/oc-recommended-50-must-sees-must-eats-must-dos-oc",
                "http://www.ocweekly.com/restaurants/10-essential-huntington-beach-restaurants-6631563"
            ],
            "longitude": "9.3130453"
        },
        "capistrano beach": {
            "latitude": "33.4625277",
            "closest_to": "",
            "address": "Capistrano Beach, Orange County, California, United States of America",
            "locType": "hamlet",
            "blogLinks": [
                "https://www.tripadvisor.com/ShowTopic-g32588-i355-k3413966-Laguna_Beach_Vs_Newport_vs_Huntington_Beach-Laguna_Beach_California.html"
            ],
            "longitude": "-117.6717174"
        },
        "golden gate park": {
            "latitude": "37.7693681",
            "closest_to": "",
            "address": "Golden Gate Park, Overlook Drive, Richmond District, SF, California, 94122, United States of America",
            "locType": "park",
            "blogLinks": [
                "https://www.gapyear.com/articles/216212/13-incredible-stops-on-the-pacific-coast-highway"
            ],
            "longitude": "-122.482183611177"
        },
        "monrovia": {
            "latitude": "34.1483499",
            "closest_to": "",
            "address": "Monrovia, Los Angeles County, California, United States of America",
            "locType": "city",
            "blogLinks": [
                "http://www.california-blog.com/"
            ],
            "longitude": "-118.0014516"
        },
        "la": {
            "latitude": "36.7014631",
            "closest_to": "",
            "address": "California, United States of America",
            "locType": "administrative",
            "blogLinks": [
                "https://www.yelp.com/biz/huntington-beach-bicycle-trail-huntington-beach",
                "https://www.tripadvisor.com/ShowTopic-g32513-i720-k2073379-Huntington_Beach_vs_Newport_Beach-Huntington_Beach_California.html",
                "https://www.tripadvisor.com/ShowTopic-g32588-i355-k3413966-Laguna_Beach_Vs_Newport_vs_Huntington_Beach-Laguna_Beach_California.html",
                "https://answers.yahoo.com/question/index?qid=20080530211242AArXWMD",
                "https://www.surfcityusa.com/hotels/hotels-motels/"
            ],
            "longitude": "-118.7559973"
        },
        "fullerton": {
            "latitude": "33.8708215",
            "closest_to": "",
            "address": "Fullerton, Orange County, California, United States of America",
            "locType": "city",
            "blogLinks": [
                "http://visitanaheim.org/oc-recommended-50-must-sees-must-eats-must-dos-oc"
            ],
            "longitude": "-117.9294164"
        },
        "downtown ventura": {
            "latitude": "34.15184445",
            "closest_to": "",
            "address": "Downtown Johnny's, 14649, Ventura Boulevard, Sherman Oaks, LA, Los Angeles County, California, 91403, United States of America",
            "locType": "restaurant",
            "blogLinks": [
                "https://www.gapyear.com/articles/216212/13-incredible-stops-on-the-pacific-coast-highway"
            ],
            "longitude": "-118.452523182928"
        },
        "palm springs air museum ca": {
            "latitude": "33.83250375",
            "closest_to": "",
            "address": "Palm Springs Air Museum, 745, North Gene Autry Trail, Palm Springs, Riverside County, California, 92262, United States of America",
            "locType": "museum",
            "blogLinks": [
                "http://www.california-blog.com/"
            ],
            "longitude": "-116.504677958796"
        },
        "hilton": {
            "latitude": "38.5046346",
            "closest_to": "",
            "address": "Hilton, Sonoma County, California, United States of America",
            "locType": "hamlet",
            "blogLinks": [
                "https://www.tripadvisor.com/ShowTopic-g32588-i355-k3413966-Laguna_Beach_Vs_Newport_vs_Huntington_Beach-Laguna_Beach_California.html"
            ],
            "longitude": "-122.9402742"
        },
        "santa barbara california": {
            "latitude": "34.4221319",
            "closest_to": "",
            "address": "Santa Barbara, Santa Barbara County, California, United States of America",
            "locType": "city",
            "blogLinks": [
                "https://answers.yahoo.com/question/index?qid=20080530211242AArXWMD"
            ],
            "longitude": "-119.7026672"
        },
        "oregon": {
            "latitude": "33.7123207",
            "closest_to": "",
            "address": "Oregon, Walnut, Irvine, Orange County, California, 92606, United States of America",
            "locType": "residential",
            "blogLinks": [
                "https://www.gapyear.com/articles/216212/13-incredible-stops-on-the-pacific-coast-highway"
            ],
            "longitude": "-117.7911567"
        },
        "coronado bridge": {
            "latitude": "32.6904606",
            "closest_to": "",
            "address": "San Diego-Coronado Bridge, San Diego, San Diego County, California, 92118, United States of America",
            "locType": "motorway",
            "blogLinks": [
                "https://www.gapyear.com/articles/216212/13-incredible-stops-on-the-pacific-coast-highway"
            ],
            "longitude": "-117.1524863"
        },
        "half moon bay": {
            "latitude": "37.4635519",
            "closest_to": "",
            "address": "Half Moon Bay, San Mateo County, California, United States of America",
            "locType": "city",
            "blogLinks": [
                "https://www.gapyear.com/articles/216212/13-incredible-stops-on-the-pacific-coast-highway"
            ],
            "longitude": "-122.4285861"
        },
        "little tokyo": {
            "latitude": "34.0482697",
            "closest_to": "",
            "address": "Little Tokyo, Little Tokyo Historic District, LA, Los Angeles County, California, 90013, United States of America",
            "locType": "neighbourhood",
            "blogLinks": [
                "http://historichuntingtonbeach.blogspot.com/"
            ],
            "longitude": "-118.2417215"
        },
        "japan": {
            "latitude": "34.0833889",
            "closest_to": "",
            "address": "Japan LA, Melrose Avenue, Park La Brea, Hollywood, LA, Los Angeles County, California, 90069, United States of America",
            "locType": "clothes",
            "blogLinks": [
                "http://visitanaheim.org/oc-recommended-50-must-sees-must-eats-must-dos-oc",
                "http://historichuntingtonbeach.blogspot.com/"
            ],
            "longitude": "-118.3494693"
        },
        "long beach museum of art": {
            "latitude": "33.76347985",
            "closest_to": "",
            "address": "Long Beach Museum of Art, East Ocean Boulevard, Belmont Shore, Long Beach, Los Angeles County, California, 90814, United States of America",
            "locType": "museum",
            "blogLinks": [
                "https://www.gapyear.com/articles/216212/13-incredible-stops-on-the-pacific-coast-highway"
            ],
            "longitude": "-118.164781543159"
        },
        "naples": {
            "latitude": "33.75419085",
            "closest_to": "",
            "address": "Naples, California, United States of America",
            "locType": "administrative",
            "blogLinks": [
                "https://www.yelp.com/biz/huntington-beach-bicycle-trail-huntington-beach"
            ],
            "longitude": "-118.123797605753"
        },
        "rodeo drive": {
            "latitude": "32.824444",
            "closest_to": "",
            "address": "Rodeo Drive, La Jolla, San Diego, San Diego County, California, 92037, United States of America",
            "locType": "residential",
            "blogLinks": [
                "https://www.gapyear.com/articles/216212/13-incredible-stops-on-the-pacific-coast-highway"
            ],
            "longitude": "-117.2609329"
        },
        "surf city usa": {
            "latitude": "37.8588436",
            "closest_to": "",
            "address": "Surf City, Tuolumne County, California, United States of America",
            "locType": "rapids",
            "blogLinks": [
                "https://www.tripadvisor.com/ShowTopic-g32588-i355-k3413966-Laguna_Beach_Vs_Newport_vs_Huntington_Beach-Laguna_Beach_California.html"
            ],
            "longitude": "-120.6349548"
        },
        "lombard street": {
            "latitude": "37.802076",
            "closest_to": "",
            "address": "1079, Lombard Street, Russian Hill, SF, California, 94109, United States of America",
            "locType": "residential",
            "blogLinks": [
                "https://www.gapyear.com/articles/216212/13-incredible-stops-on-the-pacific-coast-highway"
            ],
            "longitude": "-122.418809"
        },
        "orange county": {
            "latitude": "33.7500378",
            "closest_to": "",
            "address": "Orange County, California, United States of America",
            "locType": "administrative",
            "blogLinks": [
                "http://www.parks.ca.gov/?page_id=643",
                "https://www.yelp.com/biz/huntington-beach-bicycle-trail-huntington-beach",
                "https://www.expedia.com/Costa-Mesa-Hotels.d7674.Travel-Guide-Hotels",
                "http://visitanaheim.org/oc-recommended-50-must-sees-must-eats-must-dos-oc",
                "http://historichuntingtonbeach.blogspot.com/"
            ],
            "longitude": "-117.870493"
        },
        "laguna beach": {
            "latitude": "33.5420888",
            "closest_to": "",
            "address": "Laguna Beach, Orange County, California, United States of America",
            "locType": "city",
            "blogLinks": [
                "https://www.gapyear.com/articles/216212/13-incredible-stops-on-the-pacific-coast-highway",
                "http://www.visitnewportbeach.com/beaches-and-parks/newport-pier-located-at-balboa-peninsula/",
                "https://www.tripadvisor.com/ShowTopic-g32513-i720-k2073379-Huntington_Beach_vs_Newport_Beach-Huntington_Beach_California.html",
                "http://visitanaheim.org/oc-recommended-50-must-sees-must-eats-must-dos-oc",
                "https://www.tripadvisor.com/ShowTopic-g32588-i355-k3413966-Laguna_Beach_Vs_Newport_vs_Huntington_Beach-Laguna_Beach_California.html"
            ],
            "longitude": "-117.7834146"
        },
        "montage laguna beach": {
            "latitude": "33.51472775",
            "closest_to": "",
            "address": "Montage Resort & Spa, Laguna Beach, Orange County, California, 92651, United States of America",
            "locType": "commercial",
            "blogLinks": [
                "https://www.expedia.com/Costa-Mesa-Hotels.d7674.Travel-Guide-Hotels"
            ],
            "longitude": "-117.75712426585"
        },
        "san diego": {
            "latitude": "32.7174209",
            "closest_to": "",
            "address": "San Diego, San Diego County, California, United States of America",
            "locType": "city",
            "blogLinks": [
                "https://www.gapyear.com/articles/216212/13-incredible-stops-on-the-pacific-coast-highway",
                "https://www.tripadvisor.com/ShowTopic-g32588-i355-k3413966-Laguna_Beach_Vs_Newport_vs_Huntington_Beach-Laguna_Beach_California.html"
            ],
            "longitude": "-117.1627713"
        },
        "xa0huntington state beach": {
            "latitude": "34.0387197",
            "closest_to": "",
            "address": "18700, Topanga State Beach, Los Angeles County, California, 90265, United States of America",
            "locType": "hamlet",
            "blogLinks": [
                "http://www.parks.ca.gov/?page_id=643"
            ],
            "longitude": "-118.582630921924"
        },
        "lake forest": {
            "latitude": "33.6469261",
            "closest_to": "",
            "address": "Lake Forest, Orange County, California, United States of America",
            "locType": "city",
            "blogLinks": [
                "http://historichuntingtonbeach.blogspot.com/"
            ],
            "longitude": "-117.6859212"
        },
        "silicon valley": {
            "latitude": "37.4105333",
            "closest_to": "",
            "address": "Carnegie Mellon Silicon Valley, South Akron Road, Santa Clara County, California, 94035-0016, United States of America",
            "locType": "school",
            "blogLinks": [
                "https://www.gapyear.com/articles/216212/13-incredible-stops-on-the-pacific-coast-highway"
            ],
            "longitude": "-122.0597491"
        },
        "ontario": {
            "latitude": "34.065846",
            "closest_to": "",
            "address": "Ontario, San Bernardino County, California, United States of America",
            "locType": "city",
            "blogLinks": [
                "http://www.california-blog.com/"
            ],
            "longitude": "-117.6484303"
        },
        "laguna canyon rd": {
            "latitude": "33.5467591",
            "closest_to": "",
            "address": "Laguna Canyon Road, Laguna Beach, Orange County, California, 92652, United States of America",
            "locType": "primary",
            "blogLinks": [
                "https://www.tripadvisor.com/ShowTopic-g32588-i355-k3413966-Laguna_Beach_Vs_Newport_vs_Huntington_Beach-Laguna_Beach_California.html"
            ],
            "longitude": "-117.7821013"
        },
        "pacific ocean": {
            "latitude": "36.16305775",
            "closest_to": "",
            "address": "Pacific Ocean, Cabrillo Highway, Monterey County, California, 93920, United States of America",
            "locType": "cliff",
            "blogLinks": [
                "http://visitanaheim.org/oc-recommended-50-must-sees-must-eats-must-dos-oc"
            ],
            "longitude": "-121.678715787326"
        },
        "pelican hill resort": {
            "latitude": "33.5254289",
            "closest_to": "",
            "address": "Pelican Drive, Montage Resort & Spa, Laguna Beach, Orange County, California, 92651, United States of America",
            "locType": "residential",
            "blogLinks": [
                "https://www.expedia.com/Costa-Mesa-Hotels.d7674.Travel-Guide-Hotels"
            ],
            "longitude": "-117.7568196"
        },
        "hyatt regency": {
            "latitude": "34.05472945",
            "closest_to": "",
            "address": "Hyatt Regency, The LA Hotel Downtown, Figueroa Street, Financial District, Bunker Hill, LA, Los Angeles County, California, 90071, United States of America",
            "locType": "hotel",
            "blogLinks": [
                "https://www.tripadvisor.com/ShowTopic-g32588-i355-k3413966-Laguna_Beach_Vs_Newport_vs_Huntington_Beach-Laguna_Beach_California.html"
            ],
            "longitude": "-118.255604370831"
        },
        "north lake ca": {
            "latitude": "37.76958295",
            "closest_to": "",
            "address": "North Lake, Chain of Lakes Drive East, Sunset District, SF, California, 94122, United States of America",
            "locType": "water",
            "blogLinks": [
                "http://www.california-blog.com/"
            ],
            "longitude": "-122.501983281136"
        },
        "old towne orange": {
            "latitude": "33.91205135",
            "closest_to": "",
            "address": "Brea Towne Centre, Downtown Brea, Brea, Orange County, California, 92821, United States of America",
            "locType": "retail",
            "blogLinks": [
                "http://visitanaheim.org/oc-recommended-50-must-sees-must-eats-must-dos-oc"
            ],
            "longitude": "-117.890687842446"
        },
        "newport": {
            "latitude": "39.5773839",
            "closest_to": "",
            "address": "Newport, Mendocino County, California, United States of America",
            "locType": "hamlet",
            "blogLinks": [
                "https://www.yelp.com/biz/huntington-beach-bicycle-trail-huntington-beach",
                "https://www.tripadvisor.com/ShowTopic-g32513-i720-k2073379-Huntington_Beach_vs_Newport_Beach-Huntington_Beach_California.html"
            ],
            "longitude": "-123.7747387"
        },
        "sunset boulevard": {
            "latitude": "34.0759222",
            "closest_to": "",
            "address": "Sunset Boulevard, Echo Park, Angelino Heights, LA, Los Angeles County, California, 90026, United States of America",
            "locType": "primary",
            "blogLinks": [
                "https://www.gapyear.com/articles/216212/13-incredible-stops-on-the-pacific-coast-highway"
            ],
            "longitude": "-118.2554183"
        },
        "garden st": {
            "latitude": "34.416549",
            "closest_to": "",
            "address": "Garden Street, Santa Barbara, Santa Barbara County, California, 93101, United States of America",
            "locType": "secondary",
            "blogLinks": [
                "https://answers.yahoo.com/question/index?qid=20080530211242AArXWMD"
            ],
            "longitude": "-119.6875199"
        },
        "riverside national cemetery": {
            "latitude": "33.87692125",
            "closest_to": "",
            "address": "Riverside National Cemetery, 22495, Alessandro, Riverside County, California, 92518, United States of America",
            "locType": "cemetery",
            "blogLinks": [
                "http://www.california-blog.com/"
            ],
            "longitude": "-117.270726607134"
        },
        "yosemite national park": {
            "latitude": "37.84054795",
            "closest_to": "",
            "address": "Yosemite National Park, Mt. Hoffmann Trail, Mariposa County, California, United States of America",
            "locType": "national_park",
            "blogLinks": [
                "https://www.gapyear.com/articles/216212/13-incredible-stops-on-the-pacific-coast-highway"
            ],
            "longitude": "-119.516587698025"
        },
        "fairfax": {
            "latitude": "37.9872935",
            "closest_to": "",
            "address": "Fairfax, Marin County, California, United States of America",
            "locType": "administrative",
            "blogLinks": [
                "https://answers.yahoo.com/question/index?qid=20080530211242AArXWMD"
            ],
            "longitude": "-122.5879673"
        },
        "laguna": {
            "latitude": "38.4210209",
            "closest_to": "",
            "address": "Laguna, Sacramento County, California, United States of America",
            "locType": "hamlet",
            "blogLinks": [
                "https://www.tripadvisor.com/ShowTopic-g32588-i355-k3413966-Laguna_Beach_Vs_Newport_vs_Huntington_Beach-Laguna_Beach_California.html"
            ],
            "longitude": "-121.4238413"
        },
        "islay hill": {
            "latitude": "35.2455305",
            "closest_to": "",
            "address": "Islay Hill, San Luis Obispo, San Luis Obispo County, California, United States of America",
            "locType": "peak",
            "blogLinks": [
                "https://www.gapyear.com/articles/216212/13-incredible-stops-on-the-pacific-coast-highway"
            ],
            "longitude": "-120.622392"
        },
        "monterey bay aquarium ca": {
            "latitude": "36.61809095",
            "closest_to": "",
            "address": "MBA, 886, Cannery Row, Monterey, Monterey County, California, 93940, United States of America",
            "locType": "aquarium",
            "blogLinks": [
                "http://www.california-blog.com/"
            ],
            "longitude": "-121.901680002002"
        },
        "ritz-carlton": {
            "latitude": "37.791867",
            "closest_to": "",
            "address": "Ritz-Carlton, 600, Stockton Street, Chinatown, SF, California, 94108, United States of America",
            "locType": "hotel",
            "blogLinks": [
                "https://www.expedia.com/Costa-Mesa-Hotels.d7674.Travel-Guide-Hotels",
                "https://www.expedia.com/Newport-Beach-Hotels.d8111.Travel-Guide-Hotels"
            ],
            "longitude": "-122.406834213408"
        },
        "pacific beach": {
            "latitude": "32.7978268",
            "closest_to": "",
            "address": "Pacific Beach, San Diego, San Diego County, California, United States of America",
            "locType": "suburb",
            "blogLinks": [
                "https://www.gapyear.com/articles/216212/13-incredible-stops-on-the-pacific-coast-highway"
            ],
            "longitude": "-117.2403182"
        },
        "alcatraz island": {
            "latitude": "37.8267283",
            "closest_to": "",
            "address": "Alcatraz Island, SF, California, United States of America",
            "locType": "island",
            "blogLinks": [
                "https://www.gapyear.com/articles/216212/13-incredible-stops-on-the-pacific-coast-highway"
            ],
            "longitude": "-122.422746492409"
        },
        "marine stadium": {
            "latitude": "33.7611284",
            "closest_to": "",
            "address": "Marine Stadium, Long Beach, Los Angeles County, California, United States of America",
            "locType": "dock",
            "blogLinks": [
                "https://www.yelp.com/biz/huntington-beach-bicycle-trail-huntington-beach"
            ],
            "longitude": "-118.1214541"
        },
        "soda lake": {
            "latitude": "35.23913735",
            "closest_to": "",
            "address": "Soda Lake, Soda Lake Road, San Luis Obispo County, California, United States of America",
            "locType": "water",
            "blogLinks": [
                "https://www.gapyear.com/articles/216212/13-incredible-stops-on-the-pacific-coast-highway"
            ],
            "longitude": "-119.895515964214"
        },
        "san diego bay": {
            "latitude": "32.6500534",
            "closest_to": "",
            "address": "San Diego Bay, Leyte Road, Crown Island, Coronado, San Diego County, California, 92118, United States of America",
            "locType": "bay",
            "blogLinks": [
                "https://www.gapyear.com/articles/216212/13-incredible-stops-on-the-pacific-coast-highway"
            ],
            "longitude": "-117.1341977"
        }
    },
    "newport beach": {
        "type": "city",
        "osm_id": "112956",
        "class": "place",
        "importance": 0.75631325724067,
        "lat": "33.6170092",
        "lon": "-117.92944",
        "boundingbox": [
            "33.5348773",
            "33.6717531",
            "-117.9959276",
            "-117.7839003"
        ],
        "display_name": "Newport Beach, Orange County, California, United States of America",
        "licence": "Data \u00a9 OpenStreetMap contributors, ODbL 1.0. http://www.openstreetmap.org/copyright",
        "icon": "https://nominatim.openstreetmap.org/images/mapicons/poi_place_city.p.20.png",
        "place_id": "157952615",
        "osm_type": "relation"
    }
}