{
    "mentions": {
        "terramor aquatic park": {
            "latitude": "33.54481145",
            "closest_to": "",
            "address": "Terramor Aquatic Park, Mocha Lane, Las Flores, Ladera Ranch, Orange County, California, 92675, United States of America",
            "locType": "swimming_pool",
            "blogLinks": [
                "http://www.sandytoesandpopsicles.com/orange-county/101-things-to-do-with-kids/"
            ],
            "longitude": "-117.642713277969"
        },
        "anaheim hills": {
            "latitude": "33.8444082",
            "closest_to": "",
            "address": "Anaheim Hills, Anaheim, Orange County, California, United States of America",
            "locType": "suburb",
            "blogLinks": [
                "http://www.sandytoesandpopsicles.com/orange-county/101-things-to-do-with-kids/",
                "https://en.wikipedia.org/wiki/Orange_County,_California"
            ],
            "longitude": "-117.7773861"
        },
        "north orange county": {
            "latitude": "33.6876849",
            "closest_to": "",
            "address": "N, Portola Parkway, Foothill Ranch, Lake Forest, Orange County, California, 92610, United States of America",
            "locType": "yes",
            "blogLinks": [
                "https://en.wikipedia.org/wiki/Orange_County,_California"
            ],
            "longitude": "-117.67368765"
        },
        "san gabriel river": {
            "latitude": "34.1135293",
            "closest_to": "",
            "address": "San Gabriel River, Irwindale, Los Angeles County, California, United States of America",
            "locType": "river",
            "blogLinks": [
                "https://en.wikipedia.org/wiki/Orange_County,_California"
            ],
            "longitude": "-117.9681697"
        },
        "arizona": {
            "latitude": "34.4631398",
            "closest_to": "",
            "address": "Arizona, San Bernardino County, California, 92371, United States of America",
            "locType": "track",
            "blogLinks": [
                "https://en.wikipedia.org/wiki/Orange_County,_California"
            ],
            "longitude": "-117.5060679"
        },
        "laguna canyon": {
            "latitude": "33.5613752",
            "closest_to": "",
            "address": "Laguna College of Art and Design, Laguna Canyon Road, Laguna Beach, Orange County, California, 92651, United States of America",
            "locType": "school",
            "blogLinks": [
                "https://www.tripadvisor.com/ShowTopic-g32588-i355-k3413966-Laguna_Beach_Vs_Newport_vs_Huntington_Beach-Laguna_Beach_California.html"
            ],
            "longitude": "-117.7724545"
        },
        "brea": {
            "latitude": "33.9170444",
            "closest_to": "",
            "address": "Brea, Orange County, California, United States of America",
            "locType": "city",
            "blogLinks": [
                "https://en.wikipedia.org/wiki/Orange_County,_California"
            ],
            "longitude": "-117.8888556"
        },
        "disney california adventure park": {
            "latitude": "33.80638705",
            "closest_to": "",
            "address": "DCA, 1620, South Disneyland Drive, Anaheim Resort District, Anaheim, Orange County, California, 92802, United States of America",
            "locType": "theme_park",
            "blogLinks": [
                "https://en.wikipedia.org/wiki/Orange_County,_California"
            ],
            "longitude": "-117.919940244086"
        },
        "santiago creek": {
            "latitude": "35.0035876",
            "closest_to": "",
            "address": "Santiago Creek, Kern County, California, United States of America",
            "locType": "stream",
            "blogLinks": [
                "https://en.wikipedia.org/wiki/Orange_County,_California"
            ],
            "longitude": "-119.2913576"
        },
        "north": {
            "latitude": "-11.2141388",
            "closest_to": "",
            "address": "Canton Victoria, California, Provincia de Manuripi, PND, Bolivia",
            "locType": "hamlet",
            "blogLinks": [
                "https://en.wikipedia.org/wiki/Orange_County,_California"
            ],
            "longitude": "-67.7071862"
        },
        "villa park": {
            "latitude": "33.8147541",
            "closest_to": "",
            "address": "Villa Park, Orange County, California, United States of America",
            "locType": "city",
            "blogLinks": [
                "http://www.ocweekly.com/news/the-5-best-cities-in-orange-county-for-oc-newbies-to-move-to-6465447"
            ],
            "longitude": "-117.8206234"
        },
        "pacific islander": {
            "latitude": "36.7366176",
            "closest_to": "",
            "address": "DBH: Asian Pacific Islander Program, Latino Team, S.E.E.S. Program, South Barton Avenue, Fresno County, California, 93702, United States of America",
            "locType": "clinic",
            "blogLinks": [
                "https://en.wikipedia.org/wiki/Orange_County,_California"
            ],
            "longitude": "-119.7504685"
        },
        "south beach boulevard": {
            "latitude": "33.8188664",
            "closest_to": "",
            "address": "South Beach Boulevard, Anaheim, Orange County, California, 90680, United States of America",
            "locType": "primary",
            "blogLinks": [
                "http://www.sandytoesandpopsicles.com/orange-county/101-things-to-do-with-kids/"
            ],
            "longitude": "-117.9933654"
        },
        "peninsula of lower california": {
            "latitude": "32.52409355",
            "closest_to": "",
            "address": "Torre Peninsula, 2280, Avenida Doctor Atl, Zona Rio, Colonia Federal, Tijuana, Baja California, 22010, M\u00e9xico",
            "locType": "yes",
            "blogLinks": [
                "https://en.wikipedia.org/wiki/Orange_County,_California"
            ],
            "longitude": "-117.014787342934"
        },
        "lax": {
            "latitude": "33.94211345",
            "closest_to": "",
            "address": "Los Angeles International Airport, Gate 41, Westchester, Playa del Rey, LA, Los Angeles County, California, 90245, United States of America",
            "locType": "aerodrome",
            "blogLinks": [
                "https://www.tripadvisor.com/ShowTopic-g32588-i355-k3413966-Laguna_Beach_Vs_Newport_vs_Huntington_Beach-Laguna_Beach_California.html"
            ],
            "longitude": "-118.407057290249"
        },
        "santa ana river": {
            "latitude": "33.847255",
            "closest_to": "",
            "address": "Santa Ana River, Anaheim, Orange County, California, United States of America",
            "locType": "river",
            "blogLinks": [
                "https://en.wikipedia.org/wiki/Orange_County,_California"
            ],
            "longitude": "-117.8400508"
        },
        "main beach": {
            "latitude": "33.541692",
            "closest_to": "",
            "address": "Main Beach, South Coast Highway, Laguna Beach, Orange County, California, 92651, United States of America",
            "locType": "beach",
            "blogLinks": [
                "https://www.tripadvisor.com/ShowTopic-g32588-i355-k3413966-Laguna_Beach_Vs_Newport_vs_Huntington_Beach-Laguna_Beach_California.html"
            ],
            "longitude": "-117.7847769"
        },
        "santa monica": {
            "latitude": "34.0195598",
            "closest_to": "",
            "address": "Santa Monica, Los Angeles County, California, United States of America",
            "locType": "city",
            "blogLinks": [
                "https://www.tripadvisor.com/ShowTopic-g32588-i355-k3413966-Laguna_Beach_Vs_Newport_vs_Huntington_Beach-Laguna_Beach_California.html"
            ],
            "longitude": "-118.4869738"
        },
        "el ranchito": {
            "latitude": "32.8445282",
            "closest_to": "",
            "address": "El Ranchito, Carlton Hills Boulevard, Santee, San Diego County, California, 92071, United States of America",
            "locType": "restaurant",
            "blogLinks": [
                "https://travelblogsuccess.com/wits-irvine-california/"
            ],
            "longitude": "-116.9972123"
        },
        "angel stadium": {
            "latitude": "33.8002599",
            "closest_to": "",
            "address": "Angel Stadium of Anaheim, South Douglass Road, Anaheim Resort District, Anaheim, Orange County, California, 92806, United States of America",
            "locType": "stadium",
            "blogLinks": [
                "http://www.sandytoesandpopsicles.com/orange-county/101-things-to-do-with-kids/",
                "https://en.wikipedia.org/wiki/Orange_County,_California"
            ],
            "longitude": "-117.881742527598"
        },
        "modjeska canyon": {
            "latitude": "33.76943365",
            "closest_to": "",
            "address": "Modjeska Canyon, Arcilla, Temescal Valley, Riverside County, California, 92883, United States of America",
            "locType": "residential",
            "blogLinks": [
                "https://en.wikipedia.org/wiki/Orange_County,_California"
            ],
            "longitude": "-117.505712039223"
        },
        "u.s.a.": {
            "latitude": "37.7959257",
            "closest_to": "",
            "address": "Pacific Overseas Group (U.S.A) Inc., Grant Avenue, Chinatown, SF, California, 94133, United States of America",
            "locType": "yes",
            "blogLinks": [
                "https://en.wikipedia.org/wiki/Orange_County,_California"
            ],
            "longitude": "-122.4067326"
        },
        "pacific": {
            "latitude": "38.7601815",
            "closest_to": "",
            "address": "Pacific, El Dorado County, California, United States of America",
            "locType": "hamlet",
            "blogLinks": [
                "https://en.wikipedia.org/wiki/Orange_County,_California"
            ],
            "longitude": "-120.507146"
        },
        "hotel laguna": {
            "latitude": "33.5411778",
            "closest_to": "",
            "address": "Hotel Laguna, Laguna Avenue, Laguna Beach, Orange County, California, 92651, United States of America",
            "locType": "hotel",
            "blogLinks": [
                "https://www.tripadvisor.com/ShowTopic-g32588-i355-k3413966-Laguna_Beach_Vs_Newport_vs_Huntington_Beach-Laguna_Beach_California.html"
            ],
            "longitude": "-117.7829393"
        },
        "southern california": {
            "latitude": "34.0224149",
            "closest_to": "",
            "address": "University of Southern California, Watt Way, Saint James Park, LA, Los Angeles County, California, 90089, United States of America",
            "locType": "university",
            "blogLinks": [
                "http://www.ocweekly.com/news/the-5-best-cities-in-orange-county-for-oc-newbies-to-move-to-6465447",
                "https://travelblogsuccess.com/wits-irvine-california/",
                "https://en.wikipedia.org/wiki/Orange_County,_California"
            ],
            "longitude": "-118.286343973446"
        },
        "los angeles county": {
            "latitude": "34.3155072",
            "closest_to": "",
            "address": "Los Angeles County, California, United States of America",
            "locType": "administrative",
            "blogLinks": [
                "https://en.wikipedia.org/wiki/Orange_County,_California"
            ],
            "longitude": "-118.2096813"
        },
        "san clemente": {
            "latitude": "33.4270275",
            "closest_to": "",
            "address": "San Clemente, Orange County, California, United States of America",
            "locType": "city",
            "blogLinks": [
                "http://www.ocweekly.com/news/the-5-best-cities-in-orange-county-for-oc-newbies-to-move-to-6465447",
                "https://travelblogsuccess.com/wits-irvine-california/",
                "https://www.tripadvisor.com/ShowTopic-g32588-i355-k3413966-Laguna_Beach_Vs_Newport_vs_Huntington_Beach-Laguna_Beach_California.html",
                "http://www.sandytoesandpopsicles.com/orange-county/101-things-to-do-with-kids/",
                "https://en.wikipedia.org/wiki/Orange_County,_California"
            ],
            "longitude": "-117.6124178"
        },
        "cerritos": {
            "latitude": "33.8644291",
            "closest_to": "",
            "address": "Cerritos, Los Angeles County, California, United States of America",
            "locType": "city",
            "blogLinks": [
                "http://www.sandytoesandpopsicles.com/orange-county/101-things-to-do-with-kids/"
            ],
            "longitude": "-118.0539322"
        },
        "bravo": {
            "latitude": "35.3980161",
            "closest_to": "",
            "address": "Rio Bravo, Calders Corner, Kern County, California, United States of America",
            "locType": "locality",
            "blogLinks": [
                "https://en.wikipedia.org/wiki/Orange_County,_California"
            ],
            "longitude": "-119.290944"
        },
        "saddleback valley": {
            "latitude": "34.67534675",
            "closest_to": "",
            "address": "Saddleback Butte State Park, 175th Street East, Wilsona Gardens, Los Angeles County, California, United States of America",
            "locType": "park",
            "blogLinks": [
                "https://en.wikipedia.org/wiki/Orange_County,_California"
            ],
            "longitude": "-117.805161708143"
        },
        "great plains": {
            "latitude": "33.009857",
            "closest_to": "",
            "address": "Great Plains Road, Poway, San Diego County, California, 92064, United States of America",
            "locType": "residential",
            "blogLinks": [
                "https://en.wikipedia.org/wiki/Orange_County,_California"
            ],
            "longitude": "-117.0251769"
        },
        "lemon": {
            "latitude": "37.3209594",
            "closest_to": "",
            "address": "Lemon, Cricket Hill Road, Cupertino, Santa Clara County, California, 95014-2659, United States of America",
            "locType": "tree",
            "blogLinks": [
                "http://www.ocweekly.com/news/the-5-best-cities-in-orange-county-for-oc-newbies-to-move-to-6465447"
            ],
            "longitude": "-122.0769416"
        },
        "korea": {
            "latitude": "32.742474",
            "closest_to": "",
            "address": "Korea Road, Old Town, San Diego, San Diego County, California, 92140, United States of America",
            "locType": "residential",
            "blogLinks": [
                "https://en.wikipedia.org/wiki/Orange_County,_California"
            ],
            "longitude": "-117.2033459"
        },
        "el toro": {
            "latitude": "37.1205328",
            "closest_to": "",
            "address": "El Toro, Santa Clara County, California, 95037, United States of America",
            "locType": "peak",
            "blogLinks": [
                "http://www.ocweekly.com/news/the-5-best-cities-in-orange-county-for-oc-newbies-to-move-to-6465447"
            ],
            "longitude": "-121.6733213"
        },
        "napa valley route": {
            "latitude": "39.0234679",
            "closest_to": "",
            "address": "Napa Valley, Cold Spring, Campbell County, Kentucky, 41076, United States of America",
            "locType": "residential",
            "blogLinks": [
                "http://www.visitnewportbeach.com/"
            ],
            "longitude": "-84.4504647"
        },
        "san francisco county": {
            "latitude": "38.1396167",
            "closest_to": "",
            "address": "KCBS-AM (San Francisco), Bahia Trail, Novato, Marin County, California, 94945, United States of America",
            "locType": "tower",
            "blogLinks": [
                "https://en.wikipedia.org/wiki/Orange_County,_California"
            ],
            "longitude": "-122.5302269"
        },
        "santiago": {
            "latitude": "33.7435727",
            "closest_to": "",
            "address": "Santiago, Sycamore Creek, Temescal Valley, Riverside County, California, 92883, United States of America",
            "locType": "residential",
            "blogLinks": [
                "http://www.sandytoesandpopsicles.com/orange-county/101-things-to-do-with-kids/"
            ],
            "longitude": "-117.460743626056"
        },
        "toronto": {
            "latitude": "33.5731279",
            "closest_to": "",
            "address": "Toronto, Aliso Viejo, Orange County, California, 92656, United States of America",
            "locType": "residential",
            "blogLinks": [
                "https://www.tripadvisor.com/ShowTopic-g32588-i355-k3413966-Laguna_Beach_Vs_Newport_vs_Huntington_Beach-Laguna_Beach_California.html"
            ],
            "longitude": "-117.7355314"
        },
        "maricopa county": {
            "latitude": "33.4248191",
            "closest_to": "",
            "address": "California, Tempe Cascade, Maricopa County, Arizona, 8, United States of America",
            "locType": "service",
            "blogLinks": [
                "https://en.wikipedia.org/wiki/Orange_County,_California"
            ],
            "longitude": "-111.8872863"
        },
        "del taco": {
            "latitude": "33.8875444",
            "closest_to": "",
            "address": "Del taco, Van Buren Boulevard, Riverside, Riverside County, California, 92508, United States of America",
            "locType": "yes",
            "blogLinks": [
                "https://en.wikipedia.org/wiki/Orange_County,_California"
            ],
            "longitude": "-117.331656337122"
        },
        "aliso creek": {
            "latitude": "33.602558",
            "closest_to": "",
            "address": "Aliso Creek, Laguna Woods, Orange County, California, United States of America",
            "locType": "stream",
            "blogLinks": [
                "https://en.wikipedia.org/wiki/Orange_County,_California"
            ],
            "longitude": "-117.7034805"
        },
        "fullerton": {
            "latitude": "33.8708215",
            "closest_to": "",
            "address": "Fullerton, Orange County, California, United States of America",
            "locType": "city",
            "blogLinks": [
                "http://www.ocweekly.com/news/the-5-best-cities-in-orange-county-for-oc-newbies-to-move-to-6465447",
                "https://en.wikipedia.org/wiki/Orange_County,_California"
            ],
            "longitude": "-117.9294164"
        },
        "titan stadium": {
            "latitude": "33.8866744",
            "closest_to": "",
            "address": "Titan Stadium, Yorba Linda Boulevard, Fullerton, Orange County, California, 92831, United States of America",
            "locType": "stadium",
            "blogLinks": [
                "https://en.wikipedia.org/wiki/Orange_County,_California"
            ],
            "longitude": "-117.886978160197"
        },
        "pioneer park": {
            "latitude": "33.8443085",
            "closest_to": "",
            "address": "Pioneer Park, East Underhill Avenue, Anaheim Resort District, Anaheim, Orange County, California, 92806, United States of America",
            "locType": "park",
            "blogLinks": [
                "http://www.sandytoesandpopsicles.com/orange-county/101-things-to-do-with-kids/"
            ],
            "longitude": "-117.878414639654"
        },
        "legoland": {
            "latitude": "33.1334161",
            "closest_to": "",
            "address": "Legoland Drive, Carlsbad, San Diego County, California, 92009, United States of America",
            "locType": "tertiary",
            "blogLinks": [
                "https://www.tripadvisor.com/ShowTopic-g32588-i355-k3413966-Laguna_Beach_Vs_Newport_vs_Huntington_Beach-Laguna_Beach_California.html"
            ],
            "longitude": "-117.3171628"
        },
        "buena park": {
            "latitude": "33.870413",
            "closest_to": "",
            "address": "Buena Park, Orange County, California, United States of America",
            "locType": "city",
            "blogLinks": [
                "http://www.sandytoesandpopsicles.com/orange-county/101-things-to-do-with-kids/",
                "https://en.wikipedia.org/wiki/Orange_County,_California"
            ],
            "longitude": "-117.9962164"
        },
        "alta california": {
            "latitude": "37.3964868",
            "closest_to": "",
            "address": "Alta California, 20421, Geer Avenue, Irwin, Merced County, California, 95324, United States of America",
            "locType": "house",
            "blogLinks": [
                "https://en.wikipedia.org/wiki/Orange_County,_California"
            ],
            "longitude": "-120.8579018"
        },
        "louisiana": {
            "latitude": "36.8368359",
            "closest_to": "",
            "address": "Louisiana, Fresno County, California, 93650, United States of America",
            "locType": "service",
            "blogLinks": [
                "https://en.wikipedia.org/wiki/Orange_County,_California"
            ],
            "longitude": "-119.7958713"
        },
        "hyatt": {
            "latitude": "37.794246",
            "closest_to": "",
            "address": "Hyatt Regency San Francisco, 5, Sacramento Street, Financial District, SF, California, 94111, United States of America",
            "locType": "hotel",
            "blogLinks": [
                "https://www.tripadvisor.com/ShowTopic-g32588-i355-k3413966-Laguna_Beach_Vs_Newport_vs_Huntington_Beach-Laguna_Beach_California.html"
            ],
            "longitude": "-122.395871093088"
        },
        "south orange county": {
            "latitude": "33.6589297",
            "closest_to": "",
            "address": "S, Bellecour Way, Bellecour Way Apartments, Foothill Ranch, Lake Forest, Orange County, California, 92630, United States of America",
            "locType": "yes",
            "blogLinks": [
                "https://en.wikipedia.org/wiki/Orange_County,_California"
            ],
            "longitude": "-117.667997530973"
        },
        "belmont shores": {
            "latitude": "32.7709175",
            "closest_to": "",
            "address": "Belmont Park, Ocean Front Walk, Pacific Beach, San Diego, San Diego County, California, 92109, United States of America",
            "locType": "theme_park",
            "blogLinks": [
                "http://www.ocweekly.com/news/the-5-best-cities-in-orange-county-for-oc-newbies-to-move-to-6465447"
            ],
            "longitude": "-117.252157006201"
        },
        "westminster": {
            "latitude": "33.7578041",
            "closest_to": "",
            "address": "Westminster, Orange County, California, United States of America",
            "locType": "city",
            "blogLinks": [
                "http://www.sandytoesandpopsicles.com/orange-county/101-things-to-do-with-kids/",
                "https://en.wikipedia.org/wiki/Orange_County,_California"
            ],
            "longitude": "-117.985892"
        },
        "san juan creek": {
            "latitude": "35.5378042",
            "closest_to": "",
            "address": "San Juan Creek, Paso Robles, San Luis Obispo County, California, United States of America",
            "locType": "stream",
            "blogLinks": [
                "https://en.wikipedia.org/wiki/Orange_County,_California"
            ],
            "longitude": "-120.2326307"
        },
        "laguna reef": {
            "latitude": "33.5462786",
            "closest_to": "",
            "address": "Sulphur Creek Reservoir, Access Drive To Park, Laguna Niguel, Orange County, California, 92677, United States of America",
            "locType": "water",
            "blogLinks": [
                "https://www.tripadvisor.com/ShowTopic-g32588-i355-k3413966-Laguna_Beach_Vs_Newport_vs_Huntington_Beach-Laguna_Beach_California.html"
            ],
            "longitude": "-117.704611141504"
        },
        "octa": {
            "latitude": "33.8546846",
            "closest_to": "",
            "address": "OCTA, La Palma Avenue, Anaheim, Orange County, California, 92807, United States of America",
            "locType": "bus_stop",
            "blogLinks": [
                "https://en.wikipedia.org/wiki/Orange_County,_California"
            ],
            "longitude": "-117.8426734"
        },
        "berkeley": {
            "latitude": "37.8708393",
            "closest_to": "",
            "address": "Berkeley, Alameda County, California, United States of America",
            "locType": "city",
            "blogLinks": [
                "https://en.wikipedia.org/wiki/Orange_County,_California"
            ],
            "longitude": "-122.2728638"
        },
        "west coast": {
            "latitude": "34.0222263",
            "closest_to": "",
            "address": "West Coast, Motor Avenue, Palms, LA, Los Angeles County, California, 90034-5702, United States of America",
            "locType": "plumber",
            "blogLinks": [
                "https://en.wikipedia.org/wiki/Orange_County,_California"
            ],
            "longitude": "-118.4051087"
        },
        "charleston": {
            "latitude": "33.53745",
            "closest_to": "",
            "address": "Charleston, Harveston, Temecula, Riverside County, California, United States of America",
            "locType": "administrative",
            "blogLinks": [
                "https://en.wikipedia.org/wiki/Orange_County,_California"
            ],
            "longitude": "-117.160560207655"
        },
        "san bernardino": {
            "latitude": "34.1083449",
            "closest_to": "",
            "address": "San Bernardino, San Bernardino County, California, United States of America",
            "locType": "city",
            "blogLinks": [
                "https://en.wikipedia.org/wiki/Orange_County,_California"
            ],
            "longitude": "-117.2897651"
        },
        "zimbabwe": {
            "latitude": "37.8756795",
            "closest_to": "",
            "address": "Casa Zimbabwe, 2422, Ridge Road, Northside, Berkeley, Alameda County, California, 94709, United States of America",
            "locType": "yes",
            "blogLinks": [
                "https://en.wikipedia.org/wiki/Orange_County,_California"
            ],
            "longitude": "-122.260974045536"
        },
        "loma ridge": {
            "latitude": "37.0400666",
            "closest_to": "",
            "address": "Epicenter, 1989 Loma Prieta earthquake, Santa Cruz County, California, United States of America",
            "locType": "locality",
            "blogLinks": [
                "https://en.wikipedia.org/wiki/Orange_County,_California"
            ],
            "longitude": "-121.8770254"
        },
        "santa fe railroad": {
            "latitude": "37.9313328",
            "closest_to": "",
            "address": "Santa Fe Railroad, West Ohio Avenue, Atchison Village, Richmond, Contra Costa County, California, 94804, United States of America",
            "locType": "abandoned",
            "blogLinks": [
                "https://en.wikipedia.org/wiki/Orange_County,_California"
            ],
            "longitude": "-122.3742068"
        },
        "laguna riviera": {
            "latitude": "33.146705",
            "closest_to": "",
            "address": "Laguna Riviera City Park, Park Drive, Carlsbad, San Diego County, California, 92008, United States of America",
            "locType": "park",
            "blogLinks": [
                "https://www.tripadvisor.com/ShowTopic-g32588-i355-k3413966-Laguna_Beach_Vs_Newport_vs_Huntington_Beach-Laguna_Beach_California.html"
            ],
            "longitude": "-117.311704"
        },
        "brea mall": {
            "latitude": "33.9152037",
            "closest_to": "",
            "address": "Brea Mall, Downtown Brea, Brea, Orange County, California, 92821, United States of America",
            "locType": "retail",
            "blogLinks": [
                "https://en.wikipedia.org/wiki/Orange_County,_California"
            ],
            "longitude": "-117.88632442245"
        },
        "berry street": {
            "latitude": "37.7703193",
            "closest_to": "",
            "address": "Berry Street, Mission Creek, SF, California, 94107, United States of America",
            "locType": "residential",
            "blogLinks": [
                "http://www.sandytoesandpopsicles.com/orange-county/101-things-to-do-with-kids/"
            ],
            "longitude": "-122.3990618"
        },
        "monrovia": {
            "latitude": "34.1483499",
            "closest_to": "",
            "address": "Monrovia, Los Angeles County, California, United States of America",
            "locType": "city",
            "blogLinks": [
                "http://www.ocweekly.com/news/the-5-best-cities-in-orange-county-for-oc-newbies-to-move-to-6465447"
            ],
            "longitude": "-118.0014516"
        },
        "laguna niguel": {
            "latitude": "33.5225261",
            "closest_to": "",
            "address": "Laguna Niguel, Orange County, California, United States of America",
            "locType": "city",
            "blogLinks": [
                "https://www.tripadvisor.com/ShowTopic-g32588-i355-k3413966-Laguna_Beach_Vs_Newport_vs_Huntington_Beach-Laguna_Beach_California.html",
                "http://www.sandytoesandpopsicles.com/orange-county/101-things-to-do-with-kids/"
            ],
            "longitude": "-117.7075525"
        },
        "peralta hills": {
            "latitude": "33.8444601",
            "closest_to": "",
            "address": "Peralta Hills, Orange County, California, United States of America",
            "locType": "hamlet",
            "blogLinks": [
                "https://en.wikipedia.org/wiki/Orange_County,_California"
            ],
            "longitude": "-117.817834"
        },
        "san gabriel river freeway": {
            "latitude": "33.858588",
            "closest_to": "",
            "address": "San Gabriel River Freeway, Cerritos, Los Angeles County, California, 90713, United States of America",
            "locType": "motorway",
            "blogLinks": [
                "https://en.wikipedia.org/wiki/Orange_County,_California"
            ],
            "longitude": "-118.0960848"
        },
        "camp pendleton": {
            "latitude": "33.2167022",
            "closest_to": "",
            "address": "Camp Pendleton Boat Basin, San Diego County, California, United States of America",
            "locType": "dock",
            "blogLinks": [
                "http://www.ocweekly.com/news/the-5-best-cities-in-orange-county-for-oc-newbies-to-move-to-6465447"
            ],
            "longitude": "-117.4000394"
        },
        "la": {
            "latitude": "36.7014631",
            "closest_to": "",
            "address": "California, United States of America",
            "locType": "administrative",
            "blogLinks": [
                "http://www.ocweekly.com/news/the-5-best-cities-in-orange-county-for-oc-newbies-to-move-to-6465447",
                "https://travelblogsuccess.com/wits-irvine-california/",
                "https://www.tripadvisor.com/ShowTopic-g32588-i355-k3413966-Laguna_Beach_Vs_Newport_vs_Huntington_Beach-Laguna_Beach_California.html"
            ],
            "longitude": "-118.7559973"
        },
        "ladera ranch": {
            "latitude": "33.5510165",
            "closest_to": "",
            "address": "Ladera Ranch, Orange County, California, United States of America",
            "locType": "town",
            "blogLinks": [
                "http://www.sandytoesandpopsicles.com/orange-county/101-things-to-do-with-kids/",
                "https://en.wikipedia.org/wiki/Orange_County,_California"
            ],
            "longitude": "-117.63854"
        },
        "mountains": {
            "latitude": "37.7384411",
            "closest_to": "",
            "address": "Mountains, 8001, Sierra Circle, Half Dome Village, Yosemite Valley, Mariposa County, California, United States of America",
            "locType": "yes",
            "blogLinks": [
                "https://travelblogsuccess.com/wits-irvine-california/"
            ],
            "longitude": "-119.577636961039"
        },
        "xa0buena park": {
            "latitude": "39.4390595",
            "closest_to": "",
            "address": "Pike, Sierra County, California, United States of America",
            "locType": "hamlet",
            "blogLinks": [
                "http://www.sandytoesandpopsicles.com/orange-county/101-things-to-do-with-kids/"
            ],
            "longitude": "-120.9980078"
        },
        "hilton": {
            "latitude": "38.5046346",
            "closest_to": "",
            "address": "Hilton, Sonoma County, California, United States of America",
            "locType": "hamlet",
            "blogLinks": [
                "https://www.tripadvisor.com/ShowTopic-g32588-i355-k3413966-Laguna_Beach_Vs_Newport_vs_Huntington_Beach-Laguna_Beach_California.html"
            ],
            "longitude": "-122.9402742"
        },
        "solvang": {
            "latitude": "34.5958572",
            "closest_to": "",
            "address": "Solvang, Santa Barbara County, California, United States of America",
            "locType": "city",
            "blogLinks": [
                "https://www.pinterest.com/pin/177962622753954526/"
            ],
            "longitude": "-120.1390893"
        },
        "little saigon": {
            "latitude": "37.3311452",
            "closest_to": "",
            "address": "Little Saigon, San Jos\u00e9, Santa Clara County, California, United States of America",
            "locType": "suburb",
            "blogLinks": [
                "https://en.wikipedia.org/wiki/Orange_County,_California"
            ],
            "longitude": "-121.8560175"
        },
        "orangethorpe": {
            "latitude": "33.8632511",
            "closest_to": "",
            "address": "Orangethorpe Avenue, Anaheim Hills, Anaheim, Orange County, California, 92807, United States of America",
            "locType": "primary",
            "blogLinks": [
                "http://www.ocweekly.com/news/the-5-best-cities-in-orange-county-for-oc-newbies-to-move-to-6465447"
            ],
            "longitude": "-117.7960034"
        },
        "mexico": {
            "latitude": "28.973",
            "closest_to": "",
            "address": "California, Hermosillo, Sonora, M\u00e9xico",
            "locType": "village",
            "blogLinks": [
                "http://www.ocweekly.com/news/the-5-best-cities-in-orange-county-for-oc-newbies-to-move-to-6465447"
            ],
            "longitude": "-111.8196666"
        },
        "san juan capistrano": {
            "latitude": "33.5016932",
            "closest_to": "",
            "address": "San Juan Capistrano, Orange County, California, United States of America",
            "locType": "city",
            "blogLinks": [
                "https://www.tripadvisor.com/ShowTopic-g32588-i355-k3413966-Laguna_Beach_Vs_Newport_vs_Huntington_Beach-Laguna_Beach_California.html",
                "http://www.sandytoesandpopsicles.com/orange-county/101-things-to-do-with-kids/",
                "https://en.wikipedia.org/wiki/Orange_County,_California"
            ],
            "longitude": "-117.6625508"
        },
        "north county": {
            "latitude": "39.7452174",
            "closest_to": "",
            "address": "California, 16th Street, Upper Downtown, Denver, Denver County, Colorado, 80211, United States of America",
            "locType": "bus_stop",
            "blogLinks": [
                "http://www.ocweekly.com/news/the-5-best-cities-in-orange-county-for-oc-newbies-to-move-to-6465447"
            ],
            "longitude": "-104.992379"
        },
        "university park": {
            "latitude": "34.18269725",
            "closest_to": "",
            "address": "University Park, San Bernardino, San Bernardino County, California, 92407, United States of America",
            "locType": "residential",
            "blogLinks": [
                "https://en.wikipedia.org/wiki/Orange_County,_California"
            ],
            "longitude": "-117.333909295321"
        },
        "saddleback ridge": {
            "latitude": "34.67534675",
            "closest_to": "",
            "address": "Saddleback Butte State Park, 175th Street East, Wilsona Gardens, Los Angeles County, California, United States of America",
            "locType": "park",
            "blogLinks": [
                "https://travelblogsuccess.com/wits-irvine-california/"
            ],
            "longitude": "-117.805161708143"
        },
        "' cinema city": {
            "latitude": "37.7222598",
            "closest_to": "",
            "address": "Cinema, Centennial Walk, Saint Francis Wood, SF, California, 94132, United States of America",
            "locType": "yes",
            "blogLinks": [
                "http://www.sandytoesandpopsicles.com/orange-county/101-things-to-do-with-kids/"
            ],
            "longitude": "-122.479716"
        },
        "capistrano beach": {
            "latitude": "33.4625277",
            "closest_to": "",
            "address": "Capistrano Beach, Orange County, California, United States of America",
            "locType": "hamlet",
            "blogLinks": [
                "https://www.tripadvisor.com/ShowTopic-g32588-i355-k3413966-Laguna_Beach_Vs_Newport_vs_Huntington_Beach-Laguna_Beach_California.html"
            ],
            "longitude": "-117.6717174"
        },
        "los angeles": {
            "latitude": "34.0543942",
            "closest_to": "",
            "address": "LA, Los Angeles County, California, United States of America",
            "locType": "city",
            "blogLinks": [
                "http://www.ocweekly.com/news/the-5-best-cities-in-orange-county-for-oc-newbies-to-move-to-6465447",
                "http://www.sandytoesandpopsicles.com/orange-county/101-things-to-do-with-kids/",
                "https://en.wikipedia.org/wiki/Orange_County,_California"
            ],
            "longitude": "-118.2439408"
        },
        "surf city usa": {
            "latitude": "37.8588436",
            "closest_to": "",
            "address": "Surf City, Tuolumne County, California, United States of America",
            "locType": "rapids",
            "blogLinks": [
                "https://www.tripadvisor.com/ShowTopic-g32588-i355-k3413966-Laguna_Beach_Vs_Newport_vs_Huntington_Beach-Laguna_Beach_California.html"
            ],
            "longitude": "-120.6349548"
        },
        "coastal california": {
            "latitude": "52.0854118",
            "closest_to": "",
            "address": "California, Woodbridge, Suffolk Coastal, Suffolk, East of England, England, IP12 4DQ, UK",
            "locType": "residential",
            "blogLinks": [
                "https://en.wikipedia.org/wiki/Orange_County,_California"
            ],
            "longitude": "1.297487"
        },
        "hollywood": {
            "latitude": "34.1028268",
            "closest_to": "",
            "address": "Hollywood, LA, Los Angeles County, California, United States of America",
            "locType": "suburb",
            "blogLinks": [
                "https://en.wikipedia.org/wiki/Orange_County,_California"
            ],
            "longitude": "-118.3299898"
        },
        "anaheim": {
            "latitude": "33.8347516",
            "closest_to": "",
            "address": "Anaheim, Orange County, California, United States of America",
            "locType": "city",
            "blogLinks": [
                "http://www.ocweekly.com/news/the-5-best-cities-in-orange-county-for-oc-newbies-to-move-to-6465447",
                "https://www.yelp.com/topic/irvine-untraditonal-places-to-go-to-in-oc-for-a-1-month-visit",
                "http://www.sandytoesandpopsicles.com/orange-county/101-things-to-do-with-kids/",
                "https://en.wikipedia.org/wiki/Orange_County,_California"
            ],
            "longitude": "-117.9117319"
        },
        "us": {
            "latitude": "36.7014631",
            "closest_to": "",
            "address": "California, United States of America",
            "locType": "administrative",
            "blogLinks": [
                "https://en.wikipedia.org/wiki/Orange_County,_California"
            ],
            "longitude": "-118.7559973"
        },
        "mission san juan capistrano": {
            "latitude": "33.50381465",
            "closest_to": "",
            "address": "Mission San Juan Capistrano, El Camino Real, San Juan Capistrano, Orange County, California, 92675, United States of America",
            "locType": "place_of_worship",
            "blogLinks": [
                "https://en.wikipedia.org/wiki/Orange_County,_California"
            ],
            "longitude": "-117.663061669391"
        },
        "laguna lakes": {
            "latitude": "33.71742965",
            "closest_to": "",
            "address": "Heritage Lake, Lake Ridge Drive, Menifee Lakes, Menifee, Riverside County, California, 92585, United States of America",
            "locType": "water",
            "blogLinks": [
                "https://en.wikipedia.org/wiki/Orange_County,_California"
            ],
            "longitude": "-117.147114112633"
        },
        "huntington": {
            "latitude": "38.77704615",
            "closest_to": "",
            "address": "Huntington, Roseville, Placer County, California, 95678, United States of America",
            "locType": "residential",
            "blogLinks": [
                "https://www.yelp.com/topic/irvine-untraditonal-places-to-go-to-in-oc-for-a-1-month-visit"
            ],
            "longitude": "-121.295904358288"
        },
        "soak city": {
            "latitude": "33.8412877",
            "closest_to": "",
            "address": "Knott's Soak City USA, Beach Boulevard, Buena Park, Orange County, California, 90620, United States of America",
            "locType": "theme_park",
            "blogLinks": [
                "https://en.wikipedia.org/wiki/Orange_County,_California"
            ],
            "longitude": "-117.994935228187"
        },
        "new york": {
            "latitude": "34.0143928",
            "closest_to": "",
            "address": "New York, West Covina, Los Angeles County, California, 91792, United States of America",
            "locType": "service",
            "blogLinks": [
                "https://en.wikipedia.org/wiki/Orange_County,_California"
            ],
            "longitude": "-117.8984509"
        },
        "san diego": {
            "latitude": "32.7174209",
            "closest_to": "",
            "address": "San Diego, San Diego County, California, United States of America",
            "locType": "city",
            "blogLinks": [
                "http://www.ocweekly.com/news/the-5-best-cities-in-orange-county-for-oc-newbies-to-move-to-6465447",
                "https://travelblogsuccess.com/wits-irvine-california/",
                "https://www.tripadvisor.com/ShowTopic-g32588-i355-k3413966-Laguna_Beach_Vs_Newport_vs_Huntington_Beach-Laguna_Beach_California.html",
                "https://en.wikipedia.org/wiki/Orange_County,_California"
            ],
            "longitude": "-117.1627713"
        },
        "placentia": {
            "latitude": "33.8714814",
            "closest_to": "",
            "address": "Placentia, Orange County, California, United States of America",
            "locType": "city",
            "blogLinks": [
                "http://www.sandytoesandpopsicles.com/orange-county/101-things-to-do-with-kids/",
                "https://en.wikipedia.org/wiki/Orange_County,_California"
            ],
            "longitude": "-117.8617336"
        },
        "rancho los alamitos": {
            "latitude": "33.79819705",
            "closest_to": "",
            "address": "Rancho Alamitos High School, Dale Street, Koreatown, Garden Grove, Orange County, California, 92841, United States of America",
            "locType": "school",
            "blogLinks": [
                "https://en.wikipedia.org/wiki/Orange_County,_California"
            ],
            "longitude": "-117.986659907091"
        },
        "white house": {
            "latitude": "37.8057638",
            "closest_to": "",
            "address": "White House, Castro Street, San Pablo Gateway, Oakland, Alameda County, California, 94607, United States of America",
            "locType": "yes",
            "blogLinks": [
                "https://en.wikipedia.org/wiki/Orange_County,_California"
            ],
            "longitude": "-122.277429256835"
        },
        "koi pond": {
            "latitude": "37.7826349",
            "closest_to": "",
            "address": "Koi Pond, Orchard Meadow Road, Seminary Park, Oakland, Alameda County, California, 94613, United States of America",
            "locType": "water",
            "blogLinks": [
                "http://www.sandytoesandpopsicles.com/orange-county/101-things-to-do-with-kids/"
            ],
            "longitude": "-122.18255135"
        },
        "vietnam": {
            "latitude": "37.7979399",
            "closest_to": "",
            "address": "Vietnam, 618-626, Broadway Street, Nob Hill, SF, California, 94109, United States of America",
            "locType": "restaurant",
            "blogLinks": [
                "https://en.wikipedia.org/wiki/Orange_County,_California"
            ],
            "longitude": "-122.4074503"
        },
        "chicago": {
            "latitude": "37.7850531",
            "closest_to": "",
            "address": "Chicago, Woodstock, Alameda, Alameda County, California, 94501, United States of America",
            "locType": "residential",
            "blogLinks": [
                "https://en.wikipedia.org/wiki/Orange_County,_California"
            ],
            "longitude": "-122.2872948"
        },
        "ca usa": {
            "latitude": "35.125801",
            "closest_to": "",
            "address": "California City, Kern County, California, United States of America",
            "locType": "city",
            "blogLinks": [
                "http://www.wegoplaces.com/things-to-do-in-irvine-ca"
            ],
            "longitude": "-117.9859037"
        },
        "u.s.": {
            "latitude": "-32.5446226",
            "closest_to": "",
            "address": "La California, Municipio de Las Rosas, Departamento Belgrano, Sta. Fe, Argentina",
            "locType": "hamlet",
            "blogLinks": [
                "https://en.wikipedia.org/wiki/Orange_County,_California"
            ],
            "longitude": "-61.5489543"
        },
        "lake forest": {
            "latitude": "33.6469261",
            "closest_to": "",
            "address": "Lake Forest, Orange County, California, United States of America",
            "locType": "city",
            "blogLinks": [
                "http://www.ocweekly.com/news/the-5-best-cities-in-orange-county-for-oc-newbies-to-move-to-6465447",
                "https://travelblogsuccess.com/wits-irvine-california/",
                "http://www.sandytoesandpopsicles.com/orange-county/101-things-to-do-with-kids/",
                "https://en.wikipedia.org/wiki/Orange_County,_California"
            ],
            "longitude": "-117.6859212"
        },
        "united states": {
            "latitude": "36.7014631",
            "closest_to": "",
            "address": "California, United States of America",
            "locType": "administrative",
            "blogLinks": [
                "https://en.wikipedia.org/wiki/Orange_County,_California"
            ],
            "longitude": "-118.7559973"
        },
        "riverside": {
            "latitude": "33.9533546",
            "closest_to": "",
            "address": "Riverside, Riverside County, California, United States of America",
            "locType": "city",
            "blogLinks": [
                "https://en.wikipedia.org/wiki/Orange_County,_California"
            ],
            "longitude": "-117.3961622"
        },
        "horsethief creek": {
            "latitude": "37.2863155",
            "closest_to": "",
            "address": "Horsethief Creek, Fresno County, California, United States of America",
            "locType": "stream",
            "blogLinks": [
                "https://en.wikipedia.org/wiki/Orange_County,_California"
            ],
            "longitude": "-119.2775624"
        },
        "abilene": {
            "latitude": "33.3519443",
            "closest_to": "",
            "address": "Abilene, 31422, Borrego Palm Canyon Road, San Diego County, California, United States of America",
            "locType": "camp_site",
            "blogLinks": [
                "https://en.wikipedia.org/wiki/Orange_County,_California"
            ],
            "longitude": "-116.5717963"
        },
        "laguna canyon rd": {
            "latitude": "33.5467591",
            "closest_to": "",
            "address": "Laguna Canyon Road, Laguna Beach, Orange County, California, 92652, United States of America",
            "locType": "primary",
            "blogLinks": [
                "https://www.tripadvisor.com/ShowTopic-g32588-i355-k3413966-Laguna_Beach_Vs_Newport_vs_Huntington_Beach-Laguna_Beach_California.html"
            ],
            "longitude": "-117.7821013"
        },
        "irvine regional park": {
            "latitude": "33.7940025",
            "closest_to": "",
            "address": "Irvine Regional Park, Cowan Heights, Orange Park Acres, Orange County, California, 92689, United States of America",
            "locType": "residential",
            "blogLinks": [
                "http://www.sandytoesandpopsicles.com/orange-county/101-things-to-do-with-kids/"
            ],
            "longitude": "-117.7511723"
        },
        "costa mesa freeway": {
            "latitude": "33.8423894",
            "closest_to": "",
            "address": "Costa Mesa Freeway, Anaheim, Orange County, California, 92865, United States of America",
            "locType": "motorway",
            "blogLinks": [
                "https://en.wikipedia.org/wiki/Orange_County,_California"
            ],
            "longitude": "-117.830154"
        },
        "pacific ocean": {
            "latitude": "36.16305775",
            "closest_to": "",
            "address": "Pacific Ocean, Cabrillo Highway, Monterey County, California, 93920, United States of America",
            "locType": "cliff",
            "blogLinks": [
                "https://travelblogsuccess.com/wits-irvine-california/"
            ],
            "longitude": "-121.678715787326"
        },
        "surf city": {
            "latitude": "37.8588436",
            "closest_to": "",
            "address": "Surf City, Tuolumne County, California, United States of America",
            "locType": "rapids",
            "blogLinks": [
                "https://en.wikipedia.org/wiki/Orange_County,_California"
            ],
            "longitude": "-120.6349548"
        },
        "chapman ave.": {
            "latitude": "33.7888647",
            "closest_to": "",
            "address": "Chapman Avenue, Garden Grove, Orange County, California, 92840, United States of America",
            "locType": "primary",
            "blogLinks": [
                "https://en.wikipedia.org/wiki/Orange_County,_California"
            ],
            "longitude": "-117.9196634"
        },
        "hyatt regency": {
            "latitude": "34.05472945",
            "closest_to": "",
            "address": "Hyatt Regency, The LA Hotel Downtown, Figueroa Street, Financial District, Bunker Hill, LA, Los Angeles County, California, 90071, United States of America",
            "locType": "hotel",
            "blogLinks": [
                "https://www.tripadvisor.com/ShowTopic-g32588-i355-k3413966-Laguna_Beach_Vs_Newport_vs_Huntington_Beach-Laguna_Beach_California.html"
            ],
            "longitude": "-118.255604370831"
        },
        "disneyland resort": {
            "latitude": "33.81193845",
            "closest_to": "",
            "address": "DLR, Mill View Lane, Anaheim Resort District, Anaheim, Orange County, California, 217, United States of America",
            "locType": "administrative",
            "blogLinks": [
                "https://en.wikipedia.org/wiki/Orange_County,_California"
            ],
            "longitude": "-117.921900616601"
        },
        "carlsbad": {
            "latitude": "33.1580933",
            "closest_to": "",
            "address": "Carlsbad, San Diego County, California, United States of America",
            "locType": "city",
            "blogLinks": [
                "http://www.sandytoesandpopsicles.com/orange-county/101-things-to-do-with-kids/"
            ],
            "longitude": "-117.3505938"
        },
        "south county": {
            "latitude": "-32.5446226",
            "closest_to": "",
            "address": "La California, Municipio de Las Rosas, Departamento Belgrano, Sta. Fe, Argentina",
            "locType": "hamlet",
            "blogLinks": [
                "http://www.ocweekly.com/news/the-5-best-cities-in-orange-county-for-oc-newbies-to-move-to-6465447",
                "https://en.wikipedia.org/wiki/Orange_County,_California"
            ],
            "longitude": "-61.5489543"
        },
        "newport": {
            "latitude": "39.5773839",
            "closest_to": "",
            "address": "Newport, Mendocino County, California, United States of America",
            "locType": "hamlet",
            "blogLinks": [
                "http://www.ocweekly.com/news/the-5-best-cities-in-orange-county-for-oc-newbies-to-move-to-6465447",
                "https://www.tripadvisor.com/ShowTopic-g32588-i355-k3413966-Laguna_Beach_Vs_Newport_vs_Huntington_Beach-Laguna_Beach_California.html"
            ],
            "longitude": "-123.7747387"
        },
        "gates elementary": {
            "latitude": "34.0727886",
            "closest_to": "",
            "address": "Gates Elementary School, Thomas Street, Lincoln Heights, Boyle Heights, LA, Los Angeles County, California, 90031, United States of America",
            "locType": "school",
            "blogLinks": [
                "http://www.ocweekly.com/news/the-5-best-cities-in-orange-county-for-oc-newbies-to-move-to-6465447"
            ],
            "longitude": "-118.2056281"
        },
        "harbor boulevard": {
            "latitude": "33.8172821",
            "closest_to": "",
            "address": "Harbor Boulevard, Anaheim Resort District, Anaheim, Orange County, California, 217, United States of America",
            "locType": "primary",
            "blogLinks": [
                "https://en.wikipedia.org/wiki/Orange_County,_California"
            ],
            "longitude": "-117.9152933"
        },
        "santiago canyon": {
            "latitude": "33.78114255",
            "closest_to": "",
            "address": "Santiago Canyon Landfill, 3099, Cowan Heights, Orange County, California, 92869, United States of America",
            "locType": "landfill",
            "blogLinks": [
                "https://en.wikipedia.org/wiki/Orange_County,_California"
            ],
            "longitude": "-117.733124211204"
        },
        "northwood": {
            "latitude": "38.4754693",
            "closest_to": "",
            "address": "Northwood, Sonoma County, California, United States of America",
            "locType": "hamlet",
            "blogLinks": [
                "https://en.wikipedia.org/wiki/Orange_County,_California"
            ],
            "longitude": "-123.001666"
        },
        "santa ana freeway": {
            "latitude": "33.8512853",
            "closest_to": "",
            "address": "Santa Ana Freeway, West Anaheim, Anaheim, Orange County, California, 92801, United States of America",
            "locType": "motorway",
            "blogLinks": [
                "https://en.wikipedia.org/wiki/Orange_County,_California"
            ],
            "longitude": "-117.9707394"
        },
        "indiana": {
            "latitude": "34.0342567",
            "closest_to": "",
            "address": "Indiana, South Indiana Street, Boyle Heights, LA, Los Angeles County, California, 90023, United States of America",
            "locType": "station",
            "blogLinks": [
                "http://www.ocweekly.com/news/the-5-best-cities-in-orange-county-for-oc-newbies-to-move-to-6465447"
            ],
            "longitude": "-118.1922122"
        },
        "woodbridge": {
            "latitude": "38.1540849",
            "closest_to": "",
            "address": "Woodbridge, San Joaquin County, California, United States of America",
            "locType": "hamlet",
            "blogLinks": [
                "https://en.wikipedia.org/wiki/Orange_County,_California"
            ],
            "longitude": "-121.3013369"
        },
        "anaheim stadium": {
            "latitude": "33.8002599",
            "closest_to": "",
            "address": "Angel Stadium of Anaheim, South Douglass Road, Anaheim Resort District, Anaheim, Orange County, California, 92806, United States of America",
            "locType": "stadium",
            "blogLinks": [
                "https://en.wikipedia.org/wiki/Orange_County,_California"
            ],
            "longitude": "-117.881742527598"
        },
        "san diego freeway": {
            "latitude": "32.7285162",
            "closest_to": "",
            "address": "San Diego Freeway, Hillcrest, San Diego, San Diego County, California, 92101, United States of America",
            "locType": "motorway",
            "blogLinks": [
                "https://en.wikipedia.org/wiki/Orange_County,_California"
            ],
            "longitude": "-117.1690377"
        },
        "silverado": {
            "latitude": "33.7461295",
            "closest_to": "",
            "address": "Silverado, Orange County, California, United States of America",
            "locType": "hamlet",
            "blogLinks": [
                "http://www.sandytoesandpopsicles.com/orange-county/101-things-to-do-with-kids/"
            ],
            "longitude": "-117.6369938"
        },
        "laguna": {
            "latitude": "38.4210209",
            "closest_to": "",
            "address": "Laguna, Sacramento County, California, United States of America",
            "locType": "hamlet",
            "blogLinks": [
                "http://www.ocweekly.com/news/the-5-best-cities-in-orange-county-for-oc-newbies-to-move-to-6465447",
                "https://www.tripadvisor.com/ShowTopic-g32588-i355-k3413966-Laguna_Beach_Vs_Newport_vs_Huntington_Beach-Laguna_Beach_California.html",
                "https://en.wikipedia.org/wiki/Orange_County,_California"
            ],
            "longitude": "-121.4238413"
        },
        "anaheim canyon": {
            "latitude": "33.8542053",
            "closest_to": "",
            "address": "Anaheim Canyon, La Palma Avenue, Anaheim, Orange County, California, 92807, United States of America",
            "locType": "station",
            "blogLinks": [
                "https://en.wikipedia.org/wiki/Orange_County,_California"
            ],
            "longitude": "-117.8404978"
        },
        "' ocean": {
            "latitude": "33.9157306",
            "closest_to": "",
            "address": "Ocean, Hawthorne, Los Angeles County, California, 90261, United States of America",
            "locType": "residential",
            "blogLinks": [
                "http://www.wegoplaces.com/things-to-do-in-irvine-ca"
            ],
            "longitude": "-118.3763704"
        },
        "ventura": {
            "latitude": "34.4458248",
            "closest_to": "",
            "address": "Ventura County, California, United States of America",
            "locType": "administrative",
            "blogLinks": [
                "http://www.ocweekly.com/news/the-5-best-cities-in-orange-county-for-oc-newbies-to-move-to-6465447"
            ],
            "longitude": "-119.0779358"
        },
        "st. louis": {
            "latitude": "39.6985046",
            "closest_to": "",
            "address": "Saint Louis, Sierra County, California, United States of America",
            "locType": "hamlet",
            "blogLinks": [
                "https://en.wikipedia.org/wiki/Orange_County,_California"
            ],
            "longitude": "-120.9249513"
        },
        "california": {
            "latitude": "7.3480915",
            "closest_to": "",
            "address": "California, Santander, Colombia",
            "locType": "village",
            "blogLinks": [
                "http://www.visitnewportbeach.com/",
                "http://www.sandytoesandpopsicles.com/orange-county/101-things-to-do-with-kids/",
                "https://en.wikipedia.org/wiki/Orange_County,_California",
                "http://www.balboaisland.com/",
                "http://www.ocweekly.com/news/the-5-best-cities-in-orange-county-for-oc-newbies-to-move-to-6465447",
                "https://travelblogsuccess.com/wits-irvine-california/"
            ],
            "longitude": "-72.945787"
        },
        "huntington harbour": {
            "latitude": "33.71663125",
            "closest_to": "",
            "address": "Huntington Harbour Mall, Huntington Beach, Orange County, California, 92649, United States of America",
            "locType": "retail",
            "blogLinks": [
                "http://www.ocweekly.com/news/the-5-best-cities-in-orange-county-for-oc-newbies-to-move-to-6465447"
            ],
            "longitude": "-118.051304967067"
        },
        "long beach": {
            "latitude": "33.78538945",
            "closest_to": "",
            "address": "Long Beach, Los Angeles County, California, United States of America",
            "locType": "city",
            "blogLinks": [
                "http://www.ocweekly.com/news/the-5-best-cities-in-orange-county-for-oc-newbies-to-move-to-6465447",
                "http://www.sandytoesandpopsicles.com/orange-county/101-things-to-do-with-kids/",
                "https://en.wikipedia.org/wiki/Orange_County,_California"
            ],
            "longitude": "-118.158049215311"
        },
        "oc": {
            "latitude": "42.2076569",
            "closest_to": "",
            "address": "OC&E Woods Line State Trail, Altamont, Klamath County, Oregon, 97603, United States of America",
            "locType": "abandoned",
            "blogLinks": [
                "http://www.ocweekly.com/news/the-5-best-cities-in-orange-county-for-oc-newbies-to-move-to-6465447"
            ],
            "longitude": "-121.7529539"
        },
        "modjeska peak": {
            "latitude": "33.7195856",
            "closest_to": "",
            "address": "Modjeska Peak, Orange County, California, United States of America",
            "locType": "peak",
            "blogLinks": [
                "https://en.wikipedia.org/wiki/Orange_County,_California"
            ],
            "longitude": "-117.5441954"
        },
        "garden grove": {
            "latitude": "33.7746292",
            "closest_to": "",
            "address": "Garden Grove, Orange County, California, United States of America",
            "locType": "city",
            "blogLinks": [
                "http://www.sandytoesandpopsicles.com/orange-county/101-things-to-do-with-kids/",
                "https://en.wikipedia.org/wiki/Orange_County,_California"
            ],
            "longitude": "-117.9463716"
        },
        "laguna beach": {
            "latitude": "33.5420888",
            "closest_to": "",
            "address": "Laguna Beach, Orange County, California, United States of America",
            "locType": "city",
            "blogLinks": [
                "https://www.yelp.com/topic/irvine-untraditonal-places-to-go-to-in-oc-for-a-1-month-visit",
                "http://www.sandytoesandpopsicles.com/orange-county/101-things-to-do-with-kids/",
                "https://en.wikipedia.org/wiki/Orange_County,_California",
                "http://www.wegoplaces.com/things-to-do-in-irvine-ca",
                "http://www.ocweekly.com/news/the-5-best-cities-in-orange-county-for-oc-newbies-to-move-to-6465447",
                "https://www.tripadvisor.com/ShowTopic-g32588-i355-k3413966-Laguna_Beach_Vs_Newport_vs_Huntington_Beach-Laguna_Beach_California.html"
            ],
            "longitude": "-117.7834146"
        },
        "america": {
            "latitude": "36.2573198",
            "closest_to": "",
            "address": "America, Kings County, California, 93246, United States of America",
            "locType": "residential",
            "blogLinks": [
                "http://www.ocweekly.com/news/the-5-best-cities-in-orange-county-for-oc-newbies-to-move-to-6465447",
                "https://en.wikipedia.org/wiki/Orange_County,_California"
            ],
            "longitude": "-119.8948706"
        },
        "mediterranean": {
            "latitude": "33.7439509",
            "closest_to": "",
            "address": "Mediterranean, Palm Desert, Riverside County, California, 92211, United States of America",
            "locType": "residential",
            "blogLinks": [
                "http://www.sandytoesandpopsicles.com/orange-county/101-things-to-do-with-kids/"
            ],
            "longitude": "-116.3534838"
        },
        "logan park": {
            "latitude": "36.8164747",
            "closest_to": "",
            "address": "Logan Park, North Santa Fe Avenue, Figarden, Fresno County, California, 93711, United States of America",
            "locType": "park",
            "blogLinks": [
                "https://en.wikipedia.org/wiki/Orange_County,_California"
            ],
            "longitude": "-119.852223847482"
        },
        "sunny hills": {
            "latitude": "33.8992488",
            "closest_to": "",
            "address": "Sunny Hills, Orange County, California, United States of America",
            "locType": "hamlet",
            "blogLinks": [
                "http://www.ocweekly.com/news/the-5-best-cities-in-orange-county-for-oc-newbies-to-move-to-6465447"
            ],
            "longitude": "-117.936588"
        },
        "san francisco": {
            "latitude": "37.7792808",
            "closest_to": "",
            "address": "SF, California, United States of America",
            "locType": "city",
            "blogLinks": [
                "http://www.ocweekly.com/news/the-5-best-cities-in-orange-county-for-oc-newbies-to-move-to-6465447",
                "https://en.wikipedia.org/wiki/Orange_County,_California"
            ],
            "longitude": "-122.4192362"
        },
        "artesia freeway": {
            "latitude": "33.8562322",
            "closest_to": "",
            "address": "Artesia Freeway, West Anaheim, Anaheim, Orange County, California, 90621, United States of America",
            "locType": "motorway",
            "blogLinks": [
                "https://en.wikipedia.org/wiki/Orange_County,_California"
            ],
            "longitude": "-117.9841536"
        },
        "turtle rock": {
            "latitude": "34.0105918",
            "closest_to": "",
            "address": "Turtle Rock, Riverside County, California, United States of America",
            "locType": "peak",
            "blogLinks": [
                "https://en.wikipedia.org/wiki/Orange_County,_California"
            ],
            "longitude": "-116.1667775"
        },
        "arcadia": {
            "latitude": "34.1362075",
            "closest_to": "",
            "address": "Arcadia, Los Angeles County, California, United States of America",
            "locType": "city",
            "blogLinks": [
                "https://en.wikipedia.org/wiki/Orange_County,_California"
            ],
            "longitude": "-118.0401496"
        }
    },
    "newport beach": {
        "type": "city",
        "osm_id": "112956",
        "class": "place",
        "importance": 0.75631325724067,
        "lat": "33.6170092",
        "lon": "-117.92944",
        "boundingbox": [
            "33.5348773",
            "33.6717531",
            "-117.9959276",
            "-117.7839003"
        ],
        "display_name": "Newport Beach, Orange County, California, United States of America",
        "licence": "Data \u00a9 OpenStreetMap contributors, ODbL 1.0. http://www.openstreetmap.org/copyright",
        "icon": "https://nominatim.openstreetmap.org/images/mapicons/poi_place_city.p.20.png",
        "place_id": "157952615",
        "osm_type": "relation"
    },
    "irvine": {
        "type": "city",
        "osm_id": "114485",
        "class": "place",
        "importance": 0.55,
        "lat": "33.6856969",
        "lon": "-117.8259818",
        "boundingbox": [
            "33.5993914",
            "33.7736521",
            "-117.8687518",
            "-117.6780258"
        ],
        "display_name": "Irvine, Orange County, California, United States of America",
        "licence": "Data \u00a9 OpenStreetMap contributors, ODbL 1.0. http://www.openstreetmap.org/copyright",
        "icon": "https://nominatim.openstreetmap.org/images/mapicons/poi_place_city.p.20.png",
        "place_id": "159062335",
        "osm_type": "relation"
    }
}