{
    "santa monica": {
        "type": "city",
        "osm_id": "3353288",
        "class": "place",
        "importance": 0.84972348720023,
        "lat": "34.0195598",
        "lon": "-118.4869738",
        "boundingbox": [
            "33.9666583",
            "34.05056",
            "-118.5513434",
            "-118.4434259"
        ],
        "display_name": "Santa Monica, Los Angeles County, California, United States of America",
        "licence": "Data \u00a9 OpenStreetMap contributors, ODbL 1.0. http://www.openstreetmap.org/copyright",
        "icon": "https://nominatim.openstreetmap.org/images/mapicons/poi_place_city.p.20.png",
        "place_id": "159526581",
        "osm_type": "relation"
    },
    "mentions": {
        "washington square park": {
            "latitude": "37.80087595",
            "closest_to": "",
            "address": "Washington Square Park, Filbert Street, North Beach, SF, California, 94123, United States of America",
            "locType": "park",
            "blogLinks": [
                "https://www.latourist.com/index.php?page=attractions-links-santa-monica"
            ],
            "longitude": "-122.410098155973"
        },
        "highway 101": {
            "latitude": "32.9967358",
            "closest_to": "",
            "address": "Highway 101, Solana Beach, San Diego County, California, 92075, United States of America",
            "locType": "primary",
            "blogLinks": [
                "https://www.tripadvisor.com/Travel-g28926-c197885/California:United-States:Sf.To.La.Coastal.Road.Primer.html"
            ],
            "longitude": "-117.2731974"
        },
        "hawaii": {
            "latitude": "36.8347819",
            "closest_to": "",
            "address": "Hawaii, Fresno County, California, 93650, United States of America",
            "locType": "service",
            "blogLinks": [
                "https://www.yelp.com/biz/pacific-coast-highway-carmel"
            ],
            "longitude": "-119.7966952"
        },
        "primm": {
            "latitude": "37.333961",
            "closest_to": "",
            "address": "Primm Avenue, Little Saigon, San Jos\u00e9, Santa Clara County, California, 95122, United States of America",
            "locType": "residential",
            "blogLinks": [
                "http://www.distancesfrom.com/us/travel-from-Irvine-to-Santa-Monica-Pier-Santa-Monica/TravelFromHistory/16220719.aspx",
                "http://vagabond3.com/dont-panic-driving-from-los-angeles-to-las-vegas/"
            ],
            "longitude": "-121.8420481"
        },
        "california coast": {
            "latitude": "32.7586361",
            "closest_to": "",
            "address": "California Coast Credit Union, Park Boulevard, Hillcrest, San Diego, San Diego County, California, 92116, United States of America",
            "locType": "bank",
            "blogLinks": [
                "https://www.tripadvisor.com/Travel-g28926-c174834/California:United-States:Coast.Highway.Route.From.La.To.San.Diego.html"
            ],
            "longitude": "-117.1464145"
        },
        "usa": {
            "latitude": "36.7014631",
            "closest_to": "",
            "address": "California, United States of America",
            "locType": "administrative",
            "blogLinks": [
                "http://www.distancesfrom.com/us/travel-from-Irvine-to-Santa-Monica-Pier-Santa-Monica/TravelFromHistory/16220719.aspx",
                "http://www.distancesfrom.com/us/flight-distance-from-Irvine-to-Santa-Monica/FlightHistory/19542850.aspx"
            ],
            "longitude": "-118.7559973"
        },
        "santa rosa street": {
            "latitude": "34.1399806",
            "closest_to": "",
            "address": "Santa Rosa Street, San Bernardino, San Bernardino County, California, 92346, United States of America",
            "locType": "residential",
            "blogLinks": [
                "https://www.tripadvisor.com/Travel-g28926-c197885/California:United-States:Sf.To.La.Coastal.Road.Primer.html"
            ],
            "longitude": "-117.1945227"
        },
        "yreka": {
            "latitude": "41.7326157",
            "closest_to": "",
            "address": "Yreka, Siskiyou County, California, United States of America",
            "locType": "city",
            "blogLinks": [
                "https://www.yelp.com/biz/pacific-coast-highway-carmel"
            ],
            "longitude": "-122.6377654"
        },
        "vancouver": {
            "latitude": "34.824773",
            "closest_to": "",
            "address": "Vancouver, San Bernardino County, California, United States of America",
            "locType": "residential",
            "blogLinks": [
                "https://www.yelp.com/biz/pacific-coast-highway-carmel"
            ],
            "longitude": "-117.4634669"
        },
        "humboldt county": {
            "latitude": "40.5997415",
            "closest_to": "",
            "address": "Humboldt County, California, United States of America",
            "locType": "administrative",
            "blogLinks": [
                "http://www.travbuddy.com/California-travel-guide-p85"
            ],
            "longitude": "-123.8997733"
        },
        "monterey bay": {
            "latitude": "36.7999557",
            "closest_to": "",
            "address": "Monterey Bay, Monterey County, California, United States of America",
            "locType": "bay",
            "blogLinks": [
                "http://www.travbuddy.com/California-travel-guide-p85"
            ],
            "longitude": "-121.9010667"
        },
        "malibu": {
            "latitude": "33.7932142",
            "closest_to": "",
            "address": "Malibu, Palm Springs, Riverside County, California, 92264, United States of America",
            "locType": "residential",
            "blogLinks": [
                "http://www.travbuddy.com/California-travel-guide-p85",
                "https://www.tripadvisor.com/Travel-g28926-c197885/California:United-States:Sf.To.La.Coastal.Road.Primer.html",
                "https://www.yelp.com/biz/pacific-coast-highway-carmel",
                "https://www.tripadvisor.com/Travel-g28926-c174834/California:United-States:Coast.Highway.Route.From.La.To.San.Diego.html",
                "http://gocalifornia.about.com/od/calamenu/ss/Driving-Californias-Malibu-Coast.htm"
            ],
            "longitude": "-116.5023561"
        },
        "santa cruz": {
            "latitude": "36.9735903",
            "closest_to": "",
            "address": "Santa Cruz, Santa Cruz County, California, United States of America",
            "locType": "city",
            "blogLinks": [
                "http://www.travbuddy.com/California-travel-guide-p85",
                "https://www.yelp.com/biz/pacific-coast-highway-carmel"
            ],
            "longitude": "-122.0260569"
        },
        "us hwy 101": {
            "latitude": "32.9967358",
            "closest_to": "",
            "address": "Highway 101, Solana Beach, San Diego County, California, 92075, United States of America",
            "locType": "primary",
            "blogLinks": [
                "http://gocalifornia.about.com/od/calamenu/ss/Driving-Californias-Malibu-Coast.htm"
            ],
            "longitude": "-117.2731974"
        },
        "broadway": {
            "latitude": "37.7958391",
            "closest_to": "",
            "address": "Broadway, Russian Hill, SF, California, 94109;94115, United States of America",
            "locType": "primary",
            "blogLinks": [
                "https://www.latourist.com/index.php?page=attractions-links-santa-monica"
            ],
            "longitude": "-122.4226908"
        },
        "tijuana": {
            "latitude": "32.5008626",
            "closest_to": "",
            "address": "Tijuana, Baja California, M\u00e9xico",
            "locType": "city",
            "blogLinks": [
                "https://www.yelp.com/biz/pacific-coast-highway-carmel"
            ],
            "longitude": "-116.9641656"
        },
        "north pole": {
            "latitude": "19.3740853",
            "closest_to": "",
            "address": "California, 1291, Empresa, Ampliaci\u00f3n N\u00e1poles, Benito Ju\u00e1rez, CDMX, 03900, M\u00e9xico",
            "locType": "restaurant",
            "blogLinks": [
                "https://blog.trekaroo.com/top-ten-holiday-events-to-enjoy-with-kids-in-southern-california/",
                "http://losangeles.cbslocal.com/top-lists/seeing-santa-in-less-than-ordinary-ways/"
            ],
            "longitude": "-99.1792586"
        },
        "florida": {
            "latitude": "29.8738433",
            "closest_to": "",
            "address": "California, Lanark Village, Franklin County, Florida, 32323, United States of America",
            "locType": "residential",
            "blogLinks": [
                "https://www.yelp.com/biz/pacific-coast-highway-carmel"
            ],
            "longitude": "-84.6071504"
        },
        "bixby bridge": {
            "latitude": "36.3710197",
            "closest_to": "",
            "address": "Bixby Creek Bridge, Notleys Landing, Monterey County, California, 93923, United States of America",
            "locType": "primary",
            "blogLinks": [
                "https://www.yelp.com/biz/pacific-coast-highway-carmel"
            ],
            "longitude": "-121.9017572"
        },
        "vegas": {
            "latitude": "36.17310935",
            "closest_to": "",
            "address": "California Hotel, Sky Walk(Connection from Main Street to California, Cultural Corridor, Vegas Heights, Las Vegas, Clark County, Nevada, 89101, United States of America",
            "locType": "hotel",
            "blogLinks": [
                "http://vagabond3.com/dont-panic-driving-from-los-angeles-to-las-vegas/"
            ],
            "longitude": "-115.144667930325"
        },
        "lincoln": {
            "latitude": "38.8598295",
            "closest_to": "",
            "address": "Lincoln, Placer County, California, United States of America",
            "locType": "city",
            "blogLinks": [
                "https://www.tripadvisor.com/Travel-g28926-c174834/California:United-States:Coast.Highway.Route.From.La.To.San.Diego.html"
            ],
            "longitude": "-121.342391957924"
        },
        "monterrey": {
            "latitude": "32.5492861",
            "closest_to": "",
            "address": "Monterrey, Mexicali, Baja California, M\u00e9xico",
            "locType": "village",
            "blogLinks": [
                "https://www.yelp.com/biz/pacific-coast-highway-carmel"
            ],
            "longitude": "-115.0704122"
        },
        "la jolla": {
            "latitude": "32.8472711",
            "closest_to": "",
            "address": "La Jolla, San Diego, San Diego County, California, United States of America",
            "locType": "suburb",
            "blogLinks": [
                "https://www.yelp.com/biz/pacific-coast-highway-carmel"
            ],
            "longitude": "-117.2742085"
        },
        "pacific": {
            "latitude": "38.7601815",
            "closest_to": "",
            "address": "Pacific, El Dorado County, California, United States of America",
            "locType": "hamlet",
            "blogLinks": [
                "http://www.travbuddy.com/California-travel-guide-p85",
                "https://www.tripadvisor.com/Travel-g28926-c174834/California:United-States:Coast.Highway.Route.From.La.To.San.Diego.html",
                "https://www.latourist.com/index.php?page=attractions-links-santa-monica"
            ],
            "longitude": "-120.507146"
        },
        "san luis obispo county": {
            "latitude": "35.3540209",
            "closest_to": "",
            "address": "San Luis Obispo County, California, United States of America",
            "locType": "administrative",
            "blogLinks": [
                "http://www.travbuddy.com/California-travel-guide-p85"
            ],
            "longitude": "-120.3757162"
        },
        "san diego freeway": {
            "latitude": "32.7285162",
            "closest_to": "",
            "address": "San Diego Freeway, Hillcrest, San Diego, San Diego County, California, 92101, United States of America",
            "locType": "motorway",
            "blogLinks": [
                "https://www.tripadvisor.com/Travel-g28926-c174834/California:United-States:Coast.Highway.Route.From.La.To.San.Diego.html"
            ],
            "longitude": "-117.1690377"
        },
        "central coast": {
            "latitude": "35.3611193",
            "closest_to": "",
            "address": "Central Coast Street, Bakersfield, Kern County, California, 93314, United States of America",
            "locType": "residential",
            "blogLinks": [
                "https://www.tripadvisor.com/Travel-g28926-c197885/California:United-States:Sf.To.La.Coastal.Road.Primer.html"
            ],
            "longitude": "-119.1665989"
        },
        "california-nevada": {
            "latitude": "36.17310935",
            "closest_to": "",
            "address": "California Hotel, Sky Walk(Connection from Main Street to California, Cultural Corridor, Vegas Heights, Las Vegas, Clark County, Nevada, 89101, United States of America",
            "locType": "hotel",
            "blogLinks": [
                "http://www.travbuddy.com/California-travel-guide-p85"
            ],
            "longitude": "-115.144667930325"
        },
        "south lake tahoe": {
            "latitude": "38.929125",
            "closest_to": "",
            "address": "South Lake Tahoe, El Dorado County, California, United States of America",
            "locType": "city",
            "blogLinks": [
                "http://www.travbuddy.com/California-travel-guide-p85"
            ],
            "longitude": "-119.987846390157"
        },
        "solana beach": {
            "latitude": "32.9905597",
            "closest_to": "",
            "address": "Solana Beach, San Diego County, California, United States of America",
            "locType": "city",
            "blogLinks": [
                "https://www.yelp.com/biz/pacific-coast-highway-carmel",
                "https://www.tripadvisor.com/Travel-g28926-c174834/California:United-States:Coast.Highway.Route.From.La.To.San.Diego.html"
            ],
            "longitude": "-117.2691315"
        },
        "mexico": {
            "latitude": "28.973",
            "closest_to": "",
            "address": "California, Hermosillo, Sonora, M\u00e9xico",
            "locType": "village",
            "blogLinks": [
                "https://www.yelp.com/biz/pacific-coast-highway-carmel"
            ],
            "longitude": "-111.8196666"
        },
        "lompoc": {
            "latitude": "34.6391501",
            "closest_to": "",
            "address": "Lompoc, Santa Barbara County, California, United States of America",
            "locType": "city",
            "blogLinks": [
                "https://www.tripadvisor.com/Travel-g28926-c197885/California:United-States:Sf.To.La.Coastal.Road.Primer.html"
            ],
            "longitude": "-120.4579408"
        },
        "ocean beach": {
            "latitude": "32.7477784",
            "closest_to": "",
            "address": "Ocean Beach, San Diego, San Diego County, California, United States of America",
            "locType": "region",
            "blogLinks": [
                "https://www.yelp.com/biz/pacific-coast-highway-carmel"
            ],
            "longitude": "-117.249321"
        },
        "australia": {
            "latitude": "-32.6649999",
            "closest_to": "",
            "address": "California, Singleton, NSW, Australia",
            "locType": "hamlet",
            "blogLinks": [
                "http://vagabond3.com/dont-panic-driving-from-los-angeles-to-las-vegas/"
            ],
            "longitude": "150.9261111"
        },
        "mullholland drive": {
            "latitude": "37.8584346",
            "closest_to": "",
            "address": "EBMUD Mullholland Reservoir, Donald Drive, Rheem Valley, Moraga, Contra Costa County, California, 94556, United States of America",
            "locType": "water_tank",
            "blogLinks": [
                "http://gocalifornia.about.com/od/calamenu/ss/Driving-Californias-Malibu-Coast.htm"
            ],
            "longitude": "-122.1430436"
        },
        "san francisco bay": {
            "latitude": "37.708264",
            "closest_to": "",
            "address": "San Francisco Bay, Ferry Landing, Alameda, Alameda County, California, 94502, United States of America",
            "locType": "bay",
            "blogLinks": [
                "http://www.travbuddy.com/California-travel-guide-p85"
            ],
            "longitude": "-122.2802469"
        },
        "legoland": {
            "latitude": "33.1334161",
            "closest_to": "",
            "address": "Legoland Drive, Carlsbad, San Diego County, California, 92009, United States of America",
            "locType": "tertiary",
            "blogLinks": [
                "https://blog.trekaroo.com/top-ten-holiday-events-to-enjoy-with-kids-in-southern-california/"
            ],
            "longitude": "-117.3171628"
        },
        "nazareth": {
            "latitude": "32.784617",
            "closest_to": "",
            "address": "Nazareth Drive, City Heights, San Diego, San Diego County, California, 92108, United States of America",
            "locType": "residential",
            "blogLinks": [
                "https://blog.trekaroo.com/top-ten-holiday-events-to-enjoy-with-kids-in-southern-california/"
            ],
            "longitude": "-117.1079923"
        },
        "gaffey street": {
            "latitude": "36.9867714",
            "closest_to": "",
            "address": "Gaffey Creek, Santa Cruz County, California, United States of America",
            "locType": "stream",
            "blogLinks": [
                "https://www.tripadvisor.com/Travel-g28926-c174834/California:United-States:Coast.Highway.Route.From.La.To.San.Diego.html"
            ],
            "longitude": "-121.7234429"
        },
        "napa": {
            "latitude": "38.2971367",
            "closest_to": "",
            "address": "Napa, Napa County, California, United States of America",
            "locType": "city",
            "blogLinks": [
                "https://www.yelp.com/biz/pacific-coast-highway-carmel"
            ],
            "longitude": "-122.2855292"
        },
        "ca": {
            "latitude": "37.8242285466918",
            "closest_to": "",
            "address": "Piedmont, Alameda County, California, ca, United States of America",
            "locType": "postcode",
            "blogLinks": [
                "http://www.distancesfrom.com/us/travel-from-Irvine-to-Santa-Monica-Pier-Santa-Monica/TravelFromHistory/16220719.aspx",
                "http://www.distancesfrom.com/us/flight-distance-from-Irvine-to-Santa-Monica/FlightHistory/19542850.aspx"
            ],
            "longitude": "-122.232613735941"
        },
        "santa": {
            "latitude": "22.4804035",
            "closest_to": "",
            "address": "California, Santa Isabel de las Lajas, Cienfuegos, Cuba",
            "locType": "hamlet",
            "blogLinks": [
                "https://blog.trekaroo.com/top-ten-holiday-events-to-enjoy-with-kids-in-southern-california/",
                "http://losangeles.cbslocal.com/top-lists/seeing-santa-in-less-than-ordinary-ways/",
                "https://www.latourist.com/index.php?page=attractions-links-santa-monica",
                "http://www.distancesfrom.com/us/flight-distance-from-Irvine-to-Santa-Monica/FlightHistory/19542850.aspx"
            ],
            "longitude": "-80.3796642"
        },
        "eureka": {
            "latitude": "40.8020712",
            "closest_to": "",
            "address": "Eureka, Humboldt County, California, United States of America",
            "locType": "city",
            "blogLinks": [
                "http://www.travbuddy.com/California-travel-guide-p85"
            ],
            "longitude": "-124.1636728"
        },
        "berkeley": {
            "latitude": "37.8708393",
            "closest_to": "",
            "address": "Berkeley, Alameda County, California, United States of America",
            "locType": "city",
            "blogLinks": [
                "http://www.travbuddy.com/California-travel-guide-p85"
            ],
            "longitude": "-122.2728638"
        },
        "san luis obispo": {
            "latitude": "35.2827525",
            "closest_to": "",
            "address": "San Luis Obispo, San Luis Obispo County, California, United States of America",
            "locType": "city",
            "blogLinks": [
                "https://www.yelp.com/biz/pacific-coast-highway-carmel",
                "https://www.tripadvisor.com/Travel-g28926-c197885/California:United-States:Sf.To.La.Coastal.Road.Primer.html"
            ],
            "longitude": "-120.6596155"
        },
        "balboa park": {
            "latitude": "37.72494875",
            "closest_to": "",
            "address": "Balboa Park, Sergeant John V Young Lane, Ingleside, SF, California, 94112, United States of America",
            "locType": "park",
            "blogLinks": [
                "https://blog.trekaroo.com/top-ten-holiday-events-to-enjoy-with-kids-in-southern-california/"
            ],
            "longitude": "-122.444804424152"
        },
        "lone cypress": {
            "latitude": "36.5687376",
            "closest_to": "",
            "address": "The Lone Cypress, 17 Mile Drive, Del Monte Forest, Monterey County, California, 93953, United States of America",
            "locType": "tree",
            "blogLinks": [
                "https://www.yelp.com/biz/pacific-coast-highway-carmel"
            ],
            "longitude": "-121.9652341"
        },
        "united kingdom": {
            "latitude": "52.4422729",
            "closest_to": "",
            "address": "California, Birmingham, West Midlands, England, UK",
            "locType": "village",
            "blogLinks": [
                "http://distancecalculator.globefeed.com/US_Distance_Calculator.asp?state=CA"
            ],
            "longitude": "-1.9796882"
        },
        "leucadia": {
            "latitude": "33.0692223",
            "closest_to": "",
            "address": "Leucadia, San Diego County, California, United States of America",
            "locType": "hamlet",
            "blogLinks": [
                "https://www.tripadvisor.com/Travel-g28926-c174834/California:United-States:Coast.Highway.Route.From.La.To.San.Diego.html"
            ],
            "longitude": "-117.3026809"
        },
        "neptune": {
            "latitude": "33.7953668",
            "closest_to": "",
            "address": "Neptune, Palm Springs, Riverside County, California, 92264, United States of America",
            "locType": "residential",
            "blogLinks": [
                "http://gocalifornia.about.com/od/calamenu/ss/Driving-Californias-Malibu-Coast.htm"
            ],
            "longitude": "-116.5067839"
        },
        "frisco": {
            "latitude": "35.0714062",
            "closest_to": "",
            "address": "Frisco Way, Los Berros, San Luis Obispo County, California, 93420, United States of America",
            "locType": "residential",
            "blogLinks": [
                "https://www.yelp.com/biz/pacific-coast-highway-carmel"
            ],
            "longitude": "-120.5207138"
        },
        "la": {
            "latitude": "36.7014631",
            "closest_to": "",
            "address": "California, United States of America",
            "locType": "administrative",
            "blogLinks": [
                "http://www.travbuddy.com/California-travel-guide-p85",
                "https://www.tripadvisor.com/Travel-g28926-c197885/California:United-States:Sf.To.La.Coastal.Road.Primer.html",
                "http://vagabond3.com/dont-panic-driving-from-los-angeles-to-las-vegas/",
                "https://www.latourist.com/index.php?page=attractions-links-santa-monica",
                "https://www.yelp.com/biz/pacific-coast-highway-carmel"
            ],
            "longitude": "-118.7559973"
        },
        "pfeiffer big sur state park": {
            "latitude": "36.25330545",
            "closest_to": "",
            "address": "Pfeiffer Big Sur State Park, Valley View Trail, Big Sur, Monterey County, California, United States of America",
            "locType": "park",
            "blogLinks": [
                "https://www.tripadvisor.com/Travel-g28926-c197885/California:United-States:Sf.To.La.Coastal.Road.Primer.html"
            ],
            "longitude": "-121.783295208903"
        },
        "santa ynez": {
            "latitude": "34.608637",
            "closest_to": "",
            "address": "Santa Ynez, Stadium Place, Santa Ynez, Santa Barbara County, California, 93463, United States of America",
            "locType": "administrative",
            "blogLinks": [
                "https://www.tripadvisor.com/Travel-g28926-c197885/California:United-States:Sf.To.La.Coastal.Road.Primer.html"
            ],
            "longitude": "-120.104677321497"
        },
        "amsterdam": {
            "latitude": "37.4302157",
            "closest_to": "",
            "address": "Amsterdam, Merced County, California, United States of America",
            "locType": "hamlet",
            "blogLinks": [
                "http://vagabond3.com/dont-panic-driving-from-los-angeles-to-las-vegas/"
            ],
            "longitude": "-120.5421391"
        },
        "westwood": {
            "latitude": "40.3024675",
            "closest_to": "",
            "address": "Westwood, 3rd Street, Westwood, Lassen County, California, United States of America",
            "locType": "administrative",
            "blogLinks": [
                "http://gocalifornia.about.com/od/calamenu/ss/Driving-Californias-Malibu-Coast.htm"
            ],
            "longitude": "-121.010399151458"
        },
        "san jose": {
            "latitude": "37.3361905",
            "closest_to": "",
            "address": "San Jos\u00e9, Santa Clara County, California, United States of America",
            "locType": "city",
            "blogLinks": [
                "http://www.travbuddy.com/California-travel-guide-p85"
            ],
            "longitude": "-121.8905832"
        },
        "ritz carlton": {
            "latitude": "37.791867",
            "closest_to": "",
            "address": "Ritz-Carlton, 600, Stockton Street, Chinatown, SF, California, 94108, United States of America",
            "locType": "hotel",
            "blogLinks": [
                "https://blog.trekaroo.com/top-ten-holiday-events-to-enjoy-with-kids-in-southern-california/"
            ],
            "longitude": "-122.406834213408"
        },
        "el dorado county": {
            "latitude": "38.7574137",
            "closest_to": "",
            "address": "El Dorado County, California, United States of America",
            "locType": "administrative",
            "blogLinks": [
                "http://www.travbuddy.com/California-travel-guide-p85"
            ],
            "longitude": "-120.5276128"
        },
        "santa barbara": {
            "latitude": "34.4221319",
            "closest_to": "",
            "address": "Santa Barbara, Santa Barbara County, California, United States of America",
            "locType": "city",
            "blogLinks": [
                "https://www.yelp.com/biz/pacific-coast-highway-carmel",
                "https://www.tripadvisor.com/Travel-g28926-c197885/California:United-States:Sf.To.La.Coastal.Road.Primer.html"
            ],
            "longitude": "-119.7026672"
        },
        "l.a.": {
            "latitude": "-13.8305494",
            "closest_to": "",
            "address": "California, Provincia Abel Iturralde, LPZ, Bolivia",
            "locType": "hamlet",
            "blogLinks": [
                "https://www.yelp.com/biz/pacific-coast-highway-carmel",
                "http://losangeles.cbslocal.com/top-lists/seeing-santa-in-less-than-ordinary-ways/"
            ],
            "longitude": "-67.9369134"
        },
        "san diego county": {
            "latitude": "32.9637838",
            "closest_to": "",
            "address": "San Diego County, California, United States of America",
            "locType": "administrative",
            "blogLinks": [
                "https://www.tripadvisor.com/Travel-g28926-c174834/California:United-States:Coast.Highway.Route.From.La.To.San.Diego.html"
            ],
            "longitude": "-116.7706276"
        },
        "half moon bay": {
            "latitude": "37.4635519",
            "closest_to": "",
            "address": "Half Moon Bay, San Mateo County, California, United States of America",
            "locType": "city",
            "blogLinks": [
                "https://www.yelp.com/biz/pacific-coast-highway-carmel"
            ],
            "longitude": "-122.4285861"
        },
        "us": {
            "latitude": "36.7014631",
            "closest_to": "",
            "address": "California, United States of America",
            "locType": "administrative",
            "blogLinks": [
                "http://www.travbuddy.com/California-travel-guide-p85",
                "http://distancecalculator.globefeed.com/US_Distance_Calculator.asp?state=CA",
                "https://www.tripadvisor.com/Travel-g28926-c197885/California:United-States:Sf.To.La.Coastal.Road.Primer.html",
                "http://vagabond3.com/dont-panic-driving-from-los-angeles-to-las-vegas/",
                "http://gocalifornia.about.com/od/calamenu/ss/Driving-Californias-Malibu-Coast.htm",
                "https://www.yelp.com/biz/pacific-coast-highway-carmel"
            ],
            "longitude": "-118.7559973"
        },
        "santa maria": {
            "latitude": "34.9531295",
            "closest_to": "",
            "address": "Santa Maria, Santa Barbara County, California, United States of America",
            "locType": "city",
            "blogLinks": [
                "https://www.yelp.com/biz/pacific-coast-highway-carmel",
                "https://www.tripadvisor.com/Travel-g28926-c197885/California:United-States:Sf.To.La.Coastal.Road.Primer.html"
            ],
            "longitude": "-120.4358576"
        },
        "grand avenue": {
            "latitude": "34.10718",
            "closest_to": "",
            "address": "Grand Avenue, Yucca Valley, San Bernardino County, California, 92284, United States of America",
            "locType": "residential",
            "blogLinks": [
                "https://www.latourist.com/index.php?page=attractions-links-santa-monica"
            ],
            "longitude": "-116.4257794"
        },
        "oakland": {
            "latitude": "37.8044557",
            "closest_to": "",
            "address": "Oakland, Alameda County, California, United States of America",
            "locType": "city",
            "blogLinks": [
                "http://www.travbuddy.com/California-travel-guide-p85"
            ],
            "longitude": "-122.2713562"
        },
        "old encinitas": {
            "latitude": "33.0369867",
            "closest_to": "",
            "address": "Encinitas, San Diego County, California, United States of America",
            "locType": "city",
            "blogLinks": [
                "https://www.yelp.com/biz/pacific-coast-highway-carmel"
            ],
            "longitude": "-117.2919817"
        },
        "monterey": {
            "latitude": "36.5844165",
            "closest_to": "",
            "address": "Monterey, Monterey County, California, United States of America",
            "locType": "city",
            "blogLinks": [
                "http://www.travbuddy.com/California-travel-guide-p85",
                "https://www.tripadvisor.com/Travel-g28926-c197885/California:United-States:Sf.To.La.Coastal.Road.Primer.html",
                "https://www.yelp.com/biz/pacific-coast-highway-carmel"
            ],
            "longitude": "-121.866792846206"
        },
        "national parks": {
            "latitude": "35.0310157",
            "closest_to": "",
            "address": "National Parks Service Road, San Bernardino County, California, United States of America",
            "locType": "residential",
            "blogLinks": [
                "https://blog.trekaroo.com/top-ten-holiday-events-to-enjoy-with-kids-in-southern-california/"
            ],
            "longitude": "-115.383967"
        },
        "las virgenes": {
            "latitude": "32.4444142",
            "closest_to": "",
            "address": "Las Virgenes, Fracc. Garcia, Tijuana, Baja California, 22125, M\u00e9xico",
            "locType": "residential",
            "blogLinks": [
                "http://gocalifornia.about.com/od/calamenu/ss/Driving-Californias-Malibu-Coast.htm"
            ],
            "longitude": "-116.9273026"
        },
        "san diego": {
            "latitude": "32.7174209",
            "closest_to": "",
            "address": "San Diego, San Diego County, California, United States of America",
            "locType": "city",
            "blogLinks": [
                "http://www.travbuddy.com/California-travel-guide-p85",
                "https://blog.trekaroo.com/top-ten-holiday-events-to-enjoy-with-kids-in-southern-california/",
                "https://www.yelp.com/biz/pacific-coast-highway-carmel"
            ],
            "longitude": "-117.1627713"
        },
        "cambria": {
            "latitude": "35.5641381",
            "closest_to": "",
            "address": "Cambria, San Luis Obispo County, California, United States of America",
            "locType": "administrative",
            "blogLinks": [
                "https://www.yelp.com/biz/pacific-coast-highway-carmel",
                "https://www.tripadvisor.com/Travel-g28926-c197885/California:United-States:Sf.To.La.Coastal.Road.Primer.html"
            ],
            "longitude": "-121.0807467"
        },
        "palos verdes drive": {
            "latitude": "37.5310595",
            "closest_to": "",
            "address": "Palos Verdes Drive, San Mateo, San Mateo County, California, 94403, United States of America",
            "locType": "residential",
            "blogLinks": [
                "https://www.tripadvisor.com/Travel-g28926-c174834/California:United-States:Coast.Highway.Route.From.La.To.San.Diego.html"
            ],
            "longitude": "-122.328956"
        },
        "carlsbad": {
            "latitude": "33.1580933",
            "closest_to": "",
            "address": "Carlsbad, San Diego County, California, United States of America",
            "locType": "city",
            "blogLinks": [
                "http://www.travbuddy.com/California-travel-guide-p85",
                "https://www.yelp.com/biz/pacific-coast-highway-carmel",
                "https://www.tripadvisor.com/Travel-g28926-c174834/California:United-States:Coast.Highway.Route.From.La.To.San.Diego.html"
            ],
            "longitude": "-117.3505938"
        },
        "u.s.": {
            "latitude": "-32.5446226",
            "closest_to": "",
            "address": "La California, Municipio de Las Rosas, Departamento Belgrano, Sta. Fe, Argentina",
            "locType": "hamlet",
            "blogLinks": [
                "https://blog.trekaroo.com/top-ten-holiday-events-to-enjoy-with-kids-in-southern-california/",
                "http://www.travelmath.com/cost-of-driving/from/Irvine,+CA/to/Santa+Monica,+CA"
            ],
            "longitude": "-61.5489543"
        },
        "las vegas": {
            "latitude": "36.17310935",
            "closest_to": "",
            "address": "California Hotel, Sky Walk(Connection from Main Street to California, Cultural Corridor, Vegas Heights, Las Vegas, Clark County, Nevada, 89101, United States of America",
            "locType": "hotel",
            "blogLinks": [
                "http://vagabond3.com/dont-panic-driving-from-los-angeles-to-las-vegas/"
            ],
            "longitude": "-115.144667930325"
        },
        "big bear lake": {
            "latitude": "34.253293",
            "closest_to": "",
            "address": "Big Bear Lake, Lagunita Lane, Big Bear Lake, San Bernardino County, California, 92315, United States of America",
            "locType": "water",
            "blogLinks": [
                "http://www.travbuddy.com/California-travel-guide-p85"
            ],
            "longitude": "-116.932209587315"
        },
        "silicon valley": {
            "latitude": "37.4105333",
            "closest_to": "",
            "address": "Carnegie Mellon Silicon Valley, South Akron Road, Santa Clara County, California, 94035-0016, United States of America",
            "locType": "school",
            "blogLinks": [
                "http://www.travbuddy.com/California-travel-guide-p85"
            ],
            "longitude": "-122.0597491"
        },
        "tillamook": {
            "latitude": "32.728329",
            "closest_to": "",
            "address": "Tillamook Bay Drive, San Diego, San Diego County, California, 92114, United States of America",
            "locType": "residential",
            "blogLinks": [
                "https://www.yelp.com/biz/pacific-coast-highway-carmel"
            ],
            "longitude": "-117.0726319"
        },
        "jacksonville": {
            "latitude": "30.254267",
            "closest_to": "",
            "address": "California Avenue, Jacksonville, Duval County, Florida, 32210, United States of America",
            "locType": "residential",
            "blogLinks": [
                "https://www.yelp.com/biz/pacific-coast-highway-carmel"
            ],
            "longitude": "-81.7838589"
        },
        "san diego botanic gardens": {
            "latitude": "33.053482",
            "closest_to": "",
            "address": "San Diego Botanic Garden, Pacific View Lane, Encinitas, San Diego County, California, 92024, United States of America",
            "locType": "garden",
            "blogLinks": [
                "https://blog.trekaroo.com/top-ten-holiday-events-to-enjoy-with-kids-in-southern-california/"
            ],
            "longitude": "-117.281085005264"
        },
        "pacific ocean": {
            "latitude": "36.16305775",
            "closest_to": "",
            "address": "Pacific Ocean, Cabrillo Highway, Monterey County, California, 93920, United States of America",
            "locType": "cliff",
            "blogLinks": [
                "http://www.travbuddy.com/California-travel-guide-p85",
                "https://www.yelp.com/biz/pacific-coast-highway-carmel",
                "http://gocalifornia.about.com/od/calamenu/ss/Driving-Californias-Malibu-Coast.htm"
            ],
            "longitude": "-121.678715787326"
        },
        "san francisco": {
            "latitude": "37.7792808",
            "closest_to": "",
            "address": "SF, California, United States of America",
            "locType": "city",
            "blogLinks": [
                "http://www.travbuddy.com/California-travel-guide-p85",
                "https://www.tripadvisor.com/Travel-g28926-c197885/California:United-States:Sf.To.La.Coastal.Road.Primer.html",
                "https://www.yelp.com/biz/pacific-coast-highway-carmel",
                "https://www.tripadvisor.com/Travel-g28926-c174834/California:United-States:Coast.Highway.Route.From.La.To.San.Diego.html"
            ],
            "longitude": "-122.4192362"
        },
        "san simeon": {
            "latitude": "35.6438587",
            "closest_to": "",
            "address": "San Simeon, San Luis Obispo County, California, United States of America",
            "locType": "hamlet",
            "blogLinks": [
                "http://www.travbuddy.com/California-travel-guide-p85",
                "https://www.tripadvisor.com/Travel-g28926-c197885/California:United-States:Sf.To.La.Coastal.Road.Primer.html",
                "https://www.yelp.com/biz/pacific-coast-highway-carmel"
            ],
            "longitude": "-121.1907532"
        },
        "big sur": {
            "latitude": "36.270241",
            "closest_to": "",
            "address": "Big Sur, Monterey County, California, United States of America",
            "locType": "village",
            "blogLinks": [
                "https://www.yelp.com/biz/pacific-coast-highway-carmel"
            ],
            "longitude": "-121.8074544"
        },
        "sacramento": {
            "latitude": "38.5815719",
            "closest_to": "",
            "address": "Sacramento, Sacramento County, California, United States of America",
            "locType": "city",
            "blogLinks": [
                "http://www.travbuddy.com/California-travel-guide-p85",
                "https://www.yelp.com/biz/pacific-coast-highway-carmel"
            ],
            "longitude": "-121.4943995"
        },
        "irvine park": {
            "latitude": "33.9082151",
            "closest_to": "",
            "address": "Irvine Park, Beaumont, Riverside County, California, 92223, United States of America",
            "locType": "residential",
            "blogLinks": [
                "https://blog.trekaroo.com/top-ten-holiday-events-to-enjoy-with-kids-in-southern-california/"
            ],
            "longitude": "-116.9604311"
        },
        "torrey pines road": {
            "latitude": "32.8491824",
            "closest_to": "",
            "address": "Torrey Pines Road, La Jolla, San Diego, San Diego County, California, 92037, United States of America",
            "locType": "secondary",
            "blogLinks": [
                "https://www.yelp.com/biz/pacific-coast-highway-carmel"
            ],
            "longitude": "-117.2620194"
        },
        "bay area": {
            "latitude": "37.7884969",
            "closest_to": "",
            "address": "San Francisco Bay Area, SF, California, United States of America",
            "locType": "region",
            "blogLinks": [
                "https://www.yelp.com/biz/pacific-coast-highway-carmel"
            ],
            "longitude": "-122.3558472"
        },
        "united states": {
            "latitude": "36.7014631",
            "closest_to": "",
            "address": "California, United States of America",
            "locType": "administrative",
            "blogLinks": [
                "https://www.tripadvisor.com/Travel-g28926-c174834/California:United-States:Coast.Highway.Route.From.La.To.San.Diego.html",
                "http://gocalifornia.about.com/od/calamenu/ss/Driving-Californias-Malibu-Coast.htm"
            ],
            "longitude": "-118.7559973"
        },
        "morro bay": {
            "latitude": "35.3658075",
            "closest_to": "",
            "address": "Morro Bay, San Luis Obispo County, California, United States of America",
            "locType": "city",
            "blogLinks": [
                "https://www.tripadvisor.com/Travel-g28926-c197885/California:United-States:Sf.To.La.Coastal.Road.Primer.html"
            ],
            "longitude": "-120.8499012"
        },
        "campo": {
            "latitude": "37.8974258",
            "closest_to": "",
            "address": "El Campo, Marin County, California, United States of America",
            "locType": "hamlet",
            "blogLinks": [
                "https://blog.trekaroo.com/top-ten-holiday-events-to-enjoy-with-kids-in-southern-california/"
            ],
            "longitude": "-122.4652506"
        },
        "pacifica": {
            "latitude": "37.6138253",
            "closest_to": "",
            "address": "Pacifica, San Mateo County, California, United States of America",
            "locType": "city",
            "blogLinks": [
                "https://www.tripadvisor.com/Travel-g28926-c197885/California:United-States:Sf.To.La.Coastal.Road.Primer.html"
            ],
            "longitude": "-122.4869193"
        },
        "yosemite national park": {
            "latitude": "37.84054795",
            "closest_to": "",
            "address": "Yosemite National Park, Mt. Hoffmann Trail, Mariposa County, California, United States of America",
            "locType": "national_park",
            "blogLinks": [
                "http://www.travbuddy.com/California-travel-guide-p85"
            ],
            "longitude": "-119.516587698025"
        },
        "lake tahoe": {
            "latitude": "39.0888982",
            "closest_to": "",
            "address": "Lake Tahoe, Placer County, California, United States of America",
            "locType": "water",
            "blogLinks": [
                "http://www.travbuddy.com/California-travel-guide-p85"
            ],
            "longitude": "-120.050511752934"
        },
        "pismo beach": {
            "latitude": "35.1427533",
            "closest_to": "",
            "address": "Pismo Beach, San Luis Obispo County, California, United States of America",
            "locType": "city",
            "blogLinks": [
                "https://www.yelp.com/biz/pacific-coast-highway-carmel",
                "https://www.tripadvisor.com/Travel-g28926-c197885/California:United-States:Sf.To.La.Coastal.Road.Primer.html"
            ],
            "longitude": "-120.6412826"
        },
        "brentwood": {
            "latitude": "37.9317766",
            "closest_to": "",
            "address": "Brentwood, Contra Costa County, California, United States of America",
            "locType": "city",
            "blogLinks": [
                "http://gocalifornia.about.com/od/calamenu/ss/Driving-Californias-Malibu-Coast.htm"
            ],
            "longitude": "-121.6960265"
        },
        "interstate freeway": {
            "latitude": "33.7269731",
            "closest_to": "",
            "address": "Interstate 10, Indio, Riverside County, California, 92201, United States of America",
            "locType": "motorway",
            "blogLinks": [
                "https://www.tripadvisor.com/Travel-g28926-c174834/California:United-States:Coast.Highway.Route.From.La.To.San.Diego.html"
            ],
            "longitude": "-116.2024855"
        },
        "new york city": {
            "latitude": "40.767819",
            "closest_to": "",
            "address": "California Sea Lion, 830, 5th Avenue, Upper East Side, Manhattan, New York County, NYC, New York, 10035, United States of America",
            "locType": "attraction",
            "blogLinks": [
                "https://www.latourist.com/index.php?page=attractions-links-santa-monica"
            ],
            "longitude": "-73.9717587"
        },
        "ocean avenue": {
            "latitude": "37.7320759",
            "closest_to": "",
            "address": "Ocean Ave, Ocean Avenue, Saint Francis Wood, SF, California, 94132, United States of America",
            "locType": "tram_stop",
            "blogLinks": [
                "https://www.latourist.com/index.php?page=attractions-links-santa-monica"
            ],
            "longitude": "-122.4736116"
        },
        "ventura": {
            "latitude": "34.4458248",
            "closest_to": "",
            "address": "Ventura County, California, United States of America",
            "locType": "administrative",
            "blogLinks": [
                "https://www.tripadvisor.com/Travel-g28926-c197885/California:United-States:Sf.To.La.Coastal.Road.Primer.html",
                "http://gocalifornia.about.com/od/calamenu/ss/Driving-Californias-Malibu-Coast.htm"
            ],
            "longitude": "-119.0779358"
        },
        "california": {
            "latitude": "7.3480915",
            "closest_to": "",
            "address": "California, Santander, Colombia",
            "locType": "village",
            "blogLinks": [
                "http://www.travbuddy.com/California-travel-guide-p85",
                "https://blog.trekaroo.com/top-ten-holiday-events-to-enjoy-with-kids-in-southern-california/",
                "http://distancecalculator.globefeed.com/US_Distance_Calculator.asp?state=CA",
                "http://gocalifornia.about.com/od/calamenu/ss/Driving-Californias-Malibu-Coast.htm",
                "https://www.yelp.com/biz/pacific-coast-highway-carmel",
                "http://www.travelmath.com/cost-of-driving/from/Irvine,+CA/to/Santa+Monica,+CA"
            ],
            "longitude": "-72.945787"
        },
        "calico": {
            "latitude": "35.6327332",
            "closest_to": "",
            "address": "Calico, Kern County, California, United States of America",
            "locType": "locality",
            "blogLinks": [
                "http://www.travbuddy.com/California-travel-guide-p85"
            ],
            "longitude": "-119.206496"
        },
        "napa valley": {
            "latitude": "39.0234679",
            "closest_to": "",
            "address": "Napa Valley, Cold Spring, Campbell County, Kentucky, 41076, United States of America",
            "locType": "residential",
            "blogLinks": [
                "http://www.travbuddy.com/California-travel-guide-p85"
            ],
            "longitude": "-84.4504647"
        },
        "america": {
            "latitude": "36.2573198",
            "closest_to": "",
            "address": "America, Kings County, California, 93246, United States of America",
            "locType": "residential",
            "blogLinks": [
                "http://www.travbuddy.com/California-travel-guide-p85"
            ],
            "longitude": "-119.8948706"
        },
        "carmel": {
            "latitude": "38.75511285",
            "closest_to": "",
            "address": "Carmel, Roseville, Placer County, California, 95747, United States of America",
            "locType": "residential",
            "blogLinks": [
                "http://www.travbuddy.com/California-travel-guide-p85",
                "https://www.tripadvisor.com/Travel-g28926-c197885/California:United-States:Sf.To.La.Coastal.Road.Primer.html",
                "https://www.yelp.com/biz/pacific-coast-highway-carmel"
            ],
            "longitude": "-121.353308848273"
        },
        "laguna": {
            "latitude": "38.4210209",
            "closest_to": "",
            "address": "Laguna, Sacramento County, California, United States of America",
            "locType": "hamlet",
            "blogLinks": [
                "https://www.yelp.com/biz/pacific-coast-highway-carmel"
            ],
            "longitude": "-121.4238413"
        },
        "encinitas": {
            "latitude": "33.0369867",
            "closest_to": "",
            "address": "Encinitas, San Diego County, California, United States of America",
            "locType": "city",
            "blogLinks": [
                "https://www.yelp.com/biz/pacific-coast-highway-carmel",
                "https://www.tripadvisor.com/Travel-g28926-c174834/California:United-States:Coast.Highway.Route.From.La.To.San.Diego.html"
            ],
            "longitude": "-117.2919817"
        },
        "downtown l.a.": {
            "latitude": "39.7452174",
            "closest_to": "",
            "address": "California, 16th Street, Upper Downtown, Denver, Denver County, Colorado, 80211, United States of America",
            "locType": "bus_stop",
            "blogLinks": [
                "https://www.latourist.com/index.php?page=attractions-links-santa-monica"
            ],
            "longitude": "-104.992379"
        },
        "barstow": {
            "latitude": "34.8957684",
            "closest_to": "",
            "address": "Barstow, San Bernardino County, California, United States of America",
            "locType": "administrative",
            "blogLinks": [
                "http://www.travbuddy.com/California-travel-guide-p85",
                "http://vagabond3.com/dont-panic-driving-from-los-angeles-to-las-vegas/"
            ],
            "longitude": "-117.0172076"
        }
    },
    "irvine": {
        "type": "city",
        "osm_id": "114485",
        "class": "place",
        "importance": 0.55,
        "lat": "33.6856969",
        "lon": "-117.8259818",
        "boundingbox": [
            "33.5993914",
            "33.7736521",
            "-117.8687518",
            "-117.6780258"
        ],
        "display_name": "Irvine, Orange County, California, United States of America",
        "licence": "Data \u00a9 OpenStreetMap contributors, ODbL 1.0. http://www.openstreetmap.org/copyright",
        "icon": "https://nominatim.openstreetmap.org/images/mapicons/poi_place_city.p.20.png",
        "place_id": "159062335",
        "osm_type": "relation"
    }
}