{
    "thirthahalli": {
        "type": "trunk",
        "licence": "Data \u00a9 OpenStreetMap contributors, ODbL 1.0. http://www.openstreetmap.org/copyright",
        "osm_id": "374064965",
        "lon": "74.9626368",
        "boundingbox": [
            "13.4262888",
            "13.4265327",
            "74.9623428",
            "74.9626368"
        ],
        "osm_type": "way",
        "importance": 0.3,
        "place_id": "146734997",
        "lat": "13.4265327",
        "display_name": "Thirthahalli - Udupi Highway, Shivapura, Karkala taluk, Udupi district, Karnataka, India",
        "class": "highway"
    },
    "mentions": {
        "vidhana": {
            "closest_to": "",
            "address": "Vidhana Soudha, Dr B R Ambedkar Veedhi, Shantala Nagar, Gandhinagar, Bengaluru, Bangalore Urban, Karnataka, 560001, India",
            "longitude": "77.5906167279795",
            "latitude": "12.9797454",
            "blogLinks": [
                "https://ellakavi.wordpress.com/category/ekavi-usa/page/2/"
            ],
            "locType": "attraction"
        },
        "badami": {
            "closest_to": "",
            "address": "Badami, Badami taluku, Bagalkote district, Karnataka, 587200, India",
            "longitude": "75.6807865",
            "latitude": "15.9203874",
            "blogLinks": [
                "http://www.hoparoundindia.com/state-guides/karnataka.aspx"
            ],
            "locType": "town"
        },
        "hampi": {
            "closest_to": "",
            "address": "Hampe, Hosapete taluk, Bellary district, Karnataka, 583239, India",
            "longitude": "76.4606199",
            "latitude": "15.3359769",
            "blogLinks": [
                "http://www.hoparoundindia.com/state-guides/karnataka.aspx"
            ],
            "locType": "village"
        },
        "prakrit": {
            "closest_to": "",
            "address": "Department of Studies in Jainology and Prakrit, Nobel Laureates' Avenue, Jayalakshmipuram, Mysuru, Mysuru taluk, Mysuru district, Karnataka, 570001, India",
            "longitude": "76.6217717500777",
            "latitude": "12.3118031",
            "blogLinks": [
                "https://ellakavi.wordpress.com/category/ekavi-usa/page/2/"
            ],
            "locType": "yes"
        },
        "samskara": {
            "closest_to": "",
            "address": "Sarppa Samskara Yaga Shaala, Car Street, Kukke Subrahmanya, Sulya taluk, Dakshina Kannada, Karnataka, 574238, India",
            "longitude": "75.6177217",
            "latitude": "12.6652402",
            "blogLinks": [
                "https://en.wikipedia.org/wiki/Shimoga_district"
            ],
            "locType": "place_of_worship"
        },
        "kuruvalli": {
            "closest_to": "",
            "address": "Kuruvalli, Siruguppa taluku, Bellary district, Karnataka, India",
            "longitude": "76.9715043",
            "latitude": "15.6717367",
            "blogLinks": [
                "https://en.wikipedia.org/wiki/Thirthahalli"
            ],
            "locType": "village"
        },
        "udipi": {
            "closest_to": "",
            "address": "Udipi Park, 2nd Cross Road, Muniyappa Layout, Murugeshpalaya, Belure Ambedkar Nagar, Bangalore Urban, Karnataka, 560067, India",
            "longitude": "77.652888",
            "latitude": "12.9530588",
            "blogLinks": [
                "http://www.nivalink.com/destination/thirthahalli",
                "http://www.nivalink.com/destination/jog-falls"
            ],
            "locType": "restaurant"
        },
        "shimoga road": {
            "closest_to": "",
            "address": "Shimoga Road, Vidyanagar 'A' block, Harihara, Harihara taluku, Davanagere district, Karnataka, 577600, India",
            "longitude": "75.8065185",
            "latitude": "14.5059004",
            "blogLinks": [
                "https://en.wikipedia.org/wiki/Thirthahalli"
            ],
            "locType": "primary"
        },
        "mandya": {
            "closest_to": "",
            "address": "Mandya, Mandya taluk, Mandya district, Karnataka, 571401, India",
            "longitude": "76.8937392",
            "latitude": "12.5217836",
            "blogLinks": [
                "https://en.wikipedia.org/wiki/Shimoga_district"
            ],
            "locType": "town"
        },
        "maharashtra": {
            "closest_to": "",
            "address": "Bank of Maharashtra, 24th Main, K R Layout, Puttenahalli, Bengaluru, Bangalore Urban, Karnataka, 560001, India",
            "longitude": "77.5856013",
            "latitude": "12.9049455",
            "blogLinks": [
                "http://www.hoparoundindia.com/state-guides/karnataka.aspx"
            ],
            "locType": "bank"
        },
        "urdu": {
            "closest_to": "",
            "address": "Urdu Ground, Ranebennur, Ranebennuru taluk, Haveri district, Karnataka, 581115, India",
            "longitude": "75.636575371858",
            "latitude": "14.6180369",
            "blogLinks": [
                "https://en.wikipedia.org/wiki/Shimoga_district"
            ],
            "locType": "recreation_ground"
        },
        "kargal": {
            "closest_to": "",
            "address": "Kargal, Arakalagudu taluk, Hassan district, Karnataka, India",
            "longitude": "75.9613152",
            "latitude": "12.627292",
            "blogLinks": [
                "https://en.wikipedia.org/wiki/Shimoga_district"
            ],
            "locType": "village"
        },
        "varanasi": {
            "closest_to": "",
            "address": "Varanasi, Bangalore Urban, Karnataka, India",
            "longitude": "77.6860657",
            "latitude": "13.0304962",
            "blogLinks": [
                "https://ellakavi.wordpress.com/category/ekavi-usa/page/2/"
            ],
            "locType": "village"
        },
        "south": {
            "closest_to": "",
            "address": "s, Vijayapura, Devanahalli taluk, Bangalore Rural, Karnataka, 562135, India",
            "longitude": "77.8040874",
            "latitude": "13.2942848",
            "blogLinks": [
                "http://www.nivalink.com/destination/jog-falls",
                "https://ellakavi.wordpress.com/category/ekavi-usa/page/2/"
            ],
            "locType": "residential"
        },
        "tumakuru": {
            "closest_to": "",
            "address": "Tumakuru, Tumkur district, Karnataka, India",
            "longitude": "77.0002445",
            "latitude": "13.4999406",
            "blogLinks": [
                "https://www.quora.com/What-are-the-places-to-visit-in-around-Shimoga-in-3-days"
            ],
            "locType": "county"
        },
        "' river sharavathi": {
            "closest_to": "",
            "address": "Vrishabavathi, Bengaluru, Bangalore Urban, Karnataka, 560001, India",
            "longitude": "77.5476521",
            "latitude": "12.967526",
            "blogLinks": [
                "https://en.wikipedia.org/wiki/Shimoga_district"
            ],
            "locType": "river"
        },
        "parvati": {
            "closest_to": "",
            "address": "Parvati, Badami taluku, Bagalkote district, Karnataka, India",
            "longitude": "75.7898501",
            "latitude": "16.0395701",
            "blogLinks": [
                "https://en.wikipedia.org/wiki/Shimoga_district"
            ],
            "locType": "village"
        },
        "keshava temple": {
            "closest_to": "",
            "address": "\u0c9a\u0cc6\u0ca8\u0ccd\u0ca8\u0c95\u0cc7\u0cb6\u0cb5 \u0ca6\u0cc7\u0cb5\u0cb8\u0ccd\u0ca5\u0cbe\u0ca8, SH79, Bevinahalli, Tirumakudalu Narasipura taluk, Mysuru district, Karnataka, India",
            "longitude": "76.8815598",
            "latitude": "12.27576785",
            "blogLinks": [
                "http://www.hoparoundindia.com/state-guides/karnataka.aspx"
            ],
            "locType": "attraction"
        },
        "mysore palace": {
            "closest_to": "",
            "address": "Mysore Palace, Sayyaji Rao Road, Vani Vilas, Mysuru, Mysuru taluk, Mysuru district, Karnataka, 570001, India",
            "longitude": "76.6539249338108",
            "latitude": "12.3052915",
            "blogLinks": [
                "http://www.karnatakaspider.com/resources/3417-Attractions-at-Jog-Falls.aspx"
            ],
            "locType": "yes"
        },
        "davangere": {
            "closest_to": "",
            "address": "Davangere City Corporation Offices, K.B. Extension, Davanagere, Davanagere taluku, Davanagere district, Karnataka, 577000, India",
            "longitude": "75.9197507909343",
            "latitude": "14.4664457",
            "blogLinks": [
                "https://en.wikipedia.org/wiki/Shimoga_district"
            ],
            "locType": "commercial"
        },
        "hyderabad": {
            "closest_to": "",
            "address": "Hyderabad Road, Old City, Bidar, Bidar taluku, Bidar district, Karnataka, 585400, India",
            "longitude": "77.5344002",
            "latitude": "17.9003114",
            "blogLinks": [
                "https://www.quora.com/What-are-the-places-to-visit-in-around-Shimoga-in-3-days"
            ],
            "locType": "primary"
        },
        "karnataka": {
            "closest_to": "",
            "address": "Karnataka, Shalivahana Road, Nazarbad, Mysuru, Mysuru taluk, Mysuru district, Karnataka, 570001, India",
            "longitude": "76.6639936",
            "latitude": "12.3084901",
            "blogLinks": [
                "http://wikitravel.org/en/Shimoga",
                "http://www.nivalink.com/destination/jog-falls",
                "https://en.wikipedia.org/wiki/Thirthahalli",
                "https://ellakavi.wordpress.com/category/ekavi-usa/page/2/",
                "http://www.holidayiq.com/destinations/shimoga/glorious-sunset-photos-p8439.html",
                "https://www.quora.com/What-are-the-places-to-visit-in-around-Shimoga-in-3-days",
                "http://www.holidayiq.com/destinations/shimoga/adventure-sports-photos-p26437.html",
                "http://www.karnatakaspider.com/resources/3417-Attractions-at-Jog-Falls.aspx",
                "http://www.nivalink.com/destination/thirthahalli",
                "https://en.wikipedia.org/wiki/Shimoga_district",
                "http://www.karnatakatourism.org/",
                "http://www.hoparoundindia.com/state-guides/karnataka.aspx"
            ],
            "locType": "atm"
        },
        "kudalasangama": {
            "closest_to": "",
            "address": "Kudala Sangama, Hunagunda taluku, Bagalkote district, Karnataka, India",
            "longitude": "76.0604244",
            "latitude": "16.2033992",
            "blogLinks": [
                "http://wikitravel.org/en/Shimoga"
            ],
            "locType": "village"
        },
        "uttar pradesh": {
            "closest_to": "",
            "address": "Karnataka Bank, Mahatma Gandhi Road, Shahganj, Agra, Uttar Pradesh, 282003, India",
            "longitude": "78.0042192",
            "latitude": "27.2058869",
            "blogLinks": [
                "https://en.wikipedia.org/wiki/Shimoga_district"
            ],
            "locType": "bank"
        },
        "mallikarjuna": {
            "closest_to": "",
            "address": "Mallikarjuna Vadi, Basavakalyana taluku, Bidar district, Karnataka, India",
            "longitude": "77.0590502",
            "latitude": "17.8106693",
            "blogLinks": [
                "https://ellakavi.wordpress.com/category/ekavi-usa/page/2/"
            ],
            "locType": "village"
        },
        "karwar": {
            "closest_to": "",
            "address": "Karwar, Karavara taluk, Uttara Kannada, Karnataka, 581300, India",
            "longitude": "74.1319229",
            "latitude": "14.8120931",
            "blogLinks": [
                "http://www.hoparoundindia.com/state-guides/karnataka.aspx"
            ],
            "locType": "town"
        },
        "london": {
            "closest_to": "",
            "address": "Karnataka, India",
            "longitude": "75.7223521",
            "latitude": "14.5203896",
            "blogLinks": [
                "https://www.quora.com/What-are-the-places-to-visit-in-around-Shimoga-in-3-days"
            ],
            "locType": "administrative"
        },
        "l.a.": {
            "closest_to": "",
            "address": "Karnataka, India",
            "longitude": "75.7223521",
            "latitude": "14.5203896",
            "blogLinks": [
                "https://ellakavi.wordpress.com/category/ekavi-usa/page/2/"
            ],
            "locType": "administrative"
        },
        "hoysala": {
            "closest_to": "",
            "address": "Hoysala Nagar, Bengaluru, Bangalore Urban, Karnataka, 560001, India",
            "longitude": "77.6375990817051",
            "latitude": "12.97813815",
            "blogLinks": [
                "https://www.quora.com/What-are-the-places-to-visit-in-around-Shimoga-in-3-days",
                "http://www.nivalink.com/destination/jog-falls",
                "https://ellakavi.wordpress.com/category/ekavi-usa/page/2/"
            ],
            "locType": "administrative"
        },
        "karnataka state": {
            "closest_to": "",
            "address": "Karnataka State Open University, \u0cb9\u0cc1\u0ca3\u0cb8\u0cc2\u0cb0\u0cc1 \u0cb0\u0cb8\u0ccd\u0ca4\u0cc6, Gokulam, Mysuru, Mysuru taluk, Mysuru district, Karnataka, 570001, India",
            "longitude": "76.6236231",
            "latitude": "12.315382",
            "blogLinks": [
                "http://wikitravel.org/en/Shimoga"
            ],
            "locType": "university"
        },
        "vijayanagara": {
            "closest_to": "",
            "address": "Vijayanagara, Chikodi taluk, Belgaum district, Karnataka, India",
            "longitude": "74.7380455",
            "latitude": "16.3270486",
            "blogLinks": [
                "http://www.nivalink.com/destination/jog-falls"
            ],
            "locType": "village"
        },
        "north kerala": {
            "closest_to": "",
            "address": "New Life Kerala Mess, Sai Baba Mandira Road, Mottappanapalaya, Indiranagar, Bengaluru, Bangalore Urban, Karnataka, 560001, India",
            "longitude": "77.6382683",
            "latitude": "12.9726449",
            "blogLinks": [
                "http://www.nivalink.com/destination/thirthahalli"
            ],
            "locType": "restaurant"
        },
        "southern india": {
            "closest_to": "",
            "address": "Survey Of India - Southern Zone, Madivala, Bengaluru, Bangalore Urban, Karnataka, 560001, India",
            "longitude": "77.6227757667762",
            "latitude": "12.92588785",
            "blogLinks": [
                "https://ellakavi.wordpress.com/category/ekavi-usa/page/2/"
            ],
            "locType": "commercial"
        },
        "renukamba": {
            "closest_to": "",
            "address": "Renukamba Family Dabha, SH76, K.B. Extension, Davanagere, Davanagere taluku, Davanagere district, Karnataka, 577005, India",
            "longitude": "75.932718",
            "latitude": "14.4583725",
            "blogLinks": [
                "https://en.wikipedia.org/wiki/Shimoga_district",
                "https://ellakavi.wordpress.com/category/ekavi-usa/page/2/"
            ],
            "locType": "restaurant"
        },
        "kedareswara temple": {
            "closest_to": "",
            "address": "Kedareswara Temple, SH21, Halebidu, Beluru taluk, Hassan district, Karnataka, 573121, India",
            "longitude": "75.9986303",
            "latitude": "13.209021",
            "blogLinks": [
                "https://ellakavi.wordpress.com/category/ekavi-usa/page/2/"
            ],
            "locType": "place_of_worship"
        },
        "ooty": {
            "closest_to": "",
            "address": "Ooty Road, Vidyaranyapuram, Mysuru, Mysuru taluk, Mysuru district, Karnataka, 570001, India",
            "longitude": "76.6586807",
            "latitude": "12.2774807",
            "blogLinks": [
                "http://www.hoparoundindia.com/state-guides/karnataka.aspx"
            ],
            "locType": "primary"
        },
        "rameshwara temple": {
            "closest_to": "",
            "address": "Rameshwara Temple, Kranthikavi Sarvagnya Road, Rajajinagar 4th Block, Sriramapura, Bengaluru, Bangalore Urban, Karnataka, 560001, India",
            "longitude": "77.5678621969321",
            "latitude": "12.99365815",
            "blogLinks": [
                "https://www.quora.com/What-are-the-places-to-visit-in-around-Shimoga-in-3-days"
            ],
            "locType": "place_of_worship"
        },
        "silicon city": {
            "closest_to": "",
            "address": "Concorde Silicon Valley, Electronics City Phase 1, Doddathoguru, Bangalore Urban, Karnataka, 560100, India",
            "longitude": "77.6518846392183",
            "latitude": "12.8387524",
            "blogLinks": [
                "http://www.hoparoundindia.com/state-guides/karnataka.aspx"
            ],
            "locType": "residential"
        },
        "madurai": {
            "closest_to": "",
            "address": "Madurai Idly Shop, 5th Main Road, Teachers Colony, HSR Layout, Bengaluru, Bangalore Urban, Karnataka, 560001, India",
            "longitude": "77.6320535",
            "latitude": "12.9185419",
            "blogLinks": [
                "https://www.tripadvisor.in/Hotel_Review-g1156205-d1729415-Reviews-Kolavara_Heritage_Homestay-Shimoga_Karnataka.html"
            ],
            "locType": "restaurant"
        },
        "india bengaluru": {
            "closest_to": "",
            "address": "Karnataka High Court, Dr B R Ambedkar Veedhi, Shantala Nagar, Gandhinagar, Bengaluru, Bangalore Urban, Karnataka, 560001, India",
            "longitude": "77.5925914",
            "latitude": "12.977944",
            "blogLinks": [
                "https://www.quora.com/What-are-the-places-to-visit-in-around-Shimoga-in-3-days"
            ],
            "locType": "courthouse"
        },
        "aihole": {
            "closest_to": "",
            "address": "Aihole, Hunagunda taluku, Bagalkote district, Karnataka, India",
            "longitude": "75.8819129",
            "latitude": "16.0192298",
            "blogLinks": [
                "http://www.hoparoundindia.com/state-guides/karnataka.aspx"
            ],
            "locType": "village"
        },
        "shravanabelagola": {
            "closest_to": "",
            "address": "Shravanabelagola, Channarayapattana taluk, Hassan district, Karnataka, 573135, India",
            "longitude": "76.4869997",
            "latitude": "12.8581305",
            "blogLinks": [
                "http://www.hoparoundindia.com/state-guides/karnataka.aspx"
            ],
            "locType": "town"
        },
        "pattadakal": {
            "closest_to": "",
            "address": "Pattadakal Temples, SH14, \u0cac\u0cbe\u0c9a\u0cbf\u0ca8\u0c97\u0cc1\u0ca1\u0ccd\u0ca1, Badami taluku, Bagalkote district, Karnataka, 587211, India",
            "longitude": "75.815884048161",
            "latitude": "15.9506349",
            "blogLinks": [
                "http://www.hoparoundindia.com/state-guides/karnataka.aspx"
            ],
            "locType": "attraction"
        },
        "nehru": {
            "closest_to": "",
            "address": "Nehru Stadium, Koppikar Road, J C Nagar, Kamaripet, Hubballi - \u0cb9\u0cc1\u0cac\u0ccd\u0cac\u0cb3\u0ccd\u0cb3\u0cbf, Hubballi taluku, Dharwad district, Karnataka, 580020, India",
            "longitude": "75.1428430366112",
            "latitude": "15.3504494",
            "blogLinks": [
                "https://en.wikipedia.org/wiki/Shimoga_district"
            ],
            "locType": "stadium"
        },
        "kerala": {
            "closest_to": "",
            "address": "New Life Kerala Mess, Sai Baba Mandira Road, Mottappanapalaya, Indiranagar, Bengaluru, Bangalore Urban, Karnataka, 560001, India",
            "longitude": "77.6382683",
            "latitude": "12.9726449",
            "blogLinks": [
                "http://www.hoparoundindia.com/state-guides/karnataka.aspx"
            ],
            "locType": "restaurant"
        },
        "grevillea": {
            "closest_to": "",
            "address": "Grevillea Robusta A.Cunn - Australian Silver Oak, Krumbiegal Road, Mavalli, VV Puram, Bengaluru, Bangalore Urban, Karnataka, 560001, India",
            "longitude": "77.5845738",
            "latitude": "12.9539614",
            "blogLinks": [
                "https://en.wikipedia.org/wiki/Shimoga_district"
            ],
            "locType": "tree"
        },
        "mumbai": {
            "closest_to": "",
            "address": "Mumbai Spice, 18/2, 10th Cross, Malleswaram, Vyalikaval, Malleswaram, Bengaluru, Bangalore Urban, Karnataka, 560003, India",
            "longitude": "77.5718472",
            "latitude": "13.0002869",
            "blogLinks": [
                "https://www.quora.com/What-are-the-places-to-visit-in-around-Shimoga-in-3-days"
            ],
            "locType": "restaurant"
        },
        "tungabhadra": {
            "closest_to": "",
            "address": "Tungabhadra, Gangavati taluku, Koppal district, Karnataka, India",
            "longitude": "76.4931607",
            "latitude": "15.3446123",
            "blogLinks": [
                "https://en.wikipedia.org/wiki/Shimoga_district"
            ],
            "locType": "river"
        },
        "gujarat": {
            "closest_to": "",
            "address": "Gujarat Bhavan, Casualty and Emergency, Ashok Nagar, Vidyanagar, Hubballi - \u0cb9\u0cc1\u0cac\u0ccd\u0cac\u0cb3\u0ccd\u0cb3\u0cbf, Hubballi taluku, Dharwad district, Karnataka, 580020, India",
            "longitude": "75.1370469",
            "latitude": "15.3595169",
            "blogLinks": [
                "http://www.nivalink.com/destination/thirthahalli",
                "https://en.wikipedia.org/wiki/Shimoga_district",
                "https://www.quora.com/What-are-the-places-to-visit-in-around-Shimoga-in-3-days"
            ],
            "locType": "yes"
        },
        "bandipur": {
            "closest_to": "",
            "address": "Bandipur, Gundlupet taluk, Chamarajanagar district, Karnataka, India",
            "longitude": "76.6285739",
            "latitude": "11.6662708",
            "blogLinks": [
                "http://www.hoparoundindia.com/state-guides/karnataka.aspx"
            ],
            "locType": "village"
        },
        "halebidu": {
            "closest_to": "",
            "address": "Halebidu, Hunasuru taluk, Mysuru district, Karnataka, India",
            "longitude": "76.4607075",
            "latitude": "12.359893",
            "blogLinks": [
                "http://www.hoparoundindia.com/state-guides/karnataka.aspx"
            ],
            "locType": "village"
        },
        "nalluru": {
            "closest_to": "",
            "address": "Nalluru, Mulubagilu taluk, Kolar district, Karnataka, India",
            "longitude": "78.2692604",
            "latitude": "13.1680568",
            "blogLinks": [
                "https://en.wikipedia.org/wiki/Shimoga_district"
            ],
            "locType": "village"
        },
        "varada": {
            "closest_to": "",
            "address": "Varada, Savanura taluk, Haveri district, Karnataka, India",
            "longitude": "75.47206",
            "latitude": "14.8717792",
            "blogLinks": [
                "http://www.nivalink.com/destination/jog-falls"
            ],
            "locType": "river"
        },
        "channarayapatna": {
            "closest_to": "",
            "address": "Channarayapatna, Devanahalli taluk, Bangalore Rural, Karnataka, India",
            "longitude": "77.797084",
            "latitude": "13.2455918",
            "blogLinks": [
                "https://www.quora.com/What-are-the-places-to-visit-in-around-Shimoga-in-3-days"
            ],
            "locType": "village"
        },
        "sri krishna temple": {
            "closest_to": "",
            "address": "Sri Krishna Temple Road, Old Binnamangala, Hoysala Nagar, Bengaluru, Bangalore Urban, Karnataka, 560001, India",
            "longitude": "77.6437236",
            "latitude": "12.9791699",
            "blogLinks": [
                "http://www.hoparoundindia.com/state-guides/karnataka.aspx"
            ],
            "locType": "unclassified"
        },
        "chennai": {
            "closest_to": "",
            "address": "Karnataka Bank, Postal Colony 2nd Street, Postal Colony, Ashok Nagar, Chennai City Corporation Limits, Chennai district, Tamil Nadu, 600033, India",
            "longitude": "80.2197941",
            "latitude": "13.0365141",
            "blogLinks": [
                "https://en.wikipedia.org/wiki/Shimoga_district"
            ],
            "locType": "bank"
        },
        "sharavathi": {
            "closest_to": "",
            "address": "Sharavathi Block, National Games Village Road, Ambedkar Nagar, Ejipura, Bengaluru, Bangalore Urban, Karnataka, 560001, India",
            "longitude": "77.6216184337102",
            "latitude": "12.9464709",
            "blogLinks": [
                "http://www.karnatakaspider.com/resources/3417-Attractions-at-Jog-Falls.aspx",
                "https://en.wikipedia.org/wiki/Shimoga_district",
                "http://wikitravel.org/en/Shimoga",
                "https://www.tripoto.com/trip/jog-falls-the-falling-breathtaking-miracle-5774ef4c5b12b"
            ],
            "locType": "yes"
        },
        "bangalore": {
            "closest_to": "",
            "address": "Bengaluru, Bangalore Urban, Karnataka, 560001, India",
            "longitude": "77.5912997",
            "latitude": "12.9791198",
            "blogLinks": [
                "http://wikitravel.org/en/Shimoga",
                "http://www.nivalink.com/destination/jog-falls",
                "https://ellakavi.wordpress.com/category/ekavi-usa/page/2/",
                "https://www.quora.com/What-are-the-places-to-visit-in-around-Shimoga-in-3-days",
                "http://www.nivalink.com/destination/thirthahalli",
                "https://www.tripoto.com/trip/jog-falls-the-falling-breathtaking-miracle-5774ef4c5b12b"
            ],
            "locType": "city"
        },
        "vinayaka temple": {
            "closest_to": "",
            "address": "Vinayaka Temple, Rashtriya Vidyalaya Road, Mavalli, Basavanagudi, Bengaluru, Bangalore Urban, Karnataka, 560004, India",
            "longitude": "77.580180492541",
            "latitude": "12.94308625",
            "blogLinks": [
                "http://www.hoparoundindia.com/state-guides/karnataka.aspx"
            ],
            "locType": "place_of_worship"
        },
        "davanagere district": {
            "closest_to": "",
            "address": "Davanagere district, Karnataka, India",
            "longitude": "75.8904782659728",
            "latitude": "14.37090835",
            "blogLinks": [
                "https://en.wikipedia.org/wiki/Shimoga_district"
            ],
            "locType": "administrative"
        },
        "hubli": {
            "closest_to": "",
            "address": "Hubballi - \u0cb9\u0cc1\u0cac\u0ccd\u0cac\u0cb3\u0ccd\u0cb3\u0cbf, Hubballi taluku, Dharwad district, Karnataka, 580020, India",
            "longitude": "75.1379848",
            "latitude": "15.3518378",
            "blogLinks": [
                "http://www.nivalink.com/destination/thirthahalli",
                "http://www.nivalink.com/destination/jog-falls"
            ],
            "locType": "city"
        },
        "brahmi river": {
            "closest_to": "",
            "address": "Brahmi Language Stone, SH149, Kanaganahalli, Chitapura taluku, Kalaburagi district, Karnataka, India",
            "longitude": "76.9337846",
            "latitude": "16.8353008",
            "blogLinks": [
                "https://en.wikipedia.org/wiki/Thirthahalli"
            ],
            "locType": "memorial"
        },
        "new delhi": {
            "closest_to": "",
            "address": "Regional Institute of Education, Chaduranga Road, Jayalakshmipuram, Mysuru, Mysuru taluk, Mysuru district, Karnataka, 570001, India",
            "longitude": "76.6142178649055",
            "latitude": "12.30911465",
            "blogLinks": [
                "https://en.wikipedia.org/wiki/Shimoga_district",
                "https://ellakavi.wordpress.com/category/ekavi-usa/page/2/"
            ],
            "locType": "college"
        },
        "panchalingeshwara temple": {
            "closest_to": "",
            "address": "Panchalingeshwara Temple, 7th Main Road, Sampangi Rama Nagara, MacIvor Town, Bengaluru, Bangalore Urban, Karnataka, 560001, India",
            "longitude": "77.5907158821348",
            "latitude": "12.96622045",
            "blogLinks": [
                "https://ellakavi.wordpress.com/category/ekavi-usa/page/2/"
            ],
            "locType": "place_of_worship"
        },
        "punjab": {
            "closest_to": "",
            "address": "Punjab, Swamy Vivekananda Road, Darga Mohalla, Udaya Nagar, Benniganahalli, Bangalore Urban, Karnataka, 560016, India",
            "longitude": "77.6607309",
            "latitude": "12.9937763",
            "blogLinks": [
                "https://www.tripoto.com/trip/jog-falls-the-falling-breathtaking-miracle-5774ef4c5b12b"
            ],
            "locType": "restaurant"
        },
        "begur": {
            "closest_to": "",
            "address": "Begur, Begur-Koppa Road, Akshaynagar Layout, Hulimavu, Yelenahalli, Bangalore Urban, Karnataka, 560076, India",
            "longitude": "77.613011205039",
            "latitude": "12.8633887",
            "blogLinks": [
                "https://ellakavi.wordpress.com/category/ekavi-usa/page/2/"
            ],
            "locType": "political"
        },
        "mysore": {
            "closest_to": "",
            "address": "Mysuru, Mysuru taluk, Mysuru district, Karnataka, 570001, India",
            "longitude": "76.6553609",
            "latitude": "12.3051828",
            "blogLinks": [
                "http://www.hoparoundindia.com/state-guides/karnataka.aspx"
            ],
            "locType": "city"
        },
        "print.": {
            "closest_to": "",
            "address": "Internet & Print Out Xerox, Church Street, Tasker Town, Ashok Nagar, Bengaluru, Bangalore Urban, Karnataka, 560001, India",
            "longitude": "77.6053275",
            "latitude": "12.9746803",
            "blogLinks": [
                "https://en.wikipedia.org/wiki/Shimoga_district"
            ],
            "locType": "internet_cafe"
        },
        "sharadamba": {
            "closest_to": "",
            "address": "Sharadamba Temple, 7th Main Road, Yediyur, Thyagaraja Nagar, Bengaluru, Bangalore Urban, Karnataka, 560001, India",
            "longitude": "77.5656194",
            "latitude": "12.9321898",
            "blogLinks": [
                "https://ellakavi.wordpress.com/category/ekavi-usa/page/2/"
            ],
            "locType": "place_of_worship"
        },
        "malgudi": {
            "closest_to": "",
            "address": "Malgudi Southern Cuisine, 3, Outer Ring Road, Ananda Nagara, Doddanekundi, Garudacharpalya, Bangalore Urban, Karnataka, 560037, India",
            "longitude": "77.7017267",
            "latitude": "12.9651193",
            "blogLinks": [
                "https://en.wikipedia.org/wiki/Shimoga_district"
            ],
            "locType": "restaurant"
        },
        "channagiri": {
            "closest_to": "",
            "address": "Channagiri, Channagiri taluku, Davanagere district, Karnataka, 577213, India",
            "longitude": "75.925",
            "latitude": "14.0252",
            "blogLinks": [
                "https://en.wikipedia.org/wiki/Shimoga_district"
            ],
            "locType": "town"
        },
        "belur": {
            "closest_to": "",
            "address": "Belur, Beluru taluk, Hassan district, Karnataka, 573115, India",
            "longitude": "75.8634851",
            "latitude": "13.1645671",
            "blogLinks": [
                "http://www.hoparoundindia.com/state-guides/karnataka.aspx"
            ],
            "locType": "town"
        },
        "venkataramana": {
            "closest_to": "",
            "address": "P. Venkataramana Road, Kuvempunagara, Mysuru, Mysuru taluk, Mysuru district, Karnataka, 570001, India",
            "longitude": "76.6254678",
            "latitude": "12.2823847",
            "blogLinks": [
                "https://en.wikipedia.org/wiki/Shimoga_district"
            ],
            "locType": "tertiary"
        },
        "india": {
            "closest_to": "",
            "address": "Karnataka, India",
            "longitude": "75.7223521",
            "latitude": "14.5203896",
            "blogLinks": [
                "https://www.tripadvisor.com/ShowUserReviews-g1156205-d6017662-r433526031-Devangi_Atithya_Home_Stay-Shimoga_Karnataka.html",
                "http://wikitravel.org/en/Shimoga",
                "http://www.nivalink.com/destination/jog-falls",
                "https://en.wikipedia.org/wiki/Thirthahalli",
                "https://ellakavi.wordpress.com/category/ekavi-usa/page/2/",
                "http://www.holidayiq.com/destinations/shimoga/glorious-sunset-photos-p8439.html",
                "https://www.quora.com/What-are-the-places-to-visit-in-around-Shimoga-in-3-days",
                "http://www.holidayiq.com/destinations/shimoga/adventure-sports-photos-p26437.html",
                "https://en.wikipedia.org/wiki/Shimoga_district",
                "https://www.tripadvisor.co.uk/ShowUserReviews-g1156205-d1206548-r183520796-Jog_Falls-Shimoga_Karnataka.html",
                "http://www.hoparoundindia.com/state-guides/karnataka.aspx",
                "https://www.tripoto.com/trip/jog-falls-the-falling-breathtaking-miracle-5774ef4c5b12b"
            ],
            "locType": "administrative"
        },
        "bhadravathi": {
            "closest_to": "",
            "address": "Bhadravathi, Bhadravati taluk, Shimoga district, Karnataka, 577300, India",
            "longitude": "75.7030138",
            "latitude": "13.8474574",
            "blogLinks": [
                "https://en.wikipedia.org/wiki/Shimoga_district"
            ],
            "locType": "town"
        },
        "brahmi": {
            "closest_to": "",
            "address": "MES Kishore Kendra, 10th Main Road, Vyalikaval, Gayatri Nagar, Bengaluru, Bangalore Urban, Karnataka, 560055, India",
            "longitude": "77.5641994467667",
            "latitude": "13.00475195",
            "blogLinks": [
                "https://ellakavi.wordpress.com/category/ekavi-usa/page/2/"
            ],
            "locType": "school"
        },
        "andhra pradesh": {
            "closest_to": "",
            "address": "Karnataka, West Mada Street, Srivari Temple, Tirumala, Chittoor, Andhra Pradesh, 517504, India",
            "longitude": "79.3452447",
            "latitude": "13.6841958",
            "blogLinks": [
                "http://www.hoparoundindia.com/state-guides/karnataka.aspx"
            ],
            "locType": "hotel"
        },
        "bijapur": {
            "closest_to": "",
            "address": "Vijayapura, Vijayapura taluk, Bijapur district, Karnataka, 586101, India",
            "longitude": "75.7175387",
            "latitude": "16.8269911",
            "blogLinks": [
                "https://ellakavi.wordpress.com/category/ekavi-usa/page/2/",
                "http://www.hoparoundindia.com/state-guides/karnataka.aspx"
            ],
            "locType": "city"
        },
        "shivagange": {
            "closest_to": "",
            "address": "Shivagange, Tarikere taluku, Chikkamagaluru district, Karnataka, India",
            "longitude": "75.8053098",
            "latitude": "13.7124321",
            "blogLinks": [
                "http://www.hoparoundindia.com/state-guides/karnataka.aspx"
            ],
            "locType": "village"
        },
        "kadamba": {
            "closest_to": "",
            "address": "Kadamba Avenue, R. Narayanapura, Brookefields, Dodsworth Enclave, Bangalore Urban, Karnataka, 560066, India",
            "longitude": "77.7436954",
            "latitude": "12.9703178",
            "blogLinks": [
                "https://ellakavi.wordpress.com/category/ekavi-usa/page/2/"
            ],
            "locType": "residential"
        },
        "sharavathi river": {
            "closest_to": "",
            "address": "Sharavathi Block, National Games Village Road, Ambedkar Nagar, Ejipura, Bengaluru, Bangalore Urban, Karnataka, 560001, India",
            "longitude": "77.6216184337102",
            "latitude": "12.9464709",
            "blogLinks": [
                "https://www.quora.com/What-are-the-places-to-visit-in-around-Shimoga-in-3-days",
                "http://www.nivalink.com/destination/jog-falls",
                "http://www.karnatakaspider.com/resources/3417-Attractions-at-Jog-Falls.aspx"
            ],
            "locType": "yes"
        },
        "tamil nadu": {
            "closest_to": "",
            "address": "KARNATAKA BANK, Diwan Bhadur Road, Five Corner, RS Puram, Coimbatore, Coimbatore district, Tamil Nadu, 641001, India",
            "longitude": "76.9514152",
            "latitude": "11.0025894",
            "blogLinks": [
                "https://en.wikipedia.org/wiki/Shimoga_district"
            ],
            "locType": "bank"
        },
        "gangavati": {
            "closest_to": "",
            "address": "Gangavati taluku, Koppal district, Karnataka, India",
            "longitude": "76.558686294086",
            "latitude": "15.52741825",
            "blogLinks": [
                "https://en.wikipedia.org/wiki/Shimoga_district"
            ],
            "locType": "administrative"
        },
        "prabhudeva": {
            "closest_to": "",
            "address": "Sri Prabhudeva Service Station, Bangalore-Mysore Road, Mayannana Koppalu, Srirangapattana taluk, Mandya district, Karnataka, 571438, India",
            "longitude": "76.6669578",
            "latitude": "12.3927526",
            "blogLinks": [
                "https://en.wikipedia.org/wiki/Shimoga_district"
            ],
            "locType": "fuel"
        },
        "nittur": {
            "closest_to": "",
            "address": "Malebennur Nittur Road, Nitturu, Harihara taluku, Davanagere district, Karnataka, 577530, India",
            "longitude": "75.7595937",
            "latitude": "14.3579814",
            "blogLinks": [
                "https://en.wikipedia.org/wiki/Shimoga_district",
                "http://wikitravel.org/en/Shimoga"
            ],
            "locType": "tertiary"
        }
    },
    "jog falls": {
        "place_id": "12596177",
        "osm_id": "1191427856",
        "icon": "https://nominatim.openstreetmap.org/images/mapicons/poi_place_village.p.20.png",
        "osm_type": "node",
        "licence": "Data \u00a9 OpenStreetMap contributors, ODbL 1.0. http://www.openstreetmap.org/copyright",
        "display_name": "Jog Falls, Joga - Kargal, Sagara taluk, Shimoga district, Karnataka, India",
        "type": "locality",
        "lon": "74.8128715",
        "boundingbox": [
            "14.2176106",
            "14.2376106",
            "74.8028715",
            "74.8228715"
        ],
        "importance": 0.66590216462374,
        "lat": "14.2276106",
        "class": "place"
    }
}