{
    "malibu": {
        "type": "residential",
        "osm_id": "7335067",
        "class": "highway",
        "importance": 0.3,
        "lat": "33.7932142",
        "licence": "Data \u00a9 OpenStreetMap contributors, ODbL 1.0. http://www.openstreetmap.org/copyright",
        "place_id": "58129970",
        "lon": "-116.5023561",
        "boundingbox": [
            "33.7923238",
            "33.7940184",
            "-116.5023599",
            "-116.5023526"
        ],
        "display_name": "Malibu, Palm Springs, Riverside County, California, 92264, United States of America",
        "osm_type": "way"
    },
    "mentions": {
        "san luis obispo museum of art": {
            "latitude": "35.2795773",
            "closest_to": "",
            "address": "San Luis Obispo Museum of Art, 1010, Broad Street, San Luis Obispo, San Luis Obispo County, California, 93401, United States of America",
            "locType": "museum",
            "blogLinks": [
                "http://travelblog.viator.com/road-trip-san-francisco-los-angeles/"
            ],
            "longitude": "-120.6649345"
        },
        "golden gate bridge": {
            "latitude": "37.8302809",
            "closest_to": "",
            "address": "Golden Gate Bridge, Waldo, Marin County, California, 94965, United States of America",
            "locType": "motorway",
            "blogLinks": [
                "http://moon.com/2011/02/fun-road-trip-ideas-road-trip-the-california-coast/",
                "http://traveltips.usatoday.com/beaches-pch-california-56995.html"
            ],
            "longitude": "-122.4798473"
        },
        "los osos valley road": {
            "latitude": "35.2676425",
            "closest_to": "",
            "address": "Los Osos Valley Road, San Luis Obispo, San Luis Obispo County, California, 93402, United States of America",
            "locType": "secondary",
            "blogLinks": [
                "http://moon.com/2011/02/fun-road-trip-ideas-road-trip-the-california-coast/"
            ],
            "longitude": "-120.7033035"
        },
        "griffith park": {
            "latitude": "38.68813",
            "closest_to": "",
            "address": "Griffith Park, Citrus Heights, Sacramento County, California, 95621, United States of America",
            "locType": "service",
            "blogLinks": [
                "https://www.thenandnowshop.com/blog/travel/places-to-visit-in-los-angeles/"
            ],
            "longitude": "-121.3121659"
        },
        "carmel-by-the-sea": {
            "latitude": "36.5552387",
            "closest_to": "",
            "address": "Carmel-by-the-Sea, Monterey County, California, United States of America",
            "locType": "city",
            "blogLinks": [
                "http://travelblog.viator.com/road-trip-san-francisco-los-angeles/",
                "https://www.gapyear.com/articles/216212/13-incredible-stops-on-the-pacific-coast-highway"
            ],
            "longitude": "-121.9232878"
        },
        "dinosaur hall": {
            "latitude": "38.555919",
            "closest_to": "",
            "address": "Dinosaur Place, Davis, Yolo County, California, 95616, United States of America",
            "locType": "residential",
            "blogLinks": [
                "https://www.thenandnowshop.com/blog/travel/places-to-visit-in-los-angeles/"
            ],
            "longitude": "-121.7772298"
        },
        "la": {
            "latitude": "36.7014631",
            "closest_to": "",
            "address": "California, United States of America",
            "locType": "administrative",
            "blogLinks": [
                "https://www.thenandnowshop.com/blog/travel/places-to-visit-in-los-angeles/",
                "http://www.mytravelguideposts.com/2010/07/places-to-visit-along-california-coast.html",
                "https://www.yelp.com/biz/zuma-beach-malibu-2"
            ],
            "longitude": "-118.7559973"
        },
        "los alamos": {
            "latitude": "34.7379311",
            "closest_to": "",
            "address": "Los Alamos, Bell Street, Los Alamos, Santa Barbara County, California, 93455, United States of America",
            "locType": "administrative",
            "blogLinks": [
                "http://travelblog.viator.com/road-trip-san-francisco-los-angeles/"
            ],
            "longitude": "-120.26591036241"
        },
        "mackerricher state park": {
            "latitude": "39.4932207",
            "closest_to": "",
            "address": "MacKerricher State Park, Mackerricher State Park Road, Cleone, Mendocino County, California, 95437, United States of America",
            "locType": "park",
            "blogLinks": [
                "http://traveltips.usatoday.com/beaches-pch-california-56995.html"
            ],
            "longitude": "-123.7936267"
        },
        "monterey bay": {
            "latitude": "36.7999557",
            "closest_to": "",
            "address": "Monterey Bay, Monterey County, California, United States of America",
            "locType": "bay",
            "blogLinks": [
                "http://travelblog.viator.com/road-trip-san-francisco-los-angeles/",
                "https://www.gapyear.com/articles/216212/13-incredible-stops-on-the-pacific-coast-highway"
            ],
            "longitude": "-121.9010667"
        },
        "nepenthe": {
            "latitude": "36.2218116",
            "closest_to": "",
            "address": "Nepenthe, 48510, Cabrillo Highway, Posts, Monterey County, California, 93920-9549, United States of America",
            "locType": "restaurant",
            "blogLinks": [
                "http://travelblog.viator.com/road-trip-san-francisco-los-angeles/"
            ],
            "longitude": "-121.7596564"
        },
        "sea ranch": {
            "latitude": "38.7151899",
            "closest_to": "",
            "address": "Sea Ranch, Sonoma County, California, United States of America",
            "locType": "hamlet",
            "blogLinks": [
                "http://moon.com/2011/02/fun-road-trip-ideas-road-trip-the-california-coast/"
            ],
            "longitude": "-123.4544531"
        },
        "santa cruz": {
            "latitude": "36.9735903",
            "closest_to": "",
            "address": "Santa Cruz, Santa Cruz County, California, United States of America",
            "locType": "city",
            "blogLinks": [
                "http://moon.com/2011/02/fun-road-trip-ideas-road-trip-the-california-coast/",
                "https://www.gapyear.com/articles/216212/13-incredible-stops-on-the-pacific-coast-highway",
                "http://traveltips.usatoday.com/beaches-pch-california-56995.html"
            ],
            "longitude": "-122.0260569"
        },
        "ca": {
            "latitude": "37.8242285466918",
            "closest_to": "",
            "address": "Piedmont, Alameda County, California, ca, United States of America",
            "locType": "postcode",
            "blogLinks": [
                "http://malibutourist.com/",
                "https://www.yelp.com/biz/zuma-beach-malibu-2"
            ],
            "longitude": "-122.232613735941"
        },
        "us": {
            "latitude": "36.7014631",
            "closest_to": "",
            "address": "California, United States of America",
            "locType": "administrative",
            "blogLinks": [
                "https://www.expedia.com/Malibu-Hotels.d10217.Travel-Guide-Hotels",
                "http://www.mytravelguideposts.com/2010/07/places-to-visit-along-california-coast.html",
                "http://gocalifornia.about.com/od/calamenu/ss/Driving-Californias-Malibu-Coast.htm"
            ],
            "longitude": "-118.7559973"
        },
        "point state park": {
            "latitude": "35.5818461",
            "closest_to": "",
            "address": "State Park, Cambria, San Luis Obispo County, California, 93428, United States of America",
            "locType": "service",
            "blogLinks": [
                "http://moon.com/2011/02/fun-road-trip-ideas-road-trip-the-california-coast/"
            ],
            "longitude": "-121.1198923"
        },
        "bixby bridge": {
            "latitude": "36.3710197",
            "closest_to": "",
            "address": "Bixby Creek Bridge, Notleys Landing, Monterey County, California, 93923, United States of America",
            "locType": "primary",
            "blogLinks": [
                "https://www.gapyear.com/articles/216212/13-incredible-stops-on-the-pacific-coast-highway"
            ],
            "longitude": "-121.9017572"
        },
        "wilder ranch state park": {
            "latitude": "36.96021805",
            "closest_to": "",
            "address": "Wilder Ranch State Park, Coast Road, Westside, Santa Cruz County, California, 95060, United States of America",
            "locType": "park",
            "blogLinks": [
                "https://www.gapyear.com/articles/216212/13-incredible-stops-on-the-pacific-coast-highway"
            ],
            "longitude": "-122.079566815934"
        },
        "brentwood": {
            "latitude": "37.9317766",
            "closest_to": "",
            "address": "Brentwood, Contra Costa County, California, United States of America",
            "locType": "city",
            "blogLinks": [
                "http://gocalifornia.about.com/od/calamenu/ss/Driving-Californias-Malibu-Coast.htm"
            ],
            "longitude": "-121.6960265"
        },
        "route 101": {
            "latitude": "37.7881229",
            "closest_to": "",
            "address": "Route 101, 1332, Van Ness Avenue, Japantown, SF, California, 94109, United States of America",
            "locType": "bar",
            "blogLinks": [
                "http://www.mytravelguideposts.com/2010/07/places-to-visit-along-california-coast.html"
            ],
            "longitude": "-122.4216319"
        },
        "monterrey": {
            "latitude": "32.5492861",
            "closest_to": "",
            "address": "Monterrey, Mexicali, Baja California, M\u00e9xico",
            "locType": "village",
            "blogLinks": [
                "http://traveltips.usatoday.com/beaches-pch-california-56995.html"
            ],
            "longitude": "-115.0704122"
        },
        "laguna": {
            "latitude": "38.4210209",
            "closest_to": "",
            "address": "Laguna, Sacramento County, California, United States of America",
            "locType": "hamlet",
            "blogLinks": [
                "http://www.travelchannel.com/interests/beaches/articles/top-10-southern-california-beaches"
            ],
            "longitude": "-121.4238413"
        },
        "piedras blancas": {
            "latitude": "35.6647403",
            "closest_to": "",
            "address": "Piedras Blancas, San Luis Obispo County, California, United States of America",
            "locType": "peak",
            "blogLinks": [
                "http://moon.com/2011/02/fun-road-trip-ideas-road-trip-the-california-coast/"
            ],
            "longitude": "-121.2889962"
        },
        "sonoma coast state park": {
            "latitude": "38.41699",
            "closest_to": "",
            "address": "Sonoma Coast State Park, Coast Highway, Carmet, Sonoma County, California, United States of America",
            "locType": "park",
            "blogLinks": [
                "http://traveltips.usatoday.com/beaches-pch-california-56995.html"
            ],
            "longitude": "-123.099028545174"
        },
        "pacific": {
            "latitude": "38.7601815",
            "closest_to": "",
            "address": "Pacific, El Dorado County, California, United States of America",
            "locType": "hamlet",
            "blogLinks": [
                "http://travelblog.viator.com/road-trip-san-francisco-los-angeles/",
                "http://malibutourist.com/",
                "http://www.travelchannel.com/interests/beaches/articles/top-10-southern-california-beaches",
                "http://losangeles.cbslocal.com/guide/a-guide-to-malibus-best-beaches/"
            ],
            "longitude": "-120.507146"
        },
        "mcway falls": {
            "latitude": "36.1578211",
            "closest_to": "",
            "address": "McWay Falls, Monterey County, California, United States of America",
            "locType": "waterfall",
            "blogLinks": [
                "https://www.gapyear.com/articles/216212/13-incredible-stops-on-the-pacific-coast-highway"
            ],
            "longitude": "-121.6723957"
        },
        "australia": {
            "latitude": "-32.6649999",
            "closest_to": "",
            "address": "California, Singleton, NSW, Australia",
            "locType": "hamlet",
            "blogLinks": [
                "http://www.mytravelguideposts.com/2010/07/places-to-visit-along-california-coast.html"
            ],
            "longitude": "150.9261111"
        },
        "american riviera": {
            "latitude": "38.576666",
            "closest_to": "",
            "address": "American River Drive, La Riviera, Sacramento County, California, 95608, United States of America",
            "locType": "tertiary",
            "blogLinks": [
                "http://travelblog.viator.com/road-trip-san-francisco-los-angeles/"
            ],
            "longitude": "-121.3602199"
        },
        "usa": {
            "latitude": "36.7014631",
            "closest_to": "",
            "address": "California, United States of America",
            "locType": "administrative",
            "blogLinks": [
                "http://www.mytravelguideposts.com/2010/07/places-to-visit-along-california-coast.html"
            ],
            "longitude": "-118.7559973"
        },
        "state park": {
            "latitude": "35.5818461",
            "closest_to": "",
            "address": "State Park, Cambria, San Luis Obispo County, California, 93428, United States of America",
            "locType": "service",
            "blogLinks": [
                "http://www.sunset.com/travel/california/things-to-do-malibu"
            ],
            "longitude": "-121.1198923"
        },
        "davenport": {
            "latitude": "37.0116166",
            "closest_to": "",
            "address": "Davenport, Santa Cruz County, California, United States of America",
            "locType": "village",
            "blogLinks": [
                "http://moon.com/2011/02/fun-road-trip-ideas-road-trip-the-california-coast/"
            ],
            "longitude": "-122.1919133"
        },
        "central coast": {
            "latitude": "35.3611193",
            "closest_to": "",
            "address": "Central Coast Street, Bakersfield, Kern County, California, 93314, United States of America",
            "locType": "residential",
            "blogLinks": [
                "http://travelblog.viator.com/road-trip-san-francisco-los-angeles/"
            ],
            "longitude": "-119.1665989"
        },
        "san simeon state park": {
            "latitude": "35.594453",
            "closest_to": "",
            "address": "San Simeon State Park, Leimert, San Luis Obispo County, California, 93428, United States of America",
            "locType": "residential",
            "blogLinks": [
                "http://traveltips.usatoday.com/beaches-pch-california-56995.html"
            ],
            "longitude": "-121.1231409"
        },
        "' soda lake": {
            "latitude": "35.23913735",
            "closest_to": "",
            "address": "Soda Lake, Soda Lake Road, San Luis Obispo County, California, United States of America",
            "locType": "water",
            "blogLinks": [
                "https://www.gapyear.com/articles/216212/13-incredible-stops-on-the-pacific-coast-highway"
            ],
            "longitude": "-119.895515964214"
        },
        "marin": {
            "latitude": "38.0409144",
            "closest_to": "",
            "address": "Marin County, California, United States of America",
            "locType": "administrative",
            "blogLinks": [
                "http://moon.com/2011/02/fun-road-trip-ideas-road-trip-the-california-coast/"
            ],
            "longitude": "-122.6199637"
        },
        "bixby creek bridge": {
            "latitude": "36.3710197",
            "closest_to": "",
            "address": "Bixby Creek Bridge, Notleys Landing, Monterey County, California, 93923, United States of America",
            "locType": "primary",
            "blogLinks": [
                "http://travelblog.viator.com/road-trip-san-francisco-los-angeles/"
            ],
            "longitude": "-121.9017572"
        },
        "bodega bay": {
            "latitude": "38.273529",
            "closest_to": "",
            "address": "Bodega Bay, Estero Lane, Bodega Bay, Sonoma County, California, United States of America",
            "locType": "bay",
            "blogLinks": [
                "http://moon.com/2011/02/fun-road-trip-ideas-road-trip-the-california-coast/"
            ],
            "longitude": "-123.0061117"
        },
        "monterey bay aquarium": {
            "latitude": "36.61809095",
            "closest_to": "",
            "address": "MBA, 886, Cannery Row, Monterey, Monterey County, California, 93940, United States of America",
            "locType": "aquarium",
            "blogLinks": [
                "http://travelblog.viator.com/road-trip-san-francisco-los-angeles/",
                "http://moon.com/2011/02/fun-road-trip-ideas-road-trip-the-california-coast/",
                "https://www.gapyear.com/articles/216212/13-incredible-stops-on-the-pacific-coast-highway"
            ],
            "longitude": "-121.901680002002"
        },
        "l.a.": {
            "latitude": "-13.8305494",
            "closest_to": "",
            "address": "California, Provincia Abel Iturralde, LPZ, Bolivia",
            "locType": "hamlet",
            "blogLinks": [
                "http://moon.com/2011/02/fun-road-trip-ideas-road-trip-the-california-coast/"
            ],
            "longitude": "-67.9369134"
        },
        "u.s.": {
            "latitude": "-32.5446226",
            "closest_to": "",
            "address": "La California, Municipio de Las Rosas, Departamento Belgrano, Sta. Fe, Argentina",
            "locType": "hamlet",
            "blogLinks": [
                "http://moon.com/2011/02/fun-road-trip-ideas-road-trip-the-california-coast/",
                "http://www.mytravelguideposts.com/2010/07/places-to-visit-along-california-coast.html"
            ],
            "longitude": "-61.5489543"
        },
        "lompoc": {
            "latitude": "34.6391501",
            "closest_to": "",
            "address": "Lompoc, Santa Barbara County, California, United States of America",
            "locType": "city",
            "blogLinks": [
                "http://moon.com/2011/02/fun-road-trip-ideas-road-trip-the-california-coast/"
            ],
            "longitude": "-120.4579408"
        },
        "santa cruz beach boardwalk": {
            "latitude": "36.96446855",
            "closest_to": "",
            "address": "Santa Cruz Beach Boardwalk, Boardwalk, Beach & Boardwalk District (Commercial), Seabright, Santa Cruz, Santa Cruz County, California, 1982, United States of America",
            "locType": "attraction",
            "blogLinks": [
                "http://travelblog.viator.com/road-trip-san-francisco-los-angeles/",
                "http://moon.com/2011/02/fun-road-trip-ideas-road-trip-the-california-coast/",
                "https://www.gapyear.com/articles/216212/13-incredible-stops-on-the-pacific-coast-highway"
            ],
            "longitude": "-122.016027247326"
        },
        "mullholland drive": {
            "latitude": "37.8584346",
            "closest_to": "",
            "address": "EBMUD Mullholland Reservoir, Donald Drive, Rheem Valley, Moraga, Contra Costa County, California, 94556, United States of America",
            "locType": "water_tank",
            "blogLinks": [
                "http://gocalifornia.about.com/od/calamenu/ss/Driving-Californias-Malibu-Coast.htm"
            ],
            "longitude": "-122.1430436"
        },
        "calif": {
            "latitude": "37.786376",
            "closest_to": "",
            "address": "California, Woodstock, Alameda, Alameda County, California, 94501, United States of America",
            "locType": "residential",
            "blogLinks": [
                "http://malibutourist.com/"
            ],
            "longitude": "-122.2902806"
        },
        "pismo": {
            "latitude": "24.1378257",
            "closest_to": "",
            "address": "Pismo, La Paz, Baja California Sur, 23206, M\u00e9xico",
            "locType": "residential",
            "blogLinks": [
                "http://moon.com/2011/02/fun-road-trip-ideas-road-trip-the-california-coast/",
                "http://traveltips.usatoday.com/beaches-pch-california-56995.html"
            ],
            "longitude": "-110.3437034"
        },
        "islay hill": {
            "latitude": "35.2455305",
            "closest_to": "",
            "address": "Islay Hill, San Luis Obispo, San Luis Obispo County, California, United States of America",
            "locType": "peak",
            "blogLinks": [
                "https://www.gapyear.com/articles/216212/13-incredible-stops-on-the-pacific-coast-highway"
            ],
            "longitude": "-120.622392"
        },
        "east coast": {
            "latitude": "37.858337",
            "closest_to": "",
            "address": "Coast, Ashby Avenue, Claremont, Berkeley, Alameda County, California, 94705, United States of America",
            "locType": "fuel",
            "blogLinks": [
                "https://www.thenandnowshop.com/blog/travel/places-to-visit-in-los-angeles/"
            ],
            "longitude": "-122.2447393"
        },
        "ferndale": {
            "latitude": "40.5762406",
            "closest_to": "",
            "address": "Ferndale, Humboldt County, California, United States of America",
            "locType": "city",
            "blogLinks": [
                "http://moon.com/2011/02/fun-road-trip-ideas-road-trip-the-california-coast/"
            ],
            "longitude": "-124.2639441"
        },
        "silicon valley": {
            "latitude": "37.4105333",
            "closest_to": "",
            "address": "Carnegie Mellon Silicon Valley, South Akron Road, Santa Clara County, California, 94035-0016, United States of America",
            "locType": "school",
            "blogLinks": [
                "https://www.gapyear.com/articles/216212/13-incredible-stops-on-the-pacific-coast-highway"
            ],
            "longitude": "-122.0597491"
        },
        "alcatraz island": {
            "latitude": "37.8267283",
            "closest_to": "",
            "address": "Alcatraz Island, SF, California, United States of America",
            "locType": "island",
            "blogLinks": [
                "https://www.gapyear.com/articles/216212/13-incredible-stops-on-the-pacific-coast-highway"
            ],
            "longitude": "-122.422746492409"
        },
        "south america": {
            "latitude": "3.60107",
            "closest_to": "",
            "address": "California, Microrregi\u00e3o de Boa Vista, Mesorregi\u00e3o Norte de Roraima, RR, Regi\u00e3o Norte, Brasil",
            "locType": "hamlet",
            "blogLinks": [
                "https://www.gapyear.com/articles/216212/13-incredible-stops-on-the-pacific-coast-highway"
            ],
            "longitude": "-61.5606166"
        },
        "el porto": {
            "latitude": "-8.4316482",
            "closest_to": "",
            "address": "Porto Walter, California, Microrregi\u00e3o de Cruzeiro do Sul, Mesorregi\u00e3o Vale do Juru\u00e1, AC, Regi\u00e3o Norte, Brasil",
            "locType": "hamlet",
            "blogLinks": [
                "https://www.yelp.com/biz/zuma-beach-malibu-2"
            ],
            "longitude": "-72.8106266"
        },
        "europe": {
            "latitude": "37.3491727",
            "closest_to": "",
            "address": "Europe Court, Santa Clara, Santa Clara County, California, 95051, United States of America",
            "locType": "residential",
            "blogLinks": [
                "http://www.mytravelguideposts.com/2010/07/places-to-visit-along-california-coast.html"
            ],
            "longitude": "-121.9980641"
        },
        "pismo state beach": {
            "latitude": "35.1061627",
            "closest_to": "",
            "address": "Pismo State Beach, San Luis Obispo County, California, United States of America",
            "locType": "national_park",
            "blogLinks": [
                "http://traveltips.usatoday.com/beaches-pch-california-56995.html"
            ],
            "longitude": "-120.62834686522"
        },
        "san luis obispo": {
            "latitude": "35.2827525",
            "closest_to": "",
            "address": "San Luis Obispo, San Luis Obispo County, California, United States of America",
            "locType": "city",
            "blogLinks": [
                "http://travelblog.viator.com/road-trip-san-francisco-los-angeles/",
                "https://www.gapyear.com/articles/216212/13-incredible-stops-on-the-pacific-coast-highway"
            ],
            "longitude": "-120.6596155"
        },
        "moonstone beach": {
            "latitude": "35.573855",
            "closest_to": "",
            "address": "Moonstone Beach, Cambria, San Luis Obispo County, California, CA 93428, United States of America",
            "locType": "path",
            "blogLinks": [
                "http://moon.com/2011/02/fun-road-trip-ideas-road-trip-the-california-coast/"
            ],
            "longitude": "-121.1128747"
        },
        "balboa park": {
            "latitude": "37.72494875",
            "closest_to": "",
            "address": "Balboa Park, Sergeant John V Young Lane, Ingleside, SF, California, 94112, United States of America",
            "locType": "park",
            "blogLinks": [
                "https://www.gapyear.com/articles/216212/13-incredible-stops-on-the-pacific-coast-highway"
            ],
            "longitude": "-122.444804424152"
        },
        "rio theatre": {
            "latitude": "36.9801486",
            "closest_to": "",
            "address": "Rio Theatre, Soquel Avenue, Soquel Avenue Commercial Corridor, Eastside, Santa Cruz, Santa Cruz County, California, 95062, United States of America",
            "locType": "theatre",
            "blogLinks": [
                "https://www.gapyear.com/articles/216212/13-incredible-stops-on-the-pacific-coast-highway"
            ],
            "longitude": "-122.0104295"
        },
        "bubblegum alley": {
            "latitude": "35.2791663",
            "closest_to": "",
            "address": "Bubblegum Alley, San Luis Obispo, San Luis Obispo County, California, 93405, United States of America",
            "locType": "attraction",
            "blogLinks": [
                "https://www.gapyear.com/articles/216212/13-incredible-stops-on-the-pacific-coast-highway"
            ],
            "longitude": "-120.6638629"
        },
        "italy": {
            "latitude": "45.659844",
            "closest_to": "",
            "address": "California, MB, LOM, Italia",
            "locType": "village",
            "blogLinks": [
                "http://malibutourist.com/"
            ],
            "longitude": "9.3130453"
        },
        "san jose": {
            "latitude": "37.3361905",
            "closest_to": "",
            "address": "San Jos\u00e9, Santa Clara County, California, United States of America",
            "locType": "city",
            "blogLinks": [
                "http://moon.com/2011/02/fun-road-trip-ideas-road-trip-the-california-coast/",
                "https://www.gapyear.com/articles/216212/13-incredible-stops-on-the-pacific-coast-highway"
            ],
            "longitude": "-121.8905832"
        },
        "golden gate park": {
            "latitude": "37.7693681",
            "closest_to": "",
            "address": "Golden Gate Park, Overlook Drive, Richmond District, SF, California, 94122, United States of America",
            "locType": "park",
            "blogLinks": [
                "https://www.gapyear.com/articles/216212/13-incredible-stops-on-the-pacific-coast-highway"
            ],
            "longitude": "-122.482183611177"
        },
        "east beach": {
            "latitude": "37.8061771",
            "closest_to": "",
            "address": "East Beach, Mason Street, Presidio Heights, SF, California, 94129, United States of America",
            "locType": "beach",
            "blogLinks": [
                "https://www.gapyear.com/articles/216212/13-incredible-stops-on-the-pacific-coast-highway"
            ],
            "longitude": "-122.452368017781"
        },
        "redwood highway": {
            "latitude": "37.8379549",
            "closest_to": "",
            "address": "Redwood Highway, Waldo, Marin County, California, 94965, United States of America",
            "locType": "motorway",
            "blogLinks": [
                "http://moon.com/2011/02/fun-road-trip-ideas-road-trip-the-california-coast/"
            ],
            "longitude": "-122.4860838"
        },
        "santa lucia mountain": {
            "latitude": "34.4379129",
            "closest_to": "",
            "address": "Santa Lucia, Santa Barbara County, California, 93111, United States of America",
            "locType": "residential",
            "blogLinks": [
                "http://travelblog.viator.com/road-trip-san-francisco-los-angeles/"
            ],
            "longitude": "-119.8003246"
        },
        "cuba": {
            "latitude": "35.9513438",
            "closest_to": "",
            "address": "La Cuba, Kings County, California, United States of America",
            "locType": "peak",
            "blogLinks": [
                "http://www.mytravelguideposts.com/2010/07/places-to-visit-along-california-coast.html"
            ],
            "longitude": "-119.9804117"
        },
        "germany": {
            "latitude": "50.9590814",
            "closest_to": "",
            "address": "California, Lassallestra\u00dfe, M\u00fclheim, K\u00f6ln, Regierungsbezirk K\u00f6ln, Nordrhein-Westfalen, 50667-51149, Deutschland",
            "locType": "beauty",
            "blogLinks": [
                "http://malibutourist.com/"
            ],
            "longitude": "7.009217"
        },
        "pfeiffer big sur state park": {
            "latitude": "36.25330545",
            "closest_to": "",
            "address": "Pfeiffer Big Sur State Park, Valley View Trail, Big Sur, Monterey County, California, United States of America",
            "locType": "park",
            "blogLinks": [
                "http://moon.com/2011/02/fun-road-trip-ideas-road-trip-the-california-coast/"
            ],
            "longitude": "-121.783295208903"
        },
        "new zealand": {
            "latitude": "-41.1069272",
            "closest_to": "",
            "address": "California Drive, Totara Park, Upper Hutt, Upper Hutt City, Wellington, 5371, New Zealand/Aotearoa",
            "locType": "tertiary",
            "blogLinks": [
                "http://www.mytravelguideposts.com/2010/07/places-to-visit-along-california-coast.html"
            ],
            "longitude": "175.0832904"
        },
        "union square": {
            "latitude": "37.78794125",
            "closest_to": "",
            "address": "Union Square, Post Street, Chinatown, SF, California, 94115, United States of America",
            "locType": "park",
            "blogLinks": [
                "https://www.gapyear.com/articles/216212/13-incredible-stops-on-the-pacific-coast-highway"
            ],
            "longitude": "-122.407502671706"
        },
        "arlington theatre": {
            "latitude": "34.4242119",
            "closest_to": "",
            "address": "Arlington Theatre, 1317, State Street, Santa Barbara, Santa Barbara County, California, 93101, United States of America",
            "locType": "theatre",
            "blogLinks": [
                "https://www.gapyear.com/articles/216212/13-incredible-stops-on-the-pacific-coast-highway"
            ],
            "longitude": "-119.70696995537"
        },
        "westwood": {
            "latitude": "40.3024675",
            "closest_to": "",
            "address": "Westwood, 3rd Street, Westwood, Lassen County, California, United States of America",
            "locType": "administrative",
            "blogLinks": [
                "http://gocalifornia.about.com/od/calamenu/ss/Driving-Californias-Malibu-Coast.htm"
            ],
            "longitude": "-121.010399151458"
        },
        "marina state beach": {
            "latitude": "36.69077465",
            "closest_to": "",
            "address": "Marina State Beach, Cabrillo Highway, Marina, Monterey County, California, 93933, United States of America",
            "locType": "national_park",
            "blogLinks": [
                "http://traveltips.usatoday.com/beaches-pch-california-56995.html"
            ],
            "longitude": "-121.811368857576"
        },
        "lobero theatre": {
            "latitude": "34.4216681",
            "closest_to": "",
            "address": "Lobero Theatre, Anacapa Street, Santa Barbara, Santa Barbara County, California, 93105, United States of America",
            "locType": "theatre",
            "blogLinks": [
                "https://www.gapyear.com/articles/216212/13-incredible-stops-on-the-pacific-coast-highway"
            ],
            "longitude": "-119.700020768116"
        },
        "santa barbara": {
            "latitude": "34.4221319",
            "closest_to": "",
            "address": "Santa Barbara, Santa Barbara County, California, United States of America",
            "locType": "city",
            "blogLinks": [
                "http://travelblog.viator.com/road-trip-san-francisco-los-angeles/",
                "http://moon.com/2011/02/fun-road-trip-ideas-road-trip-the-california-coast/",
                "https://www.gapyear.com/articles/216212/13-incredible-stops-on-the-pacific-coast-highway",
                "http://traveltips.usatoday.com/beaches-pch-california-56995.html"
            ],
            "longitude": "-119.7026672"
        },
        "mexico": {
            "latitude": "28.973",
            "closest_to": "",
            "address": "California, Hermosillo, Sonora, M\u00e9xico",
            "locType": "village",
            "blogLinks": [
                "http://www.mytravelguideposts.com/2010/07/places-to-visit-along-california-coast.html"
            ],
            "longitude": "-111.8196666"
        },
        "half moon bay": {
            "latitude": "37.4635519",
            "closest_to": "",
            "address": "Half Moon Bay, San Mateo County, California, United States of America",
            "locType": "city",
            "blogLinks": [
                "http://moon.com/2011/02/fun-road-trip-ideas-road-trip-the-california-coast/",
                "https://www.gapyear.com/articles/216212/13-incredible-stops-on-the-pacific-coast-highway"
            ],
            "longitude": "-122.4285861"
        },
        "tomales bay": {
            "latitude": "38.0812158",
            "closest_to": "",
            "address": "Tomales Bay, Bivalve, Marin County, California, 94948, United States of America",
            "locType": "path",
            "blogLinks": [
                "http://moon.com/2011/02/fun-road-trip-ideas-road-trip-the-california-coast/"
            ],
            "longitude": "-122.8225806"
        },
        "california/la-area": {
            "latitude": "10.4812147",
            "closest_to": "",
            "address": "\u00c1rea Residencial La California Norte, Sector La California Norte, Petare, Municipio Sucre, Miranda, Regi\u00f3n Capital, 1071, Venezuela",
            "locType": "residential",
            "blogLinks": [
                "https://www.yelp.com/biz/zuma-beach-malibu-2"
            ],
            "longitude": "-66.8209866867011"
        },
        "mendocino": {
            "latitude": "39.3176491",
            "closest_to": "",
            "address": "Mendocino County, California, United States of America",
            "locType": "administrative",
            "blogLinks": [
                "http://moon.com/2011/02/fun-road-trip-ideas-road-trip-the-california-coast/",
                "http://traveltips.usatoday.com/beaches-pch-california-56995.html"
            ],
            "longitude": "-123.4126398"
        },
        "southern california california highway 1": {
            "latitude": "10.41122435",
            "closest_to": "",
            "address": "California Methodist Church, Southern Main Road, California, Trinidad and Tobago",
            "locType": "place_of_worship",
            "blogLinks": [
                "http://traveltips.usatoday.com/beaches-pch-california-56995.html"
            ],
            "longitude": "-61.4715844584486"
        },
        "pacifica state park": {
            "latitude": "37.60276185",
            "closest_to": "",
            "address": "Pacifica State Beach, Cabrillo Highway, Rockaway Beach, Pacifica, San Mateo County, California, 94044, United States of America",
            "locType": "beach",
            "blogLinks": [
                "http://traveltips.usatoday.com/beaches-pch-california-56995.html"
            ],
            "longitude": "-122.499415374146"
        },
        "united kingdom": {
            "latitude": "52.4422729",
            "closest_to": "",
            "address": "California, Birmingham, West Midlands, England, UK",
            "locType": "village",
            "blogLinks": [
                "http://www.mytravelguideposts.com/2010/07/places-to-visit-along-california-coast.html"
            ],
            "longitude": "-1.9796882"
        },
        "monterey": {
            "latitude": "36.5844165",
            "closest_to": "",
            "address": "Monterey, Monterey County, California, United States of America",
            "locType": "city",
            "blogLinks": [
                "http://moon.com/2011/02/fun-road-trip-ideas-road-trip-the-california-coast/",
                "https://www.gapyear.com/articles/216212/13-incredible-stops-on-the-pacific-coast-highway"
            ],
            "longitude": "-121.866792846206"
        },
        "pfeiffer beach": {
            "latitude": "36.23934855",
            "closest_to": "",
            "address": "Pfeiffer Beach, Sycamore Canyon Road, Big Sur, Monterey County, California, 93920, United States of America",
            "locType": "beach",
            "blogLinks": [
                "https://www.gapyear.com/articles/216212/13-incredible-stops-on-the-pacific-coast-highway"
            ],
            "longitude": "-121.81778571416"
        },
        "lombard street": {
            "latitude": "37.802076",
            "closest_to": "",
            "address": "1079, Lombard Street, Russian Hill, SF, California, 94109, United States of America",
            "locType": "residential",
            "blogLinks": [
                "https://www.gapyear.com/articles/216212/13-incredible-stops-on-the-pacific-coast-highway"
            ],
            "longitude": "-122.418809"
        },
        "gaviota state park": {
            "latitude": "34.51187925",
            "closest_to": "",
            "address": "Gaviota State Park, San Julian Road, Las Cruces, Santa Barbara County, California, United States of America",
            "locType": "park",
            "blogLinks": [
                "http://moon.com/2011/02/fun-road-trip-ideas-road-trip-the-california-coast/"
            ],
            "longitude": "-120.23689175403"
        },
        "point sur state historic park": {
            "latitude": "36.315378",
            "closest_to": "",
            "address": "Point Sur State Historic Park, Cabrillo Highway, Big Sur, Monterey County, California, 93923, United States of America",
            "locType": "park",
            "blogLinks": [
                "https://www.gapyear.com/articles/216212/13-incredible-stops-on-the-pacific-coast-highway"
            ],
            "longitude": "-121.881955510784"
        },
        "las virgenes": {
            "latitude": "32.4444142",
            "closest_to": "",
            "address": "Las Virgenes, Fracc. Garcia, Tijuana, Baja California, 22125, M\u00e9xico",
            "locType": "residential",
            "blogLinks": [
                "http://gocalifornia.about.com/od/calamenu/ss/Driving-Californias-Malibu-Coast.htm"
            ],
            "longitude": "-116.9273026"
        },
        "redwood forest": {
            "latitude": "37.4852152",
            "closest_to": "",
            "address": "Redwood City, San Mateo County, California, United States of America",
            "locType": "city",
            "blogLinks": [
                "http://traveltips.usatoday.com/beaches-pch-california-56995.html"
            ],
            "longitude": "-122.2363547"
        },
        "cambria": {
            "latitude": "35.5641381",
            "closest_to": "",
            "address": "Cambria, San Luis Obispo County, California, United States of America",
            "locType": "administrative",
            "blogLinks": [
                "http://moon.com/2011/02/fun-road-trip-ideas-road-trip-the-california-coast/"
            ],
            "longitude": "-121.0807467"
        },
        "old town": {
            "latitude": "35.142943",
            "closest_to": "",
            "address": "Old Town, Golden Hills, Kern County, California, United States of America",
            "locType": "locality",
            "blogLinks": [
                "https://www.gapyear.com/articles/216212/13-incredible-stops-on-the-pacific-coast-highway"
            ],
            "longitude": "-118.4954422"
        },
        "carmel river state beach": {
            "latitude": "36.5315721",
            "closest_to": "",
            "address": "Carmel River State Beach, Cabrillo Highway, Carmel Highlands, Monterey County, California, 93923, United States of America",
            "locType": "national_park",
            "blogLinks": [
                "http://traveltips.usatoday.com/beaches-pch-california-56995.html"
            ],
            "longitude": "-121.918604967215"
        },
        "muir beach": {
            "latitude": "37.8621493",
            "closest_to": "",
            "address": "Muir Beach, Marin County, California, United States of America",
            "locType": "hamlet",
            "blogLinks": [
                "http://moon.com/2011/02/fun-road-trip-ideas-road-trip-the-california-coast/",
                "http://traveltips.usatoday.com/beaches-pch-california-56995.html"
            ],
            "longitude": "-122.5813666"
        },
        "amarillo": {
            "latitude": "10.7345746",
            "closest_to": "",
            "address": "california, Carretera Juan Rafael Mora Porras, Cure\u00f1a, Cant\u00f3n Sarapiqu\u00ed, Provincia Heredia, 41005, Costa Rica",
            "locType": "bar",
            "blogLinks": [
                "http://www.sunset.com/travel/california/things-to-do-malibu"
            ],
            "longitude": "-83.969532"
        },
        "china": {
            "latitude": "37.9989198",
            "closest_to": "",
            "address": "China Camp State Park, Bay View Trail, Santa Venetia, Marin County, California, 94901, United States of America",
            "locType": "park",
            "blogLinks": [
                "http://malibutourist.com/"
            ],
            "longitude": "-122.49033307856"
        },
        "las vegas": {
            "latitude": "36.17310935",
            "closest_to": "",
            "address": "California Hotel, Sky Walk(Connection from Main Street to California, Cultural Corridor, Vegas Heights, Las Vegas, Clark County, Nevada, 89101, United States of America",
            "locType": "hotel",
            "blogLinks": [
                "http://gocalifornia.about.com/od/calamenu/ss/Driving-Californias-Malibu-Coast.htm"
            ],
            "longitude": "-115.144667930325"
        },
        "humboldt redwoods state park": {
            "latitude": "40.376048",
            "closest_to": "",
            "address": "Humboldt Redwoods State Park, Englewood, Humboldt County, California, 95569, United States of America",
            "locType": "residential",
            "blogLinks": [
                "http://moon.com/2011/02/fun-road-trip-ideas-road-trip-the-california-coast/"
            ],
            "longitude": "-123.9263449"
        },
        "el matador": {
            "latitude": "36.8099274",
            "closest_to": "",
            "address": "El Matador, Burl Avenue, Clovis, Fresno County, California, 93611, United States of America",
            "locType": "restaurant",
            "blogLinks": [
                "http://www.travelchannel.com/interests/beaches/articles/top-10-southern-california-beaches",
                "https://www.yelp.com/biz/zuma-beach-malibu-2",
                "http://www.sunset.com/travel/california/things-to-do-malibu",
                "http://losangeles.cbslocal.com/guide/a-guide-to-malibus-best-beaches/"
            ],
            "longitude": "-119.6754762"
        },
        "ano nuevo state park": {
            "latitude": "37.1642859",
            "closest_to": "",
            "address": "A\u00f1o Nuevo State Park, White House Canyon Road, San Mateo County, California, United States of America",
            "locType": "park",
            "blogLinks": [
                "https://www.gapyear.com/articles/216212/13-incredible-stops-on-the-pacific-coast-highway"
            ],
            "longitude": "-122.328030779329"
        },
        "laurel park": {
            "latitude": "36.96935455",
            "closest_to": "",
            "address": "Laurel Park, Maple Street, Downtown Residential, Downtown, Santa Cruz, Santa Cruz County, California, 95060, United States of America",
            "locType": "park",
            "blogLinks": [
                "http://malibutourist.com/"
            ],
            "longitude": "-122.027900913264"
        },
        "pacific ocean": {
            "latitude": "36.16305775",
            "closest_to": "",
            "address": "Pacific Ocean, Cabrillo Highway, Monterey County, California, 93920, United States of America",
            "locType": "cliff",
            "blogLinks": [
                "http://travelblog.viator.com/road-trip-san-francisco-los-angeles/",
                "http://moon.com/2011/02/fun-road-trip-ideas-road-trip-the-california-coast/",
                "http://www.mytravelguideposts.com/2010/07/places-to-visit-along-california-coast.html",
                "http://gocalifornia.about.com/od/calamenu/ss/Driving-Californias-Malibu-Coast.htm"
            ],
            "longitude": "-121.678715787326"
        },
        "hog island oyster company": {
            "latitude": "37.7960191",
            "closest_to": "",
            "address": "Hog Island Oyster Company, Gate B, Financial District, SF, California, 94111, United States of America",
            "locType": "restaurant",
            "blogLinks": [
                "http://moon.com/2011/02/fun-road-trip-ideas-road-trip-the-california-coast/"
            ],
            "longitude": "-122.3936028"
        },
        "prairie creek redwoods state park": {
            "latitude": "41.40951025",
            "closest_to": "",
            "address": "Prairie Creek Redwoods State Park, West Ridge Trail, Humboldt County, California, United States of America",
            "locType": "national_park",
            "blogLinks": [
                "http://moon.com/2011/02/fun-road-trip-ideas-road-trip-the-california-coast/"
            ],
            "longitude": "-124.036052276854"
        },
        "big sur": {
            "latitude": "36.270241",
            "closest_to": "",
            "address": "Big Sur, Monterey County, California, United States of America",
            "locType": "village",
            "blogLinks": [
                "http://moon.com/2011/02/fun-road-trip-ideas-road-trip-the-california-coast/"
            ],
            "longitude": "-121.8074544"
        },
        "ventana inn": {
            "latitude": "36.2269124",
            "closest_to": "",
            "address": "The Restaurant at Ventana, Coast Ridge Road, Posts, Monterey County, California, United States of America",
            "locType": "restaurant",
            "blogLinks": [
                "http://moon.com/2011/02/fun-road-trip-ideas-road-trip-the-california-coast/"
            ],
            "longitude": "-121.759462751273"
        },
        "monterey county": {
            "latitude": "36.2231079",
            "closest_to": "",
            "address": "Monterey County, California, United States of America",
            "locType": "administrative",
            "blogLinks": [
                "http://travelblog.viator.com/road-trip-san-francisco-los-angeles/"
            ],
            "longitude": "-121.3877427"
        },
        "united states": {
            "latitude": "36.7014631",
            "closest_to": "",
            "address": "California, United States of America",
            "locType": "administrative",
            "blogLinks": [
                "http://malibutourist.com/",
                "https://www.thenandnowshop.com/blog/travel/places-to-visit-in-los-angeles/",
                "https://www.tripadvisor.com/Attractions-g32676-Activities-Malibu_California.html",
                "http://www.mytravelguideposts.com/2010/07/places-to-visit-along-california-coast.html"
            ],
            "longitude": "-118.7559973"
        },
        "san simeon": {
            "latitude": "35.6438587",
            "closest_to": "",
            "address": "San Simeon, San Luis Obispo County, California, United States of America",
            "locType": "hamlet",
            "blogLinks": [
                "http://moon.com/2011/02/fun-road-trip-ideas-road-trip-the-california-coast/",
                "https://www.gapyear.com/articles/216212/13-incredible-stops-on-the-pacific-coast-highway",
                "http://traveltips.usatoday.com/beaches-pch-california-56995.html"
            ],
            "longitude": "-121.1907532"
        },
        "mcway falls trail": {
            "latitude": "36.1578211",
            "closest_to": "",
            "address": "McWay Falls, Monterey County, California, United States of America",
            "locType": "waterfall",
            "blogLinks": [
                "http://travelblog.viator.com/road-trip-san-francisco-los-angeles/"
            ],
            "longitude": "-121.6723957"
        },
        "mattole road": {
            "latitude": "40.361367",
            "closest_to": "",
            "address": "Mattole Road, Humboldt County, California, 95558, United States of America",
            "locType": "secondary",
            "blogLinks": [
                "http://moon.com/2011/02/fun-road-trip-ideas-road-trip-the-california-coast/"
            ],
            "longitude": "-124.3616759"
        },
        "fort bragg": {
            "latitude": "39.4447345",
            "closest_to": "",
            "address": "Fort Bragg, Mendocino County, California, United States of America",
            "locType": "city",
            "blogLinks": [
                "http://moon.com/2011/02/fun-road-trip-ideas-road-trip-the-california-coast/",
                "http://traveltips.usatoday.com/beaches-pch-california-56995.html"
            ],
            "longitude": "-123.802699105743"
        },
        "asia": {
            "latitude": "37.7949149",
            "closest_to": "",
            "address": "Asia, 6th Avenue, San Antonio, Oakland, Alameda County, California, 94606, United States of America",
            "locType": "restaurant",
            "blogLinks": [
                "http://www.mytravelguideposts.com/2010/07/places-to-visit-along-california-coast.html"
            ],
            "longitude": "-122.2533348"
        },
        "north beach": {
            "latitude": "37.8011749",
            "closest_to": "",
            "address": "North Beach, SF, California, 94133, United States of America",
            "locType": "neighbourhood",
            "blogLinks": [
                "http://www.travelchannel.com/interests/beaches/articles/top-10-southern-california-beaches"
            ],
            "longitude": "-122.409002"
        },
        "california highway": {
            "latitude": "36.7014631",
            "closest_to": "",
            "address": "California, United States of America",
            "locType": "administrative",
            "blogLinks": [
                "http://www.mytravelguideposts.com/2010/07/places-to-visit-along-california-coast.html"
            ],
            "longitude": "-118.7559973"
        },
        "big sur bakery": {
            "latitude": "36.2359105",
            "closest_to": "",
            "address": "Big Sur Bakery, 47540, Cabrillo Highway, Posts, Monterey County, California, 93920, United States of America",
            "locType": "bakery",
            "blogLinks": [
                "http://travelblog.viator.com/road-trip-san-francisco-los-angeles/"
            ],
            "longitude": "-121.7693642"
        },
        "pismo beach": {
            "latitude": "35.1427533",
            "closest_to": "",
            "address": "Pismo Beach, San Luis Obispo County, California, United States of America",
            "locType": "city",
            "blogLinks": [
                "http://moon.com/2011/02/fun-road-trip-ideas-road-trip-the-california-coast/",
                "https://www.gapyear.com/articles/216212/13-incredible-stops-on-the-pacific-coast-highway",
                "https://www.yelp.com/biz/zuma-beach-malibu-2"
            ],
            "longitude": "-120.6412826"
        },
        "california highway 1": {
            "latitude": "37.7931799",
            "closest_to": "",
            "address": "One California Street Building, 1, California Street, Financial District, SF, California, 94121, United States of America",
            "locType": "yes",
            "blogLinks": [
                "http://www.mytravelguideposts.com/2010/07/places-to-visit-along-california-coast.html"
            ],
            "longitude": "-122.397168822203"
        },
        "l.a": {
            "latitude": "-13.8305494",
            "closest_to": "",
            "address": "California, Provincia Abel Iturralde, LPZ, Bolivia",
            "locType": "hamlet",
            "blogLinks": [
                "https://www.thenandnowshop.com/blog/travel/places-to-visit-in-los-angeles/"
            ],
            "longitude": "-67.9369134"
        },
        "russia": {
            "latitude": "56.2851485",
            "closest_to": "",
            "address": "California, 36, \u043f\u0440\u043e\u0441\u043f\u0435\u043a\u0442 \u041b\u0435\u043d\u0438\u043d\u0430, \u041b\u0435\u043d\u0438\u043d\u0441\u043a\u0438\u0439 \u0440\u0430\u0439\u043e\u043d, \u041d\u0438\u0436\u043d\u0438\u0439 \u041d\u043e\u0432\u0433\u043e\u0440\u043e\u0434, \u0433\u043e\u0440\u043e\u0434\u0441\u043a\u043e\u0439 \u043e\u043a\u0440\u0443\u0433 \u041d\u0438\u0436\u043d\u0438\u0439 \u041d\u043e\u0432\u0433\u043e\u0440\u043e\u0434, \u041d\u0438\u0436\u0435\u0433\u043e\u0440\u043e\u0434\u0441\u043a\u0430\u044f \u043e\u0431\u043b\u0430\u0441\u0442\u044c, \u041f\u0440\u0438\u0432\u043e\u043b\u0436\u0441\u043a\u0438\u0439 \u0444\u0435\u0434\u0435\u0440\u0430\u043b\u044c\u043d\u044b\u0439 \u043e\u043a\u0440\u0443\u0433, 603076, \u0420\u0424",
            "locType": "cafe",
            "blogLinks": [
                "http://malibutourist.com/"
            ],
            "longitude": "43.9298876"
        },
        "washington": {
            "latitude": "40.0657724",
            "closest_to": "",
            "address": "California, Washington County, Pennsylvania, United States of America",
            "locType": "administrative",
            "blogLinks": [
                "http://moon.com/2011/02/fun-road-trip-ideas-road-trip-the-california-coast/"
            ],
            "longitude": "-79.8918435"
        },
        "esalen": {
            "latitude": "36.1248106",
            "closest_to": "",
            "address": "Esalen Institute, Cabrillo Highway, Slates Hot Springs, Monterey County, California, 93920, United States of America",
            "locType": "school",
            "blogLinks": [
                "http://moon.com/2011/02/fun-road-trip-ideas-road-trip-the-california-coast/"
            ],
            "longitude": "-121.6377439"
        },
        "pebble beach": {
            "latitude": "36.5664874",
            "closest_to": "",
            "address": "Pebble Beach, Monterey County, California, United States of America",
            "locType": "hamlet",
            "blogLinks": [
                "http://moon.com/2011/02/fun-road-trip-ideas-road-trip-the-california-coast/"
            ],
            "longitude": "-121.9466112"
        },
        "central america": {
            "latitude": "13.69924915",
            "closest_to": "",
            "address": "Banco de America Central, 53 Avenida Sur, Residencial Ol\u00edmpica, Colonia Flor Blanca, San Salvador, Municipio de San Salvador, Departamento de San Salvador, 00503, El Salvador",
            "locType": "bank",
            "blogLinks": [
                "http://www.mytravelguideposts.com/2010/07/places-to-visit-along-california-coast.html"
            ],
            "longitude": "-89.2185341551046"
        },
        "palomar": {
            "latitude": "23.48019285",
            "closest_to": "",
            "address": "Palomar, Calzada Maestros Misioneros de 1930, Santiago, Los Cabos, Baja California Sur, M\u00e9xico",
            "locType": "hotel",
            "blogLinks": [
                "https://www.gapyear.com/articles/216212/13-incredible-stops-on-the-pacific-coast-highway"
            ],
            "longitude": "-109.715262801301"
        },
        "stinson beach": {
            "latitude": "37.9008084",
            "closest_to": "",
            "address": "Stinson Beach, Marin County, California, United States of America",
            "locType": "hamlet",
            "blogLinks": [
                "http://moon.com/2011/02/fun-road-trip-ideas-road-trip-the-california-coast/"
            ],
            "longitude": "-122.64508"
        },
        "california": {
            "latitude": "7.3480915",
            "closest_to": "",
            "address": "California, Santander, Colombia",
            "locType": "village",
            "blogLinks": [
                "https://www.yelp.com/biz/zuma-beach-malibu-2",
                "https://www.gapyear.com/articles/216212/13-incredible-stops-on-the-pacific-coast-highway",
                "http://moon.com/2011/02/fun-road-trip-ideas-road-trip-the-california-coast/",
                "http://www.mytravelguideposts.com/2010/07/places-to-visit-along-california-coast.html",
                "http://www.sunset.com/travel/california/things-to-do-malibu",
                "http://gocalifornia.about.com/od/calamenu/ss/Driving-Californias-Malibu-Coast.htm",
                "http://travelblog.viator.com/road-trip-san-francisco-los-angeles/",
                "http://www.travelchannel.com/interests/beaches/articles/top-10-southern-california-beaches",
                "http://traveltips.usatoday.com/beaches-pch-california-56995.html",
                "https://www.expedia.com/Malibu-Hotels.d10217.Travel-Guide-Hotels",
                "http://malibutourist.com/"
            ],
            "longitude": "-72.945787"
        },
        "havana": {
            "latitude": "37.8999481",
            "closest_to": "",
            "address": "Havana, 1516, Bonanza Street, Walnut Creek, Contra Costa County, California, 94596, United States of America",
            "locType": "restaurant",
            "blogLinks": [
                "http://www.mytravelguideposts.com/2010/07/places-to-visit-along-california-coast.html"
            ],
            "longitude": "-122.0615613"
        },
        "cayucos state beach": {
            "latitude": "35.4469453",
            "closest_to": "",
            "address": "Cayucos State Beach, E Street, Cayucos, San Luis Obispo County, California, 93430, United States of America",
            "locType": "nature_reserve",
            "blogLinks": [
                "http://traveltips.usatoday.com/beaches-pch-california-56995.html"
            ],
            "longitude": "-120.903074123006"
        },
        "julia pfeiffer burns state park": {
            "latitude": "36.16998345",
            "closest_to": "",
            "address": "Julia Pfeiffer Burns State Park, Ewoldsen trail, Monterey County, California, United States of America",
            "locType": "park",
            "blogLinks": [
                "http://moon.com/2011/02/fun-road-trip-ideas-road-trip-the-california-coast/"
            ],
            "longitude": "-121.665388254615"
        },
        "san francisco": {
            "latitude": "37.7792808",
            "closest_to": "",
            "address": "SF, California, United States of America",
            "locType": "city",
            "blogLinks": [
                "http://travelblog.viator.com/road-trip-san-francisco-los-angeles/",
                "http://moon.com/2011/02/fun-road-trip-ideas-road-trip-the-california-coast/",
                "http://www.mytravelguideposts.com/2010/07/places-to-visit-along-california-coast.html",
                "https://www.gapyear.com/articles/216212/13-incredible-stops-on-the-pacific-coast-highway"
            ],
            "longitude": "-122.4192362"
        },
        "brazil": {
            "latitude": "-23.6672542",
            "closest_to": "",
            "address": "Calif\u00f3rnia, Microrregi\u00e3o Arapucana, Mesorregi\u00e3o Norte Central Paranaense, PR, Regi\u00e3o Sul, Brasil",
            "locType": "administrative",
            "blogLinks": [
                "http://malibutourist.com/"
            ],
            "longitude": "-51.3554555"
        },
        "santa barbara botanic garden": {
            "latitude": "34.456953",
            "closest_to": "",
            "address": "Santa Barbara Botanic Gardens, Mission Canyon Road, Mission Canyon, Santa Barbara County, California, 93105, United States of America",
            "locType": "park",
            "blogLinks": [
                "https://www.gapyear.com/articles/216212/13-incredible-stops-on-the-pacific-coast-highway"
            ],
            "longitude": "-119.709585108231"
        },
        "nobu": {
            "latitude": "37.386059",
            "closest_to": "",
            "address": "Nobu Drive, Berryessa, San Jos\u00e9, Santa Clara County, California, 95131, United States of America",
            "locType": "residential",
            "blogLinks": [
                "http://malibutourist.com/"
            ],
            "longitude": "-121.8861697"
        },
        "carmel": {
            "latitude": "38.75511285",
            "closest_to": "",
            "address": "Carmel, Roseville, Placer County, California, 95747, United States of America",
            "locType": "residential",
            "blogLinks": [
                "http://travelblog.viator.com/road-trip-san-francisco-los-angeles/",
                "http://moon.com/2011/02/fun-road-trip-ideas-road-trip-the-california-coast/"
            ],
            "longitude": "-121.353308848273"
        },
        "carmel valley": {
            "latitude": "36.4796839",
            "closest_to": "",
            "address": "Carmel Valley, Monterey County, California, United States of America",
            "locType": "village",
            "blogLinks": [
                "http://moon.com/2011/02/fun-road-trip-ideas-road-trip-the-california-coast/"
            ],
            "longitude": "-121.7324475"
        },
        "hermosa": {
            "latitude": "38.0172961",
            "closest_to": "",
            "address": "Hermosa, Pittsburg, Contra Costa County, California, 94565, United States of America",
            "locType": "residential",
            "blogLinks": [
                "http://moon.com/2011/02/fun-road-trip-ideas-road-trip-the-california-coast/"
            ],
            "longitude": "-121.8724176"
        }
    },
    "long beach": {
        "type": "city",
        "osm_id": "112100",
        "class": "place",
        "importance": 0.87291598958998,
        "lat": "33.78538945",
        "lon": "-118.158049215311",
        "boundingbox": [
            "33.6905847",
            "33.8855951",
            "-118.2489659",
            "-118.0632824"
        ],
        "display_name": "Long Beach, Los Angeles County, California, United States of America",
        "licence": "Data \u00a9 OpenStreetMap contributors, ODbL 1.0. http://www.openstreetmap.org/copyright",
        "icon": "https://nominatim.openstreetmap.org/images/mapicons/poi_place_city.p.20.png",
        "place_id": "158641779",
        "osm_type": "relation"
    }
}