{
    "malibu": {
        "type": "residential",
        "osm_id": "7335067",
        "class": "highway",
        "importance": 0.3,
        "lat": "33.7932142",
        "licence": "Data \u00a9 OpenStreetMap contributors, ODbL 1.0. http://www.openstreetmap.org/copyright",
        "place_id": "58129970",
        "lon": "-116.5023561",
        "boundingbox": [
            "33.7923238",
            "33.7940184",
            "-116.5023599",
            "-116.5023526"
        ],
        "display_name": "Malibu, Palm Springs, Riverside County, California, 92264, United States of America",
        "osm_type": "way"
    },
    "mentions": {
        "golden gate bridge": {
            "latitude": "37.8302809",
            "closest_to": "",
            "address": "Golden Gate Bridge, Waldo, Marin County, California, 94965, United States of America",
            "locType": "motorway",
            "blogLinks": [
                "http://traveltips.usatoday.com/beaches-pch-california-56995.html"
            ],
            "longitude": "-122.4798473"
        },
        "usa": {
            "latitude": "36.7014631",
            "closest_to": "",
            "address": "California, United States of America",
            "locType": "administrative",
            "blogLinks": [
                "http://www.mytravelguideposts.com/2010/07/places-to-visit-along-california-coast.html",
                "http://www.distancesfrom.com/us/flight-distance-from-Newport-Beach-to-Malibu/FlightHistory/32206082.aspx"
            ],
            "longitude": "-118.7559973"
        },
        "carmel-by-the-sea": {
            "latitude": "36.5552387",
            "closest_to": "",
            "address": "Carmel-by-the-Sea, Monterey County, California, United States of America",
            "locType": "city",
            "blogLinks": [
                "https://www.gapyear.com/articles/216212/13-incredible-stops-on-the-pacific-coast-highway"
            ],
            "longitude": "-121.9232878"
        },
        "state park": {
            "latitude": "35.5818461",
            "closest_to": "",
            "address": "State Park, Cambria, San Luis Obispo County, California, 93428, United States of America",
            "locType": "service",
            "blogLinks": [
                "http://www.sunset.com/travel/california/things-to-do-malibu"
            ],
            "longitude": "-121.1198923"
        },
        "mackerricher state park": {
            "latitude": "39.4932207",
            "closest_to": "",
            "address": "MacKerricher State Park, Mackerricher State Park Road, Cleone, Mendocino County, California, 95437, United States of America",
            "locType": "park",
            "blogLinks": [
                "http://traveltips.usatoday.com/beaches-pch-california-56995.html"
            ],
            "longitude": "-123.7936267"
        },
        "monterey bay": {
            "latitude": "36.7999557",
            "closest_to": "",
            "address": "Monterey Bay, Monterey County, California, United States of America",
            "locType": "bay",
            "blogLinks": [
                "https://www.gapyear.com/articles/216212/13-incredible-stops-on-the-pacific-coast-highway"
            ],
            "longitude": "-121.9010667"
        },
        "santa cruz": {
            "latitude": "36.9735903",
            "closest_to": "",
            "address": "Santa Cruz, Santa Cruz County, California, United States of America",
            "locType": "city",
            "blogLinks": [
                "http://thetravelersway.com/road-trip-the-pacific-coast-highway-in-california/",
                "https://www.gapyear.com/articles/216212/13-incredible-stops-on-the-pacific-coast-highway",
                "http://traveltips.usatoday.com/beaches-pch-california-56995.html"
            ],
            "longitude": "-122.0260569"
        },
        "ca": {
            "latitude": "37.8242285466918",
            "closest_to": "",
            "address": "Piedmont, Alameda County, California, ca, United States of America",
            "locType": "postcode",
            "blogLinks": [
                "http://www.distancesfrom.com/us/flight-distance-from-Newport-Beach-to-Malibu/FlightHistory/32206082.aspx"
            ],
            "longitude": "-122.232613735941"
        },
        "northwest": {
            "latitude": "-11.2141388",
            "closest_to": "",
            "address": "Canton Victoria, California, Provincia de Manuripi, PND, Bolivia",
            "locType": "hamlet",
            "blogLinks": [
                "http://californiathroughmylens.com/dana-point-to-malibu-guide"
            ],
            "longitude": "-67.7071862"
        },
        "bixby bridge": {
            "latitude": "36.3710197",
            "closest_to": "",
            "address": "Bixby Creek Bridge, Notleys Landing, Monterey County, California, 93923, United States of America",
            "locType": "primary",
            "blogLinks": [
                "https://www.gapyear.com/articles/216212/13-incredible-stops-on-the-pacific-coast-highway"
            ],
            "longitude": "-121.9017572"
        },
        "wilder ranch state park": {
            "latitude": "36.96021805",
            "closest_to": "",
            "address": "Wilder Ranch State Park, Coast Road, Westside, Santa Cruz County, California, 95060, United States of America",
            "locType": "park",
            "blogLinks": [
                "https://www.gapyear.com/articles/216212/13-incredible-stops-on-the-pacific-coast-highway"
            ],
            "longitude": "-122.079566815934"
        },
        "brentwood": {
            "latitude": "37.9317766",
            "closest_to": "",
            "address": "Brentwood, Contra Costa County, California, United States of America",
            "locType": "city",
            "blogLinks": [
                "http://gocalifornia.about.com/od/calamenu/ss/Driving-Californias-Malibu-Coast.htm"
            ],
            "longitude": "-121.6960265"
        },
        "route 101": {
            "latitude": "37.7881229",
            "closest_to": "",
            "address": "Route 101, 1332, Van Ness Avenue, Japantown, SF, California, 94109, United States of America",
            "locType": "bar",
            "blogLinks": [
                "http://www.mytravelguideposts.com/2010/07/places-to-visit-along-california-coast.html"
            ],
            "longitude": "-122.4216319"
        },
        "europe": {
            "latitude": "37.3491727",
            "closest_to": "",
            "address": "Europe Court, Santa Clara, Santa Clara County, California, 95051, United States of America",
            "locType": "residential",
            "blogLinks": [
                "http://www.mytravelguideposts.com/2010/07/places-to-visit-along-california-coast.html"
            ],
            "longitude": "-121.9980641"
        },
        "monterrey": {
            "latitude": "32.5492861",
            "closest_to": "",
            "address": "Monterrey, Mexicali, Baja California, M\u00e9xico",
            "locType": "village",
            "blogLinks": [
                "http://traveltips.usatoday.com/beaches-pch-california-56995.html"
            ],
            "longitude": "-115.0704122"
        },
        "pacific": {
            "latitude": "38.7601815",
            "closest_to": "",
            "address": "Pacific, El Dorado County, California, United States of America",
            "locType": "hamlet",
            "blogLinks": [
                "https://www.tripadvisor.com/Travel-g28926-c174834/California:United-States:Coast.Highway.Route.From.La.To.San.Diego.html",
                "http://thetravelersway.com/road-trip-the-pacific-coast-highway-in-california/",
                "http://www.travelchannel.com/interests/beaches/articles/top-10-southern-california-beaches"
            ],
            "longitude": "-120.507146"
        },
        "fort bragg": {
            "latitude": "39.4447345",
            "closest_to": "",
            "address": "Fort Bragg, Mendocino County, California, United States of America",
            "locType": "city",
            "blogLinks": [
                "http://traveltips.usatoday.com/beaches-pch-california-56995.html"
            ],
            "longitude": "-123.802699105743"
        },
        "mcway falls": {
            "latitude": "36.1578211",
            "closest_to": "",
            "address": "McWay Falls, Monterey County, California, United States of America",
            "locType": "waterfall",
            "blogLinks": [
                "https://www.gapyear.com/articles/216212/13-incredible-stops-on-the-pacific-coast-highway"
            ],
            "longitude": "-121.6723957"
        },
        "san simeon state park": {
            "latitude": "35.594453",
            "closest_to": "",
            "address": "San Simeon State Park, Leimert, San Luis Obispo County, California, 93428, United States of America",
            "locType": "residential",
            "blogLinks": [
                "http://traveltips.usatoday.com/beaches-pch-california-56995.html"
            ],
            "longitude": "-121.1231409"
        },
        "' soda lake": {
            "latitude": "35.23913735",
            "closest_to": "",
            "address": "Soda Lake, Soda Lake Road, San Luis Obispo County, California, United States of America",
            "locType": "water",
            "blogLinks": [
                "https://www.gapyear.com/articles/216212/13-incredible-stops-on-the-pacific-coast-highway"
            ],
            "longitude": "-119.895515964214"
        },
        "sonoma coast state park": {
            "latitude": "38.41699",
            "closest_to": "",
            "address": "Sonoma Coast State Park, Coast Highway, Carmet, Sonoma County, California, United States of America",
            "locType": "park",
            "blogLinks": [
                "http://traveltips.usatoday.com/beaches-pch-california-56995.html"
            ],
            "longitude": "-123.099028545174"
        },
        "monterey bay aquarium": {
            "latitude": "36.61809095",
            "closest_to": "",
            "address": "MBA, 886, Cannery Row, Monterey, Monterey County, California, 93940, United States of America",
            "locType": "aquarium",
            "blogLinks": [
                "https://www.gapyear.com/articles/216212/13-incredible-stops-on-the-pacific-coast-highway"
            ],
            "longitude": "-121.901680002002"
        },
        "mexico": {
            "latitude": "28.973",
            "closest_to": "",
            "address": "California, Hermosillo, Sonora, M\u00e9xico",
            "locType": "village",
            "blogLinks": [
                "http://www.mytravelguideposts.com/2010/07/places-to-visit-along-california-coast.html"
            ],
            "longitude": "-111.8196666"
        },
        "earth": {
            "latitude": "35.4780569",
            "closest_to": "",
            "address": "Mountain Pass Rare Earth Mine, Mountain Pass, San Bernardino County, California, 92364, United States of America",
            "locType": "quarry",
            "blogLinks": [
                "http://thetravelersway.com/road-trip-the-pacific-coast-highway-in-california/"
            ],
            "longitude": "-115.541994345811"
        },
        "arlington theatre": {
            "latitude": "34.4242119",
            "closest_to": "",
            "address": "Arlington Theatre, 1317, State Street, Santa Barbara, Santa Barbara County, California, 93101, United States of America",
            "locType": "theatre",
            "blogLinks": [
                "https://www.gapyear.com/articles/216212/13-incredible-stops-on-the-pacific-coast-highway"
            ],
            "longitude": "-119.70696995537"
        },
        "santa cruz beach boardwalk": {
            "latitude": "36.96446855",
            "closest_to": "",
            "address": "Santa Cruz Beach Boardwalk, Boardwalk, Beach & Boardwalk District (Commercial), Seabright, Santa Cruz, Santa Cruz County, California, 1982, United States of America",
            "locType": "attraction",
            "blogLinks": [
                "https://www.gapyear.com/articles/216212/13-incredible-stops-on-the-pacific-coast-highway"
            ],
            "longitude": "-122.016027247326"
        },
        "mullholland drive": {
            "latitude": "37.8584346",
            "closest_to": "",
            "address": "EBMUD Mullholland Reservoir, Donald Drive, Rheem Valley, Moraga, Contra Costa County, California, 94556, United States of America",
            "locType": "water_tank",
            "blogLinks": [
                "http://gocalifornia.about.com/od/calamenu/ss/Driving-Californias-Malibu-Coast.htm"
            ],
            "longitude": "-122.1430436"
        },
        "ano nuevo state park": {
            "latitude": "37.1642859",
            "closest_to": "",
            "address": "A\u00f1o Nuevo State Park, White House Canyon Road, San Mateo County, California, United States of America",
            "locType": "park",
            "blogLinks": [
                "https://www.gapyear.com/articles/216212/13-incredible-stops-on-the-pacific-coast-highway"
            ],
            "longitude": "-122.328030779329"
        },
        "islay hill": {
            "latitude": "35.2455305",
            "closest_to": "",
            "address": "Islay Hill, San Luis Obispo, San Luis Obispo County, California, United States of America",
            "locType": "peak",
            "blogLinks": [
                "https://www.gapyear.com/articles/216212/13-incredible-stops-on-the-pacific-coast-highway"
            ],
            "longitude": "-120.622392"
        },
        "silicon valley": {
            "latitude": "37.4105333",
            "closest_to": "",
            "address": "Carnegie Mellon Silicon Valley, South Akron Road, Santa Clara County, California, 94035-0016, United States of America",
            "locType": "school",
            "blogLinks": [
                "https://www.gapyear.com/articles/216212/13-incredible-stops-on-the-pacific-coast-highway"
            ],
            "longitude": "-122.0597491"
        },
        "alcatraz island": {
            "latitude": "37.8267283",
            "closest_to": "",
            "address": "Alcatraz Island, SF, California, United States of America",
            "locType": "island",
            "blogLinks": [
                "https://www.gapyear.com/articles/216212/13-incredible-stops-on-the-pacific-coast-highway"
            ],
            "longitude": "-122.422746492409"
        },
        "central america": {
            "latitude": "13.69924915",
            "closest_to": "",
            "address": "Banco de America Central, 53 Avenida Sur, Residencial Ol\u00edmpica, Colonia Flor Blanca, San Salvador, Municipio de San Salvador, Departamento de San Salvador, 00503, El Salvador",
            "locType": "bank",
            "blogLinks": [
                "http://www.mytravelguideposts.com/2010/07/places-to-visit-along-california-coast.html"
            ],
            "longitude": "-89.2185341551046"
        },
        "south america": {
            "latitude": "3.60107",
            "closest_to": "",
            "address": "California, Microrregi\u00e3o de Boa Vista, Mesorregi\u00e3o Norte de Roraima, RR, Regi\u00e3o Norte, Brasil",
            "locType": "hamlet",
            "blogLinks": [
                "http://gocalifornia.about.com/od/calamenu/ss/Driving-Californias-Malibu-Coast.htm"
            ],
            "longitude": "-61.5606166"
        },
        "gaffey street": {
            "latitude": "36.9867714",
            "closest_to": "",
            "address": "Gaffey Creek, Santa Cruz County, California, United States of America",
            "locType": "stream",
            "blogLinks": [
                "https://www.tripadvisor.com/Travel-g28926-c174834/California:United-States:Coast.Highway.Route.From.La.To.San.Diego.html"
            ],
            "longitude": "-121.7234429"
        },
        "hawaii": {
            "latitude": "36.8347819",
            "closest_to": "",
            "address": "Hawaii, Fresno County, California, 93650, United States of America",
            "locType": "service",
            "blogLinks": [
                "http://thetravelersway.com/road-trip-the-pacific-coast-highway-in-california/"
            ],
            "longitude": "-119.7966952"
        },
        "lincoln": {
            "latitude": "38.8598295",
            "closest_to": "",
            "address": "Lincoln, Placer County, California, United States of America",
            "locType": "city",
            "blogLinks": [
                "https://www.tripadvisor.com/Travel-g28926-c174834/California:United-States:Coast.Highway.Route.From.La.To.San.Diego.html"
            ],
            "longitude": "-121.342391957924"
        },
        "wood state beach": {
            "latitude": "34.2852787",
            "closest_to": "",
            "address": "Emma Wood State Beach, State Beach Access Road, Ventura County, California, 93001, United States of America",
            "locType": "park",
            "blogLinks": [
                "http://www.mytravelguideposts.com/2010/07/places-to-visit-along-california-coast.html"
            ],
            "longitude": "-119.3256687"
        },
        "pismo state beach": {
            "latitude": "35.1061627",
            "closest_to": "",
            "address": "Pismo State Beach, San Luis Obispo County, California, United States of America",
            "locType": "national_park",
            "blogLinks": [
                "http://traveltips.usatoday.com/beaches-pch-california-56995.html"
            ],
            "longitude": "-120.62834686522"
        },
        "san luis obispo": {
            "latitude": "35.2827525",
            "closest_to": "",
            "address": "San Luis Obispo, San Luis Obispo County, California, United States of America",
            "locType": "city",
            "blogLinks": [
                "https://www.gapyear.com/articles/216212/13-incredible-stops-on-the-pacific-coast-highway"
            ],
            "longitude": "-120.6596155"
        },
        "balboa park": {
            "latitude": "37.72494875",
            "closest_to": "",
            "address": "Balboa Park, Sergeant John V Young Lane, Ingleside, SF, California, 94112, United States of America",
            "locType": "park",
            "blogLinks": [
                "https://www.gapyear.com/articles/216212/13-incredible-stops-on-the-pacific-coast-highway"
            ],
            "longitude": "-122.444804424152"
        },
        "rio theatre": {
            "latitude": "36.9801486",
            "closest_to": "",
            "address": "Rio Theatre, Soquel Avenue, Soquel Avenue Commercial Corridor, Eastside, Santa Cruz, Santa Cruz County, California, 95062, United States of America",
            "locType": "theatre",
            "blogLinks": [
                "https://www.gapyear.com/articles/216212/13-incredible-stops-on-the-pacific-coast-highway"
            ],
            "longitude": "-122.0104295"
        },
        "bubblegum alley": {
            "latitude": "35.2791663",
            "closest_to": "",
            "address": "Bubblegum Alley, San Luis Obispo, San Luis Obispo County, California, 93405, United States of America",
            "locType": "attraction",
            "blogLinks": [
                "https://www.gapyear.com/articles/216212/13-incredible-stops-on-the-pacific-coast-highway"
            ],
            "longitude": "-120.6638629"
        },
        "united kingdom": {
            "latitude": "52.4422729",
            "closest_to": "",
            "address": "California, Birmingham, West Midlands, England, UK",
            "locType": "village",
            "blogLinks": [
                "https://www.gapyear.com/articles/216212/13-incredible-stops-on-the-pacific-coast-highway"
            ],
            "longitude": "-1.9796882"
        },
        "golden gate park": {
            "latitude": "37.7693681",
            "closest_to": "",
            "address": "Golden Gate Park, Overlook Drive, Richmond District, SF, California, 94122, United States of America",
            "locType": "park",
            "blogLinks": [
                "http://thetravelersway.com/road-trip-the-pacific-coast-highway-in-california/",
                "https://www.gapyear.com/articles/216212/13-incredible-stops-on-the-pacific-coast-highway"
            ],
            "longitude": "-122.482183611177"
        },
        "east beach": {
            "latitude": "37.8061771",
            "closest_to": "",
            "address": "East Beach, Mason Street, Presidio Heights, SF, California, 94129, United States of America",
            "locType": "beach",
            "blogLinks": [
                "https://www.gapyear.com/articles/216212/13-incredible-stops-on-the-pacific-coast-highway"
            ],
            "longitude": "-122.452368017781"
        },
        "carpinteria": {
            "latitude": "34.3988838",
            "closest_to": "",
            "address": "Carpinteria, Santa Barbara County, California, United States of America",
            "locType": "city",
            "blogLinks": [
                "http://traveltips.usatoday.com/beaches-pch-california-56995.html"
            ],
            "longitude": "-119.5184563"
        },
        "channel islands harbor": {
            "latitude": "34.1641716",
            "closest_to": "",
            "address": "Channel Islands Harbor, Ventura County, California, United States of America",
            "locType": "dock",
            "blogLinks": [
                "http://gocalifornia.about.com/od/calamenu/ss/Driving-Californias-Malibu-Coast.htm"
            ],
            "longitude": "-119.2242751"
        },
        "la": {
            "latitude": "36.7014631",
            "closest_to": "",
            "address": "California, United States of America",
            "locType": "administrative",
            "blogLinks": [
                "http://www.mytravelguideposts.com/2010/07/places-to-visit-along-california-coast.html"
            ],
            "longitude": "-118.7559973"
        },
        "new zealand": {
            "latitude": "-41.1069272",
            "closest_to": "",
            "address": "California Drive, Totara Park, Upper Hutt, Upper Hutt City, Wellington, 5371, New Zealand/Aotearoa",
            "locType": "tertiary",
            "blogLinks": [
                "http://www.mytravelguideposts.com/2010/07/places-to-visit-along-california-coast.html"
            ],
            "longitude": "175.0832904"
        },
        "union square": {
            "latitude": "37.78794125",
            "closest_to": "",
            "address": "Union Square, Post Street, Chinatown, SF, California, 94115, United States of America",
            "locType": "park",
            "blogLinks": [
                "https://www.gapyear.com/articles/216212/13-incredible-stops-on-the-pacific-coast-highway"
            ],
            "longitude": "-122.407502671706"
        },
        "westwood": {
            "latitude": "40.3024675",
            "closest_to": "",
            "address": "Westwood, 3rd Street, Westwood, Lassen County, California, United States of America",
            "locType": "administrative",
            "blogLinks": [
                "http://gocalifornia.about.com/od/calamenu/ss/Driving-Californias-Malibu-Coast.htm"
            ],
            "longitude": "-121.010399151458"
        },
        "marina state beach": {
            "latitude": "36.69077465",
            "closest_to": "",
            "address": "Marina State Beach, Cabrillo Highway, Marina, Monterey County, California, 93933, United States of America",
            "locType": "national_park",
            "blogLinks": [
                "http://traveltips.usatoday.com/beaches-pch-california-56995.html"
            ],
            "longitude": "-121.811368857576"
        },
        "lobero theatre": {
            "latitude": "34.4216681",
            "closest_to": "",
            "address": "Lobero Theatre, Anacapa Street, Santa Barbara, Santa Barbara County, California, 93105, United States of America",
            "locType": "theatre",
            "blogLinks": [
                "https://www.gapyear.com/articles/216212/13-incredible-stops-on-the-pacific-coast-highway"
            ],
            "longitude": "-119.700020768116"
        },
        "san miguel": {
            "latitude": "35.7524679",
            "closest_to": "",
            "address": "San Miguel, San Luis Obispo County, California, United States of America",
            "locType": "village",
            "blogLinks": [
                "http://thetravelersway.com/road-trip-the-pacific-coast-highway-in-california/"
            ],
            "longitude": "-120.6962825"
        },
        "santa barbara": {
            "latitude": "34.4221319",
            "closest_to": "",
            "address": "Santa Barbara, Santa Barbara County, California, United States of America",
            "locType": "city",
            "blogLinks": [
                "http://thetravelersway.com/road-trip-the-pacific-coast-highway-in-california/",
                "https://www.gapyear.com/articles/216212/13-incredible-stops-on-the-pacific-coast-highway",
                "http://traveltips.usatoday.com/beaches-pch-california-56995.html"
            ],
            "longitude": "-119.7026672"
        },
        "l.a.": {
            "latitude": "-13.8305494",
            "closest_to": "",
            "address": "California, Provincia Abel Iturralde, LPZ, Bolivia",
            "locType": "hamlet",
            "blogLinks": [
                "http://thetravelersway.com/road-trip-the-pacific-coast-highway-in-california/"
            ],
            "longitude": "-67.9369134"
        },
        "half moon bay": {
            "latitude": "37.4635519",
            "closest_to": "",
            "address": "Half Moon Bay, San Mateo County, California, United States of America",
            "locType": "city",
            "blogLinks": [
                "https://www.gapyear.com/articles/216212/13-incredible-stops-on-the-pacific-coast-highway"
            ],
            "longitude": "-122.4285861"
        },
        "us": {
            "latitude": "36.7014631",
            "closest_to": "",
            "address": "California, United States of America",
            "locType": "administrative",
            "blogLinks": [
                "https://www.expedia.com/Costa-Mesa-Hotels.d7674.Travel-Guide-Hotels",
                "https://www.expedia.com/Malibu-Hotels.d10217.Travel-Guide-Hotels",
                "http://www.mytravelguideposts.com/2010/07/places-to-visit-along-california-coast.html",
                "http://gocalifornia.about.com/od/calamenu/ss/Driving-Californias-Malibu-Coast.htm"
            ],
            "longitude": "-118.7559973"
        },
        "australia": {
            "latitude": "-32.6649999",
            "closest_to": "",
            "address": "California, Singleton, NSW, Australia",
            "locType": "hamlet",
            "blogLinks": [
                "http://www.mytravelguideposts.com/2010/07/places-to-visit-along-california-coast.html"
            ],
            "longitude": "150.9261111"
        },
        "mendocino": {
            "latitude": "39.3176491",
            "closest_to": "",
            "address": "Mendocino County, California, United States of America",
            "locType": "administrative",
            "blogLinks": [
                "http://traveltips.usatoday.com/beaches-pch-california-56995.html"
            ],
            "longitude": "-123.4126398"
        },
        "southern california california highway 1": {
            "latitude": "10.41122435",
            "closest_to": "",
            "address": "California Methodist Church, Southern Main Road, California, Trinidad and Tobago",
            "locType": "place_of_worship",
            "blogLinks": [
                "http://traveltips.usatoday.com/beaches-pch-california-56995.html"
            ],
            "longitude": "-61.4715844584486"
        },
        "pacifica state park": {
            "latitude": "37.60276185",
            "closest_to": "",
            "address": "Pacifica State Beach, Cabrillo Highway, Rockaway Beach, Pacifica, San Mateo County, California, 94044, United States of America",
            "locType": "beach",
            "blogLinks": [
                "http://traveltips.usatoday.com/beaches-pch-california-56995.html"
            ],
            "longitude": "-122.499415374146"
        },
        "san jose": {
            "latitude": "37.3361905",
            "closest_to": "",
            "address": "San Jos\u00e9, Santa Clara County, California, United States of America",
            "locType": "city",
            "blogLinks": [
                "https://www.gapyear.com/articles/216212/13-incredible-stops-on-the-pacific-coast-highway"
            ],
            "longitude": "-121.8905832"
        },
        "monterey": {
            "latitude": "36.5844165",
            "closest_to": "",
            "address": "Monterey, Monterey County, California, United States of America",
            "locType": "city",
            "blogLinks": [
                "http://thetravelersway.com/road-trip-the-pacific-coast-highway-in-california/",
                "https://www.gapyear.com/articles/216212/13-incredible-stops-on-the-pacific-coast-highway"
            ],
            "longitude": "-121.866792846206"
        },
        "pfeiffer beach": {
            "latitude": "36.23934855",
            "closest_to": "",
            "address": "Pfeiffer Beach, Sycamore Canyon Road, Big Sur, Monterey County, California, 93920, United States of America",
            "locType": "beach",
            "blogLinks": [
                "https://www.gapyear.com/articles/216212/13-incredible-stops-on-the-pacific-coast-highway"
            ],
            "longitude": "-121.81778571416"
        },
        "old town": {
            "latitude": "35.142943",
            "closest_to": "",
            "address": "Old Town, Golden Hills, Kern County, California, United States of America",
            "locType": "locality",
            "blogLinks": [
                "https://www.gapyear.com/articles/216212/13-incredible-stops-on-the-pacific-coast-highway"
            ],
            "longitude": "-118.4954422"
        },
        "united states of america": {
            "latitude": "36.7014631",
            "closest_to": "",
            "address": "California, United States of America",
            "locType": "administrative",
            "blogLinks": [
                "https://www.expedia.com/Costa-Mesa-Hotels.d7674.Travel-Guide-Hotels"
            ],
            "longitude": "-118.7559973"
        },
        "point sur state historic park": {
            "latitude": "36.315378",
            "closest_to": "",
            "address": "Point Sur State Historic Park, Cabrillo Highway, Big Sur, Monterey County, California, 93923, United States of America",
            "locType": "park",
            "blogLinks": [
                "https://www.gapyear.com/articles/216212/13-incredible-stops-on-the-pacific-coast-highway"
            ],
            "longitude": "-121.881955510784"
        },
        "las virgenes": {
            "latitude": "32.4444142",
            "closest_to": "",
            "address": "Las Virgenes, Fracc. Garcia, Tijuana, Baja California, 22125, M\u00e9xico",
            "locType": "residential",
            "blogLinks": [
                "http://gocalifornia.about.com/od/calamenu/ss/Driving-Californias-Malibu-Coast.htm"
            ],
            "longitude": "-116.9273026"
        },
        "california highway": {
            "latitude": "36.7014631",
            "closest_to": "",
            "address": "California, United States of America",
            "locType": "administrative",
            "blogLinks": [
                "http://www.mytravelguideposts.com/2010/07/places-to-visit-along-california-coast.html"
            ],
            "longitude": "-118.7559973"
        },
        "redwood forest": {
            "latitude": "37.4852152",
            "closest_to": "",
            "address": "Redwood City, San Mateo County, California, United States of America",
            "locType": "city",
            "blogLinks": [
                "http://traveltips.usatoday.com/beaches-pch-california-56995.html"
            ],
            "longitude": "-122.2363547"
        },
        "palos verdes drive": {
            "latitude": "37.5310595",
            "closest_to": "",
            "address": "Palos Verdes Drive, San Mateo, San Mateo County, California, 94403, United States of America",
            "locType": "residential",
            "blogLinks": [
                "https://www.tripadvisor.com/Travel-g28926-c174834/California:United-States:Coast.Highway.Route.From.La.To.San.Diego.html"
            ],
            "longitude": "-122.328956"
        },
        "carmel river state beach": {
            "latitude": "36.5315721",
            "closest_to": "",
            "address": "Carmel River State Beach, Cabrillo Highway, Carmel Highlands, Monterey County, California, 93923, United States of America",
            "locType": "national_park",
            "blogLinks": [
                "http://traveltips.usatoday.com/beaches-pch-california-56995.html"
            ],
            "longitude": "-121.918604967215"
        },
        "muir beach": {
            "latitude": "37.8621493",
            "closest_to": "",
            "address": "Muir Beach, Marin County, California, United States of America",
            "locType": "hamlet",
            "blogLinks": [
                "http://traveltips.usatoday.com/beaches-pch-california-56995.html"
            ],
            "longitude": "-122.5813666"
        },
        "amarillo": {
            "latitude": "10.7345746",
            "closest_to": "",
            "address": "california, Carretera Juan Rafael Mora Porras, Cure\u00f1a, Cant\u00f3n Sarapiqu\u00ed, Provincia Heredia, 41005, Costa Rica",
            "locType": "bar",
            "blogLinks": [
                "http://www.sunset.com/travel/california/things-to-do-malibu"
            ],
            "longitude": "-83.969532"
        },
        "u.s.": {
            "latitude": "-32.5446226",
            "closest_to": "",
            "address": "La California, Municipio de Las Rosas, Departamento Belgrano, Sta. Fe, Argentina",
            "locType": "hamlet",
            "blogLinks": [
                "http://www.mytravelguideposts.com/2010/07/places-to-visit-along-california-coast.html"
            ],
            "longitude": "-61.5489543"
        },
        "las vegas": {
            "latitude": "36.17310935",
            "closest_to": "",
            "address": "California Hotel, Sky Walk(Connection from Main Street to California, Cultural Corridor, Vegas Heights, Las Vegas, Clark County, Nevada, 89101, United States of America",
            "locType": "hotel",
            "blogLinks": [
                "http://www.mytravelguideposts.com/2010/07/places-to-visit-along-california-coast.html"
            ],
            "longitude": "-115.144667930325"
        },
        "humboldt redwoods state park": {
            "latitude": "40.376048",
            "closest_to": "",
            "address": "Humboldt Redwoods State Park, Englewood, Humboldt County, California, 95569, United States of America",
            "locType": "residential",
            "blogLinks": [
                "http://thetravelersway.com/road-trip-the-pacific-coast-highway-in-california/"
            ],
            "longitude": "-123.9263449"
        },
        "el matador": {
            "latitude": "36.8099274",
            "closest_to": "",
            "address": "El Matador, Burl Avenue, Clovis, Fresno County, California, 93611, United States of America",
            "locType": "restaurant",
            "blogLinks": [
                "http://www.travelchannel.com/interests/beaches/articles/top-10-southern-california-beaches",
                "http://www.sunset.com/travel/california/things-to-do-malibu"
            ],
            "longitude": "-119.6754762"
        },
        "pismo": {
            "latitude": "24.1378257",
            "closest_to": "",
            "address": "Pismo, La Paz, Baja California Sur, 23206, M\u00e9xico",
            "locType": "residential",
            "blogLinks": [
                "http://traveltips.usatoday.com/beaches-pch-california-56995.html"
            ],
            "longitude": "-110.3437034"
        },
        "pacific ocean": {
            "latitude": "36.16305775",
            "closest_to": "",
            "address": "Pacific Ocean, Cabrillo Highway, Monterey County, California, 93920, United States of America",
            "locType": "cliff",
            "blogLinks": [
                "http://www.mytravelguideposts.com/2010/07/places-to-visit-along-california-coast.html",
                "http://gocalifornia.about.com/od/calamenu/ss/Driving-Californias-Malibu-Coast.htm"
            ],
            "longitude": "-121.678715787326"
        },
        "big island": {
            "latitude": "38.57209805",
            "closest_to": "",
            "address": "Big Island, Napa County, California, United States of America",
            "locType": "island",
            "blogLinks": [
                "http://thetravelersway.com/road-trip-the-pacific-coast-highway-in-california/"
            ],
            "longitude": "-122.224473932105"
        },
        "san simeon": {
            "latitude": "35.6438587",
            "closest_to": "",
            "address": "San Simeon, San Luis Obispo County, California, United States of America",
            "locType": "hamlet",
            "blogLinks": [
                "https://www.gapyear.com/articles/216212/13-incredible-stops-on-the-pacific-coast-highway",
                "http://traveltips.usatoday.com/beaches-pch-california-56995.html"
            ],
            "longitude": "-121.1907532"
        },
        "lombard street": {
            "latitude": "37.802076",
            "closest_to": "",
            "address": "1079, Lombard Street, Russian Hill, SF, California, 94109, United States of America",
            "locType": "residential",
            "blogLinks": [
                "https://www.gapyear.com/articles/216212/13-incredible-stops-on-the-pacific-coast-highway"
            ],
            "longitude": "-122.418809"
        },
        "dominican republic": {
            "latitude": "18.4811331",
            "closest_to": "",
            "address": "Sederias California, Avenida Duarte, Mejoramiento Social, Don Bosco, Santo Domingo, Distrito Nacional, 10309, Rep\u00fablica Dominicana",
            "locType": "department_store",
            "blogLinks": [
                "http://thetravelersway.com/road-trip-the-pacific-coast-highway-in-california/"
            ],
            "longitude": "-69.8899664"
        },
        "united states": {
            "latitude": "36.7014631",
            "closest_to": "",
            "address": "California, United States of America",
            "locType": "administrative",
            "blogLinks": [
                "https://www.tripadvisor.com/Travel-g28926-c174834/California:United-States:Coast.Highway.Route.From.La.To.San.Diego.html",
                "http://www.mytravelguideposts.com/2010/07/places-to-visit-along-california-coast.html",
                "http://californiathroughmylens.com/dana-point-to-malibu-guide"
            ],
            "longitude": "-118.7559973"
        },
        "' channel islands national park": {
            "latitude": "34.248597",
            "closest_to": "",
            "address": "Channel Islands National Park, Spinnaker Drive, Ventura, Ventura County, California, 93006, United States of America",
            "locType": "national_park",
            "blogLinks": [
                "http://thetravelersway.com/road-trip-the-pacific-coast-highway-in-california/"
            ],
            "longitude": "-119.266377755078"
        },
        "newport": {
            "latitude": "39.5773839",
            "closest_to": "",
            "address": "Newport, Mendocino County, California, United States of America",
            "locType": "hamlet",
            "blogLinks": [
                "http://californiathroughmylens.com/dana-point-to-malibu-guide",
                "https://www.discovernewport.org/"
            ],
            "longitude": "-123.7747387"
        },
        "rincon beach county park": {
            "latitude": "34.37649375",
            "closest_to": "",
            "address": "Rincon Beach County Park, Via Real, Santa Barbara County, California, 93013, United States of America",
            "locType": "park",
            "blogLinks": [
                "http://traveltips.usatoday.com/beaches-pch-california-56995.html"
            ],
            "longitude": "-119.479815878183"
        },
        "asia": {
            "latitude": "37.7949149",
            "closest_to": "",
            "address": "Asia, 6th Avenue, San Antonio, Oakland, Alameda County, California, 94606, United States of America",
            "locType": "restaurant",
            "blogLinks": [
                "http://www.mytravelguideposts.com/2010/07/places-to-visit-along-california-coast.html"
            ],
            "longitude": "-122.2533348"
        },
        "north beach": {
            "latitude": "37.8011749",
            "closest_to": "",
            "address": "North Beach, SF, California, 94133, United States of America",
            "locType": "neighbourhood",
            "blogLinks": [
                "http://www.travelchannel.com/interests/beaches/articles/top-10-southern-california-beaches"
            ],
            "longitude": "-122.409002"
        },
        "pacifica": {
            "latitude": "37.6138253",
            "closest_to": "",
            "address": "Pacifica, San Mateo County, California, United States of America",
            "locType": "city",
            "blogLinks": [
                "http://thetravelersway.com/road-trip-the-pacific-coast-highway-in-california/"
            ],
            "longitude": "-122.4869193"
        },
        "pismo beach": {
            "latitude": "35.1427533",
            "closest_to": "",
            "address": "Pismo Beach, San Luis Obispo County, California, United States of America",
            "locType": "city",
            "blogLinks": [
                "https://www.gapyear.com/articles/216212/13-incredible-stops-on-the-pacific-coast-highway"
            ],
            "longitude": "-120.6412826"
        },
        "california highway 1": {
            "latitude": "37.7931799",
            "closest_to": "",
            "address": "One California Street Building, 1, California Street, Financial District, SF, California, 94121, United States of America",
            "locType": "yes",
            "blogLinks": [
                "http://www.mytravelguideposts.com/2010/07/places-to-visit-along-california-coast.html"
            ],
            "longitude": "-122.397168822203"
        },
        "cuba": {
            "latitude": "35.9513438",
            "closest_to": "",
            "address": "La Cuba, Kings County, California, United States of America",
            "locType": "peak",
            "blogLinks": [
                "http://www.mytravelguideposts.com/2010/07/places-to-visit-along-california-coast.html"
            ],
            "longitude": "-119.9804117"
        },
        "w. channel islands blvd": {
            "latitude": "34.1757846",
            "closest_to": "",
            "address": "West Channel Islands Boulevard, Oxnard, Ventura County, California, 93035, United States of America",
            "locType": "secondary",
            "blogLinks": [
                "http://gocalifornia.about.com/od/calamenu/ss/Driving-Californias-Malibu-Coast.htm"
            ],
            "longitude": "-119.2225172"
        },
        "ventura": {
            "latitude": "34.4458248",
            "closest_to": "",
            "address": "Ventura County, California, United States of America",
            "locType": "administrative",
            "blogLinks": [
                "http://thetravelersway.com/road-trip-the-pacific-coast-highway-in-california/",
                "https://www.gapyear.com/articles/216212/13-incredible-stops-on-the-pacific-coast-highway",
                "http://traveltips.usatoday.com/beaches-pch-california-56995.html",
                "http://gocalifornia.about.com/od/calamenu/ss/Driving-Californias-Malibu-Coast.htm"
            ],
            "longitude": "-119.0779358"
        },
        "palomar": {
            "latitude": "23.48019285",
            "closest_to": "",
            "address": "Palomar, Calzada Maestros Misioneros de 1930, Santiago, Los Cabos, Baja California Sur, M\u00e9xico",
            "locType": "hotel",
            "blogLinks": [
                "https://www.gapyear.com/articles/216212/13-incredible-stops-on-the-pacific-coast-highway"
            ],
            "longitude": "-109.715262801301"
        },
        "ritz-carlton": {
            "latitude": "37.791867",
            "closest_to": "",
            "address": "Ritz-Carlton, 600, Stockton Street, Chinatown, SF, California, 94108, United States of America",
            "locType": "hotel",
            "blogLinks": [
                "https://www.expedia.com/Costa-Mesa-Hotels.d7674.Travel-Guide-Hotels"
            ],
            "longitude": "-122.406834213408"
        },
        "california": {
            "latitude": "7.3480915",
            "closest_to": "",
            "address": "California, Santander, Colombia",
            "locType": "village",
            "blogLinks": [
                "https://www.gapyear.com/articles/216212/13-incredible-stops-on-the-pacific-coast-highway",
                "http://www.visitnewportbeach.com/",
                "http://www.mytravelguideposts.com/2010/07/places-to-visit-along-california-coast.html",
                "http://californiathroughmylens.com/dana-point-to-malibu-guide",
                "http://www.sunset.com/travel/california/things-to-do-malibu",
                "http://gocalifornia.about.com/od/calamenu/ss/Driving-Californias-Malibu-Coast.htm",
                "http://thetravelersway.com/road-trip-the-pacific-coast-highway-in-california/",
                "http://www.travelchannel.com/interests/beaches/articles/top-10-southern-california-beaches",
                "http://traveltips.usatoday.com/beaches-pch-california-56995.html",
                "https://www.expedia.com/Malibu-Hotels.d10217.Travel-Guide-Hotels"
            ],
            "longitude": "-72.945787"
        },
        "havana": {
            "latitude": "37.8999481",
            "closest_to": "",
            "address": "Havana, 1516, Bonanza Street, Walnut Creek, Contra Costa County, California, 94596, United States of America",
            "locType": "restaurant",
            "blogLinks": [
                "http://www.mytravelguideposts.com/2010/07/places-to-visit-along-california-coast.html"
            ],
            "longitude": "-122.0615613"
        },
        "cayucos state beach": {
            "latitude": "35.4469453",
            "closest_to": "",
            "address": "Cayucos State Beach, E Street, Cayucos, San Luis Obispo County, California, 93430, United States of America",
            "locType": "nature_reserve",
            "blogLinks": [
                "http://traveltips.usatoday.com/beaches-pch-california-56995.html"
            ],
            "longitude": "-120.903074123006"
        },
        "huntington": {
            "latitude": "38.77704615",
            "closest_to": "",
            "address": "Huntington, Roseville, Placer County, California, 95678, United States of America",
            "locType": "residential",
            "blogLinks": [
                "http://californiathroughmylens.com/dana-point-to-malibu-guide"
            ],
            "longitude": "-121.295904358288"
        },
        "america": {
            "latitude": "36.2573198",
            "closest_to": "",
            "address": "America, Kings County, California, 93246, United States of America",
            "locType": "residential",
            "blogLinks": [
                "http://traveltips.usatoday.com/beaches-pch-california-56995.html",
                "https://www.discovernewport.org/"
            ],
            "longitude": "-119.8948706"
        },
        "santa barbara botanic garden": {
            "latitude": "34.456953",
            "closest_to": "",
            "address": "Santa Barbara Botanic Gardens, Mission Canyon Road, Mission Canyon, Santa Barbara County, California, 93105, United States of America",
            "locType": "park",
            "blogLinks": [
                "https://www.gapyear.com/articles/216212/13-incredible-stops-on-the-pacific-coast-highway"
            ],
            "longitude": "-119.709585108231"
        },
        "laguna": {
            "latitude": "38.4210209",
            "closest_to": "",
            "address": "Laguna, Sacramento County, California, United States of America",
            "locType": "hamlet",
            "blogLinks": [
                "http://www.travelchannel.com/interests/beaches/articles/top-10-southern-california-beaches"
            ],
            "longitude": "-121.4238413"
        },
        "san francisco": {
            "latitude": "37.7792808",
            "closest_to": "",
            "address": "SF, California, United States of America",
            "locType": "city",
            "blogLinks": [
                "http://thetravelersway.com/road-trip-the-pacific-coast-highway-in-california/",
                "http://www.mytravelguideposts.com/2010/07/places-to-visit-along-california-coast.html",
                "https://www.gapyear.com/articles/216212/13-incredible-stops-on-the-pacific-coast-highway"
            ],
            "longitude": "-122.4192362"
        },
        "baker beach": {
            "latitude": "37.7931092",
            "closest_to": "",
            "address": "Baker Beach, Coastal Trail, Seacliff, SF, California, 94121, United States of America",
            "locType": "beach",
            "blogLinks": [
                "http://thetravelersway.com/road-trip-the-pacific-coast-highway-in-california/"
            ],
            "longitude": "-122.483842091428"
        }
    },
    "newport beach": {
        "type": "city",
        "osm_id": "112956",
        "class": "place",
        "importance": 0.75631325724067,
        "lat": "33.6170092",
        "lon": "-117.92944",
        "boundingbox": [
            "33.5348773",
            "33.6717531",
            "-117.9959276",
            "-117.7839003"
        ],
        "display_name": "Newport Beach, Orange County, California, United States of America",
        "licence": "Data \u00a9 OpenStreetMap contributors, ODbL 1.0. http://www.openstreetmap.org/copyright",
        "icon": "https://nominatim.openstreetmap.org/images/mapicons/poi_place_city.p.20.png",
        "place_id": "157952615",
        "osm_type": "relation"
    }
}