{
    "pismo beach": {
        "type": "city",
        "osm_id": "5192509",
        "class": "place",
        "importance": 0.62191850354092,
        "lat": "35.1427533",
        "lon": "-120.6412826",
        "boundingbox": [
            "35.114429",
            "35.180996",
            "-120.7144169",
            "-120.6045662"
        ],
        "display_name": "Pismo Beach, San Luis Obispo County, California, United States of America",
        "licence": "Data \u00a9 OpenStreetMap contributors, ODbL 1.0. http://www.openstreetmap.org/copyright",
        "icon": "https://nominatim.openstreetmap.org/images/mapicons/poi_place_city.p.20.png",
        "place_id": "159817717",
        "osm_type": "relation"
    },
    "mammoth lakes": {
        "type": "administrative",
        "osm_id": "33114461",
        "class": "boundary",
        "importance": 0.67062928815144,
        "lat": "37.6432525",
        "lon": "-118.9668508",
        "boundingbox": [
            "37.580115",
            "37.659467",
            "-119.0613999",
            "-118.9370119"
        ],
        "display_name": "Mammoth Lakes, Mono County, California, United States of America",
        "licence": "Data \u00a9 OpenStreetMap contributors, ODbL 1.0. http://www.openstreetmap.org/copyright",
        "icon": "https://nominatim.openstreetmap.org/images/mapicons/poi_boundary_administrative.p.20.png",
        "place_id": "73282228",
        "osm_type": "way"
    },
    "mentions": {
        "lassen national park": {
            "latitude": "40.49138385",
            "closest_to": "",
            "address": "Lassen Volcanic National Park, Lassen Peak Highway, Shasta County, California, United States of America",
            "locType": "national_park",
            "blogLinks": [
                "https://www.quora.com/What-are-some-towns-I-should-stop-in-sights-to-see-and-activities-to-do-on-a-central-to-northern-California-road-trip"
            ],
            "longitude": "-121.404335848657"
        },
        "highway 101": {
            "latitude": "32.9967358",
            "closest_to": "",
            "address": "Highway 101, Solana Beach, San Diego County, California, 92075, United States of America",
            "locType": "primary",
            "blogLinks": [
                "https://www.quora.com/What-are-some-towns-I-should-stop-in-sights-to-see-and-activities-to-do-on-a-central-to-northern-California-road-trip"
            ],
            "longitude": "-117.2731974"
        },
        "gualala": {
            "latitude": "38.7674439",
            "closest_to": "",
            "address": "Gualala, Mendocino County, California, United States of America",
            "locType": "hamlet",
            "blogLinks": [
                "https://www.quora.com/What-are-some-towns-I-should-stop-in-sights-to-see-and-activities-to-do-on-a-central-to-northern-California-road-trip"
            ],
            "longitude": "-123.529828"
        },
        "golden state": {
            "latitude": "39.6712719",
            "closest_to": "",
            "address": "Golden State Island, Butte County, California, United States of America",
            "locType": "island",
            "blogLinks": [
                "http://www.familyvacationcritic.com/california-family-vacations/rfv/?eng=FVCSEM&kw=_cat:familyvacationcritic.com"
            ],
            "longitude": "-121.9619226"
        },
        "st. helena": {
            "latitude": "38.5052288",
            "closest_to": "",
            "address": "St. Helena, Napa County, California, United States of America",
            "locType": "city",
            "blogLinks": [
                "https://www.quora.com/What-are-some-towns-I-should-stop-in-sights-to-see-and-activities-to-do-on-a-central-to-northern-California-road-trip"
            ],
            "longitude": "-122.4700423"
        },
        "willits": {
            "latitude": "39.4096043",
            "closest_to": "",
            "address": "Willits, Mendocino County, California, United States of America",
            "locType": "city",
            "blogLinks": [
                "https://www.quora.com/What-are-some-towns-I-should-stop-in-sights-to-see-and-activities-to-do-on-a-central-to-northern-California-road-trip"
            ],
            "longitude": "-123.3555601"
        },
        "northern california": {
            "latitude": "32.7349196",
            "closest_to": "",
            "address": "Northern Frontier, San Diego, San Diego County, California, United States of America",
            "locType": "locality",
            "blogLinks": [
                "http://www.sunset.com/travel/california/best-campgrounds-california",
                "https://www.quora.com/What-are-some-towns-I-should-stop-in-sights-to-see-and-activities-to-do-on-a-central-to-northern-California-road-trip"
            ],
            "longitude": "-117.1545973"
        },
        "south carolina": {
            "latitude": "33.195532",
            "closest_to": "",
            "address": "California Branch, Moncks Corner, Berkeley County, South Carolina, United States of America",
            "locType": "stream",
            "blogLinks": [
                "http://www.parks.ca.gov/default.asp?page_id=595"
            ],
            "longitude": "-80.0313539"
        },
        "legoland california": {
            "latitude": "33.1278683",
            "closest_to": "",
            "address": "Legoland California, 1, LEGOLAND drive, Carlsbad, San Diego County, California, 92008, United States of America",
            "locType": "theme_park",
            "blogLinks": [
                "http://www.familyvacationcritic.com/california-family-vacations/rfv/?eng=FVCSEM&kw=_cat:familyvacationcritic.com"
            ],
            "longitude": "-117.311664211922"
        },
        "ridge crest": {
            "latitude": "32.8072739",
            "closest_to": "",
            "address": "Crest, San Diego County, California, United States of America",
            "locType": "hamlet",
            "blogLinks": [
                "https://www.quora.com/What-are-some-towns-I-should-stop-in-sights-to-see-and-activities-to-do-on-a-central-to-northern-California-road-trip"
            ],
            "longitude": "-116.8680799"
        },
        "mendocino": {
            "latitude": "39.3176491",
            "closest_to": "",
            "address": "Mendocino County, California, United States of America",
            "locType": "administrative",
            "blogLinks": [
                "http://www.sunset.com/travel/california/best-campgrounds-california",
                "https://www.quora.com/What-are-some-towns-I-should-stop-in-sights-to-see-and-activities-to-do-on-a-central-to-northern-California-road-trip"
            ],
            "longitude": "-123.4126398"
        },
        "redwoods state park": {
            "latitude": "41.40951025",
            "closest_to": "",
            "address": "Prairie Creek Redwoods State Park, West Ridge Trail, Humboldt County, California, United States of America",
            "locType": "national_park",
            "blogLinks": [
                "http://www.sunset.com/travel/california/best-campgrounds-california"
            ],
            "longitude": "-124.036052276854"
        },
        "sierra nevada range": {
            "latitude": "33.9545792",
            "closest_to": "",
            "address": "Via Sierra Nevada, Riverside, Riverside County, California, 92507, United States of America",
            "locType": "residential",
            "blogLinks": [
                "http://www.mammothmountain.com/winter/plan-a-vacation/plan-a-vacation/getting-here"
            ],
            "longitude": "-117.3273329"
        },
        "eureka": {
            "latitude": "40.8020712",
            "closest_to": "",
            "address": "Eureka, Humboldt County, California, United States of America",
            "locType": "city",
            "blogLinks": [
                "https://www.quora.com/What-are-some-towns-I-should-stop-in-sights-to-see-and-activities-to-do-on-a-central-to-northern-California-road-trip"
            ],
            "longitude": "-124.1636728"
        },
        "geyserville": {
            "latitude": "38.707687",
            "closest_to": "",
            "address": "Geyserville, Sonoma County, California, United States of America",
            "locType": "hamlet",
            "blogLinks": [
                "http://www.tripleblaze.com/best/?c=59"
            ],
            "longitude": "-122.9024963"
        },
        "kingsbury grade": {
            "latitude": "40.021386",
            "closest_to": "",
            "address": "Kingsbury Grade, Twain, Plumas County, California, 95984, United States of America",
            "locType": "residential",
            "blogLinks": [
                "http://www.mammothmountain.com/winter/plan-a-vacation/plan-a-vacation/getting-here"
            ],
            "longitude": "-121.0740149"
        },
        "dunsmuir": {
            "latitude": "41.2082089",
            "closest_to": "",
            "address": "Dunsmuir, Siskiyou County, California, United States of America",
            "locType": "city",
            "blogLinks": [
                "https://www.quora.com/What-are-some-towns-I-should-stop-in-sights-to-see-and-activities-to-do-on-a-central-to-northern-California-road-trip"
            ],
            "longitude": "-122.2719528"
        },
        "south carlsbad": {
            "latitude": "33.1580933",
            "closest_to": "",
            "address": "Carlsbad, San Diego County, California, United States of America",
            "locType": "city",
            "blogLinks": [
                "http://www.tripleblaze.com/best/?c=59"
            ],
            "longitude": "-117.3505938"
        },
        "chico": {
            "latitude": "39.7284945",
            "closest_to": "",
            "address": "Chico, Butte County, California, United States of America",
            "locType": "city",
            "blogLinks": [
                "https://www.quora.com/What-are-some-towns-I-should-stop-in-sights-to-see-and-activities-to-do-on-a-central-to-northern-California-road-trip"
            ],
            "longitude": "-121.8374776"
        },
        "seattle": {
            "latitude": "41.9641881",
            "closest_to": "",
            "address": "Seattle, Dorris, Siskiyou County, California, 96023, United States of America",
            "locType": "residential",
            "blogLinks": [
                "https://www.quora.com/What-are-some-towns-I-should-stop-in-sights-to-see-and-activities-to-do-on-a-central-to-northern-California-road-trip"
            ],
            "longitude": "-121.9226289"
        },
        "napa valley": {
            "latitude": "39.0234679",
            "closest_to": "",
            "address": "Napa Valley, Cold Spring, Campbell County, Kentucky, 41076, United States of America",
            "locType": "residential",
            "blogLinks": [
                "https://www.tripadvisor.com/ShowTopic-g28926-i29-k8584321-Beautiful_places_in_California_to_visit-California.html",
                "https://www.quora.com/What-are-some-towns-I-should-stop-in-sights-to-see-and-activities-to-do-on-a-central-to-northern-California-road-trip"
            ],
            "longitude": "-84.4504647"
        },
        "bolinas": {
            "latitude": "37.9093702",
            "closest_to": "",
            "address": "Bolinas, Marin County, California, United States of America",
            "locType": "hamlet",
            "blogLinks": [
                "https://www.quora.com/What-are-some-towns-I-should-stop-in-sights-to-see-and-activities-to-do-on-a-central-to-northern-California-road-trip"
            ],
            "longitude": "-122.6863732"
        },
        "san diego": {
            "latitude": "32.7174209",
            "closest_to": "",
            "address": "San Diego, San Diego County, California, United States of America",
            "locType": "city",
            "blogLinks": [
                "https://www.quora.com/What-are-some-towns-I-should-stop-in-sights-to-see-and-activities-to-do-on-a-central-to-northern-California-road-trip"
            ],
            "longitude": "-117.1627713"
        },
        "sonoma": {
            "latitude": "38.5110803",
            "closest_to": "",
            "address": "Sonoma County, California, United States of America",
            "locType": "administrative",
            "blogLinks": [
                "http://www.tripleblaze.com/best/?c=59",
                "https://www.quora.com/What-are-some-towns-I-should-stop-in-sights-to-see-and-activities-to-do-on-a-central-to-northern-California-road-trip"
            ],
            "longitude": "-122.8473387"
        },
        "point arena": {
            "latitude": "38.908798",
            "closest_to": "",
            "address": "Point Arena, Mendocino County, California, United States of America",
            "locType": "city",
            "blogLinks": [
                "https://www.quora.com/What-are-some-towns-I-should-stop-in-sights-to-see-and-activities-to-do-on-a-central-to-northern-California-road-trip"
            ],
            "longitude": "-123.6930725"
        },
        "u.s.": {
            "latitude": "-32.5446226",
            "closest_to": "",
            "address": "La California, Municipio de Las Rosas, Departamento Belgrano, Sta. Fe, Argentina",
            "locType": "hamlet",
            "blogLinks": [
                "http://www.familyvacationcritic.com/california-family-vacations/rfv/?eng=FVCSEM&kw=_cat:familyvacationcritic.com",
                "http://www.parks.ca.gov/default.asp?page_id=595"
            ],
            "longitude": "-61.5489543"
        },
        "susanville": {
            "latitude": "40.4162842",
            "closest_to": "",
            "address": "Susanville, Lassen County, California, United States of America",
            "locType": "city",
            "blogLinks": [
                "https://www.quora.com/What-are-some-towns-I-should-stop-in-sights-to-see-and-activities-to-do-on-a-central-to-northern-California-road-trip"
            ],
            "longitude": "-120.6530062"
        },
        "san elijo": {
            "latitude": "33.0228",
            "closest_to": "",
            "address": "San Elijo, Olivenhain, San Diego County, California, 92091, United States of America",
            "locType": "residential",
            "blogLinks": [
                "http://www.tripleblaze.com/best/?c=59"
            ],
            "longitude": "-117.2283709"
        },
        "pismo": {
            "latitude": "24.1378257",
            "closest_to": "",
            "address": "Pismo, La Paz, Baja California Sur, 23206, M\u00e9xico",
            "locType": "residential",
            "blogLinks": [
                "http://www.parks.ca.gov/default.asp?page_id=595"
            ],
            "longitude": "-110.3437034"
        },
        "butte county": {
            "latitude": "39.6519275",
            "closest_to": "",
            "address": "Butte County, California, United States of America",
            "locType": "administrative",
            "blogLinks": [
                "https://www.quora.com/What-are-some-towns-I-should-stop-in-sights-to-see-and-activities-to-do-on-a-central-to-northern-California-road-trip"
            ],
            "longitude": "-121.5858443"
        },
        "yreka": {
            "latitude": "41.7326157",
            "closest_to": "",
            "address": "Yreka, Siskiyou County, California, United States of America",
            "locType": "city",
            "blogLinks": [
                "https://www.quora.com/What-are-some-towns-I-should-stop-in-sights-to-see-and-activities-to-do-on-a-central-to-northern-California-road-trip"
            ],
            "longitude": "-122.6377654"
        },
        "smith river": {
            "latitude": "41.9281678",
            "closest_to": "",
            "address": "Smith River, Del Norte County, California, United States of America",
            "locType": "hamlet",
            "blogLinks": [
                "http://www.sunset.com/travel/california/best-campgrounds-california"
            ],
            "longitude": "-124.1470273"
        },
        "australia": {
            "latitude": "-32.6649999",
            "closest_to": "",
            "address": "California, Singleton, NSW, Australia",
            "locType": "hamlet",
            "blogLinks": [
                "https://www.quora.com/What-are-some-towns-I-should-stop-in-sights-to-see-and-activities-to-do-on-a-central-to-northern-California-road-trip"
            ],
            "longitude": "150.9261111"
        },
        "gulch state park": {
            "latitude": "39.3271285",
            "closest_to": "",
            "address": "Russian Gulch State Park, South Trail, Mendocino, Mendocino County, California, 95460, United States of America",
            "locType": "park",
            "blogLinks": [
                "http://www.sunset.com/travel/california/best-campgrounds-california"
            ],
            "longitude": "-123.806013867765"
        },
        "russian river": {
            "latitude": "38.4825985",
            "closest_to": "",
            "address": "Russian River, Sonoma County, California, United States of America",
            "locType": "river",
            "blogLinks": [
                "https://www.quora.com/What-are-some-towns-I-should-stop-in-sights-to-see-and-activities-to-do-on-a-central-to-northern-California-road-trip"
            ],
            "longitude": "-123.0082118"
        },
        "ferndale": {
            "latitude": "40.5762406",
            "closest_to": "",
            "address": "Ferndale, Humboldt County, California, United States of America",
            "locType": "city",
            "blogLinks": [
                "https://www.quora.com/What-are-some-towns-I-should-stop-in-sights-to-see-and-activities-to-do-on-a-central-to-northern-California-road-trip"
            ],
            "longitude": "-124.2639441"
        },
        "roraima": {
            "latitude": "3.60107",
            "closest_to": "",
            "address": "California, Microrregi\u00e3o de Boa Vista, Mesorregi\u00e3o Norte de Roraima, RR, Regi\u00e3o Norte, Brasil",
            "locType": "hamlet",
            "blogLinks": [
                "https://www.quora.com/What-are-some-towns-I-should-stop-in-sights-to-see-and-activities-to-do-on-a-central-to-northern-California-road-trip"
            ],
            "longitude": "-61.5606166"
        },
        "brazil": {
            "latitude": "-23.6672542",
            "closest_to": "",
            "address": "Calif\u00f3rnia, Microrregi\u00e3o Arapucana, Mesorregi\u00e3o Norte Central Paranaense, PR, Regi\u00e3o Sul, Brasil",
            "locType": "administrative",
            "blogLinks": [
                "http://www.tripleblaze.com/best/?c=59",
                "https://www.quora.com/What-are-some-towns-I-should-stop-in-sights-to-see-and-activities-to-do-on-a-central-to-northern-California-road-trip"
            ],
            "longitude": "-51.3554555"
        },
        "ft. bragg": {
            "latitude": "39.4447345",
            "closest_to": "",
            "address": "Fort Bragg, Mendocino County, California, United States of America",
            "locType": "city",
            "blogLinks": [
                "https://www.quora.com/What-are-some-towns-I-should-stop-in-sights-to-see-and-activities-to-do-on-a-central-to-northern-California-road-trip"
            ],
            "longitude": "-123.802699105743"
        },
        "santa": {
            "latitude": "22.4804035",
            "closest_to": "",
            "address": "California, Santa Isabel de las Lajas, Cienfuegos, Cuba",
            "locType": "hamlet",
            "blogLinks": [
                "http://www.coastalliving.com/lifestyle/dream-towns-in-california",
                "https://www.quora.com/What-are-some-towns-I-should-stop-in-sights-to-see-and-activities-to-do-on-a-central-to-northern-California-road-trip"
            ],
            "longitude": "-80.3796642"
        },
        "greece": {
            "latitude": "43.222537",
            "closest_to": "",
            "address": "California Drive, Greece Town, Monroe County, New York, 14616, United States of America",
            "locType": "residential",
            "blogLinks": [
                "https://www.quora.com/What-are-some-towns-I-should-stop-in-sights-to-see-and-activities-to-do-on-a-central-to-northern-California-road-trip"
            ],
            "longitude": "-77.6362609"
        },
        "eel river": {
            "latitude": "39.8321893",
            "closest_to": "",
            "address": "Eel River, Mendocino County, California, United States of America",
            "locType": "river",
            "blogLinks": [
                "https://www.quora.com/What-are-some-towns-I-should-stop-in-sights-to-see-and-activities-to-do-on-a-central-to-northern-California-road-trip"
            ],
            "longitude": "-123.4171214"
        },
        "air museum": {
            "latitude": "32.72624805",
            "closest_to": "",
            "address": "San Diego Air & Space Museum, Pan American Plaza, Hillcrest, San Diego, San Diego County, California, 92101, United States of America",
            "locType": "museum",
            "blogLinks": [
                "https://www.quora.com/What-are-some-towns-I-should-stop-in-sights-to-see-and-activities-to-do-on-a-central-to-northern-California-road-trip"
            ],
            "longitude": "-117.154373558605"
        },
        "sebastopol": {
            "latitude": "38.4021359",
            "closest_to": "",
            "address": "Sebastopol, Sonoma County, California, United States of America",
            "locType": "city",
            "blogLinks": [
                "https://www.quora.com/What-are-some-towns-I-should-stop-in-sights-to-see-and-activities-to-do-on-a-central-to-northern-California-road-trip"
            ],
            "longitude": "-122.8238805"
        },
        "croatia": {
            "latitude": "45.4955091",
            "closest_to": "",
            "address": "California, Ravna Dolina, Grad Umag, Istarska \u017eupanija, 524785, Hrvatska",
            "locType": "camp_site",
            "blogLinks": [
                "https://www.quora.com/What-are-some-towns-I-should-stop-in-sights-to-see-and-activities-to-do-on-a-central-to-northern-California-road-trip"
            ],
            "longitude": "13.500736"
        },
        "tamales bay": {
            "latitude": "32.7992103",
            "closest_to": "",
            "address": "Tamales Ancira, Garnet Avenue, Pacific Beach, San Diego, San Diego County, California, 92109, United States of America",
            "locType": "restaurant",
            "blogLinks": [
                "https://www.quora.com/What-are-some-towns-I-should-stop-in-sights-to-see-and-activities-to-do-on-a-central-to-northern-California-road-trip"
            ],
            "longitude": "-117.2442142"
        },
        "redwood": {
            "latitude": "33.45713595",
            "closest_to": "",
            "address": "Redwood, Wolf Creek, Temecula, Riverside County, California, 92592, United States of America",
            "locType": "residential",
            "blogLinks": [
                "https://www.quora.com/What-are-some-towns-I-should-stop-in-sights-to-see-and-activities-to-do-on-a-central-to-northern-California-road-trip"
            ],
            "longitude": "-117.094843184352"
        },
        "california": {
            "latitude": "7.3480915",
            "closest_to": "",
            "address": "California, Santander, Colombia",
            "locType": "village",
            "blogLinks": [
                "https://www.tripadvisor.com/ShowTopic-g28926-i29-k8584321-Beautiful_places_in_California_to_visit-California.html",
                "http://www.triphobo.com/places/mammoth-lakes-united-states",
                "https://www.quora.com/What-are-some-towns-I-should-stop-in-sights-to-see-and-activities-to-do-on-a-central-to-northern-California-road-trip",
                "http://www.mammothmountain.com/winter/plan-a-vacation/plan-a-vacation/getting-here",
                "http://www.visitmammoth.com/adventures",
                "https://www.pinterest.com/loliver54/california-dreamin/",
                "http://www.familyvacationcritic.com/california-family-vacations/rfv/?eng=FVCSEM&kw=_cat:familyvacationcritic.com",
                "http://www.coastalliving.com/lifestyle/dream-towns-in-california"
            ],
            "longitude": "-72.945787"
        },
        "reno": {
            "latitude": "50.9590814",
            "closest_to": "",
            "address": "California, Lassallestra\u00dfe, M\u00fclheim, K\u00f6ln, Regierungsbezirk K\u00f6ln, Nordrhein-Westfalen, 50667-51149, Deutschland",
            "locType": "beauty",
            "blogLinks": [
                "https://www.quora.com/What-are-some-towns-I-should-stop-in-sights-to-see-and-activities-to-do-on-a-central-to-northern-California-road-trip"
            ],
            "longitude": "7.009217"
        },
        "united kingdom": {
            "latitude": "52.4422729",
            "closest_to": "",
            "address": "California, Birmingham, West Midlands, England, UK",
            "locType": "village",
            "blogLinks": [
                "http://www.visitmammoth.com/"
            ],
            "longitude": "-1.9796882"
        },
        "new mexico": {
            "latitude": "32.2644096",
            "closest_to": "",
            "address": "California Lateral, Mesilla, Do\u00f1a Ana County, New Mexico, United States of America",
            "locType": "drain",
            "blogLinks": [
                "https://www.quora.com/What-are-some-towns-I-should-stop-in-sights-to-see-and-activities-to-do-on-a-central-to-northern-California-road-trip"
            ],
            "longitude": "-106.8036705"
        },
        "palm springs": {
            "latitude": "33.8246269",
            "closest_to": "",
            "address": "Palm Springs, Riverside County, California, United States of America",
            "locType": "city",
            "blogLinks": [
                "http://www.familyvacationcritic.com/california-family-vacations/rfv/?eng=FVCSEM&kw=_cat:familyvacationcritic.com"
            ],
            "longitude": "-116.5403029"
        },
        "boulder creek": {
            "latitude": "32.9726949",
            "closest_to": "",
            "address": "Boulder Creek, San Diego County, California, United States of America",
            "locType": "river",
            "blogLinks": [
                "http://www.sunset.com/travel/california/best-campgrounds-california"
            ],
            "longitude": "-116.6881243"
        },
        "calistoga": {
            "latitude": "38.582615",
            "closest_to": "",
            "address": "Calistoga, Napa County, California, United States of America",
            "locType": "city",
            "blogLinks": [
                "https://www.quora.com/What-are-some-towns-I-should-stop-in-sights-to-see-and-activities-to-do-on-a-central-to-northern-California-road-trip"
            ],
            "longitude": "-122.583325948608"
        },
        "klamath": {
            "latitude": "41.533995",
            "closest_to": "",
            "address": "Klamath, Klamath Glen Road, Klamath Glen, Del Norte County, California, 95548, United States of America",
            "locType": "administrative",
            "blogLinks": [
                "https://www.quora.com/What-are-some-towns-I-should-stop-in-sights-to-see-and-activities-to-do-on-a-central-to-northern-California-road-trip"
            ],
            "longitude": "-124.015565064009"
        }
    }
}