{
    "mentions": {
        "highway 101": {
            "latitude": "32.9967358",
            "closest_to": "",
            "address": "Highway 101, Solana Beach, San Diego County, California, 92075, United States of America",
            "locType": "primary",
            "blogLinks": [
                "https://www.orbitz.com/blog/2010/02/california-vacation-monterey-paso-robles-wine-country/"
            ],
            "longitude": "-117.2731974"
        },
        "boardwalk": {
            "latitude": "33.8445048",
            "closest_to": "",
            "address": "Boardwalk, Buena Park, Orange County, California, United States of America",
            "locType": "locality",
            "blogLinks": [
                "https://www.tripadvisor.com/ShowTopic-g32737-i159-k5455416-Santa_Cruz_vs_Monterrey_Carmel_First_Timer_Please_help-Monterey_Monterey_Peninsula_California.html"
            ],
            "longitude": "-118.001737090472"
        },
        "golden gate bridge": {
            "latitude": "37.8302809",
            "closest_to": "",
            "address": "Golden Gate Bridge, Waldo, Marin County, California, 94965, United States of America",
            "locType": "motorway",
            "blogLinks": [
                "http://fathomaway.com/guides/usa/san-francisco/itineraries/road-trip-san-francisco-to-monterey-california/",
                "http://www.sftravel.com/article/road-trip-itinerary-san-francisco-monterey"
            ],
            "longitude": "-122.4798473"
        },
        "california state park": {
            "latitude": "33.895296",
            "closest_to": "",
            "address": "California Citrus State Historic Park, Van Buren Boulevard, Riverside, Riverside County, California, 92504, United States of America",
            "locType": "park",
            "blogLinks": [
                "http://koa.com/campgrounds/santa-cruz/local-area/attractions/"
            ],
            "longitude": "-117.420521298137"
        },
        "casanova": {
            "latitude": "22.882224",
            "closest_to": "",
            "address": "Casanova, Calle Miguel Hidalgo, Cabo San Lucas, Los Cabos, Baja California Sur, 23543, M\u00e9xico",
            "locType": "jewelry",
            "blogLinks": [
                "http://www.forbestravelguide.com/monterey-carmel-big-sur-california#!"
            ],
            "longitude": "-109.9136515"
        },
        "cypress grove": {
            "latitude": "38.1657542",
            "closest_to": "",
            "address": "Cypress Grove, Marin County, California, United States of America",
            "locType": "hamlet",
            "blogLinks": [
                "http://www.sftravel.com/article/road-trip-itinerary-san-francisco-monterey"
            ],
            "longitude": "-122.9005509"
        },
        "us": {
            "latitude": "36.7014631",
            "closest_to": "",
            "address": "California, United States of America",
            "locType": "administrative",
            "blogLinks": [
                "https://www.orbitz.com/blog/2010/02/california-vacation-monterey-paso-robles-wine-country/"
            ],
            "longitude": "-118.7559973"
        },
        "florida": {
            "latitude": "29.8738433",
            "closest_to": "",
            "address": "California, Lanark Village, Franklin County, Florida, 32323, United States of America",
            "locType": "residential",
            "blogLinks": [
                "https://www.tripadvisor.com/ShowTopic-g32737-i159-k5455416-Santa_Cruz_vs_Monterrey_Carmel_First_Timer_Please_help-Monterey_Monterey_Peninsula_California.html"
            ],
            "longitude": "-84.6071504"
        },
        "east": {
            "latitude": "34.0577029",
            "closest_to": "",
            "address": "East, Morongo Valley, San Bernardino County, California, 92256, United States of America",
            "locType": "track",
            "blogLinks": [
                "http://www.sunset.com/travel/california/things-to-do-watsonville-california"
            ],
            "longitude": "-116.570124"
        },
        "waterfall trail": {
            "latitude": "38.9079374",
            "closest_to": "",
            "address": "Waterfall Trail, Greenwood, El Dorado County, California, 95635, United States of America",
            "locType": "residential",
            "blogLinks": [
                "http://www.sftravel.com/article/road-trip-itinerary-san-francisco-monterey"
            ],
            "longitude": "-120.8914841"
        },
        "paso": {
            "latitude": "36.8487922",
            "closest_to": "",
            "address": "El Paso, Clovis, Fresno County, California, 93611, United States of America",
            "locType": "residential",
            "blogLinks": [
                "https://www.orbitz.com/blog/2010/02/california-vacation-monterey-paso-robles-wine-country/"
            ],
            "longitude": "-119.6823199"
        },
        "pacific": {
            "latitude": "38.7601815",
            "closest_to": "",
            "address": "Pacific, El Dorado County, California, United States of America",
            "locType": "hamlet",
            "blogLinks": [
                "http://fathomaway.com/guides/usa/san-francisco/itineraries/road-trip-san-francisco-to-monterey-california/"
            ],
            "longitude": "-120.507146"
        },
        "the lodge": {
            "latitude": "37.8232605",
            "closest_to": "",
            "address": "The Lodge, 3758, Piedmont Avenue, Oakland, Alameda County, California, 94611, United States of America",
            "locType": "bar",
            "blogLinks": [
                "http://www.forbestravelguide.com/monterey-carmel-big-sur-california#!"
            ],
            "longitude": "-122.256253117445"
        },
        "sonoma": {
            "latitude": "38.5110803",
            "closest_to": "",
            "address": "Sonoma County, California, United States of America",
            "locType": "administrative",
            "blogLinks": [
                "https://www.orbitz.com/blog/2010/02/california-vacation-monterey-paso-robles-wine-country/"
            ],
            "longitude": "-122.8473387"
        },
        "southern california": {
            "latitude": "34.0224149",
            "closest_to": "",
            "address": "University of Southern California, Watt Way, Saint James Park, LA, Los Angeles County, California, 90089, United States of America",
            "locType": "university",
            "blogLinks": [
                "http://www.forbestravelguide.com/monterey-carmel-big-sur-california#!"
            ],
            "longitude": "-118.286343973446"
        },
        "state park": {
            "latitude": "35.5818461",
            "closest_to": "",
            "address": "State Park, Cambria, San Luis Obispo County, California, 93428, United States of America",
            "locType": "service",
            "blogLinks": [
                "http://www.forbestravelguide.com/monterey-carmel-big-sur-california#!",
                "http://www.sftravel.com/article/road-trip-itinerary-san-francisco-monterey"
            ],
            "longitude": "-121.1198923"
        },
        "treebones": {
            "latitude": "35.8842713",
            "closest_to": "",
            "address": "Treebones Resort, Cabrillo Highway, Gorda, Monterey County, California, 93920, United States of America",
            "locType": "hotel",
            "blogLinks": [
                "http://koa.com/campgrounds/santa-cruz/local-area/attractions/"
            ],
            "longitude": "-121.4552883"
        },
        "central coast": {
            "latitude": "35.3611193",
            "closest_to": "",
            "address": "Central Coast Street, Bakersfield, Kern County, California, 93314, United States of America",
            "locType": "residential",
            "blogLinks": [
                "http://www.forbestravelguide.com/monterey-carmel-big-sur-california#!"
            ],
            "longitude": "-119.1665989"
        },
        "gorda": {
            "latitude": "35.8761475",
            "closest_to": "",
            "address": "Gorda, Monterey County, California, 93920, United States of America",
            "locType": "hamlet",
            "blogLinks": [
                "http://www.sftravel.com/article/road-trip-itinerary-san-francisco-monterey"
            ],
            "longitude": "-121.4461212"
        },
        "carpinteria": {
            "latitude": "34.3988838",
            "closest_to": "",
            "address": "Carpinteria, Santa Barbara County, California, United States of America",
            "locType": "city",
            "blogLinks": [
                "https://answers.yahoo.com/question/index?qid=20091001114730AAv4pYB"
            ],
            "longitude": "-119.5184563"
        },
        "lodge": {
            "latitude": "37.8232605",
            "closest_to": "",
            "address": "The Lodge, 3758, Piedmont Avenue, Oakland, Alameda County, California, 94611, United States of America",
            "locType": "bar",
            "blogLinks": [
                "http://www.forbestravelguide.com/monterey-carmel-big-sur-california#!"
            ],
            "longitude": "-122.256253117445"
        },
        "pacific ave.": {
            "latitude": "34.1571445",
            "closest_to": "",
            "address": "Pacific Avenue, Glendale, Los Angeles County, California, 91203, United States of America",
            "locType": "secondary",
            "blogLinks": [
                "http://www.sfgate.com/restaurants/diningout/article/Superb-restaurants-for-visitors-to-Santa-Cruz-4986382.php"
            ],
            "longitude": "-118.2641839"
        },
        "queens": {
            "latitude": "38.9993752",
            "closest_to": "",
            "address": "Three Queens Rapids, El Dorado County, California, United States of America",
            "locType": "rapids",
            "blogLinks": [
                "http://www.santacruzca.org/misc/super-bowl.php"
            ],
            "longitude": "-120.7912868"
        },
        "san francisco": {
            "latitude": "37.7792808",
            "closest_to": "",
            "address": "SF, California, United States of America",
            "locType": "city",
            "blogLinks": [
                "https://www.tripadvisor.com/ShowTopic-g32737-i159-k5455416-Santa_Cruz_vs_Monterrey_Carmel_First_Timer_Please_help-Monterey_Monterey_Peninsula_California.html",
                "http://www.santacruz.org/",
                "https://answers.yahoo.com/question/index?qid=20091001114730AAv4pYB",
                "http://www.santacruzca.org/misc/super-bowl.php",
                "http://fathomaway.com/guides/usa/san-francisco/itineraries/road-trip-san-francisco-to-monterey-california/",
                "https://www.orbitz.com/blog/2010/02/california-vacation-monterey-paso-robles-wine-country/",
                "http://www.sftravel.com/article/road-trip-itinerary-san-francisco-monterey"
            ],
            "longitude": "-122.4192362"
        },
        "yacht harbor": {
            "latitude": "37.8065954",
            "closest_to": "",
            "address": "Yacht Harbor, SF, California, United States of America",
            "locType": "dock",
            "blogLinks": [
                "https://www.tripadvisor.com/ShowTopic-g32737-i159-k5455416-Santa_Cruz_vs_Monterrey_Carmel_First_Timer_Please_help-Monterey_Monterey_Peninsula_California.html"
            ],
            "longitude": "-122.4455271"
        },
        "soledad": {
            "latitude": "36.4269452",
            "closest_to": "",
            "address": "Soledad, Monterey County, California, United States of America",
            "locType": "city",
            "blogLinks": [
                "https://www.orbitz.com/blog/2010/02/california-vacation-monterey-paso-robles-wine-country/"
            ],
            "longitude": "-121.3272146"
        },
        "david avenue": {
            "latitude": "34.0390877",
            "closest_to": "",
            "address": "David Avenue, South Carthay, The Village Green, LA, Los Angeles County, California, 90034, United States of America",
            "locType": "residential",
            "blogLinks": [
                "http://koa.com/campgrounds/santa-cruz/local-area/attractions/"
            ],
            "longitude": "-118.3829432"
        },
        "alaska": {
            "latitude": "33.7147833",
            "closest_to": "",
            "address": "Alaska, Walnut, Irvine, Orange County, California, 92606, United States of America",
            "locType": "residential",
            "blogLinks": [
                "http://www.forbestravelguide.com/monterey-carmel-big-sur-california#!"
            ],
            "longitude": "-117.7917164"
        },
        "santa": {
            "latitude": "22.4804035",
            "closest_to": "",
            "address": "California, Santa Isabel de las Lajas, Cienfuegos, Cuba",
            "locType": "hamlet",
            "blogLinks": [
                "https://www.tripadvisor.com/Tourism-g33048-Santa_Cruz_California-Vacations.html"
            ],
            "longitude": "-80.3796642"
        },
        "west coast": {
            "latitude": "34.0222263",
            "closest_to": "",
            "address": "West Coast, Motor Avenue, Palms, LA, Los Angeles County, California, 90034-5702, United States of America",
            "locType": "plumber",
            "blogLinks": [
                "https://www.orbitz.com/blog/2010/02/california-vacation-monterey-paso-robles-wine-country/"
            ],
            "longitude": "-118.4051087"
        },
        "san luis obispo": {
            "latitude": "35.2827525",
            "closest_to": "",
            "address": "San Luis Obispo, San Luis Obispo County, California, United States of America",
            "locType": "city",
            "blogLinks": [
                "http://www.sftravel.com/article/road-trip-itinerary-san-francisco-monterey",
                "https://answers.yahoo.com/question/index?qid=20091001114730AAv4pYB"
            ],
            "longitude": "-120.6596155"
        },
        "carmel city": {
            "latitude": "33.6958746",
            "closest_to": "",
            "address": "Carmel Road, Sun City, Menifee, Sun City, Riverside County, California, 92586, United States of America",
            "locType": "residential",
            "blogLinks": [
                "http://www.forbestravelguide.com/monterey-carmel-big-sur-california#!"
            ],
            "longitude": "-117.1872908"
        },
        "mission st.": {
            "latitude": "37.7937635",
            "closest_to": "",
            "address": "Mission Street, Financial District, SF, California, 94105, United States of America",
            "locType": "secondary",
            "blogLinks": [
                "http://fathomaway.com/guides/usa/san-francisco/itineraries/road-trip-san-francisco-to-monterey-california/"
            ],
            "longitude": "-122.3925412"
        },
        "2016capitola beach": {
            "latitude": "35.13738",
            "closest_to": "",
            "address": "Beach, Pismo Beach Senior Mobile Home Park, Pismo Beach, San Luis Obispo County, California, 93449, United States of America",
            "locType": "service",
            "blogLinks": [
                "https://www.tripadvisor.com/Tourism-g33048-Santa_Cruz_California-Vacations.html"
            ],
            "longitude": "-120.6345489"
        },
        "united kingdom": {
            "latitude": "52.4422729",
            "closest_to": "",
            "address": "California, Birmingham, West Midlands, England, UK",
            "locType": "village",
            "blogLinks": [
                "http://www.forbestravelguide.com/monterey-carmel-big-sur-california#!"
            ],
            "longitude": "-1.9796882"
        },
        "golden gate park": {
            "latitude": "37.7693681",
            "closest_to": "",
            "address": "Golden Gate Park, Overlook Drive, Richmond District, SF, California, 94122, United States of America",
            "locType": "park",
            "blogLinks": [
                "http://www.sftravel.com/article/road-trip-itinerary-san-francisco-monterey"
            ],
            "longitude": "-122.482183611177"
        },
        "daly city": {
            "latitude": "37.7057671",
            "closest_to": "",
            "address": "Daly City, San Mateo County, California, United States of America",
            "locType": "city",
            "blogLinks": [
                "http://www.sftravel.com/article/road-trip-itinerary-san-francisco-monterey"
            ],
            "longitude": "-122.4619204"
        },
        "central california": {
            "latitude": "38.392688",
            "closest_to": "",
            "address": "Central, Yolo County, California, United States of America",
            "locType": "hamlet",
            "blogLinks": [
                "https://www.orbitz.com/blog/2010/02/california-vacation-monterey-paso-robles-wine-country/"
            ],
            "longitude": "-121.573011"
        },
        "valencia": {
            "latitude": "34.1466768",
            "closest_to": "",
            "address": "Valencia, San Bernardino County, California, United States of America",
            "locType": "hamlet",
            "blogLinks": [
                "http://fathomaway.com/guides/usa/san-francisco/itineraries/road-trip-san-francisco-to-monterey-california/"
            ],
            "longitude": "-117.2725426"
        },
        "linden ave.": {
            "latitude": "33.777762",
            "closest_to": "",
            "address": "Linden Avenue, Willowville, Long Beach, Los Angeles County, California, 90813, United States of America",
            "locType": "residential",
            "blogLinks": [
                "https://answers.yahoo.com/question/index?qid=20091001114730AAv4pYB"
            ],
            "longitude": "-118.1863651"
        },
        "la": {
            "latitude": "36.7014631",
            "closest_to": "",
            "address": "California, United States of America",
            "locType": "administrative",
            "blogLinks": [
                "https://answers.yahoo.com/question/index?qid=20091001114730AAv4pYB"
            ],
            "longitude": "-118.7559973"
        },
        "california market": {
            "latitude": "36.7014631",
            "closest_to": "",
            "address": "California, United States of America",
            "locType": "administrative",
            "blogLinks": [
                "http://www.sftravel.com/article/road-trip-itinerary-san-francisco-monterey"
            ],
            "longitude": "-118.7559973"
        },
        "mendocino": {
            "latitude": "39.3176491",
            "closest_to": "",
            "address": "Mendocino County, California, United States of America",
            "locType": "administrative",
            "blogLinks": [
                "https://www.orbitz.com/blog/2010/02/california-vacation-monterey-paso-robles-wine-country/"
            ],
            "longitude": "-123.4126398"
        },
        "soma": {
            "latitude": "37.7808925",
            "closest_to": "",
            "address": "South of Market, SF, California, 94107, United States of America",
            "locType": "neighbourhood",
            "blogLinks": [
                "http://fathomaway.com/guides/usa/san-francisco/itineraries/road-trip-san-francisco-to-monterey-california/"
            ],
            "longitude": "-122.4009517"
        },
        "pacific avenue": {
            "latitude": "34.1571445",
            "closest_to": "",
            "address": "Pacific Avenue, Glendale, Los Angeles County, California, 91203, United States of America",
            "locType": "secondary",
            "blogLinks": [
                "http://www.sfgate.com/restaurants/diningout/article/Superb-restaurants-for-visitors-to-Santa-Cruz-4986382.php"
            ],
            "longitude": "-118.2641839"
        },
        "santa barbara": {
            "latitude": "34.4221319",
            "closest_to": "",
            "address": "Santa Barbara, Santa Barbara County, California, United States of America",
            "locType": "city",
            "blogLinks": [
                "https://www.tripadvisor.com/ShowTopic-g32737-i159-k5455416-Santa_Cruz_vs_Monterrey_Carmel_First_Timer_Please_help-Monterey_Monterey_Peninsula_California.html",
                "https://answers.yahoo.com/question/index?qid=20091001114730AAv4pYB"
            ],
            "longitude": "-119.7026672"
        },
        "mexico": {
            "latitude": "28.973",
            "closest_to": "",
            "address": "California, Hermosillo, Sonora, M\u00e9xico",
            "locType": "village",
            "blogLinks": [
                "http://www.forbestravelguide.com/monterey-carmel-big-sur-california#!"
            ],
            "longitude": "-111.8196666"
        },
        "northern california": {
            "latitude": "32.7349196",
            "closest_to": "",
            "address": "Northern Frontier, San Diego, San Diego County, California, United States of America",
            "locType": "locality",
            "blogLinks": [
                "https://www.orbitz.com/blog/2010/02/california-vacation-monterey-paso-robles-wine-country/"
            ],
            "longitude": "-117.1545973"
        },
        "hearst castle": {
            "latitude": "35.6853689",
            "closest_to": "",
            "address": "Hearst Castle, 750, Hearst Castle Road, San Simeon, San Luis Obispo County, California, 93452, United States of America",
            "locType": "museum",
            "blogLinks": [
                "http://www.sftravel.com/article/road-trip-itinerary-san-francisco-monterey"
            ],
            "longitude": "-121.167587299509"
        },
        "outer sunset": {
            "latitude": "34.471629",
            "closest_to": "",
            "address": "Outer Bear Valley Road, Apple Valley, San Bernardino County, California, 92308, United States of America",
            "locType": "residential",
            "blogLinks": [
                "http://fathomaway.com/guides/usa/san-francisco/itineraries/road-trip-san-francisco-to-monterey-california/"
            ],
            "longitude": "-117.2110142"
        },
        "four-star": {
            "latitude": "37.7822709",
            "closest_to": "",
            "address": "Four Star, Clement Street, Seacliff, SF, California, 94121, United States of America",
            "locType": "cinema",
            "blogLinks": [
                "http://www.forbestravelguide.com/monterey-carmel-big-sur-california#!"
            ],
            "longitude": "-122.4829269"
        },
        "peachy canyon": {
            "latitude": "35.623755",
            "closest_to": "",
            "address": "Peachy Canyon Road, Paso Robles, San Luis Obispo County, California, 93446, United States of America",
            "locType": "residential",
            "blogLinks": [
                "https://www.orbitz.com/blog/2010/02/california-vacation-monterey-paso-robles-wine-country/"
            ],
            "longitude": "-120.7354539"
        },
        "monterey county": {
            "latitude": "36.2231079",
            "closest_to": "",
            "address": "Monterey County, California, United States of America",
            "locType": "administrative",
            "blogLinks": [
                "http://www.sftravel.com/article/road-trip-itinerary-san-francisco-monterey"
            ],
            "longitude": "-121.3877427"
        },
        "los angeles": {
            "latitude": "34.0543942",
            "closest_to": "",
            "address": "LA, Los Angeles County, California, United States of America",
            "locType": "city",
            "blogLinks": [
                "http://www.sftravel.com/article/road-trip-itinerary-san-francisco-monterey"
            ],
            "longitude": "-118.2439408"
        },
        "jetty road": {
            "latitude": "40.769155",
            "closest_to": "",
            "address": "Jetty Road, Humboldt County, California, 95564, United States of America",
            "locType": "secondary",
            "blogLinks": [
                "http://www.sftravel.com/article/road-trip-itinerary-san-francisco-monterey"
            ],
            "longitude": "-124.2192039"
        },
        "san andreas": {
            "latitude": "38.1875605",
            "closest_to": "",
            "address": "San Andreas, Angels Road, Toyanza Subdivision, Calaveras County, California, 95249, United States of America",
            "locType": "administrative",
            "blogLinks": [
                "http://koa.com/campgrounds/santa-cruz/local-area/attractions/"
            ],
            "longitude": "-120.675382525556"
        },
        "julia pfeiffer burns state park": {
            "latitude": "36.16998345",
            "closest_to": "",
            "address": "Julia Pfeiffer Burns State Park, Ewoldsen trail, Monterey County, California, United States of America",
            "locType": "park",
            "blogLinks": [
                "http://www.forbestravelguide.com/monterey-carmel-big-sur-california#!",
                "http://www.sftravel.com/article/road-trip-itinerary-san-francisco-monterey"
            ],
            "longitude": "-121.665388254615"
        },
        "brussels": {
            "latitude": "34.3209021",
            "closest_to": "",
            "address": "Brussels Avenue, Sylmar, LA, Los Angeles County, California, 91342, United States of America",
            "locType": "residential",
            "blogLinks": [
                "http://www.sfgate.com/restaurants/diningout/article/Superb-restaurants-for-visitors-to-Santa-Cruz-4986382.php"
            ],
            "longitude": "-118.4269567"
        },
        "new york": {
            "latitude": "34.0143928",
            "closest_to": "",
            "address": "New York, West Covina, Los Angeles County, California, 91792, United States of America",
            "locType": "service",
            "blogLinks": [
                "http://fathomaway.com/guides/usa/san-francisco/itineraries/road-trip-san-francisco-to-monterey-california/"
            ],
            "longitude": "-117.8984509"
        },
        "redwood trail": {
            "latitude": "34.016644",
            "closest_to": "",
            "address": "Redwood Trail, Yucaipa (City of), San Bernardino County, California, 92399, United States of America",
            "locType": "residential",
            "blogLinks": [
                "http://fathomaway.com/guides/usa/san-francisco/itineraries/road-trip-san-francisco-to-monterey-california/"
            ],
            "longitude": "-116.9992599"
        },
        "new england": {
            "latitude": "33.8793794",
            "closest_to": "",
            "address": "New England, Cerritos, Los Angeles County, California, 90701, United States of America",
            "locType": "residential",
            "blogLinks": [
                "http://www.forbestravelguide.com/monterey-carmel-big-sur-california#!"
            ],
            "longitude": "-118.0890007"
        },
        "rio road": {
            "latitude": "34.4960263",
            "closest_to": "",
            "address": "El Rio Road, Victorville, San Bernardino County, California, 92392, United States of America",
            "locType": "residential",
            "blogLinks": [
                "http://www.sftravel.com/article/road-trip-itinerary-san-francisco-monterey"
            ],
            "longitude": "-117.3317399"
        },
        "las vegas": {
            "latitude": "36.17310935",
            "closest_to": "",
            "address": "California Hotel, Sky Walk(Connection from Main Street to California, Cultural Corridor, Vegas Heights, Las Vegas, Clark County, Nevada, 89101, United States of America",
            "locType": "hotel",
            "blogLinks": [
                "https://answers.yahoo.com/question/index?qid=20091001114730AAv4pYB"
            ],
            "longitude": "-115.144667930325"
        },
        "union street": {
            "latitude": "32.719883",
            "closest_to": "",
            "address": "Union Street, Hillcrest, San Diego, San Diego County, California, 92101, United States of America",
            "locType": "tertiary",
            "blogLinks": [
                "http://www.sunset.com/travel/california/things-to-do-watsonville-california"
            ],
            "longitude": "-117.1656039"
        },
        "rocky point": {
            "latitude": "38.419911",
            "closest_to": "",
            "address": "Rocky Point, Amador County, California, United States of America",
            "locType": "peak",
            "blogLinks": [
                "http://www.sftravel.com/article/road-trip-itinerary-san-francisco-monterey"
            ],
            "longitude": "-120.8899384"
        },
        "reservation road": {
            "latitude": "33.526228",
            "closest_to": "",
            "address": "Reservation Road, Riverside County, California, 92539, United States of America",
            "locType": "residential",
            "blogLinks": [
                "http://www.sftravel.com/article/road-trip-itinerary-san-francisco-monterey"
            ],
            "longitude": "-116.6244239"
        },
        "pacific ocean": {
            "latitude": "36.16305775",
            "closest_to": "",
            "address": "Pacific Ocean, Cabrillo Highway, Monterey County, California, 93920, United States of America",
            "locType": "cliff",
            "blogLinks": [
                "http://www.forbestravelguide.com/monterey-carmel-big-sur-california#!"
            ],
            "longitude": "-121.678715787326"
        },
        "second street": {
            "latitude": "34.0440456",
            "closest_to": "",
            "address": "Second Street, Walnut Hills Mobile Home Park, Pomona, Los Angeles County, California, 91765, United States of America",
            "locType": "residential",
            "blogLinks": [
                "http://www.sfgate.com/restaurants/diningout/article/Superb-restaurants-for-visitors-to-Santa-Cruz-4986382.php"
            ],
            "longitude": "-117.8182676"
        },
        "cali": {
            "latitude": "3.41023085",
            "closest_to": "",
            "address": "California, Cali, Valle del Cauca, 760040, Colombia",
            "locType": "residential",
            "blogLinks": [
                "https://www.tripadvisor.com/ShowTopic-g32737-i159-k5455416-Santa_Cruz_vs_Monterrey_Carmel_First_Timer_Please_help-Monterey_Monterey_Peninsula_California.html"
            ],
            "longitude": "-76.5647481471698"
        },
        "bay area": {
            "latitude": "37.7884969",
            "closest_to": "",
            "address": "San Francisco Bay Area, SF, California, United States of America",
            "locType": "region",
            "blogLinks": [
                "http://www.santacruz.org/blog/p/3671"
            ],
            "longitude": "-122.3558472"
        },
        "united states": {
            "latitude": "36.7014631",
            "closest_to": "",
            "address": "California, United States of America",
            "locType": "administrative",
            "blogLinks": [
                "https://www.tripadvisor.com/Tourism-g33048-Santa_Cruz_California-Vacations.html"
            ],
            "longitude": "-118.7559973"
        },
        "mission district": {
            "latitude": "37.75993",
            "closest_to": "",
            "address": "Mission District, SF, California, 94110, United States of America",
            "locType": "neighbourhood",
            "blogLinks": [
                "http://fathomaway.com/guides/usa/san-francisco/itineraries/road-trip-san-francisco-to-monterey-california/"
            ],
            "longitude": "-122.4191375"
        },
        "walnut avenue": {
            "latitude": "33.8266108",
            "closest_to": "",
            "address": "Walnut Avenue, Rancho las Perris, Riverside County, California, 92571, United States of America",
            "locType": "tertiary",
            "blogLinks": [
                "http://www.sfgate.com/restaurants/diningout/article/Superb-restaurants-for-visitors-to-Santa-Cruz-4986382.php"
            ],
            "longitude": "-117.1956135"
        },
        "farm park": {
            "latitude": "33.8437475",
            "closest_to": "",
            "address": "Knott's Berry Farm, 8039, Beach Boulevard, Buena Park, Orange County, California, 90620, United States of America",
            "locType": "theme_park",
            "blogLinks": [
                "http://koa.com/campgrounds/santa-cruz/local-area/attractions/"
            ],
            "longitude": "-118.0005556304"
        },
        "bordeaux": {
            "latitude": "33.565885",
            "closest_to": "",
            "address": "Bordeaux, Coto de Caza, Orange County, California, 92690, United States of America",
            "locType": "residential",
            "blogLinks": [
                "https://www.orbitz.com/blog/2010/02/california-vacation-monterey-paso-robles-wine-country/"
            ],
            "longitude": "-117.5946383"
        },
        "pismo beach": {
            "latitude": "35.1427533",
            "closest_to": "",
            "address": "Pismo Beach, San Luis Obispo County, California, United States of America",
            "locType": "city",
            "blogLinks": [
                "https://answers.yahoo.com/question/index?qid=20091001114730AAv4pYB"
            ],
            "longitude": "-120.6412826"
        },
        "watson street": {
            "latitude": "38.611491",
            "closest_to": "",
            "address": "Watson Street, Sacramento County, California, 95864, United States of America",
            "locType": "residential",
            "blogLinks": [
                "http://www.sfgate.com/restaurants/diningout/article/Superb-restaurants-for-visitors-to-Santa-Cruz-4986382.php"
            ],
            "longitude": "-121.3657959"
        },
        "ocean avenue": {
            "latitude": "37.7320759",
            "closest_to": "",
            "address": "Ocean Ave, Ocean Avenue, Saint Francis Wood, SF, California, 94132, United States of America",
            "locType": "tram_stop",
            "blogLinks": [
                "http://www.sftravel.com/article/road-trip-itinerary-san-francisco-monterey"
            ],
            "longitude": "-122.4736116"
        },
        "ocean street beach": {
            "latitude": "32.999409",
            "closest_to": "",
            "address": "Ocean Street, Solana Beach, San Diego County, California, 92075, United States of America",
            "locType": "residential",
            "blogLinks": [
                "http://www.forbestravelguide.com/monterey-carmel-big-sur-california#!"
            ],
            "longitude": "-117.2755429"
        },
        "san deigo": {
            "latitude": "32.5874476",
            "closest_to": "",
            "address": "Aquatica: SeaWorld's Waterpark San Deigo, 2052, Entertainment Circle, Chula Vista, San Diego County, California, 91911, United States of America",
            "locType": "theme_park",
            "blogLinks": [
                "https://answers.yahoo.com/question/index?qid=20091001114730AAv4pYB"
            ],
            "longitude": "-117.011904948992"
        },
        "millbrae": {
            "latitude": "37.5985468",
            "closest_to": "",
            "address": "Millbrae, San Mateo County, California, United States of America",
            "locType": "city",
            "blogLinks": [
                "http://fathomaway.com/guides/usa/san-francisco/itineraries/road-trip-san-francisco-to-monterey-california/"
            ],
            "longitude": "-122.3871941"
        },
        "california": {
            "latitude": "7.3480915",
            "closest_to": "",
            "address": "California, Santander, Colombia",
            "locType": "village",
            "blogLinks": [
                "https://www.tripadvisor.com/ShowTopic-g32737-i159-k5455416-Santa_Cruz_vs_Monterrey_Carmel_First_Timer_Please_help-Monterey_Monterey_Peninsula_California.html",
                "http://www.santacruz.org/",
                "http://www.sunset.com/travel/california/things-to-do-watsonville-california",
                "https://answers.yahoo.com/question/index?qid=20091001114730AAv4pYB",
                "http://fathomaway.com/guides/usa/san-francisco/itineraries/road-trip-san-francisco-to-monterey-california/",
                "http://www.forbestravelguide.com/monterey-carmel-big-sur-california#!",
                "http://koa.com/campgrounds/santa-cruz/local-area/attractions/",
                "https://www.orbitz.com/blog/2010/02/california-vacation-monterey-paso-robles-wine-country/",
                "https://www.tripadvisor.com/Tourism-g33048-Santa_Cruz_California-Vacations.html",
                "http://www.sftravel.com/article/road-trip-itinerary-san-francisco-monterey"
            ],
            "longitude": "-72.945787"
        },
        "treebones resort": {
            "latitude": "35.8842713",
            "closest_to": "",
            "address": "Treebones Resort, Cabrillo Highway, Gorda, Monterey County, California, 93920, United States of America",
            "locType": "hotel",
            "blogLinks": [
                "http://www.sftravel.com/article/road-trip-itinerary-san-francisco-monterey"
            ],
            "longitude": "-121.4552883"
        },
        "napa valley": {
            "latitude": "39.0234679",
            "closest_to": "",
            "address": "Napa Valley, Cold Spring, Campbell County, Kentucky, 41076, United States of America",
            "locType": "residential",
            "blogLinks": [
                "http://koa.com/campgrounds/santa-cruz/local-area/attractions/"
            ],
            "longitude": "-84.4504647"
        },
        "america": {
            "latitude": "36.2573198",
            "closest_to": "",
            "address": "America, Kings County, California, 93246, United States of America",
            "locType": "residential",
            "blogLinks": [
                "http://fathomaway.com/guides/usa/san-francisco/itineraries/road-trip-san-francisco-to-monterey-california/"
            ],
            "longitude": "-119.8948706"
        },
        "carmel": {
            "latitude": "38.75511285",
            "closest_to": "",
            "address": "Carmel, Roseville, Placer County, California, 95747, United States of America",
            "locType": "residential",
            "blogLinks": [
                "http://www.forbestravelguide.com/monterey-carmel-big-sur-california#!",
                "https://www.tripadvisor.com/ShowTopic-g32737-i159-k5455416-Santa_Cruz_vs_Monterrey_Carmel_First_Timer_Please_help-Monterey_Monterey_Peninsula_California.html",
                "http://www.sftravel.com/article/road-trip-itinerary-san-francisco-monterey",
                "https://www.orbitz.com/blog/2010/02/california-vacation-monterey-paso-robles-wine-country/"
            ],
            "longitude": "-121.353308848273"
        },
        "calif.": {
            "latitude": "37.786376",
            "closest_to": "",
            "address": "California, Woodstock, Alameda, Alameda County, California, 94501, United States of America",
            "locType": "residential",
            "blogLinks": [
                "https://www.orbitz.com/blog/2010/02/california-vacation-monterey-paso-robles-wine-country/"
            ],
            "longitude": "-122.2902806"
        },
        "muir woods": {
            "latitude": "38.049581",
            "closest_to": "",
            "address": "Muir Woods Avenue, Stockton, San Joaquin County, California, 95209, United States of America",
            "locType": "residential",
            "blogLinks": [
                "http://fathomaway.com/guides/usa/san-francisco/itineraries/road-trip-san-francisco-to-monterey-california/"
            ],
            "longitude": "-121.3457819"
        }
    },
    "santa cruz": {
        "type": "city",
        "osm_id": "111737",
        "class": "place",
        "importance": 0.80562903030115,
        "lat": "36.9735903",
        "lon": "-122.0260569",
        "boundingbox": [
            "36.9479995",
            "37.0251537",
            "-122.1512979",
            "-121.9867104"
        ],
        "display_name": "Santa Cruz, Santa Cruz County, California, United States of America",
        "licence": "Data \u00a9 OpenStreetMap contributors, ODbL 1.0. http://www.openstreetmap.org/copyright",
        "icon": "https://nominatim.openstreetmap.org/images/mapicons/poi_place_city.p.20.png",
        "place_id": "157779626",
        "osm_type": "relation"
    },
    "monterey": {
        "type": "city",
        "osm_id": "33117009",
        "class": "place",
        "importance": 0.71088018078768,
        "lat": "36.5844165",
        "lon": "-121.866792846206",
        "boundingbox": [
            "36.583508",
            "36.585509",
            "-121.8673379",
            "-121.8661949"
        ],
        "display_name": "Monterey, Monterey County, California, United States of America",
        "licence": "Data \u00a9 OpenStreetMap contributors, ODbL 1.0. http://www.openstreetmap.org/copyright",
        "icon": "https://nominatim.openstreetmap.org/images/mapicons/poi_place_city.p.20.png",
        "place_id": "72265425",
        "osm_type": "way"
    }
}