{
    "riverside": {
        "type": "city",
        "osm_id": "98628503",
        "class": "place",
        "importance": 0.72980766319189,
        "lat": "33.9533546",
        "lon": "-117.3961622",
        "boundingbox": [
            "33.8724207",
            "34.0192691",
            "-117.5237611",
            "-117.2741721"
        ],
        "display_name": "Riverside, Riverside County, California, United States of America",
        "licence": "Data \u00a9 OpenStreetMap contributors, ODbL 1.0. http://www.openstreetmap.org/copyright",
        "icon": "https://nominatim.openstreetmap.org/images/mapicons/poi_place_city.p.20.png",
        "place_id": "85715402",
        "osm_type": "way"
    },
    "mentions": {
        "new mexico": {
            "latitude": "32.2644096",
            "closest_to": "",
            "address": "California Lateral, Mesilla, Do\u00f1a Ana County, New Mexico, United States of America",
            "locType": "drain",
            "blogLinks": [
                "https://en.wikipedia.org/wiki/List_of_National_Historic_Landmarks_in_California"
            ],
            "longitude": "-106.8036705"
        },
        "s.f.": {
            "latitude": "19.9908291",
            "closest_to": "",
            "address": "California, Bosque de Canalejas, Jilotepec, M\u00e9xico, 54270, M\u00e9xico",
            "locType": "residential",
            "blogLinks": [
                "http://www.trippy.com/question/California-Where-to-stay-half-way-between-S-F--and-L-A"
            ],
            "longitude": "-99.6183945"
        },
        "pismo": {
            "latitude": "24.1378257",
            "closest_to": "",
            "address": "Pismo, La Paz, Baja California Sur, 23206, M\u00e9xico",
            "locType": "residential",
            "blogLinks": [
                "http://www.caroadtrip.com/2012/07/Santa-barbara-to-monterey-by-car.html"
            ],
            "longitude": "-110.3437034"
        },
        "napa valley napa valley": {
            "latitude": "39.0234679",
            "closest_to": "",
            "address": "Napa Valley, Cold Spring, Campbell County, Kentucky, 41076, United States of America",
            "locType": "residential",
            "blogLinks": [
                "http://traveltips.usatoday.com/top-10-romantic-getaways-california-62809.html"
            ],
            "longitude": "-84.4504647"
        },
        "tx": {
            "latitude": "29.7181118",
            "closest_to": "",
            "address": "California, Baytown, Harris County, Texas, 77520, United States of America",
            "locType": "residential",
            "blogLinks": [
                "http://traveltips.usatoday.com/fun-things-los-angeles-san-francisco-14664.html",
                "http://www.caroadtrip.com/2012/07/Santa-barbara-to-monterey-by-car.html"
            ],
            "longitude": "-94.997906"
        },
        "eureka": {
            "latitude": "40.8020712",
            "closest_to": "",
            "address": "Eureka, Humboldt County, California, United States of America",
            "locType": "city",
            "blogLinks": [
                "https://en.wikipedia.org/wiki/List_of_National_Historic_Landmarks_in_California"
            ],
            "longitude": "-124.1636728"
        },
        "l.a.": {
            "latitude": "-13.8305494",
            "closest_to": "",
            "address": "California, Provincia Abel Iturralde, LPZ, Bolivia",
            "locType": "hamlet",
            "blogLinks": [
                "http://traveltips.usatoday.com/top-10-romantic-getaways-california-62809.html",
                "http://www.trippy.com/question/California-Where-to-stay-half-way-between-S-F--and-L-A"
            ],
            "longitude": "-67.9369134"
        },
        "spain": {
            "latitude": "37.1412332",
            "closest_to": "",
            "address": "La California, Mor\u00f3n de la Frontera, Sevilla, Andaluc\u00eda, Espa\u00f1a",
            "locType": "locality",
            "blogLinks": [
                "http://www.parks.ca.gov/?page_id=22722",
                "https://en.wikipedia.org/wiki/List_of_National_Historic_Landmarks_in_California"
            ],
            "longitude": "-5.4610806"
        },
        "mexico": {
            "latitude": "28.973",
            "closest_to": "",
            "address": "California, Hermosillo, Sonora, M\u00e9xico",
            "locType": "village",
            "blogLinks": [
                "https://en.wikipedia.org/wiki/List_of_National_Historic_Landmarks_in_California"
            ],
            "longitude": "-111.8196666"
        },
        "new zealand": {
            "latitude": "-41.1069272",
            "closest_to": "",
            "address": "California Drive, Totara Park, Upper Hutt, Upper Hutt City, Wellington, 5371, New Zealand/Aotearoa",
            "locType": "tertiary",
            "blogLinks": [
                "http://www.trippy.com/question/California-Where-to-stay-half-way-between-S-F--and-L-A"
            ],
            "longitude": "175.0832904"
        },
        "el capitan": {
            "latitude": "41.8690059",
            "closest_to": "",
            "address": "El Capitan, Siskiyou County, California, United States of America",
            "locType": "peak",
            "blogLinks": [
                "http://www.caroadtrip.com/2012/07/Santa-barbara-to-monterey-by-car.html",
                "http://traveltips.usatoday.com/top-10-romantic-getaways-california-62809.html"
            ],
            "longitude": "-123.6122864"
        },
        "texas": {
            "latitude": "29.7181118",
            "closest_to": "",
            "address": "California, Baytown, Harris County, Texas, 77520, United States of America",
            "locType": "residential",
            "blogLinks": [
                "http://www.caroadtrip.com/2012/07/Santa-barbara-to-monterey-by-car.html"
            ],
            "longitude": "-94.997906"
        },
        "tule lake": {
            "latitude": "41.93667705",
            "closest_to": "",
            "address": "Tule Lake, Bergman Road, Siskiyou County, California, 96134, United States of America",
            "locType": "wetland",
            "blogLinks": [
                "https://en.wikipedia.org/wiki/List_of_National_Historic_Landmarks_in_California"
            ],
            "longitude": "-121.517279333849"
        },
        "santa ines": {
            "latitude": "22.88332",
            "closest_to": "",
            "address": "Santa Ines, Cabo San Lucas, Los Cabos, Baja California Sur, 23543, M\u00e9xico",
            "locType": "residential",
            "blogLinks": [
                "http://www.parks.ca.gov/?page_id=22722"
            ],
            "longitude": "-109.9425933"
        },
        "u.s.": {
            "latitude": "-32.5446226",
            "closest_to": "",
            "address": "La California, Municipio de Las Rosas, Departamento Belgrano, Sta. Fe, Argentina",
            "locType": "hamlet",
            "blogLinks": [
                "https://en.wikipedia.org/wiki/List_of_National_Historic_Landmarks_in_California"
            ],
            "longitude": "-61.5489543"
        },
        "humboldt bay": {
            "latitude": "40.7498484",
            "closest_to": "",
            "address": "Humboldt Bay, King Salmon Avenue, Humboldt Bay Power Plant, King Salmon, Humboldt County, California, 95503, United States of America",
            "locType": "bay",
            "blogLinks": [
                "https://en.wikipedia.org/wiki/List_of_National_Historic_Landmarks_in_California"
            ],
            "longitude": "-124.2095056"
        },
        "argentina": {
            "latitude": "-31.451096",
            "closest_to": "",
            "address": "California, C\u00f3rdoba, Departamento Capital, Cba., Argentina",
            "locType": "administrative",
            "blogLinks": [
                "http://www.parks.ca.gov/?page_id=22722"
            ],
            "longitude": "-64.205523"
        },
        "england": {
            "latitude": "52.4422729",
            "closest_to": "",
            "address": "California, Birmingham, West Midlands, England, UK",
            "locType": "village",
            "blogLinks": [
                "http://www.parks.ca.gov/?page_id=22722",
                "http://www.tripleblaze.com/best/?c=8"
            ],
            "longitude": "-1.9796882"
        },
        "california": {
            "latitude": "7.3480915",
            "closest_to": "",
            "address": "California, Santander, Colombia",
            "locType": "village",
            "blogLinks": [
                "https://www.audleytravel.com/usa/california/places-to-go/carmel",
                "http://www.parks.ca.gov/?page_id=22722",
                "https://en.wikipedia.org/wiki/List_of_National_Historic_Landmarks_in_California",
                "http://www.trippy.com/question/California-Where-to-stay-half-way-between-S-F--and-L-A",
                "https://www.seemonterey.com/regions/big-sur/",
                "http://www.caroadtrip.com/2012/07/Santa-barbara-to-monterey-by-car.html",
                "https://www.seemonterey.com/",
                "http://moon.com/2015/04/best-places-to-stay-on-a-california-coast-road-trip/",
                "http://www.california-blog.com/",
                "http://traveltips.usatoday.com/fun-things-los-angeles-san-francisco-14664.html",
                "http://traveltips.usatoday.com/top-10-romantic-getaways-california-62809.html"
            ],
            "longitude": "-72.945787"
        },
        "rome": {
            "latitude": "41.9628634",
            "closest_to": "",
            "address": "California, Via della Missione, Tivoli, Paterno, Tivoli, RM, LAZ, 00019, Italia",
            "locType": "pub",
            "blogLinks": [
                "http://www.parks.ca.gov/?page_id=22722"
            ],
            "longitude": "12.7977613"
        },
        "washington": {
            "latitude": "40.0657724",
            "closest_to": "",
            "address": "California, Washington County, Pennsylvania, United States of America",
            "locType": "administrative",
            "blogLinks": [
                "https://en.wikipedia.org/wiki/List_of_National_Historic_Landmarks_in_California"
            ],
            "longitude": "-79.8918435"
        }
    },
    "monterey": {
        "type": "city",
        "osm_id": "33117009",
        "class": "place",
        "importance": 0.71088018078768,
        "lat": "36.5844165",
        "lon": "-121.866792846206",
        "boundingbox": [
            "36.583508",
            "36.585509",
            "-121.8673379",
            "-121.8661949"
        ],
        "display_name": "Monterey, Monterey County, California, United States of America",
        "licence": "Data \u00a9 OpenStreetMap contributors, ODbL 1.0. http://www.openstreetmap.org/copyright",
        "icon": "https://nominatim.openstreetmap.org/images/mapicons/poi_place_city.p.20.png",
        "place_id": "72265425",
        "osm_type": "way"
    }
}