{
    "riverside": {
        "type": "city",
        "osm_id": "98628503",
        "class": "place",
        "importance": 0.72980766319189,
        "lat": "33.9533546",
        "lon": "-117.3961622",
        "boundingbox": [
            "33.8724207",
            "34.0192691",
            "-117.5237611",
            "-117.2741721"
        ],
        "display_name": "Riverside, Riverside County, California, United States of America",
        "licence": "Data \u00a9 OpenStreetMap contributors, ODbL 1.0. http://www.openstreetmap.org/copyright",
        "icon": "https://nominatim.openstreetmap.org/images/mapicons/poi_place_city.p.20.png",
        "place_id": "85715402",
        "osm_type": "way"
    },
    "mentions": {
        "flagstaff": {
            "latitude": "38.7676791",
            "closest_to": "",
            "address": "Flagstaff Hill, El Dorado County, California, United States of America",
            "locType": "peak",
            "blogLinks": [
                "https://www.quora.com/What-are-the-best-places-to-visit-in-the-USA"
            ],
            "longitude": "-121.0838339"
        },
        "usa": {
            "latitude": "36.7014631",
            "closest_to": "",
            "address": "California, United States of America",
            "locType": "administrative",
            "blogLinks": [
                "https://www.quora.com/What-are-the-best-places-to-visit-in-the-USA"
            ],
            "longitude": "-118.7559973"
        },
        "culver city": {
            "latitude": "34.0211224",
            "closest_to": "",
            "address": "Culver City, Los Angeles County, California, United States of America",
            "locType": "administrative",
            "blogLinks": [
                "http://www.traillink.com/city/riverside-ca-trails.aspx"
            ],
            "longitude": "-118.3964664"
        },
        "alton avenue": {
            "latitude": "37.7501499",
            "closest_to": "",
            "address": "Alton Avenue, Forest Hill, SF, California, 94116, United States of America",
            "locType": "residential",
            "blogLinks": [
                "http://www.traillink.com/city/riverside-ca-trails.aspx"
            ],
            "longitude": "-122.4626136"
        },
        "india": {
            "latitude": "32.72025735",
            "closest_to": "",
            "address": "Star of India, North Harbor Drive, Hillcrest, San Diego, San Diego County, California, 92106, United States of America",
            "locType": "attraction",
            "blogLinks": [
                "https://www.quora.com/What-are-the-best-places-to-visit-in-the-USA"
            ],
            "longitude": "-117.173543004762"
        },
        "san diego freeway": {
            "latitude": "32.7285162",
            "closest_to": "",
            "address": "San Diego Freeway, Hillcrest, San Diego, San Diego County, California, 92101, United States of America",
            "locType": "motorway",
            "blogLinks": [
                "http://www.traillink.com/city/riverside-ca-trails.aspx"
            ],
            "longitude": "-117.1690377"
        },
        "san luis rey river": {
            "latitude": "33.2586949",
            "closest_to": "",
            "address": "San Luis Rey River, Oceanside, San Diego County, California, United States of America",
            "locType": "river",
            "blogLinks": [
                "http://www.traillink.com/city/riverside-ca-trails.aspx"
            ],
            "longitude": "-117.2623628"
        },
        "mount lowe": {
            "latitude": "35.3195655",
            "closest_to": "",
            "address": "Mount Lowe, San Luis Obispo County, California, United States of America",
            "locType": "peak",
            "blogLinks": [
                "http://www.traillink.com/city/riverside-ca-trails.aspx"
            ],
            "longitude": "-120.6011479"
        },
        "humboldt bay": {
            "latitude": "40.7498484",
            "closest_to": "",
            "address": "Humboldt Bay, King Salmon Avenue, Humboldt Bay Power Plant, King Salmon, Humboldt County, California, 95503, United States of America",
            "locType": "bay",
            "blogLinks": [
                "https://www.quora.com/What-are-the-best-places-to-visit-in-the-USA"
            ],
            "longitude": "-124.2095056"
        },
        "north pole": {
            "latitude": "19.3740853",
            "closest_to": "",
            "address": "California, 1291, Empresa, Ampliaci\u00f3n N\u00e1poles, Benito Ju\u00e1rez, CDMX, 03900, M\u00e9xico",
            "locType": "restaurant",
            "blogLinks": [
                "https://blog.trekaroo.com/top-ten-holiday-events-to-enjoy-with-kids-in-southern-california/"
            ],
            "longitude": "-99.1792586"
        },
        "florida": {
            "latitude": "29.8738433",
            "closest_to": "",
            "address": "California, Lanark Village, Franklin County, Florida, 32323, United States of America",
            "locType": "residential",
            "blogLinks": [
                "https://www.quora.com/What-are-the-best-places-to-visit-in-the-USA"
            ],
            "longitude": "-84.6071504"
        },
        "national parks": {
            "latitude": "35.0310157",
            "closest_to": "",
            "address": "National Parks Service Road, San Bernardino County, California, United States of America",
            "locType": "residential",
            "blogLinks": [
                "https://blog.trekaroo.com/top-ten-holiday-events-to-enjoy-with-kids-in-southern-california/"
            ],
            "longitude": "-115.383967"
        },
        "woodbridge trail": {
            "latitude": "38.1565848",
            "closest_to": "",
            "address": "Woodbridge Diversion 71-000 Dam, San Joaquin County, California, United States of America",
            "locType": "dam",
            "blogLinks": [
                "http://www.traillink.com/city/riverside-ca-trails.aspx"
            ],
            "longitude": "-121.2977257"
        },
        "utah": {
            "latitude": "37.413408",
            "closest_to": "",
            "address": "Utah, Rovana, Inyo County, California, United States of America",
            "locType": "residential",
            "blogLinks": [
                "https://www.quora.com/What-are-the-best-places-to-visit-in-the-USA"
            ],
            "longitude": "-118.6125359"
        },
        "santa": {
            "latitude": "22.4804035",
            "closest_to": "",
            "address": "California, Santa Isabel de las Lajas, Cienfuegos, Cuba",
            "locType": "hamlet",
            "blogLinks": [
                "https://blog.trekaroo.com/top-ten-holiday-events-to-enjoy-with-kids-in-southern-california/"
            ],
            "longitude": "-80.3796642"
        },
        "seattle": {
            "latitude": "41.9641881",
            "closest_to": "",
            "address": "Seattle, Dorris, Siskiyou County, California, 96023, United States of America",
            "locType": "residential",
            "blogLinks": [
                "https://www.quora.com/What-are-the-best-places-to-visit-in-the-USA"
            ],
            "longitude": "-121.9226289"
        },
        "colorado river": {
            "latitude": "33.58648635",
            "closest_to": "",
            "address": "Colorado River, Riviera Drive, East Blythe, Riverside County, California, 92225, United States of America",
            "locType": "water",
            "blogLinks": [
                "https://www.quora.com/What-are-the-best-places-to-visit-in-the-USA"
            ],
            "longitude": "-114.542164096234"
        },
        "pacific": {
            "latitude": "38.7601815",
            "closest_to": "",
            "address": "Pacific, El Dorado County, California, United States of America",
            "locType": "hamlet",
            "blogLinks": [
                "http://losangeles.cbslocal.com/top-lists/the-best-scenic-drives-within-60-miles-of-los-angeles/"
            ],
            "longitude": "-120.507146"
        },
        "santa monica": {
            "latitude": "34.0195598",
            "closest_to": "",
            "address": "Santa Monica, Los Angeles County, California, United States of America",
            "locType": "city",
            "blogLinks": [
                "https://blog.trekaroo.com/top-ten-holiday-events-to-enjoy-with-kids-in-southern-california/",
                "http://www.traillink.com/city/riverside-ca-trails.aspx",
                "http://losangeles.cbslocal.com/top-lists/the-best-scenic-drives-within-60-miles-of-los-angeles/"
            ],
            "longitude": "-118.4869738"
        },
        "ventura harbor": {
            "latitude": "34.2494483",
            "closest_to": "",
            "address": "Ventura Harbor, Ventura, Ventura County, California, United States of America",
            "locType": "dock",
            "blogLinks": [
                "http://losangeles.cbslocal.com/top-lists/the-best-scenic-drives-within-60-miles-of-los-angeles/"
            ],
            "longitude": "-119.2648329"
        },
        "los angeles county": {
            "latitude": "34.3155072",
            "closest_to": "",
            "address": "Los Angeles County, California, United States of America",
            "locType": "administrative",
            "blogLinks": [
                "http://www.traillink.com/city/riverside-ca-trails.aspx"
            ],
            "longitude": "-118.2096813"
        },
        "missoula": {
            "latitude": "46.872897",
            "closest_to": "",
            "address": "North California Street, Missoula, Missoula County, Montana, 59801, United States of America",
            "locType": "residential",
            "blogLinks": [
                "https://www.quora.com/What-are-the-best-places-to-visit-in-the-USA"
            ],
            "longitude": "-114.0141069"
        },
        "nashville": {
            "latitude": "38.5787952",
            "closest_to": "",
            "address": "Nashville, El Dorado County, California, United States of America",
            "locType": "hamlet",
            "blogLinks": [
                "https://www.quora.com/What-are-the-best-places-to-visit-in-the-USA"
            ],
            "longitude": "-120.8452144"
        },
        "chicago": {
            "latitude": "37.7850531",
            "closest_to": "",
            "address": "Chicago, Woodstock, Alameda, Alameda County, California, 94501, United States of America",
            "locType": "residential",
            "blogLinks": [
                "https://www.quora.com/What-are-the-best-places-to-visit-in-the-USA"
            ],
            "longitude": "-122.2872948"
        },
        "ny": {
            "latitude": "-22.304444",
            "closest_to": "",
            "address": "California, Promenade Roger Laroque, Anse Vata, Secteur Sud, Noum\u00e9a, Province Sud, Nouvelle-Cal\u00e9donie, 98800, Nouvelle-Cal\u00e9donie",
            "locType": "clothes",
            "blogLinks": [
                "https://www.quora.com/What-are-the-best-places-to-visit-in-the-USA"
            ],
            "longitude": "166.4474847"
        },
        "ritz carlton": {
            "latitude": "37.791867",
            "closest_to": "",
            "address": "Ritz-Carlton, 600, Stockton Street, Chinatown, SF, California, 94108, United States of America",
            "locType": "hotel",
            "blogLinks": [
                "https://blog.trekaroo.com/top-ten-holiday-events-to-enjoy-with-kids-in-southern-california/"
            ],
            "longitude": "-122.406834213408"
        },
        "asheville": {
            "latitude": "35.8667761",
            "closest_to": "",
            "address": "California, Madison County, North Carolina, United States of America",
            "locType": "hamlet",
            "blogLinks": [
                "https://www.quora.com/What-are-the-best-places-to-visit-in-the-USA"
            ],
            "longitude": "-82.519578"
        },
        "brophy bros.": {
            "latitude": "34.2407447",
            "closest_to": "",
            "address": "Brophy Bros. Restauraunt & Clam Bar, 1559, Spinnaker Drive, Ventura, Ventura County, California, 93001, United States of America",
            "locType": "restaurant",
            "blogLinks": [
                "http://losangeles.cbslocal.com/top-lists/the-best-scenic-drives-within-60-miles-of-los-angeles/"
            ],
            "longitude": "-119.2640305"
        },
        "san francisco": {
            "latitude": "37.7792808",
            "closest_to": "",
            "address": "SF, California, United States of America",
            "locType": "city",
            "blogLinks": [
                "https://www.quora.com/What-are-the-best-places-to-visit-in-the-USA"
            ],
            "longitude": "-122.4192362"
        },
        "collins avenue": {
            "latitude": "36.7233884",
            "closest_to": "",
            "address": "Collins Avenue, Fresno County, California, 93706, United States of America",
            "locType": "residential",
            "blogLinks": [
                "http://www.traillink.com/city/riverside-ca-trails.aspx"
            ],
            "longitude": "-119.7999378"
        },
        "san antonio": {
            "latitude": "38.1838069",
            "closest_to": "",
            "address": "San Antonio, Marin County, California, United States of America",
            "locType": "hamlet",
            "blogLinks": [
                "https://www.quora.com/What-are-the-best-places-to-visit-in-the-USA"
            ],
            "longitude": "-122.5913722"
        },
        "nc": {
            "latitude": "35.9043367",
            "closest_to": "",
            "address": "California, Dare County, North Carolina, United States of America",
            "locType": "hamlet",
            "blogLinks": [
                "https://www.quora.com/What-are-the-best-places-to-visit-in-the-USA"
            ],
            "longitude": "-75.6804524"
        },
        "louisiana": {
            "latitude": "36.8368359",
            "closest_to": "",
            "address": "Louisiana, Fresno County, California, 93650, United States of America",
            "locType": "service",
            "blogLinks": [
                "https://www.quora.com/What-are-the-best-places-to-visit-in-the-USA"
            ],
            "longitude": "-119.7958713"
        },
        "eugene": {
            "latitude": "37.8929816",
            "closest_to": "",
            "address": "Eugene, Stanislaus County, California, United States of America",
            "locType": "hamlet",
            "blogLinks": [
                "https://www.quora.com/What-are-the-best-places-to-visit-in-the-USA"
            ],
            "longitude": "-120.8468784"
        },
        "san juan creek": {
            "latitude": "35.5378042",
            "closest_to": "",
            "address": "San Juan Creek, Paso Robles, San Luis Obispo County, California, United States of America",
            "locType": "stream",
            "blogLinks": [
                "http://www.traillink.com/city/riverside-ca-trails.aspx"
            ],
            "longitude": "-120.2326307"
        },
        "shady canyon trail": {
            "latitude": "37.6842077",
            "closest_to": "",
            "address": "Shady Canyon Trail, Alameda County, California, 94522, United States of America",
            "locType": "footway",
            "blogLinks": [
                "http://www.traillink.com/city/riverside-ca-trails.aspx"
            ],
            "longitude": "-122.0296973"
        },
        "santa clarita": {
            "latitude": "34.3916641",
            "closest_to": "",
            "address": "Santa Clarita, Los Angeles County, California, United States of America",
            "locType": "city",
            "blogLinks": [
                "https://blog.trekaroo.com/top-ten-holiday-events-to-enjoy-with-kids-in-southern-california/"
            ],
            "longitude": "-118.5425859"
        },
        "ventura county": {
            "latitude": "34.4458248",
            "closest_to": "",
            "address": "Ventura County, California, United States of America",
            "locType": "administrative",
            "blogLinks": [
                "http://losangeles.cbslocal.com/top-lists/the-best-scenic-drives-within-60-miles-of-los-angeles/"
            ],
            "longitude": "-119.0779358"
        },
        "kansas city": {
            "latitude": "37.7854258",
            "closest_to": "",
            "address": "Kansas City, Woodstock, Alameda, Alameda County, California, 94501, United States of America",
            "locType": "residential",
            "blogLinks": [
                "https://www.quora.com/What-are-the-best-places-to-visit-in-the-USA"
            ],
            "longitude": "-122.2891519"
        },
        "west coast": {
            "latitude": "34.0222263",
            "closest_to": "",
            "address": "West Coast, Motor Avenue, Palms, LA, Los Angeles County, California, 90034-5702, United States of America",
            "locType": "plumber",
            "blogLinks": [
                "http://www.traillink.com/city/riverside-ca-trails.aspx"
            ],
            "longitude": "-118.4051087"
        },
        "missouri": {
            "latitude": "38.6275421",
            "closest_to": "",
            "address": "California, Moniteau County, Missouri, United States of America",
            "locType": "city",
            "blogLinks": [
                "https://www.quora.com/What-are-the-best-places-to-visit-in-the-USA"
            ],
            "longitude": "-92.566517"
        },
        "conejo valley": {
            "latitude": "36.5182834",
            "closest_to": "",
            "address": "Conejo, Fresno County, California, United States of America",
            "locType": "hamlet",
            "blogLinks": [
                "http://losangeles.cbslocal.com/top-lists/the-best-scenic-drives-within-60-miles-of-los-angeles/"
            ],
            "longitude": "-119.7190243"
        },
        "capitol hill": {
            "latitude": "40.7408082",
            "closest_to": "",
            "address": "California Avenue, Glendale, Capitol Hill, Salt Lake City, Salt Lake County, Utah, 84104, United States of America",
            "locType": "secondary",
            "blogLinks": [
                "https://www.quora.com/What-are-the-best-places-to-visit-in-the-USA"
            ],
            "longitude": "-111.9154016"
        },
        "montana": {
            "latitude": "37.413991",
            "closest_to": "",
            "address": "Montana, Rovana, Inyo County, California, United States of America",
            "locType": "residential",
            "blogLinks": [
                "https://www.quora.com/What-are-the-best-places-to-visit-in-the-USA"
            ],
            "longitude": "-118.6129969"
        },
        "balboa park": {
            "latitude": "37.72494875",
            "closest_to": "",
            "address": "Balboa Park, Sergeant John V Young Lane, Ingleside, SF, California, 94112, United States of America",
            "locType": "park",
            "blogLinks": [
                "https://blog.trekaroo.com/top-ten-holiday-events-to-enjoy-with-kids-in-southern-california/"
            ],
            "longitude": "-122.444804424152"
        },
        "los angeles river bike path": {
            "latitude": "34.1438248",
            "closest_to": "",
            "address": "Los Angeles River Bike Path, West Glendale, LA, Los Angeles County, California, 91204, United States of America",
            "locType": "cycleway",
            "blogLinks": [
                "http://www.traillink.com/city/riverside-ca-trails.aspx"
            ],
            "longitude": "-118.2779262"
        },
        "san diego creek": {
            "latitude": "35.3227003",
            "closest_to": "",
            "address": "San Diego Creek, San Luis Obispo County, California, United States of America",
            "locType": "stream",
            "blogLinks": [
                "http://www.traillink.com/city/riverside-ca-trails.aspx"
            ],
            "longitude": "-119.850766"
        },
        "fl": {
            "latitude": "29.8738433",
            "closest_to": "",
            "address": "California, Lanark Village, Franklin County, Florida, 32323, United States of America",
            "locType": "residential",
            "blogLinks": [
                "https://www.quora.com/What-are-the-best-places-to-visit-in-the-USA"
            ],
            "longitude": "-84.6071504"
        },
        "united kingdom": {
            "latitude": "52.4422729",
            "closest_to": "",
            "address": "California, Birmingham, West Midlands, England, UK",
            "locType": "village",
            "blogLinks": [
                "http://losangeles.cbslocal.com/top-lists/the-best-scenic-drives-within-60-miles-of-los-angeles/"
            ],
            "longitude": "-1.9796882"
        },
        "old town": {
            "latitude": "35.142943",
            "closest_to": "",
            "address": "Old Town, Golden Hills, Kern County, California, United States of America",
            "locType": "locality",
            "blogLinks": [
                "https://www.quora.com/What-are-the-best-places-to-visit-in-the-USA"
            ],
            "longitude": "-118.4954422"
        },
        "los angeles river": {
            "latitude": "34.1557816",
            "closest_to": "",
            "address": "Los Angeles River, LA, Los Angeles County, California, United States of America",
            "locType": "river",
            "blogLinks": [
                "http://www.traillink.com/city/riverside-ca-trails.aspx"
            ],
            "longitude": "-118.4421904"
        },
        "midwest": {
            "latitude": "41.2638876",
            "closest_to": "",
            "address": "Midwest Allergy and Asthma Clinic, California Street, Omaha, Douglas County, Nebraska, 68114, United States of America",
            "locType": "doctors",
            "blogLinks": [
                "https://www.quora.com/What-are-the-best-places-to-visit-in-the-USA"
            ],
            "longitude": "-96.0425172"
        },
        "east bank": {
            "latitude": "37.768369",
            "closest_to": "",
            "address": "University of California San Francisco, Bank of America Terrace, Mission Bay, SF, California, 94158, United States of America",
            "locType": "bicycle_parking",
            "blogLinks": [
                "http://www.traillink.com/city/riverside-ca-trails.aspx"
            ],
            "longitude": "-122.3926209"
        },
        "alabama": {
            "latitude": "37.413435",
            "closest_to": "",
            "address": "Alabama, Rovana, Inyo County, California, United States of America",
            "locType": "residential",
            "blogLinks": [
                "https://www.quora.com/What-are-the-best-places-to-visit-in-the-USA"
            ],
            "longitude": "-118.6109719"
        },
        "la": {
            "latitude": "36.7014631",
            "closest_to": "",
            "address": "California, United States of America",
            "locType": "administrative",
            "blogLinks": [
                "https://www.quora.com/What-are-the-best-places-to-visit-in-the-USA",
                "http://www.traillink.com/city/riverside-ca-trails.aspx"
            ],
            "longitude": "-118.7559973"
        },
        "glendale": {
            "latitude": "34.1423455",
            "closest_to": "",
            "address": "Glendale, Los Angeles County, California, United States of America",
            "locType": "city",
            "blogLinks": [
                "https://blog.trekaroo.com/top-ten-holiday-events-to-enjoy-with-kids-in-southern-california/"
            ],
            "longitude": "-118.248367"
        },
        "atlanta": {
            "latitude": "37.8129826",
            "closest_to": "",
            "address": "Atlanta, San Joaquin County, California, United States of America",
            "locType": "hamlet",
            "blogLinks": [
                "https://www.quora.com/What-are-the-best-places-to-visit-in-the-USA"
            ],
            "longitude": "-121.1207728"
        },
        "oceanside": {
            "latitude": "33.1958696",
            "closest_to": "",
            "address": "Oceanside, San Diego County, California, United States of America",
            "locType": "city",
            "blogLinks": [
                "http://www.traillink.com/city/riverside-ca-trails.aspx"
            ],
            "longitude": "-117.3794833"
        },
        "east nashville": {
            "latitude": "38.5787952",
            "closest_to": "",
            "address": "Nashville, El Dorado County, California, United States of America",
            "locType": "hamlet",
            "blogLinks": [
                "https://www.quora.com/What-are-the-best-places-to-visit-in-the-USA"
            ],
            "longitude": "-120.8452144"
        },
        "vermont vermont": {
            "latitude": "34.0908334",
            "closest_to": "",
            "address": "Vermont/Santa Monica, Santa Monica Boulevard, Little Armenia, LA, Los Angeles County, California, 90029, United States of America",
            "locType": "station",
            "blogLinks": [
                "https://www.quora.com/What-are-the-best-places-to-visit-in-the-USA"
            ],
            "longitude": "-118.2917023"
        },
        "paris": {
            "latitude": "34.4719383",
            "closest_to": "",
            "address": "Paris, Los Angeles County, California, United States of America",
            "locType": "hamlet",
            "blogLinks": [
                "https://www.quora.com/What-are-the-best-places-to-visit-in-the-USA"
            ],
            "longitude": "-118.1809078"
        },
        "san jose": {
            "latitude": "37.3361905",
            "closest_to": "",
            "address": "San Jos\u00e9, Santa Clara County, California, United States of America",
            "locType": "city",
            "blogLinks": [
                "https://www.tripadvisor.com/Attractions-g32780-Activities-Newport_Beach_California.html"
            ],
            "longitude": "-121.8905832"
        },
        "minneapolis": {
            "latitude": "34.1135807",
            "closest_to": "",
            "address": "Minneapolis Street, Atwater, LA, Los Angeles County, California, 90039, United States of America",
            "locType": "residential",
            "blogLinks": [
                "https://www.quora.com/What-are-the-best-places-to-visit-in-the-USA"
            ],
            "longitude": "-118.2520117"
        },
        "angeles crest highway": {
            "latitude": "34.2122297",
            "closest_to": "",
            "address": "Angeles Crest Highway, La Ca\u00f1ada Flintridge, Los Angeles County, California, 91011, United States of America",
            "locType": "secondary",
            "blogLinks": [
                "http://losangeles.cbslocal.com/top-lists/the-best-scenic-drives-within-60-miles-of-los-angeles/"
            ],
            "longitude": "-118.2000652"
        },
        "los angeles river trail": {
            "latitude": "34.1557816",
            "closest_to": "",
            "address": "Los Angeles River, LA, Los Angeles County, California, United States of America",
            "locType": "river",
            "blogLinks": [
                "http://www.traillink.com/city/riverside-ca-trails.aspx"
            ],
            "longitude": "-118.4421904"
        },
        "west usa": {
            "latitude": "40.0657724",
            "closest_to": "",
            "address": "California, Washington County, Pennsylvania, United States of America",
            "locType": "administrative",
            "blogLinks": [
                "https://www.quora.com/What-are-the-best-places-to-visit-in-the-USA"
            ],
            "longitude": "-79.8918435"
        },
        "malibu creek state park": {
            "latitude": "34.0996554",
            "closest_to": "",
            "address": "Malibu Creek State Park, Las Virgenes Road, Calabasas, Los Angeles County, California, 91302, United States of America",
            "locType": "nature_reserve",
            "blogLinks": [
                "http://losangeles.cbslocal.com/top-lists/the-best-scenic-drives-within-60-miles-of-los-angeles/"
            ],
            "longitude": "-118.7120156"
        },
        "san diego": {
            "latitude": "32.7174209",
            "closest_to": "",
            "address": "San Diego, San Diego County, California, United States of America",
            "locType": "city",
            "blogLinks": [
                "https://blog.trekaroo.com/top-ten-holiday-events-to-enjoy-with-kids-in-southern-california/"
            ],
            "longitude": "-117.1627713"
        },
        "america": {
            "latitude": "36.2573198",
            "closest_to": "",
            "address": "America, Kings County, California, 93246, United States of America",
            "locType": "residential",
            "blogLinks": [
                "https://www.quora.com/What-are-the-best-places-to-visit-in-the-USA",
                "http://www.traillink.com/city/riverside-ca-trails.aspx"
            ],
            "longitude": "-119.8948706"
        },
        "san luis rey river trail": {
            "latitude": "33.2586949",
            "closest_to": "",
            "address": "San Luis Rey River, Oceanside, San Diego County, California, United States of America",
            "locType": "river",
            "blogLinks": [
                "http://www.traillink.com/city/riverside-ca-trails.aspx"
            ],
            "longitude": "-117.2623628"
        },
        "u.s.": {
            "latitude": "-32.5446226",
            "closest_to": "",
            "address": "La California, Municipio de Las Rosas, Departamento Belgrano, Sta. Fe, Argentina",
            "locType": "hamlet",
            "blogLinks": [
                "https://www.quora.com/What-are-the-best-places-to-visit-in-the-USA",
                "http://losangeles.cbslocal.com/top-lists/the-best-scenic-drives-within-60-miles-of-los-angeles/"
            ],
            "longitude": "-61.5489543"
        },
        "burlington": {
            "latitude": "40.3084738",
            "closest_to": "",
            "address": "Burlington, Humboldt County, California, United States of America",
            "locType": "hamlet",
            "blogLinks": [
                "https://www.quora.com/What-are-the-best-places-to-visit-in-the-USA"
            ],
            "longitude": "-123.9092055"
        },
        "westlake village": {
            "latitude": "34.1458389",
            "closest_to": "",
            "address": "Westlake Village, Los Angeles County, California, United States of America",
            "locType": "city",
            "blogLinks": [
                "http://losangeles.cbslocal.com/top-lists/the-best-scenic-drives-within-60-miles-of-los-angeles/"
            ],
            "longitude": "-118.8056473"
        },
        "salt lake city": {
            "latitude": "40.7401784",
            "closest_to": "",
            "address": "California Avenue, Salt Lake City, Salt Lake County, Utah, United States of America",
            "locType": "secondary",
            "blogLinks": [
                "https://www.quora.com/What-are-the-best-places-to-visit-in-the-USA"
            ],
            "longitude": "-112.0151647"
        },
        "san diego botanic gardens": {
            "latitude": "33.053482",
            "closest_to": "",
            "address": "San Diego Botanic Garden, Pacific View Lane, Encinitas, San Diego County, California, 92024, United States of America",
            "locType": "garden",
            "blogLinks": [
                "https://blog.trekaroo.com/top-ten-holiday-events-to-enjoy-with-kids-in-southern-california/"
            ],
            "longitude": "-117.281085005264"
        },
        "university trail": {
            "latitude": "37.4265649",
            "closest_to": "",
            "address": "Stanford University, Santa Clara County, California, United States of America",
            "locType": "administrative",
            "blogLinks": [
                "http://www.traillink.com/city/riverside-ca-trails.aspx"
            ],
            "longitude": "-122.170187551249"
        },
        "pacific ocean": {
            "latitude": "36.16305775",
            "closest_to": "",
            "address": "Pacific Ocean, Cabrillo Highway, Monterey County, California, 93920, United States of America",
            "locType": "cliff",
            "blogLinks": [
                "http://www.traillink.com/city/riverside-ca-trails.aspx"
            ],
            "longitude": "-121.678715787326"
        },
        "santiago creek": {
            "latitude": "35.0035876",
            "closest_to": "",
            "address": "Santiago Creek, Kern County, California, United States of America",
            "locType": "stream",
            "blogLinks": [
                "http://www.traillink.com/city/riverside-ca-trails.aspx"
            ],
            "longitude": "-119.2913576"
        },
        "mount wilson": {
            "latitude": "34.2263926",
            "closest_to": "",
            "address": "Mount Wilson, Los Angeles County, California, United States of America",
            "locType": "hamlet",
            "blogLinks": [
                "http://losangeles.cbslocal.com/top-lists/the-best-scenic-drives-within-60-miles-of-los-angeles/"
            ],
            "longitude": "-118.0661796"
        },
        "e. prospect avenue": {
            "latitude": "34.1739551",
            "closest_to": "",
            "address": "East Prospect Avenue, Burbank, Los Angeles County, California, 91502, United States of America",
            "locType": "residential",
            "blogLinks": [
                "http://www.traillink.com/city/riverside-ca-trails.aspx"
            ],
            "longitude": "-118.2992525"
        },
        "channel islands national park": {
            "latitude": "34.248597",
            "closest_to": "",
            "address": "Channel Islands National Park, Spinnaker Drive, Ventura, Ventura County, California, 93006, United States of America",
            "locType": "national_park",
            "blogLinks": [
                "http://losangeles.cbslocal.com/top-lists/the-best-scenic-drives-within-60-miles-of-los-angeles/"
            ],
            "longitude": "-119.266377755078"
        },
        "united states": {
            "latitude": "36.7014631",
            "closest_to": "",
            "address": "California, United States of America",
            "locType": "administrative",
            "blogLinks": [
                "https://www.tripadvisor.com/Attractions-g32780-Activities-Newport_Beach_California.html",
                "https://www.quora.com/What-are-the-best-places-to-visit-in-the-USA"
            ],
            "longitude": "-118.7559973"
        },
        "pasadena": {
            "latitude": "34.1476452",
            "closest_to": "",
            "address": "Pasadena, Los Angeles County, California, United States of America",
            "locType": "city",
            "blogLinks": [
                "https://blog.trekaroo.com/top-ten-holiday-events-to-enjoy-with-kids-in-southern-california/"
            ],
            "longitude": "-118.1444778"
        },
        "newport": {
            "latitude": "39.5773839",
            "closest_to": "",
            "address": "Newport, Mendocino County, California, United States of America",
            "locType": "hamlet",
            "blogLinks": [
                "http://losangeles.cbslocal.com/top-lists/the-best-scenic-drives-within-60-miles-of-los-angeles/"
            ],
            "longitude": "-123.7747387"
        },
        "oxnard": {
            "latitude": "34.1976308",
            "closest_to": "",
            "address": "Oxnard, Ventura County, California, United States of America",
            "locType": "city",
            "blogLinks": [
                "http://losangeles.cbslocal.com/top-lists/the-best-scenic-drives-within-60-miles-of-los-angeles/"
            ],
            "longitude": "-119.1803817"
        },
        "radford avenue studio city": {
            "latitude": "34.1447608",
            "closest_to": "",
            "address": "Radford Avenue, Studio City, Valley Village, LA, Los Angeles County, California, 91604, United States of America",
            "locType": "residential",
            "blogLinks": [
                "http://losangeles.cbslocal.com/top-lists/the-best-scenic-drives-within-60-miles-of-los-angeles/"
            ],
            "longitude": "-118.3925972"
        },
        "united states of america": {
            "latitude": "36.7014631",
            "closest_to": "",
            "address": "California, United States of America",
            "locType": "administrative",
            "blogLinks": [
                "https://www.quora.com/What-are-the-best-places-to-visit-in-the-USA"
            ],
            "longitude": "-118.7559973"
        },
        "nazareth": {
            "latitude": "32.784617",
            "closest_to": "",
            "address": "Nazareth Drive, City Heights, San Diego, San Diego County, California, 92108, United States of America",
            "locType": "residential",
            "blogLinks": [
                "https://blog.trekaroo.com/top-ten-holiday-events-to-enjoy-with-kids-in-southern-california/"
            ],
            "longitude": "-117.1079923"
        },
        "malibu": {
            "latitude": "33.7932142",
            "closest_to": "",
            "address": "Malibu, Palm Springs, Riverside County, California, 92264, United States of America",
            "locType": "residential",
            "blogLinks": [
                "http://losangeles.cbslocal.com/top-lists/the-best-scenic-drives-within-60-miles-of-los-angeles/"
            ],
            "longitude": "-116.5023561"
        },
        "bisbee": {
            "latitude": "38.4915752",
            "closest_to": "",
            "address": "Bisbee Peak, Amador County, California, United States of America",
            "locType": "peak",
            "blogLinks": [
                "https://www.quora.com/What-are-the-best-places-to-visit-in-the-USA"
            ],
            "longitude": "-120.8893826"
        },
        "new york city": {
            "latitude": "40.767819",
            "closest_to": "",
            "address": "California Sea Lion, 830, 5th Avenue, Upper East Side, Manhattan, New York County, NYC, New York, 10035, United States of America",
            "locType": "attraction",
            "blogLinks": [
                "https://www.quora.com/What-are-the-best-places-to-visit-in-the-USA"
            ],
            "longitude": "-73.9717587"
        },
        "washington": {
            "latitude": "40.0657724",
            "closest_to": "",
            "address": "California, Washington County, Pennsylvania, United States of America",
            "locType": "administrative",
            "blogLinks": [
                "https://www.quora.com/What-are-the-best-places-to-visit-in-the-USA"
            ],
            "longitude": "-79.8918435"
        },
        "turtle rock trail": {
            "latitude": "35.354498",
            "closest_to": "",
            "address": "Turtle Rock Trail, Morro Bay, San Luis Obispo County, California, 93442, United States of America",
            "locType": "track",
            "blogLinks": [
                "http://www.traillink.com/city/riverside-ca-trails.aspx"
            ],
            "longitude": "-120.8251299"
        },
        "ventura": {
            "latitude": "34.4458248",
            "closest_to": "",
            "address": "Ventura County, California, United States of America",
            "locType": "administrative",
            "blogLinks": [
                "http://losangeles.cbslocal.com/top-lists/the-best-scenic-drives-within-60-miles-of-los-angeles/"
            ],
            "longitude": "-119.0779358"
        },
        "texas": {
            "latitude": "29.7181118",
            "closest_to": "",
            "address": "California, Baytown, Harris County, Texas, 77520, United States of America",
            "locType": "residential",
            "blogLinks": [
                "https://www.quora.com/What-are-the-best-places-to-visit-in-the-USA"
            ],
            "longitude": "-94.997906"
        },
        "california": {
            "latitude": "7.3480915",
            "closest_to": "",
            "address": "California, Santander, Colombia",
            "locType": "village",
            "blogLinks": [
                "https://blog.trekaroo.com/top-ten-holiday-events-to-enjoy-with-kids-in-southern-california/",
                "https://www.quora.com/What-are-the-best-places-to-visit-in-the-USA",
                "http://losangeles.cbslocal.com/top-lists/the-best-scenic-drives-within-60-miles-of-los-angeles/",
                "http://www.traillink.com/city/riverside-ca-trails.aspx"
            ],
            "longitude": "-72.945787"
        },
        "green mountain": {
            "latitude": "36.9710605",
            "closest_to": "",
            "address": "Green Mountain, Fresno County, California, United States of America",
            "locType": "peak",
            "blogLinks": [
                "https://www.quora.com/What-are-the-best-places-to-visit-in-the-USA"
            ],
            "longitude": "-119.4076288"
        },
        "new mexico": {
            "latitude": "32.2644096",
            "closest_to": "",
            "address": "California Lateral, Mesilla, Do\u00f1a Ana County, New Mexico, United States of America",
            "locType": "drain",
            "blogLinks": [
                "https://www.quora.com/What-are-the-best-places-to-visit-in-the-USA"
            ],
            "longitude": "-106.8036705"
        },
        "el cajon trail": {
            "latitude": "32.7947731",
            "closest_to": "",
            "address": "El Cajon, San Diego County, California, United States of America",
            "locType": "city",
            "blogLinks": [
                "http://www.traillink.com/city/riverside-ca-trails.aspx"
            ],
            "longitude": "-116.9625268"
        },
        "santa fe": {
            "latitude": "32.4395109",
            "closest_to": "",
            "address": "Santa Fe, Tijuana, Baja California, M\u00e9xico",
            "locType": "village",
            "blogLinks": [
                "https://www.quora.com/What-are-the-best-places-to-visit-in-the-USA"
            ],
            "longitude": "-117.0336822"
        },
        "austin": {
            "latitude": "37.242444",
            "closest_to": "",
            "address": "Austin, Santa Clara County, California, United States of America",
            "locType": "hamlet",
            "blogLinks": [
                "https://www.quora.com/What-are-the-best-places-to-visit-in-the-USA"
            ],
            "longitude": "-121.9982913"
        },
        "campo": {
            "latitude": "37.8974258",
            "closest_to": "",
            "address": "El Campo, Marin County, California, United States of America",
            "locType": "hamlet",
            "blogLinks": [
                "https://blog.trekaroo.com/top-ten-holiday-events-to-enjoy-with-kids-in-southern-california/"
            ],
            "longitude": "-122.4652506"
        },
        "miami": {
            "latitude": "37.4131334",
            "closest_to": "",
            "address": "Miami Creek, Madera County, California, United States of America",
            "locType": "stream",
            "blogLinks": [
                "https://www.quora.com/What-are-the-best-places-to-visit-in-the-USA"
            ],
            "longitude": "-119.6550903"
        }
    },
    "newport beach": {
        "type": "city",
        "osm_id": "112956",
        "class": "place",
        "importance": 0.75631325724067,
        "lat": "33.6170092",
        "lon": "-117.92944",
        "boundingbox": [
            "33.5348773",
            "33.6717531",
            "-117.9959276",
            "-117.7839003"
        ],
        "display_name": "Newport Beach, Orange County, California, United States of America",
        "licence": "Data \u00a9 OpenStreetMap contributors, ODbL 1.0. http://www.openstreetmap.org/copyright",
        "icon": "https://nominatim.openstreetmap.org/images/mapicons/poi_place_city.p.20.png",
        "place_id": "157952615",
        "osm_type": "relation"
    }
}