{
    "santa barbara": {
        "type": "city",
        "osm_id": "33113642",
        "class": "place",
        "importance": 0.84553400574646,
        "lat": "34.4221319",
        "lon": "-119.7026672",
        "boundingbox": [
            "34.336029",
            "34.463922",
            "-119.8597817",
            "-119.6399339"
        ],
        "display_name": "Santa Barbara, Santa Barbara County, California, United States of America",
        "licence": "Data \u00a9 OpenStreetMap contributors, ODbL 1.0. http://www.openstreetmap.org/copyright",
        "icon": "https://nominatim.openstreetmap.org/images/mapicons/poi_place_city.p.20.png",
        "place_id": "71537873",
        "osm_type": "way"
    },
    "mentions": {
        "xa0hollywood boulevard": {
            "latitude": "32.6636712",
            "closest_to": "",
            "address": "Boulevard, San Diego County, California, United States of America",
            "locType": "hamlet",
            "blogLinks": [
                "http://www.daytrippen.com/southern-california-bucket-list/"
            ],
            "longitude": "-116.2736289"
        },
        "titus canyon": {
            "latitude": "36.82805",
            "closest_to": "",
            "address": "Titus Canyon Road, Inyo County, California, United States of America",
            "locType": "unclassified",
            "blogLinks": [
                "http://www.daytrippen.com/southern-california-bucket-list/"
            ],
            "longitude": "-117.1157339"
        },
        "golden gate bridge": {
            "latitude": "37.8302809",
            "closest_to": "",
            "address": "Golden Gate Bridge, Waldo, Marin County, California, 94965, United States of America",
            "locType": "motorway",
            "blogLinks": [
                "https://www.viator.com/tours/Los-Angeles/3-Day-California-Coast-Tour-Santa-Barbara-San-Francisco-and-Carmel/d645-3857SFOYOS"
            ],
            "longitude": "-122.4798473"
        },
        "alcatraz": {
            "latitude": "37.8267283",
            "closest_to": "",
            "address": "Alcatraz Island, SF, California, United States of America",
            "locType": "island",
            "blogLinks": [
                "https://www.viator.com/tours/Los-Angeles/3-Day-California-Coast-Tour-Santa-Barbara-San-Francisco-and-Carmel/d645-3857SFOYOS"
            ],
            "longitude": "-122.422746492409"
        },
        "myrtle creek": {
            "latitude": "41.8624011",
            "closest_to": "",
            "address": "Myrtle Creek, Del Norte County, California, United States of America",
            "locType": "stream",
            "blogLinks": [
                "http://www.daytrippen.com/southern-california-bucket-list/"
            ],
            "longitude": "-124.0622658"
        },
        "griffith park": {
            "latitude": "38.68813",
            "closest_to": "",
            "address": "Griffith Park, Citrus Heights, Sacramento County, California, 95621, United States of America",
            "locType": "service",
            "blogLinks": [
                "https://answers.yahoo.com/question/index?qid=20080530211242AArXWMD",
                "http://www.daytrippen.com/southern-california-bucket-list/"
            ],
            "longitude": "-121.3121659"
        },
        "carmel-by-the-sea": {
            "latitude": "36.5552387",
            "closest_to": "",
            "address": "Carmel-by-the-Sea, Monterey County, California, United States of America",
            "locType": "city",
            "blogLinks": [
                "https://www.viator.com/tours/Los-Angeles/3-Day-California-Coast-Tour-Santa-Barbara-San-Francisco-and-Carmel/d645-3857SFOYOS",
                "https://www.gapyear.com/articles/216212/13-incredible-stops-on-the-pacific-coast-highway"
            ],
            "longitude": "-121.9232878"
        },
        "yreka": {
            "latitude": "41.7326157",
            "closest_to": "",
            "address": "Yreka, Siskiyou County, California, United States of America",
            "locType": "city",
            "blogLinks": [
                "https://www.yelp.com/biz/pacific-coast-highway-carmel"
            ],
            "longitude": "-122.6377654"
        },
        "monterey bay": {
            "latitude": "36.7999557",
            "closest_to": "",
            "address": "Monterey Bay, Monterey County, California, United States of America",
            "locType": "bay",
            "blogLinks": [
                "https://www.gapyear.com/articles/216212/13-incredible-stops-on-the-pacific-coast-highway",
                "http://www.wildlife.ca.gov/Fishing/Ocean/Grunion"
            ],
            "longitude": "-121.9010667"
        },
        "santa cruz": {
            "latitude": "36.9735903",
            "closest_to": "",
            "address": "Santa Cruz, Santa Cruz County, California, United States of America",
            "locType": "city",
            "blogLinks": [
                "https://www.gapyear.com/articles/216212/13-incredible-stops-on-the-pacific-coast-highway",
                "http://www.travelchannel.com/destinations/us/ca/articles/californias-most-spectacular-camping-spots",
                "https://www.yelp.com/biz/pacific-coast-highway-carmel"
            ],
            "longitude": "-122.0260569"
        },
        "us": {
            "latitude": "36.7014631",
            "closest_to": "",
            "address": "California, United States of America",
            "locType": "administrative",
            "blogLinks": [
                "https://www.tripadvisor.com/ShowTopic-g32578-i334-k5199774-La_Jolla_or_Laguna-La_Jolla_San_Diego_California.html",
                "http://www.movoto.com/blog/opinions/move-to-santa-barbara/",
                "http://distancecalculator.globefeed.com/US_Distance_Calculator.asp?state=CA",
                "http://www.trippy.com/question/California-Where-to-stay-half-way-between-S-F--and-L-A",
                "https://www.yelp.com/biz/pacific-coast-highway-carmel"
            ],
            "longitude": "-118.7559973"
        },
        "california": {
            "latitude": "7.3480915",
            "closest_to": "",
            "address": "California, Santander, Colombia",
            "locType": "village",
            "blogLinks": [
                "http://www.wildlife.ca.gov/Fishing/Ocean/Grunion",
                "http://www.movoto.com/blog/opinions/move-to-santa-barbara/",
                "https://www.gapyear.com/articles/216212/13-incredible-stops-on-the-pacific-coast-highway",
                "http://www.trippy.com/question/California-Where-to-stay-half-way-between-S-F--and-L-A",
                "https://www.tripadvisor.com/ShowTopic-g28930-i18-k4620154-Driving_from_Florida_to_California-Florida.html",
                "https://www.gogobot.com/santa-barbara",
                "http://distancecalculator.globefeed.com/US_Distance_Calculator.asp?state=CA",
                "https://answers.yahoo.com/question/index?qid=20080530211242AArXWMD",
                "https://www.viator.com/tours/Los-Angeles/3-Day-California-Coast-Tour-Santa-Barbara-San-Francisco-and-Carmel/d645-3857SFOYOS",
                "https://www.tripadvisor.co.uk/ShowTopic-g33045-i106-k8967493-February_Santa_Barbara_or_Newport_Beach-Santa_Barbara_California.html",
                "https://www.tripadvisor.com/ShowTopic-g33045-i106-k8967493-February_Santa_Barbara_or_Newport_Beach-Santa_Barbara_California.html",
                "http://www.daytrippen.com/southern-california-bucket-list/",
                "http://www.travelchannel.com/destinations/us/ca/articles/californias-most-spectacular-camping-spots",
                "https://www.yelp.com/biz/pacific-coast-highway-carmel"
            ],
            "longitude": "-72.945787"
        },
        "florida": {
            "latitude": "29.8738433",
            "closest_to": "",
            "address": "California, Lanark Village, Franklin County, Florida, 32323, United States of America",
            "locType": "residential",
            "blogLinks": [
                "https://www.tripadvisor.com/ShowTopic-g28930-i18-k4620154-Driving_from_Florida_to_California-Florida.html",
                "https://www.yelp.com/biz/pacific-coast-highway-carmel"
            ],
            "longitude": "-84.6071504"
        },
        "bixby bridge": {
            "latitude": "36.3710197",
            "closest_to": "",
            "address": "Bixby Creek Bridge, Notleys Landing, Monterey County, California, 93923, United States of America",
            "locType": "primary",
            "blogLinks": [
                "https://www.gapyear.com/articles/216212/13-incredible-stops-on-the-pacific-coast-highway",
                "https://www.yelp.com/biz/pacific-coast-highway-carmel"
            ],
            "longitude": "-121.9017572"
        },
        "wilder ranch state park": {
            "latitude": "36.96021805",
            "closest_to": "",
            "address": "Wilder Ranch State Park, Coast Road, Westside, Santa Cruz County, California, 95060, United States of America",
            "locType": "park",
            "blogLinks": [
                "https://www.gapyear.com/articles/216212/13-incredible-stops-on-the-pacific-coast-highway"
            ],
            "longitude": "-122.079566815934"
        },
        "utah": {
            "latitude": "37.413408",
            "closest_to": "",
            "address": "Utah, Rovana, Inyo County, California, United States of America",
            "locType": "residential",
            "blogLinks": [
                "https://www.tripadvisor.com/ShowTopic-g28930-i18-k4620154-Driving_from_Florida_to_California-Florida.html"
            ],
            "longitude": "-118.6125359"
        },
        "san simeon": {
            "latitude": "35.6438587",
            "closest_to": "",
            "address": "San Simeon, San Luis Obispo County, California, United States of America",
            "locType": "hamlet",
            "blogLinks": [
                "http://www.travelchannel.com/destinations/us/ca/articles/californias-most-spectacular-camping-spots",
                "https://www.gapyear.com/articles/216212/13-incredible-stops-on-the-pacific-coast-highway",
                "http://www.trippy.com/question/California-Where-to-stay-half-way-between-S-F--and-L-A",
                "https://www.yelp.com/biz/pacific-coast-highway-carmel"
            ],
            "longitude": "-121.1907532"
        },
        "monterrey": {
            "latitude": "32.5492861",
            "closest_to": "",
            "address": "Monterrey, Mexicali, Baja California, M\u00e9xico",
            "locType": "village",
            "blogLinks": [
                "https://www.viator.com/tours/Los-Angeles/3-Day-California-Coast-Tour-Santa-Barbara-San-Francisco-and-Carmel/d645-3857SFOYOS",
                "https://www.yelp.com/biz/pacific-coast-highway-carmel"
            ],
            "longitude": "-115.0704122"
        },
        "pacific": {
            "latitude": "38.7601815",
            "closest_to": "",
            "address": "Pacific, El Dorado County, California, United States of America",
            "locType": "hamlet",
            "blogLinks": [
                "https://answers.yahoo.com/question/index?qid=20080530211242AArXWMD",
                "http://www.daytrippen.com/southern-california-bucket-list/",
                "http://www.movoto.com/blog/opinions/move-to-santa-barbara/",
                "http://www.travelchannel.com/destinations/us/ca/articles/californias-most-spectacular-camping-spots"
            ],
            "longitude": "-120.507146"
        },
        "death valley national park": {
            "latitude": "36.4914385",
            "closest_to": "",
            "address": "Death Valley National Park, Lucky Wash Road, Skidoo, Inyo County, California, United States of America",
            "locType": "national_park",
            "blogLinks": [
                "http://www.daytrippen.com/southern-california-bucket-list/"
            ],
            "longitude": "-117.102293507719"
        },
        "london": {
            "latitude": "36.4760619",
            "closest_to": "",
            "address": "London, Tulare County, California, United States of America",
            "locType": "village",
            "blogLinks": [
                "http://www.wildlife.ca.gov/Fishing/Ocean/Grunion"
            ],
            "longitude": "-119.4431784"
        },
        "lake powell": {
            "latitude": "37.7848553",
            "closest_to": "",
            "address": "Powell, Cable Car Waiting Line, South of Market, SF, California, 94104, United States of America",
            "locType": "platform",
            "blogLinks": [
                "http://www.travelchannel.com/destinations/us/ca/articles/californias-most-spectacular-camping-spots"
            ],
            "longitude": "-122.4076956"
        },
        "usa": {
            "latitude": "36.7014631",
            "closest_to": "",
            "address": "California, United States of America",
            "locType": "administrative",
            "blogLinks": [
                "http://www.movoto.com/blog/opinions/move-to-santa-barbara/",
                "https://www.gogobot.com/santa-barbara"
            ],
            "longitude": "-118.7559973"
        },
        "mcway falls": {
            "latitude": "36.1578211",
            "closest_to": "",
            "address": "McWay Falls, Monterey County, California, United States of America",
            "locType": "waterfall",
            "blogLinks": [
                "https://www.gapyear.com/articles/216212/13-incredible-stops-on-the-pacific-coast-highway"
            ],
            "longitude": "-121.6723957"
        },
        "neverland": {
            "latitude": "36.548132",
            "closest_to": "",
            "address": "Neverland, Carmel-by-the-Sea, Monterey County, California, 93921, United States of America",
            "locType": "residential",
            "blogLinks": [
                "http://www.daytrippen.com/southern-california-bucket-list/"
            ],
            "longitude": "-121.9195989"
        },
        "orick": {
            "latitude": "41.2867896",
            "closest_to": "",
            "address": "Orick, Humboldt County, California, United States of America",
            "locType": "hamlet",
            "blogLinks": [
                "http://www.travelchannel.com/destinations/us/ca/articles/californias-most-spectacular-camping-spots"
            ],
            "longitude": "-124.0597936"
        },
        "monterey bay aquarium": {
            "latitude": "36.61809095",
            "closest_to": "",
            "address": "MBA, 886, Cannery Row, Monterey, Monterey County, California, 93940, United States of America",
            "locType": "aquarium",
            "blogLinks": [
                "https://www.gapyear.com/articles/216212/13-incredible-stops-on-the-pacific-coast-highway",
                "http://www.trippy.com/question/California-Where-to-stay-half-way-between-S-F--and-L-A"
            ],
            "longitude": "-121.901680002002"
        },
        "l.a.": {
            "latitude": "-13.8305494",
            "closest_to": "",
            "address": "California, Provincia Abel Iturralde, LPZ, Bolivia",
            "locType": "hamlet",
            "blogLinks": [
                "https://www.viator.com/tours/Los-Angeles/3-Day-California-Coast-Tour-Santa-Barbara-San-Francisco-and-Carmel/d645-3857SFOYOS",
                "http://www.movoto.com/blog/opinions/move-to-santa-barbara/",
                "http://www.trippy.com/question/California-Where-to-stay-half-way-between-S-F--and-L-A",
                "https://www.yelp.com/biz/pacific-coast-highway-carmel"
            ],
            "longitude": "-67.9369134"
        },
        "nevada": {
            "latitude": "39.3540335",
            "closest_to": "",
            "address": "Nevada County, California, United States of America",
            "locType": "administrative",
            "blogLinks": [
                "http://www.daytrippen.com/southern-california-bucket-list/"
            ],
            "longitude": "-120.8089842"
        },
        "golden state of california": {
            "latitude": "39.6712719",
            "closest_to": "",
            "address": "Golden State Island, Butte County, California, United States of America",
            "locType": "island",
            "blogLinks": [
                "http://www.travelchannel.com/destinations/us/ca/articles/californias-most-spectacular-camping-spots"
            ],
            "longitude": "-121.9619226"
        },
        "hearst castle": {
            "latitude": "35.6853689",
            "closest_to": "",
            "address": "Hearst Castle, 750, Hearst Castle Road, San Simeon, San Luis Obispo County, California, 93452, United States of America",
            "locType": "museum",
            "blogLinks": [
                "http://www.travelchannel.com/destinations/us/ca/articles/californias-most-spectacular-camping-spots"
            ],
            "longitude": "-121.167587299509"
        },
        "santa cruz beach boardwalk": {
            "latitude": "36.96446855",
            "closest_to": "",
            "address": "Santa Cruz Beach Boardwalk, Boardwalk, Beach & Boardwalk District (Commercial), Seabright, Santa Cruz, Santa Cruz County, California, 1982, United States of America",
            "locType": "attraction",
            "blogLinks": [
                "https://www.gapyear.com/articles/216212/13-incredible-stops-on-the-pacific-coast-highway"
            ],
            "longitude": "-122.016027247326"
        },
        "las vegas": {
            "latitude": "36.17310935",
            "closest_to": "",
            "address": "California Hotel, Sky Walk(Connection from Main Street to California, Cultural Corridor, Vegas Heights, Las Vegas, Clark County, Nevada, 89101, United States of America",
            "locType": "hotel",
            "blogLinks": [
                "https://www.tripadvisor.com/ShowTopic-g32578-i334-k5199774-La_Jolla_or_Laguna-La_Jolla_San_Diego_California.html"
            ],
            "longitude": "-115.144667930325"
        },
        "bubba gump": {
            "latitude": "36.61674695",
            "closest_to": "",
            "address": "Bubba Gump, 720, Cannery Row, Monterey, Monterey County, California, 93940, United States of America",
            "locType": "restaurant",
            "blogLinks": [
                "https://answers.yahoo.com/question/index?qid=20080530211242AArXWMD"
            ],
            "longitude": "-121.900200090787"
        },
        "calif": {
            "latitude": "37.786376",
            "closest_to": "",
            "address": "California, Woodstock, Alameda, Alameda County, California, 94501, United States of America",
            "locType": "residential",
            "blogLinks": [
                "https://www.tripadvisor.com/ShowTopic-g28930-i18-k4620154-Driving_from_Florida_to_California-Florida.html",
                "http://www.wildlife.ca.gov/Fishing/Ocean/Grunion"
            ],
            "longitude": "-122.2902806"
        },
        "ano nuevo state park": {
            "latitude": "37.1642859",
            "closest_to": "",
            "address": "A\u00f1o Nuevo State Park, White House Canyon Road, San Mateo County, California, United States of America",
            "locType": "park",
            "blogLinks": [
                "https://www.gapyear.com/articles/216212/13-incredible-stops-on-the-pacific-coast-highway"
            ],
            "longitude": "-122.328030779329"
        },
        "san francisco bay": {
            "latitude": "37.708264",
            "closest_to": "",
            "address": "San Francisco Bay, Ferry Landing, Alameda, Alameda County, California, 94502, United States of America",
            "locType": "bay",
            "blogLinks": [
                "http://www.travelchannel.com/destinations/us/ca/articles/californias-most-spectacular-camping-spots",
                "http://www.wildlife.ca.gov/Fishing/Ocean/Grunion"
            ],
            "longitude": "-122.2802469"
        },
        "east coast": {
            "latitude": "37.858337",
            "closest_to": "",
            "address": "Coast, Ashby Avenue, Claremont, Berkeley, Alameda County, California, 94705, United States of America",
            "locType": "fuel",
            "blogLinks": [
                "http://www.movoto.com/blog/opinions/move-to-santa-barbara/"
            ],
            "longitude": "-122.2447393"
        },
        "san antonio": {
            "latitude": "38.1838069",
            "closest_to": "",
            "address": "San Antonio, Marin County, California, United States of America",
            "locType": "hamlet",
            "blogLinks": [
                "https://www.tripadvisor.com/ShowTopic-g28930-i18-k4620154-Driving_from_Florida_to_California-Florida.html"
            ],
            "longitude": "-122.5913722"
        },
        "golden gate park": {
            "latitude": "37.7693681",
            "closest_to": "",
            "address": "Golden Gate Park, Overlook Drive, Richmond District, SF, California, 94122, United States of America",
            "locType": "park",
            "blogLinks": [
                "https://www.gapyear.com/articles/216212/13-incredible-stops-on-the-pacific-coast-highway"
            ],
            "longitude": "-122.482183611177"
        },
        "ohlone": {
            "latitude": "36.9035097",
            "closest_to": "",
            "address": "Ohlone, Ohlone Parkway, Watsonville, Santa Cruz County, California, 95076, United States of America",
            "locType": "tram_stop",
            "blogLinks": [
                "http://www.travelchannel.com/destinations/us/ca/articles/californias-most-spectacular-camping-spots"
            ],
            "longitude": "-121.7728513"
        },
        "china town": {
            "latitude": "37.7963119",
            "closest_to": "",
            "address": "China Town, Duncombe Alley, Chinatown, SF, California, 94133, United States of America",
            "locType": "marketplace",
            "blogLinks": [
                "https://www.viator.com/tours/Los-Angeles/3-Day-California-Coast-Tour-Santa-Barbara-San-Francisco-and-Carmel/d645-3857SFOYOS"
            ],
            "longitude": "-122.407568"
        },
        "hawaii": {
            "latitude": "36.8347819",
            "closest_to": "",
            "address": "Hawaii, Fresno County, California, 93650, United States of America",
            "locType": "service",
            "blogLinks": [
                "https://www.yelp.com/biz/pacific-coast-highway-carmel"
            ],
            "longitude": "-119.7966952"
        },
        "el capitan": {
            "latitude": "41.8690059",
            "closest_to": "",
            "address": "El Capitan, Siskiyou County, California, United States of America",
            "locType": "peak",
            "blogLinks": [
                "https://www.gogobot.com/santa-barbara"
            ],
            "longitude": "-123.6122864"
        },
        "santa": {
            "latitude": "22.4804035",
            "closest_to": "",
            "address": "California, Santa Isabel de las Lajas, Cienfuegos, Cuba",
            "locType": "hamlet",
            "blogLinks": [
                "https://www.gogobot.com/santa-barbara"
            ],
            "longitude": "-80.3796642"
        },
        "berkeley": {
            "latitude": "37.8708393",
            "closest_to": "",
            "address": "Berkeley, Alameda County, California, United States of America",
            "locType": "city",
            "blogLinks": [
                "http://www.wildlife.ca.gov/Fishing/Ocean/Grunion"
            ],
            "longitude": "-122.2728638"
        },
        "alabama hills": {
            "latitude": "36.5677117",
            "closest_to": "",
            "address": "Alabama Hills, Inyo County, California, United States of America",
            "locType": "hamlet",
            "blogLinks": [
                "http://www.daytrippen.com/southern-california-bucket-list/"
            ],
            "longitude": "-118.0898096"
        },
        "balboa park": {
            "latitude": "37.72494875",
            "closest_to": "",
            "address": "Balboa Park, Sergeant John V Young Lane, Ingleside, SF, California, 94112, United States of America",
            "locType": "park",
            "blogLinks": [
                "https://www.gapyear.com/articles/216212/13-incredible-stops-on-the-pacific-coast-highway"
            ],
            "longitude": "-122.444804424152"
        },
        "ensenada": {
            "latitude": "30.1927661",
            "closest_to": "",
            "address": "Ensenada, Baja California, M\u00e9xico",
            "locType": "administrative",
            "blogLinks": [
                "http://www.wildlife.ca.gov/Fishing/Ocean/Grunion"
            ],
            "longitude": "-115.231462477994"
        },
        "califonia": {
            "latitude": "27.35789705",
            "closest_to": "",
            "address": "Pen\u00ednsula de Baja California, Muleg\u00e9, Baja California Sur, M\u00e9xico",
            "locType": "peninsula",
            "blogLinks": [
                "http://www.daytrippen.com/southern-california-bucket-list/"
            ],
            "longitude": "-113.380835042571"
        },
        "east beach": {
            "latitude": "37.8061771",
            "closest_to": "",
            "address": "East Beach, Mason Street, Presidio Heights, SF, California, 94129, United States of America",
            "locType": "beach",
            "blogLinks": [
                "http://www.movoto.com/blog/opinions/move-to-santa-barbara/",
                "https://www.gapyear.com/articles/216212/13-incredible-stops-on-the-pacific-coast-highway"
            ],
            "longitude": "-122.452368017781"
        },
        "san-francisco": {
            "latitude": "37.7792808",
            "closest_to": "",
            "address": "SF, California, United States of America",
            "locType": "city",
            "blogLinks": [
                "https://www.viator.com/tours/Los-Angeles/3-Day-California-Coast-Tour-Santa-Barbara-San-Francisco-and-Carmel/d645-3857SFOYOS"
            ],
            "longitude": "-122.4192362"
        },
        "san jose": {
            "latitude": "37.3361905",
            "closest_to": "",
            "address": "San Jos\u00e9, Santa Clara County, California, United States of America",
            "locType": "city",
            "blogLinks": [
                "https://www.gapyear.com/articles/216212/13-incredible-stops-on-the-pacific-coast-highway",
                "http://www.trippy.com/question/California-Where-to-stay-half-way-between-S-F--and-L-A"
            ],
            "longitude": "-121.8905832"
        },
        "baja california": {
            "latitude": "27.35789705",
            "closest_to": "",
            "address": "Pen\u00ednsula de Baja California, Muleg\u00e9, Baja California Sur, M\u00e9xico",
            "locType": "peninsula",
            "blogLinks": [
                "http://www.wildlife.ca.gov/Fishing/Ocean/Grunion"
            ],
            "longitude": "-113.380835042571"
        },
        "mexico": {
            "latitude": "28.973",
            "closest_to": "",
            "address": "California, Hermosillo, Sonora, M\u00e9xico",
            "locType": "village",
            "blogLinks": [
                "http://www.wildlife.ca.gov/Fishing/Ocean/Grunion",
                "https://www.yelp.com/biz/pacific-coast-highway-carmel"
            ],
            "longitude": "-111.8196666"
        },
        "la": {
            "latitude": "36.7014631",
            "closest_to": "",
            "address": "California, United States of America",
            "locType": "administrative",
            "blogLinks": [
                "http://www.movoto.com/blog/opinions/move-to-santa-barbara/",
                "http://www.trippy.com/question/California-Where-to-stay-half-way-between-S-F--and-L-A",
                "https://www.gapyear.com/articles/216212/13-incredible-stops-on-the-pacific-coast-highway",
                "https://www.tripadvisor.com/ShowTopic-g28930-i18-k4620154-Driving_from_Florida_to_California-Florida.html",
                "https://www.gogobot.com/santa-barbara",
                "https://answers.yahoo.com/question/index?qid=20080530211242AArXWMD",
                "https://www.yelp.com/biz/pacific-coast-highway-carmel"
            ],
            "longitude": "-118.7559973"
        },
        "new zealand": {
            "latitude": "-41.1069272",
            "closest_to": "",
            "address": "California Drive, Totara Park, Upper Hutt, Upper Hutt City, Wellington, 5371, New Zealand/Aotearoa",
            "locType": "tertiary",
            "blogLinks": [
                "http://www.trippy.com/question/California-Where-to-stay-half-way-between-S-F--and-L-A"
            ],
            "longitude": "175.0832904"
        },
        "punta abreojos": {
            "latitude": "26.7130706",
            "closest_to": "",
            "address": "Punta Abreojos, Muleg\u00e9, Baja California Sur, M\u00e9xico",
            "locType": "village",
            "blogLinks": [
                "http://www.wildlife.ca.gov/Fishing/Ocean/Grunion"
            ],
            "longitude": "-113.5741334"
        },
        "death valley": {
            "latitude": "36.42404725",
            "closest_to": "",
            "address": "Death Valley, Timbisha, Inyo County, California, 92328, United States of America",
            "locType": "desert",
            "blogLinks": [
                "http://www.daytrippen.com/southern-california-bucket-list/"
            ],
            "longitude": "-116.914043572057"
        },
        "pittsburgh": {
            "latitude": "39.5151683",
            "closest_to": "",
            "address": "Pittsburgh Hill, Yuba County, California, United States of America",
            "locType": "peak",
            "blogLinks": [
                "http://www.movoto.com/blog/opinions/move-to-santa-barbara/"
            ],
            "longitude": "-121.1002348"
        },
        "el pueblo de los angeles": {
            "latitude": "18.9919063",
            "closest_to": "",
            "address": "California, Universitaria, Puebla, 72590, M\u00e9xico",
            "locType": "residential",
            "blogLinks": [
                "http://www.daytrippen.com/southern-california-bucket-list/"
            ],
            "longitude": "-98.2033589"
        },
        "palomar": {
            "latitude": "23.48019285",
            "closest_to": "",
            "address": "Palomar, Calzada Maestros Misioneros de 1930, Santiago, Los Cabos, Baja California Sur, M\u00e9xico",
            "locType": "hotel",
            "blogLinks": [
                "https://www.gapyear.com/articles/216212/13-incredible-stops-on-the-pacific-coast-highway"
            ],
            "longitude": "-109.715262801301"
        },
        "lone pine california": {
            "latitude": "36.583176",
            "closest_to": "",
            "address": "Lone Pine, Tuttle Creek Road, Alabama Hills, Inyo County, California, 93545, United States of America",
            "locType": "administrative",
            "blogLinks": [
                "http://www.daytrippen.com/southern-california-bucket-list/"
            ],
            "longitude": "-118.078359194897"
        },
        "chicago": {
            "latitude": "37.7850531",
            "closest_to": "",
            "address": "Chicago, Woodstock, Alameda, Alameda County, California, 94501, United States of America",
            "locType": "residential",
            "blogLinks": [
                "http://www.movoto.com/blog/opinions/move-to-santa-barbara/",
                "http://www.trippy.com/question/California-Where-to-stay-half-way-between-S-F--and-L-A"
            ],
            "longitude": "-122.2872948"
        },
        "half moon bay": {
            "latitude": "37.4635519",
            "closest_to": "",
            "address": "Half Moon Bay, San Mateo County, California, United States of America",
            "locType": "city",
            "blogLinks": [
                "https://www.gapyear.com/articles/216212/13-incredible-stops-on-the-pacific-coast-highway",
                "https://www.yelp.com/biz/pacific-coast-highway-carmel"
            ],
            "longitude": "-122.4285861"
        },
        "beatty": {
            "latitude": "36.5880033",
            "closest_to": "",
            "address": "Beatty Junction, Inyo County, California, United States of America",
            "locType": "hamlet",
            "blogLinks": [
                "http://www.daytrippen.com/southern-california-bucket-list/"
            ],
            "longitude": "-116.9431122"
        },
        "alta mesa": {
            "latitude": "37.398829",
            "closest_to": "",
            "address": "Alta Mesa, Santa Clara County, California, United States of America",
            "locType": "hamlet",
            "blogLinks": [
                "http://www.movoto.com/blog/opinions/move-to-santa-barbara/"
            ],
            "longitude": "-122.1346858"
        },
        "monterey": {
            "latitude": "36.5844165",
            "closest_to": "",
            "address": "Monterey, Monterey County, California, United States of America",
            "locType": "city",
            "blogLinks": [
                "http://www.daytrippen.com/southern-california-bucket-list/",
                "https://www.gapyear.com/articles/216212/13-incredible-stops-on-the-pacific-coast-highway",
                "http://www.trippy.com/question/California-Where-to-stay-half-way-between-S-F--and-L-A",
                "https://www.yelp.com/biz/pacific-coast-highway-carmel"
            ],
            "longitude": "-121.866792846206"
        },
        "pfeiffer beach": {
            "latitude": "36.23934855",
            "closest_to": "",
            "address": "Pfeiffer Beach, Sycamore Canyon Road, Big Sur, Monterey County, California, 93920, United States of America",
            "locType": "beach",
            "blogLinks": [
                "https://www.gapyear.com/articles/216212/13-incredible-stops-on-the-pacific-coast-highway"
            ],
            "longitude": "-121.81778571416"
        },
        "lombard street": {
            "latitude": "37.802076",
            "closest_to": "",
            "address": "1079, Lombard Street, Russian Hill, SF, California, 94109, United States of America",
            "locType": "residential",
            "blogLinks": [
                "https://www.gapyear.com/articles/216212/13-incredible-stops-on-the-pacific-coast-highway"
            ],
            "longitude": "-122.418809"
        },
        "crest highway": {
            "latitude": "37.2449991",
            "closest_to": "",
            "address": "Cedar Crest, Fresno County, California, United States of America",
            "locType": "hamlet",
            "blogLinks": [
                "http://www.daytrippen.com/southern-california-bucket-list/"
            ],
            "longitude": "-119.2012325"
        },
        "back bay": {
            "latitude": "37.7897196",
            "closest_to": "",
            "address": "Back Bay, Lathrop, San Joaquin County, California, 95330, United States of America",
            "locType": "residential",
            "blogLinks": [
                "https://www.tripadvisor.com/ShowTopic-g32578-i334-k5199774-La_Jolla_or_Laguna-La_Jolla_San_Diego_California.html"
            ],
            "longitude": "-121.3095978"
        },
        "point sur state historic park": {
            "latitude": "36.315378",
            "closest_to": "",
            "address": "Point Sur State Historic Park, Cabrillo Highway, Big Sur, Monterey County, California, 93923, United States of America",
            "locType": "park",
            "blogLinks": [
                "https://www.gapyear.com/articles/216212/13-incredible-stops-on-the-pacific-coast-highway"
            ],
            "longitude": "-121.881955510784"
        },
        "angel island state park": {
            "latitude": "37.8629304",
            "closest_to": "",
            "address": "Angel Island State Park, Perimeter Road, Tiburon, Marin County, California, 94920, United States of America",
            "locType": "park",
            "blogLinks": [
                "http://www.travelchannel.com/destinations/us/ca/articles/californias-most-spectacular-camping-spots"
            ],
            "longitude": "-122.430363458873"
        },
        "kern river valley": {
            "latitude": "36.6816956",
            "closest_to": "",
            "address": "Kern River, Tulare County, California, United States of America",
            "locType": "river",
            "blogLinks": [
                "http://www.daytrippen.com/southern-california-bucket-list/"
            ],
            "longitude": "-118.4124188"
        },
        "u.s.": {
            "latitude": "-32.5446226",
            "closest_to": "",
            "address": "La California, Municipio de Las Rosas, Departamento Belgrano, Sta. Fe, Argentina",
            "locType": "hamlet",
            "blogLinks": [
                "http://www.movoto.com/blog/opinions/move-to-santa-barbara/"
            ],
            "longitude": "-61.5489543"
        },
        "us.": {
            "latitude": "36.7014631",
            "closest_to": "",
            "address": "California, United States of America",
            "locType": "administrative",
            "blogLinks": [
                "https://www.tripadvisor.com/ShowTopic-g32578-i334-k5199774-La_Jolla_or_Laguna-La_Jolla_San_Diego_California.html"
            ],
            "longitude": "-118.7559973"
        },
        "san roque": {
            "latitude": "27.9647157",
            "closest_to": "",
            "address": "California, San Roque, Guaymas, Sonora, 85506, M\u00e9xico",
            "locType": "residential",
            "blogLinks": [
                "http://www.movoto.com/blog/opinions/move-to-santa-barbara/"
            ],
            "longitude": "-111.0221864"
        },
        "silicon valley": {
            "latitude": "37.4105333",
            "closest_to": "",
            "address": "Carnegie Mellon Silicon Valley, South Akron Road, Santa Clara County, California, 94035-0016, United States of America",
            "locType": "school",
            "blogLinks": [
                "https://www.gapyear.com/articles/216212/13-incredible-stops-on-the-pacific-coast-highway"
            ],
            "longitude": "-122.0597491"
        },
        "sierra nevada": {
            "latitude": "39.097593",
            "closest_to": "",
            "address": "Sierra, Wolf, Nevada County, California, 95949, United States of America",
            "locType": "residential",
            "blogLinks": [
                "http://www.travelchannel.com/destinations/us/ca/articles/californias-most-spectacular-camping-spots"
            ],
            "longitude": "-121.1396689"
        },
        "jacksonville": {
            "latitude": "30.254267",
            "closest_to": "",
            "address": "California Avenue, Jacksonville, Duval County, Florida, 32210, United States of America",
            "locType": "residential",
            "blogLinks": [
                "https://www.yelp.com/biz/pacific-coast-highway-carmel"
            ],
            "longitude": "-81.7838589"
        },
        "pacific ocean": {
            "latitude": "36.16305775",
            "closest_to": "",
            "address": "Pacific Ocean, Cabrillo Highway, Monterey County, California, 93920, United States of America",
            "locType": "cliff",
            "blogLinks": [
                "http://www.daytrippen.com/southern-california-bucket-list/",
                "http://www.movoto.com/blog/opinions/move-to-santa-barbara/",
                "https://www.yelp.com/biz/pacific-coast-highway-carmel"
            ],
            "longitude": "-121.678715787326"
        },
        "san francisco": {
            "latitude": "37.7792808",
            "closest_to": "",
            "address": "SF, California, United States of America",
            "locType": "city",
            "blogLinks": [
                "https://www.gapyear.com/articles/216212/13-incredible-stops-on-the-pacific-coast-highway",
                "http://www.trippy.com/question/California-Where-to-stay-half-way-between-S-F--and-L-A",
                "https://www.tripadvisor.com/ShowTopic-g28930-i18-k4620154-Driving_from_Florida_to_California-Florida.html",
                "https://www.viator.com/tours/Los-Angeles/3-Day-California-Coast-Tour-Santa-Barbara-San-Francisco-and-Carmel/d645-3857SFOYOS",
                "http://www.daytrippen.com/southern-california-bucket-list/",
                "http://www.travelchannel.com/destinations/us/ca/articles/californias-most-spectacular-camping-spots",
                "https://www.yelp.com/biz/pacific-coast-highway-carmel"
            ],
            "longitude": "-122.4192362"
        },
        "salvation mountain": {
            "latitude": "33.25393385",
            "closest_to": "",
            "address": "Salvation Mountain, Beal Road, Niland, Imperial County, California, United States of America",
            "locType": "attraction",
            "blogLinks": [
                "http://www.daytrippen.com/southern-california-bucket-list/"
            ],
            "longitude": "-115.472593717969"
        },
        "big sur": {
            "latitude": "36.270241",
            "closest_to": "",
            "address": "Big Sur, Monterey County, California, United States of America",
            "locType": "village",
            "blogLinks": [
                "http://www.travelchannel.com/destinations/us/ca/articles/californias-most-spectacular-camping-spots",
                "https://www.yelp.com/biz/pacific-coast-highway-carmel"
            ],
            "longitude": "-121.8074544"
        },
        "sacramento": {
            "latitude": "38.5815719",
            "closest_to": "",
            "address": "Sacramento, Sacramento County, California, United States of America",
            "locType": "city",
            "blogLinks": [
                "http://www.movoto.com/blog/opinions/move-to-santa-barbara/",
                "https://www.yelp.com/biz/pacific-coast-highway-carmel"
            ],
            "longitude": "-121.4943995"
        },
        "santa clara": {
            "latitude": "37.3541132",
            "closest_to": "",
            "address": "Santa Clara, Santa Clara County, California, United States of America",
            "locType": "city",
            "blogLinks": [
                "https://www.viator.com/tours/Los-Angeles/3-Day-California-Coast-Tour-Santa-Barbara-San-Francisco-and-Carmel/d645-3857SFOYOS"
            ],
            "longitude": "-121.9551743"
        },
        "bay area": {
            "latitude": "37.7884969",
            "closest_to": "",
            "address": "San Francisco Bay Area, SF, California, United States of America",
            "locType": "region",
            "blogLinks": [
                "https://www.viator.com/tours/Los-Angeles/3-Day-California-Coast-Tour-Santa-Barbara-San-Francisco-and-Carmel/d645-3857SFOYOS",
                "https://www.yelp.com/biz/pacific-coast-highway-carmel"
            ],
            "longitude": "-122.3558472"
        },
        "titus canyon road": {
            "latitude": "36.806013",
            "closest_to": "",
            "address": "Titus Canyon Road, Inyo County, California, United States of America",
            "locType": "unclassified",
            "blogLinks": [
                "http://www.daytrippen.com/southern-california-bucket-list/"
            ],
            "longitude": "-117.1861519"
        },
        "s.f.": {
            "latitude": "19.9908291",
            "closest_to": "",
            "address": "California, Bosque de Canalejas, Jilotepec, M\u00e9xico, 54270, M\u00e9xico",
            "locType": "residential",
            "blogLinks": [
                "http://www.trippy.com/question/California-Where-to-stay-half-way-between-S-F--and-L-A"
            ],
            "longitude": "-99.6183945"
        },
        "north beach": {
            "latitude": "37.8011749",
            "closest_to": "",
            "address": "North Beach, SF, California, 94133, United States of America",
            "locType": "neighbourhood",
            "blogLinks": [
                "http://www.daytrippen.com/southern-california-bucket-list/"
            ],
            "longitude": "-122.409002"
        },
        "lake shasta": {
            "latitude": "40.7965121",
            "closest_to": "",
            "address": "Shasta County, California, United States of America",
            "locType": "administrative",
            "blogLinks": [
                "http://www.travelchannel.com/destinations/us/ca/articles/californias-most-spectacular-camping-spots"
            ],
            "longitude": "-121.9979193"
        },
        "lombard": {
            "latitude": "38.1907508",
            "closest_to": "",
            "address": "Lombard, Napa County, California, United States of America",
            "locType": "hamlet",
            "blogLinks": [
                "http://www.wildlife.ca.gov/Fishing/Ocean/Grunion"
            ],
            "longitude": "-122.2560822"
        },
        "yosemite national park": {
            "latitude": "37.84054795",
            "closest_to": "",
            "address": "Yosemite National Park, Mt. Hoffmann Trail, Mariposa County, California, United States of America",
            "locType": "national_park",
            "blogLinks": [
                "https://www.viator.com/tours/Los-Angeles/3-Day-California-Coast-Tour-Santa-Barbara-San-Francisco-and-Carmel/d645-3857SFOYOS",
                "http://www.travelchannel.com/destinations/us/ca/articles/californias-most-spectacular-camping-spots"
            ],
            "longitude": "-119.516587698025"
        },
        "carmel": {
            "latitude": "38.75511285",
            "closest_to": "",
            "address": "Carmel, Roseville, Placer County, California, 95747, United States of America",
            "locType": "residential",
            "blogLinks": [
                "http://www.daytrippen.com/southern-california-bucket-list/",
                "https://www.viator.com/tours/Los-Angeles/3-Day-California-Coast-Tour-Santa-Barbara-San-Francisco-and-Carmel/d645-3857SFOYOS",
                "http://www.trippy.com/question/California-Where-to-stay-half-way-between-S-F--and-L-A",
                "https://www.yelp.com/biz/pacific-coast-highway-carmel"
            ],
            "longitude": "-121.353308848273"
        },
        "fairfax": {
            "latitude": "37.9872935",
            "closest_to": "",
            "address": "Fairfax, Marin County, California, United States of America",
            "locType": "administrative",
            "blogLinks": [
                "https://answers.yahoo.com/question/index?qid=20080530211242AArXWMD",
                "http://www.daytrippen.com/southern-california-bucket-list/"
            ],
            "longitude": "-122.5879673"
        },
        "new york city": {
            "latitude": "40.767819",
            "closest_to": "",
            "address": "California Sea Lion, 830, 5th Avenue, Upper East Side, Manhattan, New York County, NYC, New York, 10035, United States of America",
            "locType": "attraction",
            "blogLinks": [
                "http://www.daytrippen.com/southern-california-bucket-list/"
            ],
            "longitude": "-73.9717587"
        },
        "nashville": {
            "latitude": "38.5787952",
            "closest_to": "",
            "address": "Nashville, El Dorado County, California, United States of America",
            "locType": "hamlet",
            "blogLinks": [
                "https://www.tripadvisor.com/ShowTopic-g28930-i18-k4620154-Driving_from_Florida_to_California-Florida.html"
            ],
            "longitude": "-120.8452144"
        },
        "vasquez": {
            "latitude": "36.7052505",
            "closest_to": "",
            "address": "Vasquez Creek, San Benito County, California, United States of America",
            "locType": "stream",
            "blogLinks": [
                "http://www.daytrippen.com/southern-california-bucket-list/"
            ],
            "longitude": "-120.9490524"
        },
        "texas": {
            "latitude": "29.7181118",
            "closest_to": "",
            "address": "California, Baytown, Harris County, Texas, 77520, United States of America",
            "locType": "residential",
            "blogLinks": [
                "https://www.tripadvisor.com/ShowTopic-g28930-i18-k4620154-Driving_from_Florida_to_California-Florida.html"
            ],
            "longitude": "-94.997906"
        },
        "denmark": {
            "latitude": "57.4379493",
            "closest_to": "",
            "address": "California, Lodsgade, Frederikshavn, Frederikshavn Kommune, Region Nordjylland, 9900, Danmark",
            "locType": "cafe",
            "blogLinks": [
                "http://www.movoto.com/blog/opinions/move-to-santa-barbara/"
            ],
            "longitude": "10.5361043"
        },
        "central california": {
            "latitude": "38.392688",
            "closest_to": "",
            "address": "Central, Yolo County, California, United States of America",
            "locType": "hamlet",
            "blogLinks": [
                "http://www.travelchannel.com/destinations/us/ca/articles/californias-most-spectacular-camping-spots"
            ],
            "longitude": "-121.573011"
        },
        "south africa": {
            "latitude": "37.8749498",
            "closest_to": "",
            "address": "South Africa, Centennial Drive, Oakland, Alameda County, California, 94720, United States of America",
            "locType": "garden",
            "blogLinks": [
                "http://www.daytrippen.com/southern-california-bucket-list/"
            ],
            "longitude": "-122.2378391"
        },
        "salinan": {
            "latitude": "38.961655",
            "closest_to": "",
            "address": "Salinan Way, Riviera Estates, Lake County, California, 95451, United States of America",
            "locType": "residential",
            "blogLinks": [
                "http://www.travelchannel.com/destinations/us/ca/articles/californias-most-spectacular-camping-spots"
            ],
            "longitude": "-122.7394669"
        },
        "alcatraz island": {
            "latitude": "37.8267283",
            "closest_to": "",
            "address": "Alcatraz Island, SF, California, United States of America",
            "locType": "island",
            "blogLinks": [
                "https://www.gapyear.com/articles/216212/13-incredible-stops-on-the-pacific-coast-highway"
            ],
            "longitude": "-122.422746492409"
        },
        "virginia": {
            "latitude": "37.9090178",
            "closest_to": "",
            "address": "California, Rockbridge County, Virginia, United States of America",
            "locType": "hamlet",
            "blogLinks": [
                "http://www.movoto.com/blog/opinions/move-to-santa-barbara/"
            ],
            "longitude": "-79.5869878"
        },
        "rio theatre": {
            "latitude": "36.9801486",
            "closest_to": "",
            "address": "Rio Theatre, Soquel Avenue, Soquel Avenue Commercial Corridor, Eastside, Santa Cruz, Santa Cruz County, California, 95062, United States of America",
            "locType": "theatre",
            "blogLinks": [
                "https://www.gapyear.com/articles/216212/13-incredible-stops-on-the-pacific-coast-highway"
            ],
            "longitude": "-122.0104295"
        },
        "america": {
            "latitude": "36.2573198",
            "closest_to": "",
            "address": "America, Kings County, California, 93246, United States of America",
            "locType": "residential",
            "blogLinks": [
                "http://www.movoto.com/blog/opinions/move-to-santa-barbara/",
                "http://www.travelchannel.com/destinations/us/ca/articles/californias-most-spectacular-camping-spots"
            ],
            "longitude": "-119.8948706"
        },
        "big sur valley": {
            "latitude": "36.270241",
            "closest_to": "",
            "address": "Big Sur, Monterey County, California, United States of America",
            "locType": "village",
            "blogLinks": [
                "http://www.travelchannel.com/destinations/us/ca/articles/californias-most-spectacular-camping-spots"
            ],
            "longitude": "-121.8074544"
        },
        "laguna": {
            "latitude": "38.4210209",
            "closest_to": "",
            "address": "Laguna, Sacramento County, California, United States of America",
            "locType": "hamlet",
            "blogLinks": [
                "https://www.tripadvisor.com/ShowTopic-g32578-i334-k5199774-La_Jolla_or_Laguna-La_Jolla_San_Diego_California.html",
                "https://www.yelp.com/biz/pacific-coast-highway-carmel"
            ],
            "longitude": "-121.4238413"
        },
        "union square": {
            "latitude": "37.78794125",
            "closest_to": "",
            "address": "Union Square, Post Street, Chinatown, SF, California, 94115, United States of America",
            "locType": "park",
            "blogLinks": [
                "https://www.gapyear.com/articles/216212/13-incredible-stops-on-the-pacific-coast-highway"
            ],
            "longitude": "-122.407502671706"
        },
        "lake tahoe": {
            "latitude": "39.0888982",
            "closest_to": "",
            "address": "Lake Tahoe, Placer County, California, United States of America",
            "locType": "water",
            "blogLinks": [
                "http://www.travelchannel.com/destinations/us/ca/articles/californias-most-spectacular-camping-spots"
            ],
            "longitude": "-120.050511752934"
        }
    },
    "newport beach": {
        "type": "city",
        "osm_id": "112956",
        "class": "place",
        "importance": 0.75631325724067,
        "lat": "33.6170092",
        "lon": "-117.92944",
        "boundingbox": [
            "33.5348773",
            "33.6717531",
            "-117.9959276",
            "-117.7839003"
        ],
        "display_name": "Newport Beach, Orange County, California, United States of America",
        "licence": "Data \u00a9 OpenStreetMap contributors, ODbL 1.0. http://www.openstreetmap.org/copyright",
        "icon": "https://nominatim.openstreetmap.org/images/mapicons/poi_place_city.p.20.png",
        "place_id": "157952615",
        "osm_type": "relation"
    }
}