{
    "pasadena": {
        "type": "city",
        "osm_id": "3529725",
        "class": "place",
        "importance": 0.7778961552687,
        "lat": "34.1476452",
        "lon": "-118.1444778",
        "boundingbox": [
            "34.1172023",
            "34.251905",
            "-118.1981389",
            "-118.0654789"
        ],
        "display_name": "Pasadena, Los Angeles County, California, United States of America",
        "licence": "Data \u00a9 OpenStreetMap contributors, ODbL 1.0. http://www.openstreetmap.org/copyright",
        "icon": "https://nominatim.openstreetmap.org/images/mapicons/poi_place_city.p.20.png",
        "place_id": "159486921",
        "osm_type": "relation"
    },
    "mentions": {
        "australia": {
            "latitude": "-32.6649999",
            "closest_to": "",
            "address": "California, Singleton, NSW, Australia",
            "locType": "hamlet",
            "blogLinks": [
                "https://www.makemytrip.com/holidays-international/places-to-visit-san_jose.html"
            ],
            "longitude": "150.9261111"
        },
        "quepos": {
            "latitude": "9.4216522",
            "closest_to": "",
            "address": "Hotel California, 618, Manuel Antonio, Quepos, Cant\u00f3n Quepos, Provincia Puntarenas, 60601, Costa Rica",
            "locType": "hotel",
            "blogLinks": [
                "http://costarica.com/attractions/"
            ],
            "longitude": "-84.1570765"
        },
        "peru": {
            "latitude": "-13.6784168",
            "closest_to": "",
            "address": "California, Andahuaylas, Apur\u00edmac, Per\u00fa",
            "locType": "village",
            "blogLinks": [
                "https://blog.trekaroo.com/california-dreaming-road-trip-from-san-francisco-to-los-angeles/"
            ],
            "longitude": "-73.0512911"
        },
        "carolina": {
            "latitude": "35.9043367",
            "closest_to": "",
            "address": "California, Dare County, North Carolina, United States of America",
            "locType": "hamlet",
            "blogLinks": [
                "https://blog.trekaroo.com/california-dreaming-road-trip-from-san-francisco-to-los-angeles/"
            ],
            "longitude": "-75.6804524"
        },
        "california": {
            "latitude": "7.3480915",
            "closest_to": "",
            "address": "California, Santander, Colombia",
            "locType": "village",
            "blogLinks": [
                "http://www.california-blog.com/",
                "http://www.travelmath.com/places/",
                "https://www.tripadvisor.com/Travel-g28926-c182763/California:United-States:Driving.Between.La.And.Sf.html",
                "http://www.travbuddy.com/California-popular-cities-p85",
                "https://blog.trekaroo.com/california-dreaming-road-trip-from-san-francisco-to-los-angeles/",
                "http://traveltips.usatoday.com/fun-things-los-angeles-san-francisco-14664.html",
                "http://www.livability.com/ca",
                "https://www.makemytrip.com/holidays-international/places-to-visit-san_jose.html"
            ],
            "longitude": "-72.945787"
        },
        "united kingdom": {
            "latitude": "52.4422729",
            "closest_to": "",
            "address": "California, Birmingham, West Midlands, England, UK",
            "locType": "village",
            "blogLinks": [
                "https://www.tripadvisor.com/Travel-g28926-c182763/California:United-States:Driving.Between.La.And.Sf.html",
                "http://costarica.com/attractions/"
            ],
            "longitude": "-1.9796882"
        },
        "costa rica": {
            "latitude": "9.9327612",
            "closest_to": "",
            "address": "California, Carmen, Cant\u00f3n San Jos\u00e9, Provincia San Jos\u00e9, 10101, Costa Rica",
            "locType": "administrative",
            "blogLinks": [
                "http://costarica.com/attractions/"
            ],
            "longitude": "-84.0665223"
        },
        "england": {
            "latitude": "52.4422729",
            "closest_to": "",
            "address": "California, Birmingham, West Midlands, England, UK",
            "locType": "village",
            "blogLinks": [
                "http://www.travbuddy.com/California-popular-cities-p85"
            ],
            "longitude": "-1.9796882"
        },
        "south island": {
            "latitude": "40.59933165",
            "closest_to": "",
            "address": "California Canal, Barnum Island, Nassau County, New York, United States of America",
            "locType": "canal",
            "blogLinks": [
                "https://www.makemytrip.com/holidays-international/places-to-visit-san_jose.html"
            ],
            "longitude": "-73.6498983294933"
        },
        "liberia": {
            "latitude": "28.674844",
            "closest_to": "",
            "address": "Liberia, Fraccionamiento California, Chihuahua, M\u00e9xico",
            "locType": "residential",
            "blogLinks": [
                "http://costarica.com/attractions/"
            ],
            "longitude": "-106.0273942"
        },
        "macao": {
            "latitude": "9.9313488",
            "closest_to": "",
            "address": "Ara Macao Inn, Avenida 2A, California, Catedral, Cant\u00f3n San Jos\u00e9, Provincia San Jos\u00e9, 10104, Costa Rica",
            "locType": "hotel",
            "blogLinks": [
                "https://www.makemytrip.com/holidays-international/places-to-visit-san_jose.html"
            ],
            "longitude": "-84.0671057"
        },
        "washington": {
            "latitude": "40.0657724",
            "closest_to": "",
            "address": "California, Washington County, Pennsylvania, United States of America",
            "locType": "administrative",
            "blogLinks": [
                "https://blog.trekaroo.com/california-dreaming-road-trip-from-san-francisco-to-los-angeles/"
            ],
            "longitude": "-79.8918435"
        }
    },
    "san jose": {
        "type": "city",
        "osm_id": "112143",
        "class": "place",
        "importance": 0.79127376502597,
        "lat": "37.3361905",
        "lon": "-121.8905832",
        "boundingbox": [
            "37.124503",
            "37.4692175",
            "-122.0456719",
            "-121.5891529"
        ],
        "display_name": "San Jos\u00e9, Santa Clara County, California, United States of America",
        "licence": "Data \u00a9 OpenStreetMap contributors, ODbL 1.0. http://www.openstreetmap.org/copyright",
        "icon": "https://nominatim.openstreetmap.org/images/mapicons/poi_place_city.p.20.png",
        "place_id": "159251412",
        "osm_type": "relation"
    }
}