{
    "temecula": {
        "type": "city",
        "osm_id": "3866463",
        "class": "place",
        "importance": 0.66507963701587,
        "lat": "33.4946353",
        "lon": "-117.147366",
        "boundingbox": [
            "33.4321253",
            "33.554625",
            "-117.2066944",
            "-117.0548702"
        ],
        "display_name": "Temecula, Riverside County, California, United States of America",
        "licence": "Data \u00a9 OpenStreetMap contributors, ODbL 1.0. http://www.openstreetmap.org/copyright",
        "icon": "https://nominatim.openstreetmap.org/images/mapicons/poi_place_city.p.20.png",
        "place_id": "159718106",
        "osm_type": "relation"
    },
    "pasadena": {
        "type": "city",
        "osm_id": "3529725",
        "class": "place",
        "importance": 0.7778961552687,
        "lat": "34.1476452",
        "lon": "-118.1444778",
        "boundingbox": [
            "34.1172023",
            "34.251905",
            "-118.1981389",
            "-118.0654789"
        ],
        "display_name": "Pasadena, Los Angeles County, California, United States of America",
        "licence": "Data \u00a9 OpenStreetMap contributors, ODbL 1.0. http://www.openstreetmap.org/copyright",
        "icon": "https://nominatim.openstreetmap.org/images/mapicons/poi_place_city.p.20.png",
        "place_id": "159486921",
        "osm_type": "relation"
    },
    "mentions": {
        "merced": {
            "latitude": "37.3029568",
            "closest_to": "",
            "address": "Merced, Merced County, California, United States of America",
            "locType": "city",
            "blogLinks": [
                "http://www.movoto.com/blog/top-ten/most-boring-places-in-california/"
            ],
            "longitude": "-120.4843268"
        },
        "pittsburgh": {
            "latitude": "39.5151683",
            "closest_to": "",
            "address": "Pittsburgh Hill, Yuba County, California, United States of America",
            "locType": "peak",
            "blogLinks": [
                "http://www.movoto.com/blog/top-ten/most-boring-places-in-california/"
            ],
            "longitude": "-121.1002348"
        },
        "golden state": {
            "latitude": "39.6712719",
            "closest_to": "",
            "address": "Golden State Island, Butte County, California, United States of America",
            "locType": "island",
            "blogLinks": [
                "http://www.movoto.com/blog/top-ten/most-boring-places-in-california/"
            ],
            "longitude": "-121.9619226"
        },
        "amsterdam": {
            "latitude": "37.4302157",
            "closest_to": "",
            "address": "Amsterdam, Merced County, California, United States of America",
            "locType": "hamlet",
            "blogLinks": [
                "http://vagabond3.com/dont-panic-driving-from-los-angeles-to-las-vegas/"
            ],
            "longitude": "-120.5421391"
        },
        "usa": {
            "latitude": "36.7014631",
            "closest_to": "",
            "address": "California, United States of America",
            "locType": "administrative",
            "blogLinks": [
                "http://www.distancesfrom.com/us/travel-from-Temecula-to-Pasadena/TravelFromHistory/22353685.aspx",
                "http://www.distancesfrom.com/us/how-far-is-Pasadena-from-Temecula/HowFarHistory/22353685.aspx",
                "http://www.distancesfrom.com/us/distance-from-Pasadena-to-Temecula/DistanceHistory/17829194.aspx",
                "http://www.distancesfrom.com/us/flight-distance-from-Pasadena-to-Temecula/FlightHistory/17829194.aspx"
            ],
            "longitude": "-118.7559973"
        },
        "chicago": {
            "latitude": "37.7850531",
            "closest_to": "",
            "address": "Chicago, Woodstock, Alameda, Alameda County, California, 94501, United States of America",
            "locType": "residential",
            "blogLinks": [
                "http://www.movoto.com/blog/top-ten/most-boring-places-in-california/"
            ],
            "longitude": "-122.2872948"
        },
        "trona": {
            "latitude": "35.7627322",
            "closest_to": "",
            "address": "Trona, San Bernardino County, California, United States of America",
            "locType": "hamlet",
            "blogLinks": [
                "http://www.movoto.com/blog/top-ten/most-boring-places-in-california/"
            ],
            "longitude": "-117.3728345"
        },
        "lake yosemite": {
            "latitude": "37.3782665",
            "closest_to": "",
            "address": "Lake Yosemite, Lake Road, Merced County, California, United States of America",
            "locType": "water",
            "blogLinks": [
                "http://www.movoto.com/blog/top-ten/most-boring-places-in-california/"
            ],
            "longitude": "-120.428286428413"
        },
        "us": {
            "latitude": "36.7014631",
            "closest_to": "",
            "address": "California, United States of America",
            "locType": "administrative",
            "blogLinks": [
                "http://vagabond3.com/dont-panic-driving-from-los-angeles-to-las-vegas/"
            ],
            "longitude": "-118.7559973"
        },
        "north pole": {
            "latitude": "19.3740853",
            "closest_to": "",
            "address": "California, 1291, Empresa, Ampliaci\u00f3n N\u00e1poles, Benito Ju\u00e1rez, CDMX, 03900, M\u00e9xico",
            "locType": "restaurant",
            "blogLinks": [
                "https://blog.trekaroo.com/top-ten-holiday-events-to-enjoy-with-kids-in-southern-california/"
            ],
            "longitude": "-99.1792586"
        },
        "national parks": {
            "latitude": "35.0310157",
            "closest_to": "",
            "address": "National Parks Service Road, San Bernardino County, California, United States of America",
            "locType": "residential",
            "blogLinks": [
                "https://blog.trekaroo.com/top-ten-holiday-events-to-enjoy-with-kids-in-southern-california/"
            ],
            "longitude": "-115.383967"
        },
        "oakland": {
            "latitude": "37.8044557",
            "closest_to": "",
            "address": "Oakland, Alameda County, California, United States of America",
            "locType": "city",
            "blogLinks": [
                "http://www.movoto.com/blog/top-ten/most-boring-places-in-california/"
            ],
            "longitude": "-122.2713562"
        },
        "vegas": {
            "latitude": "36.17310935",
            "closest_to": "",
            "address": "California Hotel, Sky Walk(Connection from Main Street to California, Cultural Corridor, Vegas Heights, Las Vegas, Clark County, Nevada, 89101, United States of America",
            "locType": "hotel",
            "blogLinks": [
                "http://vagabond3.com/dont-panic-driving-from-los-angeles-to-las-vegas/"
            ],
            "longitude": "-115.144667930325"
        },
        "lone pine": {
            "latitude": "36.583176",
            "closest_to": "",
            "address": "Lone Pine, Tuttle Creek Road, Alabama Hills, Inyo County, California, 93545, United States of America",
            "locType": "administrative",
            "blogLinks": [
                "http://www.movoto.com/blog/top-ten/most-boring-places-in-california/"
            ],
            "longitude": "-118.078359194897"
        },
        "longhorn": {
            "latitude": "36.7861841",
            "closest_to": "",
            "address": "Longhorn Drive, Fresno County, California, 93657, United States of America",
            "locType": "residential",
            "blogLinks": [
                "http://www.movoto.com/blog/top-ten/most-boring-places-in-california/"
            ],
            "longitude": "-119.2962228"
        },
        "primm": {
            "latitude": "37.333961",
            "closest_to": "",
            "address": "Primm Avenue, Little Saigon, San Jos\u00e9, Santa Clara County, California, 95122, United States of America",
            "locType": "residential",
            "blogLinks": [
                "http://vagabond3.com/dont-panic-driving-from-los-angeles-to-las-vegas/",
                "http://www.bestplaces.net/compare-cities/temecula_ca/pasadena_ca/transportation"
            ],
            "longitude": "-121.8420481"
        },
        "napa valley": {
            "latitude": "39.0234679",
            "closest_to": "",
            "address": "Napa Valley, Cold Spring, Campbell County, Kentucky, 41076, United States of America",
            "locType": "residential",
            "blogLinks": [
                "http://www.napavalley.com/",
                "http://www.temeculawines.org/plan-your-trip/"
            ],
            "longitude": "-84.4504647"
        },
        "sonoma": {
            "latitude": "38.5110803",
            "closest_to": "",
            "address": "Sonoma County, California, United States of America",
            "locType": "administrative",
            "blogLinks": [
                "http://www.movoto.com/blog/top-ten/most-boring-places-in-california/"
            ],
            "longitude": "-122.8473387"
        },
        "lake merced": {
            "latitude": "37.71934845",
            "closest_to": "",
            "address": "Lake Merced, Lake Merced Bike Path, SF, California, 94132, United States of America",
            "locType": "water",
            "blogLinks": [
                "http://www.movoto.com/blog/top-ten/most-boring-places-in-california/"
            ],
            "longitude": "-122.494659699192"
        },
        "san rafael": {
            "latitude": "37.9735346",
            "closest_to": "",
            "address": "San Rafael, Marin County, California, United States of America",
            "locType": "city",
            "blogLinks": [
                "http://www.movoto.com/blog/top-ten/most-boring-places-in-california/"
            ],
            "longitude": "-122.5310873"
        },
        "ridgecrest": {
            "latitude": "35.6225064",
            "closest_to": "",
            "address": "Ridgecrest, Kern County, California, United States of America",
            "locType": "city",
            "blogLinks": [
                "http://www.movoto.com/blog/top-ten/most-boring-places-in-california/"
            ],
            "longitude": "-117.6699413"
        },
        "lakewood center": {
            "latitude": "38.7401815",
            "closest_to": "",
            "address": "Lakewood Sierra, El Dorado County, California, United States of America",
            "locType": "hamlet",
            "blogLinks": [
                "http://www.movoto.com/blog/top-ten/most-boring-places-in-california/"
            ],
            "longitude": "-120.5690929"
        },
        "l.a.": {
            "latitude": "-13.8305494",
            "closest_to": "",
            "address": "California, Provincia Abel Iturralde, LPZ, Bolivia",
            "locType": "hamlet",
            "blogLinks": [
                "http://www.movoto.com/blog/top-ten/most-boring-places-in-california/"
            ],
            "longitude": "-67.9369134"
        },
        "modesto": {
            "latitude": "37.6390972",
            "closest_to": "",
            "address": "Modesto, Stanislaus County, California, United States of America",
            "locType": "city",
            "blogLinks": [
                "http://www.movoto.com/blog/top-ten/most-boring-places-in-california/"
            ],
            "longitude": "-120.9968781"
        },
        "needles": {
            "latitude": "34.8480597",
            "closest_to": "",
            "address": "Needles, San Bernardino County, California, United States of America",
            "locType": "city",
            "blogLinks": [
                "http://www.movoto.com/blog/top-ten/most-boring-places-in-california/"
            ],
            "longitude": "-114.6141315"
        },
        "ritz carlton": {
            "latitude": "37.791867",
            "closest_to": "",
            "address": "Ritz-Carlton, 600, Stockton Street, Chinatown, SF, California, 94108, United States of America",
            "locType": "hotel",
            "blogLinks": [
                "https://blog.trekaroo.com/top-ten-holiday-events-to-enjoy-with-kids-in-southern-california/"
            ],
            "longitude": "-122.406834213408"
        },
        "australia": {
            "latitude": "-32.6649999",
            "closest_to": "",
            "address": "California, Singleton, NSW, Australia",
            "locType": "hamlet",
            "blogLinks": [
                "http://vagabond3.com/dont-panic-driving-from-los-angeles-to-las-vegas/"
            ],
            "longitude": "150.9261111"
        },
        "las vegas": {
            "latitude": "36.17310935",
            "closest_to": "",
            "address": "California Hotel, Sky Walk(Connection from Main Street to California, Cultural Corridor, Vegas Heights, Las Vegas, Clark County, Nevada, 89101, United States of America",
            "locType": "hotel",
            "blogLinks": [
                "http://vagabond3.com/dont-panic-driving-from-los-angeles-to-las-vegas/"
            ],
            "longitude": "-115.144667930325"
        },
        "united states": {
            "latitude": "36.7014631",
            "closest_to": "",
            "address": "California, United States of America",
            "locType": "administrative",
            "blogLinks": [
                "https://www.tripadvisor.com/Tourism-g33165-Temecula_California-Vacations.html",
                "https://www.costtotravel.com/how-to-get/from-pasadena-to-temecula",
                "http://www.distancecalculator.net/from-temecula-to-pasadena-2",
                "https://www.tripadvisor.com/Attractions-g33165-Activities-Temecula_California.html",
                "http://www.movoto.com/blog/top-ten/most-boring-places-in-california/"
            ],
            "longitude": "-118.7559973"
        },
        "san francisco": {
            "latitude": "37.7792808",
            "closest_to": "",
            "address": "SF, California, United States of America",
            "locType": "city",
            "blogLinks": [
                "http://www.movoto.com/blog/top-ten/most-boring-places-in-california/"
            ],
            "longitude": "-122.4192362"
        },
        "barstow": {
            "latitude": "34.8957684",
            "closest_to": "",
            "address": "Barstow, San Bernardino County, California, United States of America",
            "locType": "administrative",
            "blogLinks": [
                "http://vagabond3.com/dont-panic-driving-from-los-angeles-to-las-vegas/",
                "http://www.movoto.com/blog/top-ten/most-boring-places-in-california/"
            ],
            "longitude": "-117.0172076"
        },
        "ca": {
            "latitude": "37.8242285466918",
            "closest_to": "",
            "address": "Piedmont, Alameda County, California, ca, United States of America",
            "locType": "postcode",
            "blogLinks": [
                "http://www.distancesfrom.com/us/flight-distance-from-Pasadena-to-Temecula/FlightHistory/17829194.aspx",
                "http://www.distancesfrom.com/us/distance-from-Pasadena-to-Temecula/DistanceHistory/17829194.aspx",
                "http://www.movoto.com/blog/top-ten/most-boring-places-in-california/",
                "http://www.distancesfrom.com/us/how-far-is-Pasadena-from-Temecula/HowFarHistory/22353685.aspx",
                "http://www.distancesfrom.com/us/travel-from-Temecula-to-Pasadena/TravelFromHistory/22353685.aspx",
                "https://www.costtotravel.com/how-far/from-pasadena-to-temecula",
                "http://www.bestplaces.net/compare-cities/temecula_ca/pasadena_ca/transportation"
            ],
            "longitude": "-122.232613735941"
        },
        "santa": {
            "latitude": "22.4804035",
            "closest_to": "",
            "address": "California, Santa Isabel de las Lajas, Cienfuegos, Cuba",
            "locType": "hamlet",
            "blogLinks": [
                "https://blog.trekaroo.com/top-ten-holiday-events-to-enjoy-with-kids-in-southern-california/"
            ],
            "longitude": "-80.3796642"
        },
        "berkeley": {
            "latitude": "37.8708393",
            "closest_to": "",
            "address": "Berkeley, Alameda County, California, United States of America",
            "locType": "city",
            "blogLinks": [
                "http://www.movoto.com/blog/top-ten/most-boring-places-in-california/"
            ],
            "longitude": "-122.2728638"
        },
        "new york city": {
            "latitude": "40.767819",
            "closest_to": "",
            "address": "California Sea Lion, 830, 5th Avenue, Upper East Side, Manhattan, New York County, NYC, New York, 10035, United States of America",
            "locType": "attraction",
            "blogLinks": [
                "http://www.movoto.com/blog/top-ten/most-boring-places-in-california/"
            ],
            "longitude": "-73.9717587"
        },
        "fresno": {
            "latitude": "36.748793",
            "closest_to": "",
            "address": "Fresno, Fresno County, California, United States of America",
            "locType": "city",
            "blogLinks": [
                "http://www.movoto.com/blog/top-ten/most-boring-places-in-california/"
            ],
            "longitude": "-119.714839601149"
        },
        "washington irving": {
            "latitude": "39.05527",
            "closest_to": "",
            "address": "Washington Irving Drive, Weimar, Placer County, California, 95713, United States of America",
            "locType": "residential",
            "blogLinks": [
                "http://www.movoto.com/blog/top-ten/most-boring-places-in-california/"
            ],
            "longitude": "-120.9601919"
        },
        "balboa park": {
            "latitude": "37.72494875",
            "closest_to": "",
            "address": "Balboa Park, Sergeant John V Young Lane, Ingleside, SF, California, 94112, United States of America",
            "locType": "park",
            "blogLinks": [
                "https://blog.trekaroo.com/top-ten-holiday-events-to-enjoy-with-kids-in-southern-california/"
            ],
            "longitude": "-122.444804424152"
        },
        "mojave desert": {
            "latitude": "35.1456319",
            "closest_to": "",
            "address": "Mojave Desert, Utility Road, San Bernardino County, California, United States of America",
            "locType": "desert",
            "blogLinks": [
                "http://www.movoto.com/blog/top-ten/most-boring-places-in-california/"
            ],
            "longitude": "-115.548963686646"
        },
        "california": {
            "latitude": "7.3480915",
            "closest_to": "",
            "address": "California, Santander, Colombia",
            "locType": "village",
            "blogLinks": [
                "https://blog.trekaroo.com/top-ten-holiday-events-to-enjoy-with-kids-in-southern-california/",
                "http://www.movoto.com/blog/top-ten/most-boring-places-in-california/"
            ],
            "longitude": "-72.945787"
        },
        "united kingdom": {
            "latitude": "52.4422729",
            "closest_to": "",
            "address": "California, Birmingham, West Midlands, England, UK",
            "locType": "village",
            "blogLinks": [
                "https://www.costtotravel.com/how-far/from-pasadena-to-temecula",
                "http://www.distancesfrom.com/us/flight-distance-from-Pasadena-to-Temecula/FlightHistory/17829194.aspx"
            ],
            "longitude": "-1.9796882"
        },
        "virginia": {
            "latitude": "37.9090178",
            "closest_to": "",
            "address": "California, Rockbridge County, Virginia, United States of America",
            "locType": "hamlet",
            "blogLinks": [
                "http://www.movoto.com/blog/top-ten/most-boring-places-in-california/"
            ],
            "longitude": "-79.5869878"
        },
        "america": {
            "latitude": "36.2573198",
            "closest_to": "",
            "address": "America, Kings County, California, 93246, United States of America",
            "locType": "residential",
            "blogLinks": [
                "http://www.movoto.com/blog/top-ten/most-boring-places-in-california/"
            ],
            "longitude": "-119.8948706"
        },
        "campo": {
            "latitude": "37.8974258",
            "closest_to": "",
            "address": "El Campo, Marin County, California, United States of America",
            "locType": "hamlet",
            "blogLinks": [
                "https://blog.trekaroo.com/top-ten-holiday-events-to-enjoy-with-kids-in-southern-california/"
            ],
            "longitude": "-122.4652506"
        },
        "la": {
            "latitude": "36.7014631",
            "closest_to": "",
            "address": "California, United States of America",
            "locType": "administrative",
            "blogLinks": [
                "http://vagabond3.com/dont-panic-driving-from-los-angeles-to-las-vegas/",
                "http://www.movoto.com/blog/top-ten/most-boring-places-in-california/"
            ],
            "longitude": "-118.7559973"
        }
    }
}