{
    "san bernardino": {
        "type": "city",
        "osm_id": "253639",
        "class": "place",
        "importance": 0.81183700771795,
        "lat": "34.1083449",
        "lon": "-117.2897651",
        "boundingbox": [
            "34.050346",
            "34.230706",
            "-117.4024519",
            "-117.1649719"
        ],
        "display_name": "San Bernardino, San Bernardino County, California, United States of America",
        "licence": "Data \u00a9 OpenStreetMap contributors, ODbL 1.0. http://www.openstreetmap.org/copyright",
        "icon": "https://nominatim.openstreetmap.org/images/mapicons/poi_place_city.p.20.png",
        "place_id": "159293643",
        "osm_type": "relation"
    },
    "mentions": {
        "st. helens": {
            "latitude": "52.0567873",
            "closest_to": "",
            "address": "St Helen's, Ipswich, St Helens Street, Stoke, Ipswich, Suffolk, East of England, England, IP4 2LH, UK",
            "locType": "place_of_worship",
            "blogLinks": [
                "http://gocalifornia.about.com/od/topcalifornia/ss/California-Weekend-Getaways-A-to-Z.htm"
            ],
            "longitude": "1.1651935"
        },
        "cali": {
            "latitude": "3.41023085",
            "closest_to": "",
            "address": "California, Cali, Valle del Cauca, 760040, Colombia",
            "locType": "residential",
            "blogLinks": [
                "https://www.nerdwallet.com/blog/mortgages/cities-for-young-families-california/"
            ],
            "longitude": "-76.5647481471698"
        },
        "napa valley": {
            "latitude": "39.0234679",
            "closest_to": "",
            "address": "Napa Valley, Cold Spring, Campbell County, Kentucky, 41076, United States of America",
            "locType": "residential",
            "blogLinks": [
                "http://gocalifornia.about.com/od/topcalifornia/ss/California-Weekend-Getaways-A-to-Z.htm"
            ],
            "longitude": "-84.4504647"
        },
        "mexico": {
            "latitude": "28.973",
            "closest_to": "",
            "address": "California, Hermosillo, Sonora, M\u00e9xico",
            "locType": "village",
            "blogLinks": [
                "http://www.roadsideamerica.com/location/ca"
            ],
            "longitude": "-111.8196666"
        },
        "la purisima": {
            "latitude": "26.1864328",
            "closest_to": "",
            "address": "La Pur\u00edsima, Comond\u00fa, Baja California Sur, M\u00e9xico",
            "locType": "town",
            "blogLinks": [
                "https://en.wikipedia.org/wiki/Reportedly_haunted_locations_in_California"
            ],
            "longitude": "-112.0756337"
        },
        "england": {
            "latitude": "52.4422729",
            "closest_to": "",
            "address": "California, Birmingham, West Midlands, England, UK",
            "locType": "village",
            "blogLinks": [
                "https://www.nerdwallet.com/blog/mortgages/cities-for-young-families-california/"
            ],
            "longitude": "-1.9796882"
        },
        "u.s.": {
            "latitude": "-32.5446226",
            "closest_to": "",
            "address": "La California, Municipio de Las Rosas, Departamento Belgrano, Sta. Fe, Argentina",
            "locType": "hamlet",
            "blogLinks": [
                "http://koa.com/states-provinces/california/",
                "http://www.bestplaces.net/city/california/fontana",
                "http://gocalifornia.about.com/od/topcalifornia/ss/California-Weekend-Getaways-A-to-Z.htm"
            ],
            "longitude": "-61.5489543"
        },
        "minn.": {
            "latitude": "45.022297",
            "closest_to": "",
            "address": "Northeast California Street, Marshall Terrace, Northeast, Minneapolis, Hennepin County, Minnesota, 55418, United States of America",
            "locType": "residential",
            "blogLinks": [
                "http://www.sbsun.com/search?text=stabbing&sort=modifiedtime+desc"
            ],
            "longitude": "-93.2690959"
        },
        "california": {
            "latitude": "7.3480915",
            "closest_to": "",
            "address": "California, Santander, Colombia",
            "locType": "village",
            "blogLinks": [
                "https://en.wikipedia.org/wiki/Reportedly_haunted_locations_in_California"
            ],
            "longitude": "-72.945787"
        },
        "los angeles metro": {
            "latitude": "14.7119101",
            "closest_to": "",
            "address": "East Los Angeles, California Village, San Bartolome, Quezon City, District V, Quezon City, Metro Manila, 1116, Philippines",
            "locType": "residential",
            "blogLinks": [
                "http://gocalifornia.about.com/od/topcalifornia/ss/California-Weekend-Getaways-A-to-Z.htm"
            ],
            "longitude": "121.0228751"
        },
        "los angeles-area": {
            "latitude": "10.4820788",
            "closest_to": "",
            "address": "Edificio Los \u00c1ngeles, California, \u00c1rea Comercial de Las Mercedes, Baruta, Municipio Baruta, Miranda, Regi\u00f3n Capital, 1060, Venezuela",
            "locType": "yes",
            "blogLinks": [
                "https://en.wikipedia.org/wiki/National_Register_of_Historic_Places_listings_in_California"
            ],
            "longitude": "-66.8624931597836"
        },
        "l.a.": {
            "latitude": "-13.8305494",
            "closest_to": "",
            "address": "California, Provincia Abel Iturralde, LPZ, Bolivia",
            "locType": "hamlet",
            "blogLinks": [
                "https://www.nerdwallet.com/blog/mortgages/cities-for-young-families-california/"
            ],
            "longitude": "-67.9369134"
        }
    },
    "sacramento": {
        "type": "city",
        "osm_id": "6232940",
        "class": "place",
        "importance": 0.80674211027009,
        "lat": "38.5815719",
        "lon": "-121.4943995",
        "boundingbox": [
            "38.437574",
            "38.685507",
            "-121.5601199",
            "-121.3627399"
        ],
        "display_name": "Sacramento, Sacramento County, California, United States of America",
        "licence": "Data \u00a9 OpenStreetMap contributors, ODbL 1.0. http://www.openstreetmap.org/copyright",
        "icon": "https://nominatim.openstreetmap.org/images/mapicons/poi_place_city.p.20.png",
        "place_id": "159758891",
        "osm_type": "relation"
    }
}