{
    "san francisco": {
        "type": "city",
        "osm_id": "111968",
        "class": "place",
        "importance": 0.78836369596997,
        "lat": "37.7792808",
        "lon": "-122.4192362",
        "boundingbox": [
            "37.6403143",
            "37.9298443",
            "-123.1738249",
            "-122.2817799"
        ],
        "display_name": "SF, California, United States of America",
        "licence": "Data \u00a9 OpenStreetMap contributors, ODbL 1.0. http://www.openstreetmap.org/copyright",
        "icon": "https://nominatim.openstreetmap.org/images/mapicons/poi_place_city.p.20.png",
        "place_id": "158675742",
        "osm_type": "relation"
    },
    "sacramento": {
        "type": "city",
        "osm_id": "6232940",
        "class": "place",
        "importance": 0.80674211027009,
        "lat": "38.5815719",
        "lon": "-121.4943995",
        "boundingbox": [
            "38.437574",
            "38.685507",
            "-121.5601199",
            "-121.3627399"
        ],
        "display_name": "Sacramento, Sacramento County, California, United States of America",
        "licence": "Data \u00a9 OpenStreetMap contributors, ODbL 1.0. http://www.openstreetmap.org/copyright",
        "icon": "https://nominatim.openstreetmap.org/images/mapicons/poi_place_city.p.20.png",
        "place_id": "159758891",
        "osm_type": "relation"
    },
    "mentions": {
        "pacific coast highway": {
            "latitude": "33.6595127",
            "closest_to": "",
            "address": "Pacific Coast Highway, Huntington Beach, Orange County, California, 92648, United States of America",
            "locType": "primary",
            "blogLinks": [
                "http://www.hopper.com/articles/291/five-great-stops-between-los-angeles-and-san-francisco-on-the-pacific-coast-highway"
            ],
            "longitude": "-118.0051687"
        },
        "san franciscan": {
            "latitude": "33.8219066",
            "closest_to": "",
            "address": "The San Franciscan, 2520, West Sepulveda Boulevard, Torrance, Los Angeles County, California, 90505, United States of America",
            "locType": "restaurant",
            "blogLinks": [
                "https://jasonevanish.com/2013/01/17/25-things-i-wish-i-knew-before-moving-to-san-francisco/"
            ],
            "longitude": "-118.3295219"
        },
        "creek valley": {
            "latitude": "39.3751013",
            "closest_to": "",
            "address": "Creek, Mendocino County, California, United States of America",
            "locType": "stream",
            "blogLinks": [
                "http://thisismyhappiness.com/2013/06/02/30-things-to-do-in-northern-california/"
            ],
            "longitude": "-123.0482197"
        },
        "irvine": {
            "latitude": "33.6856969",
            "closest_to": "",
            "address": "Irvine, Orange County, California, United States of America",
            "locType": "city",
            "blogLinks": [
                "https://jasonevanish.com/2013/01/17/25-things-i-wish-i-knew-before-moving-to-san-francisco/"
            ],
            "longitude": "-117.8259818"
        },
        "carmel-by-the-sea": {
            "latitude": "36.5552387",
            "closest_to": "",
            "address": "Carmel-by-the-Sea, Monterey County, California, United States of America",
            "locType": "city",
            "blogLinks": [
                "http://www.hopper.com/articles/291/five-great-stops-between-los-angeles-and-san-francisco-on-the-pacific-coast-highway"
            ],
            "longitude": "-121.9232878"
        },
        "middle east": {
            "latitude": "37.7542252",
            "closest_to": "",
            "address": "Middle Cascades, Mariposa County, California, United States of America",
            "locType": "waterfall",
            "blogLinks": [
                "https://jasonevanish.com/2013/01/17/25-things-i-wish-i-knew-before-moving-to-san-francisco/"
            ],
            "longitude": "-119.5972922"
        },
        "buffalo": {
            "latitude": "33.7926231",
            "closest_to": "",
            "address": "Buffalo, Cathedral City, Riverside County, California, 92234, United States of America",
            "locType": "residential",
            "blogLinks": [
                "https://jasonevanish.com/2013/01/17/25-things-i-wish-i-knew-before-moving-to-san-francisco/"
            ],
            "longitude": "-116.4604472"
        },
        "mount san gorgonio ca": {
            "latitude": "33.9121294",
            "closest_to": "",
            "address": "San Gorgonio Avenue, Banning, Riverside County, California, 92220, United States of America",
            "locType": "secondary",
            "blogLinks": [
                "http://www.california-blog.com/"
            ],
            "longitude": "-116.8766731"
        },
        "tijuana": {
            "latitude": "32.5008626",
            "closest_to": "",
            "address": "Tijuana, Baja California, M\u00e9xico",
            "locType": "city",
            "blogLinks": [
                "https://answers.yahoo.com/question/index?qid=20080630092722AAoWNmf"
            ],
            "longitude": "-116.9641656"
        },
        "manhattan": {
            "latitude": "33.8109789",
            "closest_to": "",
            "address": "Manhattan, Anaheim Resort District, Anaheim, Orange County, California, 217, United States of America",
            "locType": "forest",
            "blogLinks": [
                "https://jasonevanish.com/2013/01/17/25-things-i-wish-i-knew-before-moving-to-san-francisco/"
            ],
            "longitude": "-117.919744373725"
        },
        "wa": {
            "latitude": "40.0657724",
            "closest_to": "",
            "address": "California, Washington County, Pennsylvania, United States of America",
            "locType": "administrative",
            "blogLinks": [
                "https://www.yelp.com/topic/san-francisco-sf-to-portland-seattle-vancouver-road-trip-advice"
            ],
            "longitude": "-79.8918435"
        },
        "squaw valley": {
            "latitude": "36.7402261",
            "closest_to": "",
            "address": "Squaw Valley, Fresno County, California, United States of America",
            "locType": "administrative",
            "blogLinks": [
                "http://thisismyhappiness.com/2013/06/02/30-things-to-do-in-northern-california/"
            ],
            "longitude": "-119.2467849"
        },
        "venice beach": {
            "latitude": "33.9862012",
            "closest_to": "",
            "address": "Venice Beach, Venice Beach Bike Path, Venice, LA, Los Angeles County, California, 90405, United States of America",
            "locType": "police",
            "blogLinks": [
                "https://www.tripadvisor.com/ShowTopic-g60713-i30-k6063670-Best_places_to_stop_between_San_Fran_and_San_Diego_Thanks-San_Francisco_California.html"
            ],
            "longitude": "-118.4739815"
        },
        "trinity alps": {
            "latitude": "40.857366",
            "closest_to": "",
            "address": "Trinity Alps, Trinity County, California, United States of America",
            "locType": "hamlet",
            "blogLinks": [
                "http://blog.sfgate.com/sfmoms/2010/06/07/i-5-sacramento-to-redding/"
            ],
            "longitude": "-122.8903046"
        },
        "philadelphia": {
            "latitude": "33.8943097",
            "closest_to": "",
            "address": "Philadelphia Court, Riverside, Riverside County, California, 92503, United States of America",
            "locType": "residential",
            "blogLinks": [
                "https://jasonevanish.com/2013/01/17/25-things-i-wish-i-knew-before-moving-to-san-francisco/"
            ],
            "longitude": "-117.4828685"
        },
        "la jolla": {
            "latitude": "32.8472711",
            "closest_to": "",
            "address": "La Jolla, San Diego, San Diego County, California, United States of America",
            "locType": "suburb",
            "blogLinks": [
                "https://www.tripadvisor.com/ShowTopic-g60713-i30-k6063670-Best_places_to_stop_between_San_Fran_and_San_Diego_Thanks-San_Francisco_California.html"
            ],
            "longitude": "-117.2742085"
        },
        "melbourne": {
            "latitude": "39.2832292",
            "closest_to": "",
            "address": "Melbourne, Mendocino County, California, United States of America",
            "locType": "hamlet",
            "blogLinks": [
                "https://jasonevanish.com/2013/01/17/25-things-i-wish-i-knew-before-moving-to-san-francisco/"
            ],
            "longitude": "-123.6508452"
        },
        "bayview": {
            "latitude": "40.7726266",
            "closest_to": "",
            "address": "Bayview, Humboldt County, California, United States of America",
            "locType": "hamlet",
            "blogLinks": [
                "https://jasonevanish.com/2013/01/17/25-things-i-wish-i-knew-before-moving-to-san-francisco/"
            ],
            "longitude": "-124.1839501"
        },
        "santa monica": {
            "latitude": "34.0195598",
            "closest_to": "",
            "address": "Santa Monica, Los Angeles County, California, United States of America",
            "locType": "city",
            "blogLinks": [
                "https://www.tripadvisor.com/ShowTopic-g60713-i30-k6063670-Best_places_to_stop_between_San_Fran_and_San_Diego_Thanks-San_Francisco_California.html"
            ],
            "longitude": "-118.4869738"
        },
        "fort bragg": {
            "latitude": "39.4447345",
            "closest_to": "",
            "address": "Fort Bragg, Mendocino County, California, United States of America",
            "locType": "city",
            "blogLinks": [
                "http://www.goldengatetours.net/places"
            ],
            "longitude": "-123.802699105743"
        },
        "mammoth cave": {
            "latitude": "41.6722473",
            "closest_to": "",
            "address": "Mammoth Cave, 45N11, Mammoth, Modoc County, California, United States of America",
            "locType": "cave_entrance",
            "blogLinks": [
                "http://www.goldengatetours.net/places"
            ],
            "longitude": "-121.3349028"
        },
        "west coast": {
            "latitude": "34.0222263",
            "closest_to": "",
            "address": "West Coast, Motor Avenue, Palms, LA, Los Angeles County, California, 90034-5702, United States of America",
            "locType": "plumber",
            "blogLinks": [
                "https://jasonevanish.com/2013/01/17/25-things-i-wish-i-knew-before-moving-to-san-francisco/",
                "http://www.citypass.com/san-francisco/things-to-do-san-francisco"
            ],
            "longitude": "-118.4051087"
        },
        "old town san diego": {
            "latitude": "32.7542167",
            "closest_to": "",
            "address": "Old Town San Diego, San Diego County, California, United States of America",
            "locType": "hamlet",
            "blogLinks": [
                "http://www.california-blog.com/"
            ],
            "longitude": "-117.1969792"
        },
        "grant avenue": {
            "latitude": "33.27553",
            "closest_to": "",
            "address": "Grant Avenue, Salton City, Imperial County, California, 92275, United States of America",
            "locType": "residential",
            "blogLinks": [
                "http://www.citypass.com/san-francisco/things-to-do-san-francisco"
            ],
            "longitude": "-115.9754509"
        },
        "san luis obispo": {
            "latitude": "35.2827525",
            "closest_to": "",
            "address": "San Luis Obispo, San Luis Obispo County, California, United States of America",
            "locType": "city",
            "blogLinks": [
                "https://answers.yahoo.com/question/index?qid=20080630092722AAoWNmf"
            ],
            "longitude": "-120.6596155"
        },
        "siberia": {
            "latitude": "34.6267106",
            "closest_to": "",
            "address": "Siberia, San Bernardino County, California, United States of America",
            "locType": "locality",
            "blogLinks": [
                "https://jasonevanish.com/2013/01/17/25-things-i-wish-i-knew-before-moving-to-san-francisco/"
            ],
            "longitude": "-115.985768"
        },
        "tea garden": {
            "latitude": "33.7006659",
            "closest_to": "",
            "address": "Tea Garden, Northwood, Irvine, Orange County, California, 92620, United States of America",
            "locType": "residential",
            "blogLinks": [
                "http://www.citypass.com/san-francisco/things-to-do-san-francisco"
            ],
            "longitude": "-117.7616589"
        },
        "charlestown": {
            "latitude": "33.8351282",
            "closest_to": "",
            "address": "East Charlestown Drive, Anaheim Resort District, Anaheim, Orange County, California, 92805, United States of America",
            "locType": "residential",
            "blogLinks": [
                "https://jasonevanish.com/2013/01/17/25-things-i-wish-i-knew-before-moving-to-san-francisco/"
            ],
            "longitude": "-117.8919819"
        },
        "ocean beach": {
            "latitude": "32.7477784",
            "closest_to": "",
            "address": "Ocean Beach, San Diego, San Diego County, California, United States of America",
            "locType": "region",
            "blogLinks": [
                "https://jasonevanish.com/2013/01/17/25-things-i-wish-i-knew-before-moving-to-san-francisco/",
                "http://www.goldengatetours.net/places",
                "http://www.citypass.com/san-francisco/things-to-do-san-francisco"
            ],
            "longitude": "-117.249321"
        },
        "hollywood": {
            "latitude": "34.1028268",
            "closest_to": "",
            "address": "Hollywood, LA, Los Angeles County, California, United States of America",
            "locType": "suburb",
            "blogLinks": [
                "https://jasonevanish.com/2013/01/17/25-things-i-wish-i-knew-before-moving-to-san-francisco/"
            ],
            "longitude": "-118.3299898"
        },
        "mount palomar ca": {
            "latitude": "33.1278146",
            "closest_to": "",
            "address": "California Bank & Trust, 2501, Palomar Airport Road, Carlsbad, San Diego County, California, 92011, United States of America",
            "locType": "bank",
            "blogLinks": [
                "http://www.california-blog.com/"
            ],
            "longitude": "-117.270809764613"
        },
        "latin america": {
            "latitude": "32.88513545",
            "closest_to": "",
            "address": "Latin America Hall, North Torrey Pines Road, La Jolla, San Diego, San Diego County, California, 92037, United States of America",
            "locType": "yes",
            "blogLinks": [
                "https://jasonevanish.com/2013/01/17/25-things-i-wish-i-knew-before-moving-to-san-francisco/"
            ],
            "longitude": "-117.243474813578"
        },
        "tacoma": {
            "latitude": "34.098224",
            "closest_to": "",
            "address": "Tacoma Avenue, Mount Washington, Highland Park, LA, Los Angeles County, California, 90065, United States of America",
            "locType": "residential",
            "blogLinks": [
                "https://www.yelp.com/topic/san-francisco-sf-to-portland-seattle-vancouver-road-trip-advice"
            ],
            "longitude": "-118.2253529"
        },
        "west": {
            "latitude": "33.9492548",
            "closest_to": "",
            "address": "W, Service road S, Westchester, Playa del Rey, LA, Los Angeles County, California, 90245, United States of America",
            "locType": "taxiway",
            "blogLinks": [
                "https://jasonevanish.com/2013/01/17/25-things-i-wish-i-knew-before-moving-to-san-francisco/"
            ],
            "longitude": "-118.4108078"
        },
        "' way northern california": {
            "latitude": "32.7349196",
            "closest_to": "",
            "address": "Northern Frontier, San Diego, San Diego County, California, United States of America",
            "locType": "locality",
            "blogLinks": [
                "http://thisismyhappiness.com/2013/06/02/30-things-to-do-in-northern-california/"
            ],
            "longitude": "-117.1545973"
        },
        "donner memorial state park": {
            "latitude": "39.30551855",
            "closest_to": "",
            "address": "Donner Memorial State Park, Yogi Bear, Andover, Placer County, California, 96161, United States of America",
            "locType": "park",
            "blogLinks": [
                "http://thisismyhappiness.com/2013/06/02/30-things-to-do-in-northern-california/"
            ],
            "longitude": "-120.23950307348"
        },
        "creek rd": {
            "latitude": "34.1374136",
            "closest_to": "",
            "address": "Creek Road, Big River, San Bernardino County, California, 92242, United States of America",
            "locType": "residential",
            "blogLinks": [
                "http://thisismyhappiness.com/2013/06/02/30-things-to-do-in-northern-california/"
            ],
            "longitude": "-114.3823985"
        },
        "eureka": {
            "latitude": "40.8020712",
            "closest_to": "",
            "address": "Eureka, Humboldt County, California, United States of America",
            "locType": "city",
            "blogLinks": [
                "https://www.yelp.com/topic/san-francisco-sf-to-portland-seattle-vancouver-road-trip-advice"
            ],
            "longitude": "-124.1636728"
        },
        "morro rock ca": {
            "latitude": "35.369669",
            "closest_to": "",
            "address": "Morro Rock, Morro Bay, San Luis Obispo County, California, United States of America",
            "locType": "peak",
            "blogLinks": [
                "http://www.california-blog.com/"
            ],
            "longitude": "-120.8676993"
        },
        "harris ranch": {
            "latitude": "36.2535766",
            "closest_to": "",
            "address": "Harris Ranch, West Dorris Avenue, Fresno County, California, 93210, United States of America",
            "locType": "hotel",
            "blogLinks": [
                "https://www.yelp.com/topic/san-francisco-place-to-eat-off-i-5-between-la-and-sf"
            ],
            "longitude": "-120.237368306069"
        },
        "fresno": {
            "latitude": "36.748793",
            "closest_to": "",
            "address": "Fresno, Fresno County, California, United States of America",
            "locType": "city",
            "blogLinks": [
                "https://www.tripadvisor.com/Travel-g28926-c200326/California:United-States:Road.Trip.San.Francisco.To.Las.Vegas.html"
            ],
            "longitude": "-119.714839601149"
        },
        "hermosa beach": {
            "latitude": "33.86428",
            "closest_to": "",
            "address": "Hermosa Beach, Los Angeles County, California, United States of America",
            "locType": "city",
            "blogLinks": [
                "https://www.tripadvisor.com/ShowTopic-g60713-i30-k6063670-Best_places_to_stop_between_San_Fran_and_San_Diego_Thanks-San_Francisco_California.html"
            ],
            "longitude": "-118.3959099"
        },
        "morro bay ca": {
            "latitude": "35.3658075",
            "closest_to": "",
            "address": "Morro Bay, San Luis Obispo County, California, United States of America",
            "locType": "city",
            "blogLinks": [
                "http://www.california-blog.com/",
                "https://answers.yahoo.com/question/index?qid=20080630092722AAoWNmf"
            ],
            "longitude": "-120.8499012"
        },
        "crescent city": {
            "latitude": "41.8528065",
            "closest_to": "",
            "address": "Crescent City, Del Norte County, California, United States of America",
            "locType": "city",
            "blogLinks": [
                "https://www.yelp.com/topic/san-francisco-sf-to-portland-seattle-vancouver-road-trip-advice"
            ],
            "longitude": "-124.149861883096"
        },
        "oakhurst": {
            "latitude": "37.333178",
            "closest_to": "",
            "address": "Oakhurst, Junction Drive, Oakhurst, Madera County, California, 93644, United States of America",
            "locType": "administrative",
            "blogLinks": [
                "https://www.tripadvisor.com/Travel-g28926-c200326/California:United-States:Road.Trip.San.Francisco.To.Las.Vegas.html"
            ],
            "longitude": "-119.657244022836"
        },
        "monterey peninsula ca": {
            "latitude": "36.5878734",
            "closest_to": "",
            "address": "Monterey Regional Airport, Airport Road, Seaside, Del Monte Heights, Monterey County, California, 93940, United States of America",
            "locType": "aerodrome",
            "blogLinks": [
                "http://www.california-blog.com/"
            ],
            "longitude": "-121.843618374407"
        },
        "houston": {
            "latitude": "34.4422871",
            "closest_to": "",
            "address": "Houston, Plum Canyon, Canyon Country, Los Angeles County, California, 91351, United States of America",
            "locType": "residential",
            "blogLinks": [
                "https://jasonevanish.com/2013/01/17/25-things-i-wish-i-knew-before-moving-to-san-francisco/"
            ],
            "longitude": "-118.4777157"
        },
        "financial district": {
            "latitude": "34.0457621",
            "closest_to": "",
            "address": "Financial District, Bunker Hill, LA, Los Angeles County, California, 90079, United States of America",
            "locType": "neighbourhood",
            "blogLinks": [
                "https://jasonevanish.com/2013/01/17/25-things-i-wish-i-knew-before-moving-to-san-francisco/",
                "http://www.citypass.com/san-francisco/things-to-do-san-francisco"
            ],
            "longitude": "-118.2593046"
        },
        "old town": {
            "latitude": "35.142943",
            "closest_to": "",
            "address": "Old Town, Golden Hills, Kern County, California, United States of America",
            "locType": "locality",
            "blogLinks": [
                "http://blog.sfgate.com/sfmoms/2010/06/07/i-5-sacramento-to-redding/"
            ],
            "longitude": "-118.4954422"
        },
        "fern valley": {
            "latitude": "33.7586314",
            "closest_to": "",
            "address": "Fern Valley, Idyllwild, Riverside County, California, United States of America",
            "locType": "locality",
            "blogLinks": [
                "https://www.yelp.com/topic/san-francisco-sf-to-portland-seattle-vancouver-road-trip-advice"
            ],
            "longitude": "-116.6980734"
        },
        "valencia": {
            "latitude": "34.1466768",
            "closest_to": "",
            "address": "Valencia, San Bernardino County, California, United States of America",
            "locType": "hamlet",
            "blogLinks": [
                "https://jasonevanish.com/2013/01/17/25-things-i-wish-i-knew-before-moving-to-san-francisco/"
            ],
            "longitude": "-117.2725426"
        },
        "kenya": {
            "latitude": "34.2713528",
            "closest_to": "",
            "address": "Kenya Street, Granada Hills, Northridge, LA, Los Angeles County, California, 91326, United States of America",
            "locType": "tertiary",
            "blogLinks": [
                "https://jasonevanish.com/2013/01/17/25-things-i-wish-i-knew-before-moving-to-san-francisco/"
            ],
            "longitude": "-118.5402675"
        },
        "amsterdam": {
            "latitude": "37.4302157",
            "closest_to": "",
            "address": "Amsterdam, Merced County, California, United States of America",
            "locType": "hamlet",
            "blogLinks": [
                "https://jasonevanish.com/2013/01/17/25-things-i-wish-i-knew-before-moving-to-san-francisco/"
            ],
            "longitude": "-120.5421391"
        },
        "mount san jacinto ca": {
            "latitude": "33.7839084",
            "closest_to": "",
            "address": "San Jacinto, Riverside County, California, United States of America",
            "locType": "city",
            "blogLinks": [
                "http://www.california-blog.com/"
            ],
            "longitude": "-116.9586349"
        },
        "wyoming": {
            "latitude": "33.7127211",
            "closest_to": "",
            "address": "Wyoming, Walnut, Irvine, Orange County, California, 92606, United States of America",
            "locType": "residential",
            "blogLinks": [
                "https://jasonevanish.com/2013/01/17/25-things-i-wish-i-knew-before-moving-to-san-francisco/"
            ],
            "longitude": "-117.7900125"
        },
        "france": {
            "latitude": "34.2013715",
            "closest_to": "",
            "address": "France, Sherman Way, Canoga Park, LA, Los Angeles County, California, 91307, United States of America",
            "locType": "cafe",
            "blogLinks": [
                "http://www.citypass.com/san-francisco/things-to-do-san-francisco"
            ],
            "longitude": "-118.5935353"
        },
        "pebble beach ca": {
            "latitude": "36.5664874",
            "closest_to": "",
            "address": "Pebble Beach, Monterey County, California, United States of America",
            "locType": "hamlet",
            "blogLinks": [
                "http://www.california-blog.com/"
            ],
            "longitude": "-121.9466112"
        },
        "pacific ocean": {
            "latitude": "36.16305775",
            "closest_to": "",
            "address": "Pacific Ocean, Cabrillo Highway, Monterey County, California, 93920, United States of America",
            "locType": "cliff",
            "blogLinks": [
                "https://jasonevanish.com/2013/01/17/25-things-i-wish-i-knew-before-moving-to-san-francisco/",
                "http://www.goldengatetours.net/places",
                "http://www.hopper.com/articles/291/five-great-stops-between-los-angeles-and-san-francisco-on-the-pacific-coast-highway",
                "http://thisismyhappiness.com/2013/06/02/30-things-to-do-in-northern-california/",
                "http://www.citypass.com/san-francisco/things-to-do-san-francisco"
            ],
            "longitude": "-121.678715787326"
        },
        "ojai valley": {
            "latitude": "34.4480495",
            "closest_to": "",
            "address": "Ojai, Ventura County, California, United States of America",
            "locType": "city",
            "blogLinks": [
                "http://www.california-blog.com/"
            ],
            "longitude": "-119.2428889"
        },
        "l.a.": {
            "latitude": "-13.8305494",
            "closest_to": "",
            "address": "California, Provincia Abel Iturralde, LPZ, Bolivia",
            "locType": "hamlet",
            "blogLinks": [
                "https://jasonevanish.com/2013/01/17/25-things-i-wish-i-knew-before-moving-to-san-francisco/"
            ],
            "longitude": "-67.9369134"
        },
        "punchbowl": {
            "latitude": "34.4094426",
            "closest_to": "",
            "address": "Devils Punchbowl County Park, High Desert National Recreation Trail, Old Point Comfort, Los Angeles County, California, United States of America",
            "locType": "park",
            "blogLinks": [
                "https://www.yelp.com/topic/san-francisco-sf-to-portland-seattle-vancouver-road-trip-advice"
            ],
            "longitude": "-117.8475628"
        },
        "buellton": {
            "latitude": "34.6134727",
            "closest_to": "",
            "address": "Buellton, Santa Barbara County, California, United States of America",
            "locType": "city",
            "blogLinks": [
                "https://www.yelp.com/topic/san-francisco-place-to-eat-off-i-5-between-la-and-sf"
            ],
            "longitude": "-120.1936691"
        },
        "canada": {
            "latitude": "33.7298842",
            "closest_to": "",
            "address": "La Canada, Lower Peters Canyon, Irvine, Orange County, California, 92602, United States of America",
            "locType": "residential",
            "blogLinks": [
                "https://www.yelp.com/topic/san-francisco-sf-to-portland-seattle-vancouver-road-trip-advice"
            ],
            "longitude": "-117.7641381"
        },
        "us": {
            "latitude": "36.7014631",
            "closest_to": "",
            "address": "California, United States of America",
            "locType": "administrative",
            "blogLinks": [
                "https://jasonevanish.com/2013/01/17/25-things-i-wish-i-knew-before-moving-to-san-francisco/",
                "http://thisismyhappiness.com/2013/06/02/30-things-to-do-in-northern-california/"
            ],
            "longitude": "-118.7559973"
        },
        "the city": {
            "latitude": "7.1083972",
            "closest_to": "",
            "address": "California, Deca Homes Resort Residences Phase 4, Purok 20, New Loon, Davao City, Davao, 8000, Philippines",
            "locType": "residential",
            "blogLinks": [
                "https://jasonevanish.com/2013/01/17/25-things-i-wish-i-knew-before-moving-to-san-francisco/"
            ],
            "longitude": "125.4965601"
        },
        "alexander valley": {
            "latitude": "34.5991586",
            "closest_to": "",
            "address": "Alexander Peak, Santa Barbara County, California, United States of America",
            "locType": "peak",
            "blogLinks": [
                "http://thisismyhappiness.com/2013/06/02/30-things-to-do-in-northern-california/"
            ],
            "longitude": "-119.7631938"
        },
        "quebec": {
            "latitude": "33.5740658",
            "closest_to": "",
            "address": "Quebec, Aliso Viejo, Orange County, California, 92656, United States of America",
            "locType": "residential",
            "blogLinks": [
                "https://jasonevanish.com/2013/01/17/25-things-i-wish-i-knew-before-moving-to-san-francisco/"
            ],
            "longitude": "-117.7343472"
        },
        "united kingdom": {
            "latitude": "52.4422729",
            "closest_to": "",
            "address": "California, Birmingham, West Midlands, England, UK",
            "locType": "village",
            "blogLinks": [
                "http://www.bayareakidfun.com/best-of-the-bay/"
            ],
            "longitude": "-1.9796882"
        },
        "los angeles": {
            "latitude": "34.0543942",
            "closest_to": "",
            "address": "LA, Los Angeles County, California, United States of America",
            "locType": "city",
            "blogLinks": [
                "https://www.tripadvisor.com/ShowTopic-g60713-i30-k5261581-Scenic_Route_from_San_Francisco_to_Sacramento-San_Francisco_California.html",
                "https://jasonevanish.com/2013/01/17/25-things-i-wish-i-knew-before-moving-to-san-francisco/",
                "http://www.hopper.com/articles/291/five-great-stops-between-los-angeles-and-san-francisco-on-the-pacific-coast-highway"
            ],
            "longitude": "-118.2439408"
        },
        "monterey": {
            "latitude": "36.5844165",
            "closest_to": "",
            "address": "Monterey, Monterey County, California, United States of America",
            "locType": "city",
            "blogLinks": [
                "https://jasonevanish.com/2013/01/17/25-things-i-wish-i-knew-before-moving-to-san-francisco/",
                "https://www.tripadvisor.com/Travel-g28926-c200326/California:United-States:Road.Trip.San.Francisco.To.Las.Vegas.html",
                "https://www.tripadvisor.com/ShowTopic-g60713-i30-k6063670-Best_places_to_stop_between_San_Fran_and_San_Diego_Thanks-San_Francisco_California.html",
                "http://thisismyhappiness.com/2013/06/02/30-things-to-do-in-northern-california/",
                "http://www.citypass.com/san-francisco/things-to-do-san-francisco"
            ],
            "longitude": "-121.866792846206"
        },
        "portland": {
            "latitude": "33.8979116",
            "closest_to": "",
            "address": "Portland, Riverside, Riverside County, California, 92508, United States of America",
            "locType": "residential",
            "blogLinks": [
                "https://www.yelp.com/topic/san-francisco-sf-to-portland-seattle-vancouver-road-trip-advice",
                "https://jasonevanish.com/2013/01/17/25-things-i-wish-i-knew-before-moving-to-san-francisco/",
                "http://www.hopper.com/articles/291/five-great-stops-between-los-angeles-and-san-francisco-on-the-pacific-coast-highway"
            ],
            "longitude": "-117.3105194"
        },
        "hayes valley": {
            "latitude": "34.0742041",
            "closest_to": "",
            "address": "Hayes, Los Angeles County, California, United States of America",
            "locType": "hamlet",
            "blogLinks": [
                "https://jasonevanish.com/2013/01/17/25-things-i-wish-i-knew-before-moving-to-san-francisco/"
            ],
            "longitude": "-118.0228699"
        },
        "boston": {
            "latitude": "33.696779",
            "closest_to": "",
            "address": "Boston, Heritage Park Apartments, El Camino Real, Irvine, Orange County, California, 92604, United States of America",
            "locType": "residential",
            "blogLinks": [
                "https://jasonevanish.com/2013/01/17/25-things-i-wish-i-knew-before-moving-to-san-francisco/"
            ],
            "longitude": "-117.7757132"
        },
        "napa valley": {
            "latitude": "39.0234679",
            "closest_to": "",
            "address": "Napa Valley, Cold Spring, Campbell County, Kentucky, 41076, United States of America",
            "locType": "residential",
            "blogLinks": [
                "https://www.tripadvisor.com/ShowTopic-g60713-i30-k5261581-Scenic_Route_from_San_Francisco_to_Sacramento-San_Francisco_California.html",
                "http://thisismyhappiness.com/2013/06/02/30-things-to-do-in-northern-california/"
            ],
            "longitude": "-84.4504647"
        },
        "moreno valley ca": {
            "latitude": "33.937517",
            "closest_to": "",
            "address": "Moreno Valley, Riverside County, California, United States of America",
            "locType": "city",
            "blogLinks": [
                "http://www.california-blog.com/"
            ],
            "longitude": "-117.2305943"
        },
        "yachats": {
            "latitude": "35.5630717",
            "closest_to": "",
            "address": "Planet Yachats, 4090, Burton Drive, Fiscalini Ranch Preserve, Cambria, San Luis Obispo County, California, 93428, United States of America",
            "locType": "house",
            "blogLinks": [
                "https://www.yelp.com/topic/san-francisco-sf-to-portland-seattle-vancouver-road-trip-advice"
            ],
            "longitude": "-121.0822348"
        },
        "germany": {
            "latitude": "50.9590814",
            "closest_to": "",
            "address": "California, Lassallestra\u00dfe, M\u00fclheim, K\u00f6ln, Regierungsbezirk K\u00f6ln, Nordrhein-Westfalen, 50667-51149, Deutschland",
            "locType": "beauty",
            "blogLinks": [
                "https://jasonevanish.com/2013/01/17/25-things-i-wish-i-knew-before-moving-to-san-francisco/"
            ],
            "longitude": "7.009217"
        },
        "truckee": {
            "latitude": "39.327962",
            "closest_to": "",
            "address": "Truckee, Nevada County, California, United States of America",
            "locType": "administrative",
            "blogLinks": [
                "http://thisismyhappiness.com/2013/06/02/30-things-to-do-in-northern-california/"
            ],
            "longitude": "-120.1832532"
        },
        "glacier point": {
            "latitude": "37.499192",
            "closest_to": "",
            "address": "Glacier Point, Darrah, Mariposa County, California, 95338, United States of America",
            "locType": "residential",
            "blogLinks": [
                "https://www.tripadvisor.com/Travel-g28926-c200326/California:United-States:Road.Trip.San.Francisco.To.Las.Vegas.html"
            ],
            "longitude": "-119.8282379"
        },
        "spain": {
            "latitude": "37.1412332",
            "closest_to": "",
            "address": "La California, Mor\u00f3n de la Frontera, Sevilla, Andaluc\u00eda, Espa\u00f1a",
            "locType": "locality",
            "blogLinks": [
                "https://jasonevanish.com/2013/01/17/25-things-i-wish-i-knew-before-moving-to-san-francisco/"
            ],
            "longitude": "-5.4610806"
        },
        "whistler": {
            "latitude": "34.3090058",
            "closest_to": "",
            "address": "Whistler Avenue, LA, Los Angeles County, California, 91344, United States of America",
            "locType": "residential",
            "blogLinks": [
                "https://www.yelp.com/topic/san-francisco-sf-to-portland-seattle-vancouver-road-trip-advice"
            ],
            "longitude": "-118.5053852"
        },
        "mono lake ca": {
            "latitude": "38.0077189",
            "closest_to": "",
            "address": "Mono Lake, Mono County, California, United States of America",
            "locType": "water",
            "blogLinks": [
                "http://www.california-blog.com/"
            ],
            "longitude": "-118.967033937845"
        },
        "las vegas": {
            "latitude": "36.17310935",
            "closest_to": "",
            "address": "California Hotel, Sky Walk(Connection from Main Street to California, Cultural Corridor, Vegas Heights, Las Vegas, Clark County, Nevada, 89101, United States of America",
            "locType": "hotel",
            "blogLinks": [
                "https://www.tripadvisor.com/Travel-g28926-c200326/California:United-States:Road.Trip.San.Francisco.To.Las.Vegas.html"
            ],
            "longitude": "-115.144667930325"
        },
        "tillamook": {
            "latitude": "32.728329",
            "closest_to": "",
            "address": "Tillamook Bay Drive, San Diego, San Diego County, California, 92114, United States of America",
            "locType": "residential",
            "blogLinks": [
                "https://www.yelp.com/topic/san-francisco-sf-to-portland-seattle-vancouver-road-trip-advice"
            ],
            "longitude": "-117.0726319"
        },
        "jacksonville": {
            "latitude": "30.254267",
            "closest_to": "",
            "address": "California Avenue, Jacksonville, Duval County, Florida, 32210, United States of America",
            "locType": "residential",
            "blogLinks": [
                "https://www.yelp.com/topic/san-francisco-sf-to-portland-seattle-vancouver-road-trip-advice"
            ],
            "longitude": "-81.7838589"
        },
        "manzanita lake": {
            "latitude": "40.5360818",
            "closest_to": "",
            "address": "Manzanita Lake, Shasta County, California, United States of America",
            "locType": "hamlet",
            "blogLinks": [
                "http://thisismyhappiness.com/2013/06/02/30-things-to-do-in-northern-california/"
            ],
            "longitude": "-121.5622337"
        },
        "san fran": {
            "latitude": "35.142465",
            "closest_to": "",
            "address": "Golden Hills, Kern County, California, United States of America",
            "locType": "village",
            "blogLinks": [
                "https://jasonevanish.com/2013/01/17/25-things-i-wish-i-knew-before-moving-to-san-francisco/",
                "https://www.tripadvisor.com/ShowTopic-g60713-i30-k6063670-Best_places_to_stop_between_San_Fran_and_San_Diego_Thanks-San_Francisco_California.html"
            ],
            "longitude": "-118.4903642"
        },
        "crater lake": {
            "latitude": "33.8197471",
            "closest_to": "",
            "address": "Crater Lake, Orange, Orange County, California, 92867, United States of America",
            "locType": "residential",
            "blogLinks": [
                "https://www.yelp.com/topic/san-francisco-sf-to-portland-seattle-vancouver-road-trip-advice",
                "http://thisismyhappiness.com/2013/06/02/30-things-to-do-in-northern-california/"
            ],
            "longitude": "-117.7946566"
        },
        "sequoia national park": {
            "latitude": "36.49584065",
            "closest_to": "",
            "address": "Sequoia National Park, Black Rock Pass Trail, Mineral King, Tulare County, California, United States of America",
            "locType": "national_park",
            "blogLinks": [
                "http://thisismyhappiness.com/2013/06/02/30-things-to-do-in-northern-california/"
            ],
            "longitude": "-118.559919284386"
        },
        "glacier point road": {
            "latitude": "37.6734831",
            "closest_to": "",
            "address": "Glacier Point Road, Mariposa County, California, United States of America",
            "locType": "tertiary",
            "blogLinks": [
                "https://www.tripadvisor.com/Travel-g28926-c200326/California:United-States:Road.Trip.San.Francisco.To.Las.Vegas.html"
            ],
            "longitude": "-119.6363454"
        },
        "brazil": {
            "latitude": "-23.6672542",
            "closest_to": "",
            "address": "Calif\u00f3rnia, Microrregi\u00e3o Arapucana, Mesorregi\u00e3o Norte Central Paranaense, PR, Regi\u00e3o Sul, Brasil",
            "locType": "administrative",
            "blogLinks": [
                "https://jasonevanish.com/2013/01/17/25-things-i-wish-i-knew-before-moving-to-san-francisco/",
                "https://www.tripadvisor.com/ShowTopic-g60713-i30-k6063670-Best_places_to_stop_between_San_Fran_and_San_Diego_Thanks-San_Francisco_California.html"
            ],
            "longitude": "-51.3554555"
        },
        "north": {
            "latitude": "-11.2141388",
            "closest_to": "",
            "address": "Canton Victoria, California, Provincia de Manuripi, PND, Bolivia",
            "locType": "hamlet",
            "blogLinks": [
                "https://jasonevanish.com/2013/01/17/25-things-i-wish-i-knew-before-moving-to-san-francisco/"
            ],
            "longitude": "-67.7071862"
        },
        "nisqually river": {
            "latitude": "34.1533184",
            "closest_to": "",
            "address": "Nisqually Trail, Big River, San Bernardino County, California, 92242, United States of America",
            "locType": "residential",
            "blogLinks": [
                "https://www.yelp.com/topic/san-francisco-sf-to-portland-seattle-vancouver-road-trip-advice"
            ],
            "longitude": "-114.3705559"
        },
        "presidio": {
            "latitude": "34.299701",
            "closest_to": "",
            "address": "Presidio, Simi Valley, Ventura County, California, 93063, United States of America",
            "locType": "residential",
            "blogLinks": [
                "https://jasonevanish.com/2013/01/17/25-things-i-wish-i-knew-before-moving-to-san-francisco/"
            ],
            "longitude": "-118.7127949"
        },
        "mission dolores": {
            "latitude": "34.0447343",
            "closest_to": "",
            "address": "Dolores Mission School, Boyle Avenue, Brooklyn Heights, Boyle Heights, LA, Los Angeles County, California, 90033, United States of America",
            "locType": "school",
            "blogLinks": [
                "https://jasonevanish.com/2013/01/17/25-things-i-wish-i-knew-before-moving-to-san-francisco/"
            ],
            "longitude": "-118.2203506"
        },
        "newport beach ca": {
            "latitude": "33.6170092",
            "closest_to": "",
            "address": "Newport Beach, Orange County, California, United States of America",
            "locType": "city",
            "blogLinks": [
                "http://www.california-blog.com/"
            ],
            "longitude": "-117.92944"
        },
        "pismo beach": {
            "latitude": "35.1427533",
            "closest_to": "",
            "address": "Pismo Beach, San Luis Obispo County, California, United States of America",
            "locType": "city",
            "blogLinks": [
                "http://www.hopper.com/articles/291/five-great-stops-between-los-angeles-and-san-francisco-on-the-pacific-coast-highway"
            ],
            "longitude": "-120.6412826"
        },
        "tuolumne meadows": {
            "latitude": "37.8741952",
            "closest_to": "",
            "address": "Tuolumne Meadows, Tuolumne County, California, United States of America",
            "locType": "suburb",
            "blogLinks": [
                "https://www.tripadvisor.com/Travel-g28926-c200326/California:United-States:Road.Trip.San.Francisco.To.Las.Vegas.html"
            ],
            "longitude": "-119.3575555"
        },
        "yosemite valley": {
            "latitude": "37.734435",
            "closest_to": "",
            "address": "Yosemite Valley, Mariposa County, California, United States of America",
            "locType": "town",
            "blogLinks": [
                "https://www.tripadvisor.com/Travel-g28926-c200326/California:United-States:Road.Trip.San.Francisco.To.Las.Vegas.html",
                "https://www.tripadvisor.com/ShowTopic-g60713-i30-k6063670-Best_places_to_stop_between_San_Fran_and_San_Diego_Thanks-San_Francisco_California.html"
            ],
            "longitude": "-119.6064673"
        },
        "marina": {
            "latitude": "36.6900785",
            "closest_to": "",
            "address": "Marina, Monterey County, California, United States of America",
            "locType": "city",
            "blogLinks": [
                "https://jasonevanish.com/2013/01/17/25-things-i-wish-i-knew-before-moving-to-san-francisco/"
            ],
            "longitude": "-121.800639730262"
        },
        "new york city": {
            "latitude": "40.767819",
            "closest_to": "",
            "address": "California Sea Lion, 830, 5th Avenue, Upper East Side, Manhattan, New York County, NYC, New York, 10035, United States of America",
            "locType": "attraction",
            "blogLinks": [
                "http://thisismyhappiness.com/2013/06/02/30-things-to-do-in-northern-california/"
            ],
            "longitude": "-73.9717587"
        },
        "north carolina": {
            "latitude": "35.9043367",
            "closest_to": "",
            "address": "California, Dare County, North Carolina, United States of America",
            "locType": "hamlet",
            "blogLinks": [
                "http://thisismyhappiness.com/2013/06/02/30-things-to-do-in-northern-california/"
            ],
            "longitude": "-75.6804524"
        },
        "mojave desert ca": {
            "latitude": "35.1456319",
            "closest_to": "",
            "address": "Mojave Desert, Utility Road, San Bernardino County, California, United States of America",
            "locType": "desert",
            "blogLinks": [
                "http://www.california-blog.com/"
            ],
            "longitude": "-115.548963686646"
        },
        "denver": {
            "latitude": "33.6996403",
            "closest_to": "",
            "address": "Denver, Heritage Park Apartments, El Camino Real, Irvine, Orange County, California, 92604, United States of America",
            "locType": "residential",
            "blogLinks": [
                "https://jasonevanish.com/2013/01/17/25-things-i-wish-i-knew-before-moving-to-san-francisco/"
            ],
            "longitude": "-117.7762651"
        },
        "california": {
            "latitude": "7.3480915",
            "closest_to": "",
            "address": "California, Santander, Colombia",
            "locType": "village",
            "blogLinks": [
                "http://www.california-blog.com/",
                "http://www.goldengatetours.net/places",
                "https://www.tripadvisor.com/ShowTopic-g60713-i30-k6063670-Best_places_to_stop_between_San_Fran_and_San_Diego_Thanks-San_Francisco_California.html",
                "https://answers.yahoo.com/question/index?qid=20080630092722AAoWNmf",
                "https://jasonevanish.com/2013/01/17/25-things-i-wish-i-knew-before-moving-to-san-francisco/",
                "https://www.tripadvisor.com/Travel-g28926-c200326/California:United-States:Road.Trip.San.Francisco.To.Las.Vegas.html",
                "http://thisismyhappiness.com/2013/06/02/30-things-to-do-in-northern-california/",
                "https://www.yelp.com/topic/san-francisco-sf-to-portland-seattle-vancouver-road-trip-advice"
            ],
            "longitude": "-72.945787"
        },
        "mountainview": {
            "latitude": "33.6791502",
            "closest_to": "",
            "address": "Mountainview Lane, Huntington Beach, Orange County, California, 92648, United States of America",
            "locType": "residential",
            "blogLinks": [
                "https://jasonevanish.com/2013/01/17/25-things-i-wish-i-knew-before-moving-to-san-francisco/"
            ],
            "longitude": "-118.0258782"
        },
        "valley": {
            "latitude": "34.0148403",
            "closest_to": "",
            "address": "Valley, South Stimson Avenue, Industry, Los Angeles County, California, 91745, United States of America",
            "locType": "yes",
            "blogLinks": [
                "https://jasonevanish.com/2013/01/17/25-things-i-wish-i-knew-before-moving-to-san-francisco/"
            ],
            "longitude": "-117.955234675878"
        },
        "gold country": {
            "latitude": "35.300501",
            "closest_to": "",
            "address": "Gold Country Way, Bakersfield, Kern County, California, 93311, United States of America",
            "locType": "residential",
            "blogLinks": [
                "http://www.goldengatetours.net/places"
            ],
            "longitude": "-119.0856049"
        },
        "america": {
            "latitude": "36.2573198",
            "closest_to": "",
            "address": "America, Kings County, California, 93246, United States of America",
            "locType": "residential",
            "blogLinks": [
                "https://jasonevanish.com/2013/01/17/25-things-i-wish-i-knew-before-moving-to-san-francisco/",
                "http://thisismyhappiness.com/2013/06/02/30-things-to-do-in-northern-california/"
            ],
            "longitude": "-119.8948706"
        },
        "johannesburg": {
            "latitude": "35.3732015",
            "closest_to": "",
            "address": "Johannesburg, Johannesburg Avenue, Kern County, California, 93528, United States of America",
            "locType": "administrative",
            "blogLinks": [
                "https://jasonevanish.com/2013/01/17/25-things-i-wish-i-knew-before-moving-to-san-francisco/"
            ],
            "longitude": "-117.643287330498"
        },
        "kern river": {
            "latitude": "36.6816956",
            "closest_to": "",
            "address": "Kern River, Tulare County, California, United States of America",
            "locType": "river",
            "blogLinks": [
                "http://www.california-blog.com/"
            ],
            "longitude": "-118.4124188"
        },
        "middle earth": {
            "latitude": "33.64434515",
            "closest_to": "",
            "address": "Middle Earth, Turtle Rock, Irvine, Orange County, California, 92617, United States of America",
            "locType": "residential",
            "blogLinks": [
                "http://www.california-blog.com/",
                "http://thisismyhappiness.com/2013/06/02/30-things-to-do-in-northern-california/"
            ],
            "longitude": "-117.837186650942"
        },
        "rome": {
            "latitude": "41.9628634",
            "closest_to": "",
            "address": "California, Via della Missione, Tivoli, Paterno, Tivoli, RM, LAZ, 00019, Italia",
            "locType": "pub",
            "blogLinks": [
                "https://jasonevanish.com/2013/01/17/25-things-i-wish-i-knew-before-moving-to-san-francisco/"
            ],
            "longitude": "12.7977613"
        },
        "lassen national park": {
            "latitude": "40.49138385",
            "closest_to": "",
            "address": "Lassen Volcanic National Park, Lassen Peak Highway, Shasta County, California, United States of America",
            "locType": "national_park",
            "blogLinks": [
                "http://thisismyhappiness.com/2013/06/02/30-things-to-do-in-northern-california/"
            ],
            "longitude": "-121.404335848657"
        },
        "merced": {
            "latitude": "37.3029568",
            "closest_to": "",
            "address": "Merced, Merced County, California, United States of America",
            "locType": "city",
            "blogLinks": [
                "https://www.tripadvisor.com/ShowTopic-g60713-i30-k6063670-Best_places_to_stop_between_San_Fran_and_San_Diego_Thanks-San_Francisco_California.html"
            ],
            "longitude": "-120.4843268"
        },
        "sienna ranch": {
            "latitude": "33.5590148",
            "closest_to": "",
            "address": "Sienna Parkway, Las Flores, Ladera Ranch, Orange County, California, 92697, United States of America",
            "locType": "tertiary",
            "blogLinks": [
                "http://www.bayareakidfun.com/best-of-the-bay/"
            ],
            "longitude": "-117.6360879"
        },
        "yerba buena": {
            "latitude": "34.3027736",
            "closest_to": "",
            "address": "Yerba Buena, Landslide, Watts Ranch, Los Angeles County, California, 91042, United States of America",
            "locType": "reservoir_covered",
            "blogLinks": [
                "https://jasonevanish.com/2013/01/17/25-things-i-wish-i-knew-before-moving-to-san-francisco/"
            ],
            "longitude": "-118.3003675"
        },
        "palos verdes peninsula ca": {
            "latitude": "33.77984925",
            "closest_to": "",
            "address": "Palos Verdes Peninsula High School, Hawthorne Boulevard, Rolling Hills Estates, Los Angeles County, California, 90274, United States of America",
            "locType": "school",
            "blogLinks": [
                "http://www.california-blog.com/"
            ],
            "longitude": "-118.372196730215"
        },
        "tioga pass": {
            "latitude": "37.9109049",
            "closest_to": "",
            "address": "Tioga Pass, Tuolumne County, California, United States of America",
            "locType": "yes",
            "blogLinks": [
                "https://www.tripadvisor.com/Travel-g28926-c200326/California:United-States:Road.Trip.San.Francisco.To.Las.Vegas.html"
            ],
            "longitude": "-119.2578542"
        },
        "lake tahoe": {
            "latitude": "39.0888982",
            "closest_to": "",
            "address": "Lake Tahoe, Placer County, California, United States of America",
            "locType": "water",
            "blogLinks": [
                "http://thisismyhappiness.com/2013/06/02/30-things-to-do-in-northern-california/"
            ],
            "longitude": "-120.050511752934"
        },
        "vancouver": {
            "latitude": "34.824773",
            "closest_to": "",
            "address": "Vancouver, San Bernardino County, California, United States of America",
            "locType": "residential",
            "blogLinks": [
                "https://www.yelp.com/topic/san-francisco-sf-to-portland-seattle-vancouver-road-trip-advice",
                "https://jasonevanish.com/2013/01/17/25-things-i-wish-i-knew-before-moving-to-san-francisco/"
            ],
            "longitude": "-117.4634669"
        },
        "philly": {
            "latitude": "34.1488309",
            "closest_to": "",
            "address": "Philly Drive, Rancho Cucamonga, San Bernardino County, California, 91739, United States of America",
            "locType": "residential",
            "blogLinks": [
                "https://jasonevanish.com/2013/01/17/25-things-i-wish-i-knew-before-moving-to-san-francisco/"
            ],
            "longitude": "-117.5146442"
        },
        "portland portland": {
            "latitude": "27.8963344",
            "closest_to": "",
            "address": "California, Portland, San Patricio County, Texas, 78390, United States of America",
            "locType": "residential",
            "blogLinks": [
                "https://www.yelp.com/topic/san-francisco-sf-to-portland-seattle-vancouver-road-trip-advice"
            ],
            "longitude": "-97.305508"
        },
        "florida": {
            "latitude": "29.8738433",
            "closest_to": "",
            "address": "California, Lanark Village, Franklin County, Florida, 32323, United States of America",
            "locType": "residential",
            "blogLinks": [
                "https://jasonevanish.com/2013/01/17/25-things-i-wish-i-knew-before-moving-to-san-francisco/"
            ],
            "longitude": "-84.6071504"
        },
        "lone pine": {
            "latitude": "36.583176",
            "closest_to": "",
            "address": "Lone Pine, Tuttle Creek Road, Alabama Hills, Inyo County, California, 93545, United States of America",
            "locType": "administrative",
            "blogLinks": [
                "https://www.tripadvisor.com/Travel-g28926-c200326/California:United-States:Road.Trip.San.Francisco.To.Las.Vegas.html"
            ],
            "longitude": "-118.078359194897"
        },
        "southern california": {
            "latitude": "34.0224149",
            "closest_to": "",
            "address": "University of Southern California, Watt Way, Saint James Park, LA, Los Angeles County, California, 90089, United States of America",
            "locType": "university",
            "blogLinks": [
                "http://www.hopper.com/articles/291/five-great-stops-between-los-angeles-and-san-francisco-on-the-pacific-coast-highway"
            ],
            "longitude": "-118.286343973446"
        },
        "tecate": {
            "latitude": "32.43593355",
            "closest_to": "",
            "address": "Tecate, Baja California, M\u00e9xico",
            "locType": "administrative",
            "blogLinks": [
                "https://jasonevanish.com/2013/01/17/25-things-i-wish-i-knew-before-moving-to-san-francisco/"
            ],
            "longitude": "-116.273657068655"
        },
        "botanical garden": {
            "latitude": "34.1914501",
            "closest_to": "",
            "address": "Botanical Garden, Thousand Oaks, Ventura County, California, 91360, United States of America",
            "locType": "footway",
            "blogLinks": [
                "http://thisismyhappiness.com/2013/06/02/30-things-to-do-in-northern-california/"
            ],
            "longitude": "-118.8855607"
        },
        "san simeon": {
            "latitude": "35.6438587",
            "closest_to": "",
            "address": "San Simeon, San Luis Obispo County, California, United States of America",
            "locType": "hamlet",
            "blogLinks": [
                "http://www.goldengatetours.net/places",
                "http://www.hopper.com/articles/291/five-great-stops-between-los-angeles-and-san-francisco-on-the-pacific-coast-highway",
                "https://answers.yahoo.com/question/index?qid=20080630092722AAoWNmf"
            ],
            "longitude": "-121.1907532"
        },
        "seattle": {
            "latitude": "41.9641881",
            "closest_to": "",
            "address": "Seattle, Dorris, Siskiyou County, California, 96023, United States of America",
            "locType": "residential",
            "blogLinks": [
                "https://www.yelp.com/topic/san-francisco-sf-to-portland-seattle-vancouver-road-trip-advice",
                "https://jasonevanish.com/2013/01/17/25-things-i-wish-i-knew-before-moving-to-san-francisco/",
                "http://blog.sfgate.com/sfmoms/2010/06/07/i-5-sacramento-to-redding/"
            ],
            "longitude": "-121.9226289"
        },
        "oregon": {
            "latitude": "33.7123207",
            "closest_to": "",
            "address": "Oregon, Walnut, Irvine, Orange County, California, 92606, United States of America",
            "locType": "residential",
            "blogLinks": [
                "https://www.yelp.com/topic/san-francisco-sf-to-portland-seattle-vancouver-road-trip-advice",
                "https://jasonevanish.com/2013/01/17/25-things-i-wish-i-knew-before-moving-to-san-francisco/",
                "http://thisismyhappiness.com/2013/06/02/30-things-to-do-in-northern-california/"
            ],
            "longitude": "-117.7911567"
        },
        "hong kong": {
            "latitude": "35.31123225",
            "closest_to": "",
            "address": "Hong Kong, 905, Los Osos Valley Road, Baywood-Los Osos, San Luis Obispo County, California, 93402, United States of America",
            "locType": "restaurant",
            "blogLinks": [
                "https://jasonevanish.com/2013/01/17/25-things-i-wish-i-knew-before-moving-to-san-francisco/"
            ],
            "longitude": "-120.83458745"
        },
        "san luis obispo county": {
            "latitude": "35.3540209",
            "closest_to": "",
            "address": "San Luis Obispo County, California, United States of America",
            "locType": "administrative",
            "blogLinks": [
                "http://www.hopper.com/articles/291/five-great-stops-between-los-angeles-and-san-francisco-on-the-pacific-coast-highway"
            ],
            "longitude": "-120.3757162"
        },
        "london": {
            "latitude": "36.4760619",
            "closest_to": "",
            "address": "London, Tulare County, California, United States of America",
            "locType": "village",
            "blogLinks": [
                "https://jasonevanish.com/2013/01/17/25-things-i-wish-i-knew-before-moving-to-san-francisco/",
                "http://www.goldengatetours.net/places"
            ],
            "longitude": "-119.4431784"
        },
        "tumwater": {
            "latitude": "35.395366",
            "closest_to": "",
            "address": "Tumwater Avenue, Bakersfield, Kern County, California, 93312, United States of America",
            "locType": "residential",
            "blogLinks": [
                "https://www.yelp.com/topic/san-francisco-sf-to-portland-seattle-vancouver-road-trip-advice"
            ],
            "longitude": "-119.1092689"
        },
        "california theatre center": {
            "latitude": "34.10680785",
            "closest_to": "",
            "address": "California Theatre, 562, West 4th Street, San Bernardino, San Bernardino County, California, 92401, United States of America",
            "locType": "cinema",
            "blogLinks": [
                "http://www.bayareakidfun.com/best-of-the-bay/"
            ],
            "longitude": "-117.295461125042"
        },
        "united states of america": {
            "latitude": "36.7014631",
            "closest_to": "",
            "address": "California, United States of America",
            "locType": "administrative",
            "blogLinks": [
                "https://www.yelp.com/topic/san-francisco-sf-to-portland-seattle-vancouver-road-trip-advice"
            ],
            "longitude": "-118.7559973"
        },
        "central coast": {
            "latitude": "35.3611193",
            "closest_to": "",
            "address": "Central Coast Street, Bakersfield, Kern County, California, 93314, United States of America",
            "locType": "residential",
            "blogLinks": [
                "https://www.tripadvisor.com/Travel-g28926-c200326/California:United-States:Road.Trip.San.Francisco.To.Las.Vegas.html",
                "http://thisismyhappiness.com/2013/06/02/30-things-to-do-in-northern-california/"
            ],
            "longitude": "-119.1665989"
        },
        "santa barbara": {
            "latitude": "34.4221319",
            "closest_to": "",
            "address": "Santa Barbara, Santa Barbara County, California, United States of America",
            "locType": "city",
            "blogLinks": [
                "http://www.hopper.com/articles/291/five-great-stops-between-los-angeles-and-san-francisco-on-the-pacific-coast-highway",
                "https://www.tripadvisor.com/ShowTopic-g60713-i30-k6063670-Best_places_to_stop_between_San_Fran_and_San_Diego_Thanks-San_Francisco_California.html"
            ],
            "longitude": "-119.7026672"
        },
        "sydney": {
            "latitude": "32.9663437",
            "closest_to": "",
            "address": "Sydney Rae Place, San Diego, San Diego County, California, 92129, United States of America",
            "locType": "residential",
            "blogLinks": [
                "https://jasonevanish.com/2013/01/17/25-things-i-wish-i-knew-before-moving-to-san-francisco/"
            ],
            "longitude": "-117.1532177"
        },
        "washington": {
            "latitude": "40.0657724",
            "closest_to": "",
            "address": "California, Washington County, Pennsylvania, United States of America",
            "locType": "administrative",
            "blogLinks": [
                "https://www.yelp.com/topic/san-francisco-sf-to-portland-seattle-vancouver-road-trip-advice"
            ],
            "longitude": "-79.8918435"
        },
        "monterey bay aquarium": {
            "latitude": "36.61809095",
            "closest_to": "",
            "address": "MBA, 886, Cannery Row, Monterey, Monterey County, California, 93940, United States of America",
            "locType": "aquarium",
            "blogLinks": [
                "http://www.bayareakidfun.com/best-of-the-bay/",
                "http://www.hopper.com/articles/291/five-great-stops-between-los-angeles-and-san-francisco-on-the-pacific-coast-highway",
                "http://www.citypass.com/san-francisco/things-to-do-san-francisco"
            ],
            "longitude": "-121.901680002002"
        },
        "states": {
            "latitude": "36.7014631",
            "closest_to": "",
            "address": "California, United States of America",
            "locType": "administrative",
            "blogLinks": [
                "https://www.yelp.com/topic/san-francisco-sf-to-portland-seattle-vancouver-road-trip-advice"
            ],
            "longitude": "-118.7559973"
        },
        "earth": {
            "latitude": "35.4780569",
            "closest_to": "",
            "address": "Mountain Pass Rare Earth Mine, Mountain Pass, San Bernardino County, California, 92364, United States of America",
            "locType": "quarry",
            "blogLinks": [
                "https://jasonevanish.com/2013/01/17/25-things-i-wish-i-knew-before-moving-to-san-francisco/"
            ],
            "longitude": "-115.541994345811"
        },
        "australia": {
            "latitude": "-32.6649999",
            "closest_to": "",
            "address": "California, Singleton, NSW, Australia",
            "locType": "hamlet",
            "blogLinks": [
                "https://jasonevanish.com/2013/01/17/25-things-i-wish-i-knew-before-moving-to-san-francisco/",
                "http://thisismyhappiness.com/2013/06/02/30-things-to-do-in-northern-california/"
            ],
            "longitude": "150.9261111"
        },
        "dc": {
            "latitude": "34.0838451",
            "closest_to": "",
            "address": "Dc Martens, Melrose Avenue, Park La Brea, Hollywood, LA, Los Angeles County, California, 90069, United States of America",
            "locType": "shoes",
            "blogLinks": [
                "https://jasonevanish.com/2013/01/17/25-things-i-wish-i-knew-before-moving-to-san-francisco/"
            ],
            "longitude": "-118.3558096"
        },
        "mount baldy ca": {
            "latitude": "34.2361168",
            "closest_to": "",
            "address": "Mount Baldy, Los Angeles County, California, United States of America",
            "locType": "hamlet",
            "blogLinks": [
                "http://www.california-blog.com/"
            ],
            "longitude": "-117.6600552"
        },
        "daily city": {
            "latitude": "34.1427409",
            "closest_to": "",
            "address": "Daily Grill, Laurel Canyon Boulevard, Studio City, Valley Village, LA, Los Angeles County, California, 91604, United States of America",
            "locType": "restaurant",
            "blogLinks": [
                "https://jasonevanish.com/2013/01/17/25-things-i-wish-i-knew-before-moving-to-san-francisco/"
            ],
            "longitude": "-118.3945847"
        },
        "washington state": {
            "latitude": "47.5681177",
            "closest_to": "",
            "address": "California Creek, Spokane County, Washington, United States of America",
            "locType": "stream",
            "blogLinks": [
                "https://www.yelp.com/topic/san-francisco-sf-to-portland-seattle-vancouver-road-trip-advice"
            ],
            "longitude": "-117.1638588"
        },
        "tennessee": {
            "latitude": "33.7116447",
            "closest_to": "",
            "address": "Tennessee, Walnut, Irvine, Orange County, California, 92606, United States of America",
            "locType": "residential",
            "blogLinks": [
                "https://jasonevanish.com/2013/01/17/25-things-i-wish-i-knew-before-moving-to-san-francisco/"
            ],
            "longitude": "-117.7934117"
        },
        "outer sunset": {
            "latitude": "34.471629",
            "closest_to": "",
            "address": "Outer Bear Valley Road, Apple Valley, San Bernardino County, California, 92308, United States of America",
            "locType": "residential",
            "blogLinks": [
                "https://jasonevanish.com/2013/01/17/25-things-i-wish-i-knew-before-moving-to-san-francisco/"
            ],
            "longitude": "-117.2110142"
        },
        "morongo valley": {
            "latitude": "34.0537585",
            "closest_to": "",
            "address": "Morongo Valley, Vista Drive, Morongo Valley, San Bernardino County, California, 92256, United States of America",
            "locType": "administrative",
            "blogLinks": [
                "http://www.california-blog.com/"
            ],
            "longitude": "-116.596723958419"
        },
        "vermont": {
            "latitude": "33.712381",
            "closest_to": "",
            "address": "Vermont, Walnut, Irvine, Orange County, California, 92606, United States of America",
            "locType": "residential",
            "blogLinks": [
                "https://jasonevanish.com/2013/01/17/25-things-i-wish-i-knew-before-moving-to-san-francisco/"
            ],
            "longitude": "-117.7907651"
        },
        "south park": {
            "latitude": "32.7201829",
            "closest_to": "",
            "address": "South Park, San Diego County, California, United States of America",
            "locType": "hamlet",
            "blogLinks": [
                "https://jasonevanish.com/2013/01/17/25-things-i-wish-i-knew-before-moving-to-san-francisco/"
            ],
            "longitude": "-117.1292637"
        },
        "little giants park": {
            "latitude": "40.3410481",
            "closest_to": "",
            "address": "California Federation of Womens Clubs Grove, Avenue of the Giants, Weott, Humboldt County, California, 95565, United States of America",
            "locType": "wood",
            "blogLinks": [
                "http://www.citypass.com/san-francisco/things-to-do-san-francisco"
            ],
            "longitude": "-123.9376025"
        },
        "montana": {
            "latitude": "37.413991",
            "closest_to": "",
            "address": "Montana, Rovana, Inyo County, California, United States of America",
            "locType": "residential",
            "blogLinks": [
                "https://www.yelp.com/topic/san-francisco-sf-to-portland-seattle-vancouver-road-trip-advice"
            ],
            "longitude": "-118.6129969"
        },
        "edgewood rd": {
            "latitude": "34.4916762",
            "closest_to": "",
            "address": "Edgewood Road, Victorville, San Bernardino County, California, 92392, United States of America",
            "locType": "residential",
            "blogLinks": [
                "http://www.bayareakidfun.com/best-of-the-bay/"
            ],
            "longitude": "-117.4066249"
        },
        "bay st": {
            "latitude": "33.9748875",
            "closest_to": "",
            "address": "Bay Street, Del Rey, Playa Vista, LA, Los Angeles County, California, 90094, United States of America",
            "locType": "residential",
            "blogLinks": [
                "https://jasonevanish.com/2013/01/17/25-things-i-wish-i-knew-before-moving-to-san-francisco/"
            ],
            "longitude": "-118.4274015"
        },
        "truckee river": {
            "latitude": "39.327962",
            "closest_to": "",
            "address": "Truckee, Nevada County, California, United States of America",
            "locType": "administrative",
            "blogLinks": [
                "http://thisismyhappiness.com/2013/06/02/30-things-to-do-in-northern-california/"
            ],
            "longitude": "-120.1832532"
        },
        "lake berryessa": {
            "latitude": "35.376803",
            "closest_to": "",
            "address": "Lake Berryessa, Rosedale, Kern County, California, 93314, United States of America",
            "locType": "residential",
            "blogLinks": [
                "https://www.tripadvisor.com/ShowTopic-g60713-i30-k5261581-Scenic_Route_from_San_Francisco_to_Sacramento-San_Francisco_California.html"
            ],
            "longitude": "-119.1745059"
        },
        "italy": {
            "latitude": "45.659844",
            "closest_to": "",
            "address": "California, MB, LOM, Italia",
            "locType": "village",
            "blogLinks": [
                "https://jasonevanish.com/2013/01/17/25-things-i-wish-i-knew-before-moving-to-san-francisco/"
            ],
            "longitude": "9.3130453"
        },
        "tokyo": {
            "latitude": "34.0431787",
            "closest_to": "",
            "address": "Southern California Institute of Architecture, 960, East 3rd Street, Arts District, Little Tokyo Historic District, LA, Los Angeles County, California, 90013, United States of America",
            "locType": "school",
            "blogLinks": [
                "https://jasonevanish.com/2013/01/17/25-things-i-wish-i-knew-before-moving-to-san-francisco/"
            ],
            "longitude": "-118.2328066"
        },
        "dunsmuir": {
            "latitude": "41.2082089",
            "closest_to": "",
            "address": "Dunsmuir, Siskiyou County, California, United States of America",
            "locType": "city",
            "blogLinks": [
                "https://www.yelp.com/topic/san-francisco-sf-to-portland-seattle-vancouver-road-trip-advice"
            ],
            "longitude": "-122.2719528"
        },
        "peninsula": {
            "latitude": "33.5987849",
            "closest_to": "",
            "address": "Peninsula, Corona del Mar, Newport Beach, Orange County, California, 92657, United States of America",
            "locType": "residential",
            "blogLinks": [
                "http://www.bayareakidfun.com/best-of-the-bay/"
            ],
            "longitude": "-117.830566223937"
        },
        "midwest": {
            "latitude": "41.2638876",
            "closest_to": "",
            "address": "Midwest Allergy and Asthma Clinic, California Street, Omaha, Douglas County, Nebraska, 68114, United States of America",
            "locType": "doctors",
            "blogLinks": [
                "https://jasonevanish.com/2013/01/17/25-things-i-wish-i-knew-before-moving-to-san-francisco/"
            ],
            "longitude": "-96.0425172"
        },
        "monrovia": {
            "latitude": "34.1483499",
            "closest_to": "",
            "address": "Monrovia, Los Angeles County, California, United States of America",
            "locType": "city",
            "blogLinks": [
                "http://www.california-blog.com/"
            ],
            "longitude": "-118.0014516"
        },
        "ny": {
            "latitude": "-22.304444",
            "closest_to": "",
            "address": "California, Promenade Roger Laroque, Anse Vata, Secteur Sud, Noum\u00e9a, Province Sud, Nouvelle-Cal\u00e9donie, 98800, Nouvelle-Cal\u00e9donie",
            "locType": "clothes",
            "blogLinks": [
                "https://jasonevanish.com/2013/01/17/25-things-i-wish-i-knew-before-moving-to-san-francisco/"
            ],
            "longitude": "166.4474847"
        },
        "alabama": {
            "latitude": "37.413435",
            "closest_to": "",
            "address": "Alabama, Rovana, Inyo County, California, United States of America",
            "locType": "residential",
            "blogLinks": [
                "http://thisismyhappiness.com/2013/06/02/30-things-to-do-in-northern-california/"
            ],
            "longitude": "-118.6109719"
        },
        "frisco": {
            "latitude": "35.0714062",
            "closest_to": "",
            "address": "Frisco Way, Los Berros, San Luis Obispo County, California, 93420, United States of America",
            "locType": "residential",
            "blogLinks": [
                "https://jasonevanish.com/2013/01/17/25-things-i-wish-i-knew-before-moving-to-san-francisco/"
            ],
            "longitude": "-120.5207138"
        },
        "la": {
            "latitude": "36.7014631",
            "closest_to": "",
            "address": "California, United States of America",
            "locType": "administrative",
            "blogLinks": [
                "https://www.tripadvisor.com/ShowTopic-g60713-i30-k5261581-Scenic_Route_from_San_Francisco_to_Sacramento-San_Francisco_California.html",
                "https://jasonevanish.com/2013/01/17/25-things-i-wish-i-knew-before-moving-to-san-francisco/",
                "https://www.yelp.com/topic/san-francisco-place-to-eat-off-i-5-between-la-and-sf",
                "https://www.tripadvisor.com/ShowTopic-g60713-i30-k6063670-Best_places_to_stop_between_San_Fran_and_San_Diego_Thanks-San_Francisco_California.html",
                "http://thisismyhappiness.com/2013/06/02/30-things-to-do-in-northern-california/"
            ],
            "longitude": "-118.7559973"
        },
        "coyote point": {
            "latitude": "35.3833071",
            "closest_to": "",
            "address": "Coyote Point, San Luis Obispo County, California, United States of America",
            "locType": "peak",
            "blogLinks": [
                "http://www.bayareakidfun.com/best-of-the-bay/"
            ],
            "longitude": "-120.7329512"
        },
        "palm springs air museum ca": {
            "latitude": "33.83250375",
            "closest_to": "",
            "address": "Palm Springs Air Museum, 745, North Gene Autry Trail, Palm Springs, Riverside County, California, 92262, United States of America",
            "locType": "museum",
            "blogLinks": [
                "http://www.california-blog.com/"
            ],
            "longitude": "-116.504677958796"
        },
        "santa barbara california": {
            "latitude": "34.4221319",
            "closest_to": "",
            "address": "Santa Barbara, Santa Barbara County, California, United States of America",
            "locType": "city",
            "blogLinks": [
                "https://jasonevanish.com/2013/01/17/25-things-i-wish-i-knew-before-moving-to-san-francisco/"
            ],
            "longitude": "-119.7026672"
        },
        "solvang": {
            "latitude": "34.5958572",
            "closest_to": "",
            "address": "Solvang, Santa Barbara County, California, United States of America",
            "locType": "city",
            "blogLinks": [
                "https://answers.yahoo.com/question/index?qid=20080630092722AAoWNmf"
            ],
            "longitude": "-120.1390893"
        },
        "oceania": {
            "latitude": "32.5186477",
            "closest_to": "",
            "address": "Boulevard Oceania, Rivera, Tijuana, Baja California, 22504, M\u00e9xico",
            "locType": "residential",
            "blogLinks": [
                "http://www.citypass.com/san-francisco/things-to-do-san-francisco"
            ],
            "longitude": "-117.1214054"
        },
        "mexico": {
            "latitude": "28.973",
            "closest_to": "",
            "address": "California, Hermosillo, Sonora, M\u00e9xico",
            "locType": "village",
            "blogLinks": [
                "https://jasonevanish.com/2013/01/17/25-things-i-wish-i-knew-before-moving-to-san-francisco/",
                "http://www.citypass.com/san-francisco/things-to-do-san-francisco"
            ],
            "longitude": "-111.8196666"
        },
        "northern california": {
            "latitude": "32.7349196",
            "closest_to": "",
            "address": "Northern Frontier, San Diego, San Diego County, California, United States of America",
            "locType": "locality",
            "blogLinks": [
                "https://jasonevanish.com/2013/01/17/25-things-i-wish-i-knew-before-moving-to-san-francisco/",
                "http://www.goldengatetours.net/places",
                "http://thisismyhappiness.com/2013/06/02/30-things-to-do-in-northern-california/"
            ],
            "longitude": "-117.1545973"
        },
        "mendocino": {
            "latitude": "39.3176491",
            "closest_to": "",
            "address": "Mendocino County, California, United States of America",
            "locType": "administrative",
            "blogLinks": [
                "http://thisismyhappiness.com/2013/06/02/30-things-to-do-in-northern-california/"
            ],
            "longitude": "-123.4126398"
        },
        "monterey county": {
            "latitude": "36.2231079",
            "closest_to": "",
            "address": "Monterey County, California, United States of America",
            "locType": "administrative",
            "blogLinks": [
                "http://thisismyhappiness.com/2013/06/02/30-things-to-do-in-northern-california/"
            ],
            "longitude": "-121.3877427"
        },
        "japan": {
            "latitude": "34.0833889",
            "closest_to": "",
            "address": "Japan LA, Melrose Avenue, Park La Brea, Hollywood, LA, Los Angeles County, California, 90069, United States of America",
            "locType": "clothes",
            "blogLinks": [
                "https://jasonevanish.com/2013/01/17/25-things-i-wish-i-knew-before-moving-to-san-francisco/"
            ],
            "longitude": "-118.3494693"
        },
        "paris": {
            "latitude": "34.4719383",
            "closest_to": "",
            "address": "Paris, Los Angeles County, California, United States of America",
            "locType": "hamlet",
            "blogLinks": [
                "https://jasonevanish.com/2013/01/17/25-things-i-wish-i-knew-before-moving-to-san-francisco/",
                "http://www.citypass.com/san-francisco/things-to-do-san-francisco"
            ],
            "longitude": "-118.1809078"
        },
        "tahoe": {
            "latitude": "33.659221",
            "closest_to": "",
            "address": "Tahoe, Turtle Rock, Irvine, Orange County, California, 92612, United States of America",
            "locType": "residential",
            "blogLinks": [
                "https://jasonevanish.com/2013/01/17/25-things-i-wish-i-knew-before-moving-to-san-francisco/",
                "http://thisismyhappiness.com/2013/06/02/30-things-to-do-in-northern-california/"
            ],
            "longitude": "-117.8193574"
        },
        "teotihuacan": {
            "latitude": "24.1265846",
            "closest_to": "",
            "address": "Teotihuacan, La Paz, Baja California Sur, 23080, M\u00e9xico",
            "locType": "residential",
            "blogLinks": [
                "http://www.citypass.com/san-francisco/things-to-do-san-francisco"
            ],
            "longitude": "-110.3354894"
        },
        "divisadero": {
            "latitude": "36.7433599",
            "closest_to": "",
            "address": "Divisadero Street, Fresno County, California, 93701, United States of America",
            "locType": "secondary",
            "blogLinks": [
                "https://jasonevanish.com/2013/01/17/25-things-i-wish-i-knew-before-moving-to-san-francisco/"
            ],
            "longitude": "-119.778041"
        },
        "athens": {
            "latitude": "33.9200153",
            "closest_to": "",
            "address": "Athens, Los Angeles County, California, United States of America",
            "locType": "hamlet",
            "blogLinks": [
                "https://jasonevanish.com/2013/01/17/25-things-i-wish-i-knew-before-moving-to-san-francisco/"
            ],
            "longitude": "-118.2811843"
        },
        "clovis": {
            "latitude": "36.8252277",
            "closest_to": "",
            "address": "Clovis, Fresno County, California, United States of America",
            "locType": "city",
            "blogLinks": [
                "https://www.tripadvisor.com/Travel-g28926-c200326/California:United-States:Road.Trip.San.Francisco.To.Las.Vegas.html"
            ],
            "longitude": "-119.7029193"
        },
        "san diego": {
            "latitude": "32.7174209",
            "closest_to": "",
            "address": "San Diego, San Diego County, California, United States of America",
            "locType": "city",
            "blogLinks": [
                "https://www.tripadvisor.com/ShowTopic-g60713-i30-k6063670-Best_places_to_stop_between_San_Fran_and_San_Diego_Thanks-San_Francisco_California.html",
                "http://thisismyhappiness.com/2013/06/02/30-things-to-do-in-northern-california/",
                "https://answers.yahoo.com/question/index?qid=20080630092722AAoWNmf"
            ],
            "longitude": "-117.1627713"
        },
        "cambria": {
            "latitude": "35.5641381",
            "closest_to": "",
            "address": "Cambria, San Luis Obispo County, California, United States of America",
            "locType": "administrative",
            "blogLinks": [
                "https://www.tripadvisor.com/Travel-g28926-c200326/California:United-States:Road.Trip.San.Francisco.To.Las.Vegas.html",
                "https://www.tripadvisor.com/ShowTopic-g60713-i30-k6063670-Best_places_to_stop_between_San_Fran_and_San_Diego_Thanks-San_Francisco_California.html"
            ],
            "longitude": "-121.0807467"
        },
        "california coast": {
            "latitude": "32.7586361",
            "closest_to": "",
            "address": "California Coast Credit Union, Park Boulevard, Hillcrest, San Diego, San Diego County, California, 92116, United States of America",
            "locType": "bank",
            "blogLinks": [
                "http://www.citypass.com/san-francisco/things-to-do-san-francisco"
            ],
            "longitude": "-117.1464145"
        },
        "ridgecrest": {
            "latitude": "35.6225064",
            "closest_to": "",
            "address": "Ridgecrest, Kern County, California, United States of America",
            "locType": "city",
            "blogLinks": [
                "https://www.tripadvisor.com/Travel-g28926-c200326/California:United-States:Road.Trip.San.Francisco.To.Las.Vegas.html"
            ],
            "longitude": "-117.6699413"
        },
        "ohio": {
            "latitude": "39.0652059",
            "closest_to": "",
            "address": "California, Cincinnati, Hamilton County, Ohio, United States of America",
            "locType": "suburb",
            "blogLinks": [
                "https://jasonevanish.com/2013/01/17/25-things-i-wish-i-knew-before-moving-to-san-francisco/"
            ],
            "longitude": "-84.4272385"
        },
        "ontario": {
            "latitude": "34.065846",
            "closest_to": "",
            "address": "Ontario, San Bernardino County, California, United States of America",
            "locType": "city",
            "blogLinks": [
                "http://www.california-blog.com/"
            ],
            "longitude": "-117.6484303"
        },
        "lassen": {
            "latitude": "40.7685579",
            "closest_to": "",
            "address": "Lassen County, California, United States of America",
            "locType": "administrative",
            "blogLinks": [
                "http://thisismyhappiness.com/2013/06/02/30-things-to-do-in-northern-california/"
            ],
            "longitude": "-120.7309979"
        },
        "yosemite": {
            "latitude": "37.7488554",
            "closest_to": "",
            "address": "Yosemite, Village Drive, Yosemite Village, Yosemite Valley, Mariposa County, California, United States of America",
            "locType": "attraction",
            "blogLinks": [
                "https://www.tripadvisor.com/Travel-g28926-c200326/California:United-States:Road.Trip.San.Francisco.To.Las.Vegas.html",
                "http://thisismyhappiness.com/2013/06/02/30-things-to-do-in-northern-california/"
            ],
            "longitude": "-119.5893389"
        },
        "united states": {
            "latitude": "36.7014631",
            "closest_to": "",
            "address": "California, United States of America",
            "locType": "administrative",
            "blogLinks": [
                "https://jasonevanish.com/2013/01/17/25-things-i-wish-i-knew-before-moving-to-san-francisco/",
                "https://www.tripadvisor.com/Travel-g28926-c200326/California:United-States:Road.Trip.San.Francisco.To.Las.Vegas.html",
                "http://thisismyhappiness.com/2013/06/02/30-things-to-do-in-northern-california/"
            ],
            "longitude": "-118.7559973"
        },
        "s.f.": {
            "latitude": "19.9908291",
            "closest_to": "",
            "address": "California, Bosque de Canalejas, Jilotepec, M\u00e9xico, 54270, M\u00e9xico",
            "locType": "residential",
            "blogLinks": [
                "https://jasonevanish.com/2013/01/17/25-things-i-wish-i-knew-before-moving-to-san-francisco/",
                "http://blog.sfgate.com/sfmoms/2010/06/07/i-5-sacramento-to-redding/"
            ],
            "longitude": "-99.6183945"
        },
        "cape horn": {
            "latitude": "39.1354565",
            "closest_to": "",
            "address": "Cape Horn, Mendocino County, California, United States of America",
            "locType": "hamlet",
            "blogLinks": [
                "http://blog.sfgate.com/sfmoms/2010/06/07/i-5-sacramento-to-redding/"
            ],
            "longitude": "-123.6352912"
        },
        "nyc": {
            "latitude": "40.767819",
            "closest_to": "",
            "address": "California Sea Lion, 830, 5th Avenue, Upper East Side, Manhattan, New York County, NYC, New York, 10035, United States of America",
            "locType": "attraction",
            "blogLinks": [
                "https://jasonevanish.com/2013/01/17/25-things-i-wish-i-knew-before-moving-to-san-francisco/"
            ],
            "longitude": "-73.9717587"
        },
        "riverside national cemetery": {
            "latitude": "33.87692125",
            "closest_to": "",
            "address": "Riverside National Cemetery, 22495, Alessandro, Riverside County, California, 92518, United States of America",
            "locType": "cemetery",
            "blogLinks": [
                "http://www.california-blog.com/"
            ],
            "longitude": "-117.270726607134"
        },
        "yosemite national park": {
            "latitude": "37.84054795",
            "closest_to": "",
            "address": "Yosemite National Park, Mt. Hoffmann Trail, Mariposa County, California, United States of America",
            "locType": "national_park",
            "blogLinks": [
                "https://www.tripadvisor.com/ShowTopic-g60713-i30-k6063670-Best_places_to_stop_between_San_Fran_and_San_Diego_Thanks-San_Francisco_California.html"
            ],
            "longitude": "-119.516587698025"
        },
        "centro": {
            "latitude": "32.792",
            "closest_to": "",
            "address": "El Centro, Imperial County, California, United States of America",
            "locType": "city",
            "blogLinks": [
                "http://thisismyhappiness.com/2013/06/02/30-things-to-do-in-northern-california/"
            ],
            "longitude": "-115.5630513"
        },
        "redwood": {
            "latitude": "33.45713595",
            "closest_to": "",
            "address": "Redwood, Wolf Creek, Temecula, Riverside County, California, 92592, United States of America",
            "locType": "residential",
            "blogLinks": [
                "http://www.citypass.com/san-francisco/things-to-do-san-francisco"
            ],
            "longitude": "-117.094843184352"
        },
        "santa catalina island": {
            "latitude": "33.3890232",
            "closest_to": "",
            "address": "Santa Catalina Island, Los Angeles County, California, United States of America",
            "locType": "island",
            "blogLinks": [
                "https://www.yelp.com/topic/san-francisco-sf-to-portland-seattle-vancouver-road-trip-advice"
            ],
            "longitude": "-118.424154004558"
        },
        "americas": {
            "latitude": "-13.17169885",
            "closest_to": "",
            "address": "california, Jir\u00f3n Aprovesa, Asociaci\u00f3n de Vivienda Santa Rosa, Distrito de San Juan Bautista, San Juan Bautista, Huamanga, Ayacucho, 05001, Per\u00fa",
            "locType": "hotel",
            "blogLinks": [
                "http://www.citypass.com/san-francisco/things-to-do-san-francisco"
            ],
            "longitude": "-74.206290139264"
        },
        "bakersfield": {
            "latitude": "35.3738712",
            "closest_to": "",
            "address": "Bakersfield, Kern County, California, United States of America",
            "locType": "city",
            "blogLinks": [
                "https://www.tripadvisor.com/Travel-g28926-c200326/California:United-States:Road.Trip.San.Francisco.To.Las.Vegas.html",
                "http://thisismyhappiness.com/2013/06/02/30-things-to-do-in-northern-california/"
            ],
            "longitude": "-119.0194638"
        },
        "peru": {
            "latitude": "-13.6784168",
            "closest_to": "",
            "address": "California, Andahuaylas, Apur\u00edmac, Per\u00fa",
            "locType": "village",
            "blogLinks": [
                "https://jasonevanish.com/2013/01/17/25-things-i-wish-i-knew-before-moving-to-san-francisco/"
            ],
            "longitude": "-73.0512911"
        },
        "texas": {
            "latitude": "29.7181118",
            "closest_to": "",
            "address": "California, Baytown, Harris County, Texas, 77520, United States of America",
            "locType": "residential",
            "blogLinks": [
                "https://jasonevanish.com/2013/01/17/25-things-i-wish-i-knew-before-moving-to-san-francisco/"
            ],
            "longitude": "-94.997906"
        },
        "monterey bay aquarium ca": {
            "latitude": "36.61809095",
            "closest_to": "",
            "address": "MBA, 886, Cannery Row, Monterey, Monterey County, California, 93940, United States of America",
            "locType": "aquarium",
            "blogLinks": [
                "http://www.california-blog.com/"
            ],
            "longitude": "-121.901680002002"
        },
        "bay": {
            "latitude": "33.6899249",
            "closest_to": "",
            "address": "Bay, Meadows Mobile Home Park, El Camino Real, Irvine, Orange County, California, 92406, United States of America",
            "locType": "service",
            "blogLinks": [
                "https://www.yelp.com/topic/san-francisco-sf-to-portland-seattle-vancouver-road-trip-advice",
                "https://jasonevanish.com/2013/01/17/25-things-i-wish-i-knew-before-moving-to-san-francisco/",
                "http://www.bayareakidfun.com/best-of-the-bay/",
                "http://thisismyhappiness.com/2013/06/02/30-things-to-do-in-northern-california/",
                "http://www.citypass.com/san-francisco/things-to-do-san-francisco"
            ],
            "longitude": "-117.7729354"
        },
        "east village": {
            "latitude": "35.5663603",
            "closest_to": "",
            "address": "East Village, San Luis Obispo County, California, United States of America",
            "locType": "hamlet",
            "blogLinks": [
                "https://jasonevanish.com/2013/01/17/25-things-i-wish-i-knew-before-moving-to-san-francisco/"
            ],
            "longitude": "-121.0788022"
        },