{
    "san bernardino": {
        "type": "city",
        "osm_id": "253639",
        "class": "place",
        "importance": 0.81183700771795,
        "lat": "34.1083449",
        "lon": "-117.2897651",
        "boundingbox": [
            "34.050346",
            "34.230706",
            "-117.4024519",
            "-117.1649719"
        ],
        "display_name": "San Bernardino, San Bernardino County, California, United States of America",
        "licence": "Data \u00a9 OpenStreetMap contributors, ODbL 1.0. http://www.openstreetmap.org/copyright",
        "icon": "https://nominatim.openstreetmap.org/images/mapicons/poi_place_city.p.20.png",
        "place_id": "159293643",
        "osm_type": "relation"
    },
    "santa cruz": {
        "type": "city",
        "osm_id": "111737",
        "class": "place",
        "importance": 0.80562903030115,
        "lat": "36.9735903",
        "lon": "-122.0260569",
        "boundingbox": [
            "36.9479995",
            "37.0251537",
            "-122.1512979",
            "-121.9867104"
        ],
        "display_name": "Santa Cruz, Santa Cruz County, California, United States of America",
        "licence": "Data \u00a9 OpenStreetMap contributors, ODbL 1.0. http://www.openstreetmap.org/copyright",
        "icon": "https://nominatim.openstreetmap.org/images/mapicons/poi_place_city.p.20.png",
        "place_id": "157779626",
        "osm_type": "relation"
    },
    "mentions": {
        "new york city": {
            "latitude": "40.767819",
            "closest_to": "",
            "address": "California Sea Lion, 830, 5th Avenue, Upper East Side, Manhattan, New York County, NYC, New York, 10035, United States of America",
            "locType": "attraction",
            "blogLinks": [
                "https://www.tripit.com/blog/2016/01/california-driving-distances-and-times.html"
            ],
            "longitude": "-73.9717587"
        },
        "argentina": {
            "latitude": "-31.451096",
            "closest_to": "",
            "address": "California, C\u00f3rdoba, Departamento Capital, Cba., Argentina",
            "locType": "administrative",
            "blogLinks": [
                "http://www.parks.ca.gov/?page_id=22722"
            ],
            "longitude": "-64.205523"
        },
        "spain": {
            "latitude": "37.1412332",
            "closest_to": "",
            "address": "La California, Mor\u00f3n de la Frontera, Sevilla, Andaluc\u00eda, Espa\u00f1a",
            "locType": "locality",
            "blogLinks": [
                "http://www.parks.ca.gov/?page_id=22722"
            ],
            "longitude": "-5.4610806"
        },
        "santa ines": {
            "latitude": "22.88332",
            "closest_to": "",
            "address": "Santa Ines, Cabo San Lucas, Los Cabos, Baja California Sur, 23543, M\u00e9xico",
            "locType": "residential",
            "blogLinks": [
                "http://www.parks.ca.gov/?page_id=22722"
            ],
            "longitude": "-109.9425933"
        },
        "u.s.": {
            "latitude": "-32.5446226",
            "closest_to": "",
            "address": "La California, Municipio de Las Rosas, Departamento Belgrano, Sta. Fe, Argentina",
            "locType": "hamlet",
            "blogLinks": [
                "http://koa.com/states-provinces/california/"
            ],
            "longitude": "-61.5489543"
        },
        "california": {
            "latitude": "7.3480915",
            "closest_to": "",
            "address": "California, Santander, Colombia",
            "locType": "village",
            "blogLinks": [
                "http://www.parks.ca.gov/?page_id=22722",
                "http://www.yellowpages.com/san-bernardino-ca/la-santa-cruz",
                "http://distancecalculator.globefeed.com/US_Distance_Calculator.asp?state=CA",
                "http://fathomaway.com/guides/usa/san-francisco/itineraries/road-trip-san-francisco-to-monterey-california/",
                "https://www.tripit.com/blog/2016/01/california-driving-distances-and-times.html",
                "https://www.tripadvisor.com/Tourism-g33048-Santa_Cruz_California-Vacations.html"
            ],
            "longitude": "-72.945787"
        },
        "united kingdom": {
            "latitude": "52.4422729",
            "closest_to": "",
            "address": "California, Birmingham, West Midlands, England, UK",
            "locType": "village",
            "blogLinks": [
                "http://www.parks.ca.gov/?page_id=22722"
            ],
            "longitude": "-1.9796882"
        },
        "los angeles-area": {
            "latitude": "10.4820788",
            "closest_to": "",
            "address": "Edificio Los \u00c1ngeles, California, \u00c1rea Comercial de Las Mercedes, Baruta, Municipio Baruta, Miranda, Regi\u00f3n Capital, 1060, Venezuela",
            "locType": "yes",
            "blogLinks": [
                "http://fathomaway.com/guides/usa/san-francisco/itineraries/road-trip-san-francisco-to-monterey-california/"
            ],
            "longitude": "-66.8624931597836"
        },
        "santa": {
            "latitude": "22.4804035",
            "closest_to": "",
            "address": "California, Santa Isabel de las Lajas, Cienfuegos, Cuba",
            "locType": "hamlet",
            "blogLinks": [
                "http://www.distancesfrom.com/us/distance-from-San-Bernardino-to-San-Bernardino-CA-via-Elk-Grove-Santa-Cruz/DistanceHistory/3814041.aspx",
                "https://www.tripadvisor.com/Tourism-g33048-Santa_Cruz_California-Vacations.html"
            ],
            "longitude": "-80.3796642"
        },
        "rome": {
            "latitude": "41.9628634",
            "closest_to": "",
            "address": "California, Via della Missione, Tivoli, Paterno, Tivoli, RM, LAZ, 00019, Italia",
            "locType": "pub",
            "blogLinks": [
                "http://www.parks.ca.gov/?page_id=22722"
            ],
            "longitude": "12.7977613"
        },
        "washington": {
            "latitude": "40.0657724",
            "closest_to": "",
            "address": "California, Washington County, Pennsylvania, United States of America",
            "locType": "administrative",
            "blogLinks": [
                "http://www.yellowpages.com/san-bernardino-ca/la-santa-cruz"
            ],
            "longitude": "-79.8918435"
        }
    }
}