{
    "santa monica": {
        "type": "city",
        "osm_id": "3353288",
        "class": "place",
        "importance": 0.84972348720023,
        "lat": "34.0195598",
        "lon": "-118.4869738",
        "boundingbox": [
            "33.9666583",
            "34.05056",
            "-118.5513434",
            "-118.4434259"
        ],
        "display_name": "Santa Monica, Los Angeles County, California, United States of America",
        "licence": "Data \u00a9 OpenStreetMap contributors, ODbL 1.0. http://www.openstreetmap.org/copyright",
        "icon": "https://nominatim.openstreetmap.org/images/mapicons/poi_place_city.p.20.png",
        "place_id": "159526581",
        "osm_type": "relation"
    },
    "mentions": {
        "california state railroad museum": {
            "latitude": "38.5846424",
            "closest_to": "",
            "address": "California State Railroad Museum, 125, I Street, Sacramento, Sacramento County, California, 95814, United States of America",
            "locType": "museum",
            "blogLinks": [
                "http://www.wineinstitute.org/consumerstories"
            ],
            "longitude": "-121.5038909"
        },
        "spain": {
            "latitude": "37.1412332",
            "closest_to": "",
            "address": "La California, Mor\u00f3n de la Frontera, Sevilla, Andaluc\u00eda, Espa\u00f1a",
            "locType": "locality",
            "blogLinks": [
                "http://myfamilytravels.com/content/10507-road-trip-usa-pacific-coast-highway-san-francisco-los-angeles"
            ],
            "longitude": "-5.4610806"
        },
        "creek valley": {
            "latitude": "39.3751013",
            "closest_to": "",
            "address": "Creek, Mendocino County, California, United States of America",
            "locType": "stream",
            "blogLinks": [
                "http://www.wineinstitute.org/consumerstories"
            ],
            "longitude": "-123.0482197"
        },
        "golden gate bridge": {
            "latitude": "37.8302809",
            "closest_to": "",
            "address": "Golden Gate Bridge, Waldo, Marin County, California, 94965, United States of America",
            "locType": "motorway",
            "blogLinks": [
                "http://gocalifornia.about.com/cs/bigsur/a/highwayone.htm"
            ],
            "longitude": "-122.4798473"
        },
        "alcatraz": {
            "latitude": "37.8267283",
            "closest_to": "",
            "address": "Alcatraz Island, SF, California, United States of America",
            "locType": "island",
            "blogLinks": [
                "http://www.wineinstitute.org/consumerstories"
            ],
            "longitude": "-122.422746492409"
        },
        "l.a.": {
            "latitude": "-13.8305494",
            "closest_to": "",
            "address": "California, Provincia Abel Iturralde, LPZ, Bolivia",
            "locType": "hamlet",
            "blogLinks": [
                "https://www.yelp.com/biz/pacific-coast-highway-carmel",
                "http://www.trippy.com/question/California-Where-to-stay-half-way-between-S-F--and-L-A"
            ],
            "longitude": "-67.9369134"
        },
        "yreka": {
            "latitude": "41.7326157",
            "closest_to": "",
            "address": "Yreka, Siskiyou County, California, United States of America",
            "locType": "city",
            "blogLinks": [
                "https://www.yelp.com/biz/pacific-coast-highway-carmel"
            ],
            "longitude": "-122.6377654"
        },
        "carmel": {
            "latitude": "38.75511285",
            "closest_to": "",
            "address": "Carmel, Roseville, Placer County, California, 95747, United States of America",
            "locType": "residential",
            "blogLinks": [
                "http://www.travbuddy.com/California-travel-guide-p85",
                "http://gocalifornia.about.com/cs/bigsur/a/highwayone.htm",
                "http://www.trippy.com/question/California-Where-to-stay-half-way-between-S-F--and-L-A",
                "http://travelblog.viator.com/road-trip-san-francisco-los-angeles/",
                "http://www.minitime.com/trip-tips/Iconic-California-Coastal-Road-Trip-from-LA-to-San-Francisco-article",
                "http://www.trippy.com/question/California-What-are-the-must-see-stops-along-highway-1-between-San-Francisco-and-LA",
                "https://www.yelp.com/biz/pacific-coast-highway-carmel",
                "http://myfamilytravels.com/content/10507-road-trip-usa-pacific-coast-highway-san-francisco-los-angeles"
            ],
            "longitude": "-121.353308848273"
        },
        "mexico": {
            "latitude": "28.973",
            "closest_to": "",
            "address": "California, Hermosillo, Sonora, M\u00e9xico",
            "locType": "village",
            "blogLinks": [
                "https://www.yelp.com/biz/pacific-coast-highway-carmel"
            ],
            "longitude": "-111.8196666"
        },
        "south lake tahoe": {
            "latitude": "38.929125",
            "closest_to": "",
            "address": "South Lake Tahoe, El Dorado County, California, United States of America",
            "locType": "city",
            "blogLinks": [
                "http://www.travbuddy.com/California-travel-guide-p85"
            ],
            "longitude": "-119.987846390157"
        },
        "placerville": {
            "latitude": "38.7296252",
            "closest_to": "",
            "address": "Placerville, El Dorado County, California, United States of America",
            "locType": "city",
            "blogLinks": [
                "http://www.wineinstitute.org/consumerstories"
            ],
            "longitude": "-120.7985459"
        },
        "humboldt county": {
            "latitude": "40.5997415",
            "closest_to": "",
            "address": "Humboldt County, California, United States of America",
            "locType": "administrative",
            "blogLinks": [
                "http://www.travbuddy.com/California-travel-guide-p85"
            ],
            "longitude": "-123.8997733"
        },
        "embarcadero": {
            "latitude": "37.7928455",
            "closest_to": "",
            "address": "Embarcadero, Market Street, Financial District, SF, California, 94111, United States of America",
            "locType": "station",
            "blogLinks": [
                "http://myfamilytravels.com/content/10507-road-trip-usa-pacific-coast-highway-san-francisco-los-angeles"
            ],
            "longitude": "-122.396892"
        },
        "maine": {
            "latitude": "47.0692088",
            "closest_to": "",
            "address": "California, Aroostook County, Maine, United States of America",
            "locType": "hamlet",
            "blogLinks": [
                "http://traveltips.usatoday.com/places-stop-way-disneyland-san-jose-california-109883.html"
            ],
            "longitude": "-68.1058634"
        },
        "yosemite national park": {
            "latitude": "37.84054795",
            "closest_to": "",
            "address": "Yosemite National Park, Mt. Hoffmann Trail, Mariposa County, California, United States of America",
            "locType": "national_park",
            "blogLinks": [
                "https://www.gapyear.com/articles/216212/13-incredible-stops-on-the-pacific-coast-highway",
                "http://www.travbuddy.com/California-travel-guide-p85"
            ],
            "longitude": "-119.516587698025"
        },
        "california-nevada": {
            "latitude": "36.17310935",
            "closest_to": "",
            "address": "California Hotel, Sky Walk(Connection from Main Street to California, Cultural Corridor, Vegas Heights, Las Vegas, Clark County, Nevada, 89101, United States of America",
            "locType": "hotel",
            "blogLinks": [
                "http://www.travbuddy.com/California-travel-guide-p85"
            ],
            "longitude": "-115.144667930325"
        },
        "florida": {
            "latitude": "29.8738433",
            "closest_to": "",
            "address": "California, Lanark Village, Franklin County, Florida, 32323, United States of America",
            "locType": "residential",
            "blogLinks": [
                "https://www.yelp.com/biz/pacific-coast-highway-carmel",
                "http://traveltips.usatoday.com/places-stop-way-disneyland-san-jose-california-109883.html"
            ],
            "longitude": "-84.6071504"
        },
        "united kingdom": {
            "latitude": "52.4422729",
            "closest_to": "",
            "address": "California, Birmingham, West Midlands, England, UK",
            "locType": "village",
            "blogLinks": [
                "https://www.tripadvisor.com/ShowTopic-g28926-i29-k1209722-Best_route_from_San_Luis_Obispo_to_Santa_Monica-California.html"
            ],
            "longitude": "-1.9796882"
        },
        "oakland": {
            "latitude": "37.8044557",
            "closest_to": "",
            "address": "Oakland, Alameda County, California, United States of America",
            "locType": "city",
            "blogLinks": [
                "http://www.travbuddy.com/California-travel-guide-p85"
            ],
            "longitude": "-122.2713562"
        },
        "half moon bay": {
            "latitude": "37.4635519",
            "closest_to": "",
            "address": "Half Moon Bay, San Mateo County, California, United States of America",
            "locType": "city",
            "blogLinks": [
                "https://www.gapyear.com/articles/216212/13-incredible-stops-on-the-pacific-coast-highway",
                "https://www.yelp.com/biz/pacific-coast-highway-carmel",
                "http://myfamilytravels.com/content/10507-road-trip-usa-pacific-coast-highway-san-francisco-los-angeles",
                "http://www.trippy.com/question/California-What-are-the-must-see-stops-along-highway-1-between-San-Francisco-and-LA"
            ],
            "longitude": "-122.4285861"
        },
        "lombard street": {
            "latitude": "37.802076",
            "closest_to": "",
            "address": "1079, Lombard Street, Russian Hill, SF, California, 94109, United States of America",
            "locType": "residential",
            "blogLinks": [
                "https://www.gapyear.com/articles/216212/13-incredible-stops-on-the-pacific-coast-highway"
            ],
            "longitude": "-122.418809"
        },
        "chico": {
            "latitude": "39.7284945",
            "closest_to": "",
            "address": "Chico, Butte County, California, United States of America",
            "locType": "city",
            "blogLinks": [
                "https://www.tripadvisor.com/ShowTopic-g28926-i29-k1209722-Best_route_from_San_Luis_Obispo_to_Santa_Monica-California.html"
            ],
            "longitude": "-121.8374776"
        },
        "central valley": {
            "latitude": "40.5626504",
            "closest_to": "",
            "address": "KNNN-FM (Central Valley), Rattlesnake Drive, Shasta County, California, 96001, United States of America",
            "locType": "tower",
            "blogLinks": [
                "http://traveltips.usatoday.com/places-stop-way-disneyland-san-jose-california-109883.html"
            ],
            "longitude": "-122.4530663"
        },
        "seattle": {
            "latitude": "41.9641881",
            "closest_to": "",
            "address": "Seattle, Dorris, Siskiyou County, California, 96023, United States of America",
            "locType": "residential",
            "blogLinks": [
                "http://www.trippy.com/question/California-What-are-the-must-see-stops-along-highway-1-between-San-Francisco-and-LA"
            ],
            "longitude": "-121.9226289"
        },
        "sierra foothills": {
            "latitude": "37.3933656",
            "closest_to": "",
            "address": "Sierra Road, Berryessa, San Jos\u00e9, Santa Clara County, California, 95132, United States of America",
            "locType": "secondary",
            "blogLinks": [
                "http://www.wineinstitute.org/consumerstories"
            ],
            "longitude": "-121.8609818"
        },
        "marin county": {
            "latitude": "38.0409144",
            "closest_to": "",
            "address": "Marin County, California, United States of America",
            "locType": "administrative",
            "blogLinks": [
                "http://www.wineinstitute.org/consumerstories"
            ],
            "longitude": "-122.6199637"
        },
        "pacific": {
            "latitude": "38.7601815",
            "closest_to": "",
            "address": "Pacific, El Dorado County, California, United States of America",
            "locType": "hamlet",
            "blogLinks": [
                "http://www.travbuddy.com/California-travel-guide-p85",
                "http://travelblog.viator.com/road-trip-san-francisco-los-angeles/",
                "https://www.tripadvisor.com/ShowTopic-g28926-i29-k5122462-Night_at_San_Luis_Obispo_or_Santa_Barbara-California.html",
                "http://www.minitime.com/trip-tips/Iconic-California-Coastal-Road-Trip-from-LA-to-San-Francisco-article"
            ],
            "longitude": "-120.507146"
        },
        "sonoma": {
            "latitude": "38.5110803",
            "closest_to": "",
            "address": "Sonoma County, California, United States of America",
            "locType": "administrative",
            "blogLinks": [
                "http://gocalifornia.about.com/cs/bigsur/a/highwayone.htm",
                "http://www.wineinstitute.org/consumerstories"
            ],
            "longitude": "-122.8473387"
        },
        "american riviera": {
            "latitude": "38.576666",
            "closest_to": "",
            "address": "American River Drive, La Riviera, Sacramento County, California, 95608, United States of America",
            "locType": "tertiary",
            "blogLinks": [
                "http://travelblog.viator.com/road-trip-san-francisco-los-angeles/",
                "http://traveltips.usatoday.com/places-stop-way-disneyland-san-jose-california-109883.html"
            ],
            "longitude": "-121.3602199"
        },
        "san rafael": {
            "latitude": "37.9735346",
            "closest_to": "",
            "address": "San Rafael, Marin County, California, United States of America",
            "locType": "city",
            "blogLinks": [
                "http://www.wineinstitute.org/consumerstories"
            ],
            "longitude": "-122.5310873"
        },
        "pismo": {
            "latitude": "24.1378257",
            "closest_to": "",
            "address": "Pismo, La Paz, Baja California Sur, 23206, M\u00e9xico",
            "locType": "residential",
            "blogLinks": [
                "http://www.minitime.com/trip-tips/Iconic-California-Coastal-Road-Trip-from-LA-to-San-Francisco-article"
            ],
            "longitude": "-110.3437034"
        },
        "england": {
            "latitude": "52.4422729",
            "closest_to": "",
            "address": "California, Birmingham, West Midlands, England, UK",
            "locType": "village",
            "blogLinks": [
                "http://myfamilytravels.com/content/10507-road-trip-usa-pacific-coast-highway-san-francisco-los-angeles"
            ],
            "longitude": "-1.9796882"
        },
        "marin": {
            "latitude": "38.0409144",
            "closest_to": "",
            "address": "Marin County, California, United States of America",
            "locType": "administrative",
            "blogLinks": [
                "http://gocalifornia.about.com/cs/bigsur/a/highwayone.htm",
                "http://www.wineinstitute.org/consumerstories"
            ],
            "longitude": "-122.6199637"
        },
        "las vegas": {
            "latitude": "36.17310935",
            "closest_to": "",
            "address": "California Hotel, Sky Walk(Connection from Main Street to California, Cultural Corridor, Vegas Heights, Las Vegas, Clark County, Nevada, 89101, United States of America",
            "locType": "hotel",
            "blogLinks": [
                "http://visitslo.com/"
            ],
            "longitude": "-115.144667930325"
        },
        "chicago": {
            "latitude": "37.7850531",
            "closest_to": "",
            "address": "Chicago, Woodstock, Alameda, Alameda County, California, 94501, United States of America",
            "locType": "residential",
            "blogLinks": [
                "http://www.trippy.com/question/California-Where-to-stay-half-way-between-S-F--and-L-A"
            ],
            "longitude": "-122.2872948"
        },
        "silicon valley": {
            "latitude": "37.4105333",
            "closest_to": "",
            "address": "Carnegie Mellon Silicon Valley, South Akron Road, Santa Clara County, California, 94035-0016, United States of America",
            "locType": "school",
            "blogLinks": [
                "https://www.gapyear.com/articles/216212/13-incredible-stops-on-the-pacific-coast-highway",
                "http://www.travbuddy.com/California-travel-guide-p85"
            ],
            "longitude": "-122.0597491"
        },
        "shoreline highway": {
            "latitude": "38.1829656",
            "closest_to": "",
            "address": "Shoreline Highway, McDonald, Marin County, California, 94940, United States of America",
            "locType": "primary",
            "blogLinks": [
                "http://gocalifornia.about.com/cs/bigsur/a/highwayone.htm"
            ],
            "longitude": "-122.9096456"
        },
        "sonoma valley": {
            "latitude": "38.29331315",
            "closest_to": "",
            "address": "Sonoma Valley Chevron, 540, West Napa Street, Sonoma, Sonoma County, California, 95476, United States of America",
            "locType": "fuel",
            "blogLinks": [
                "http://www.wineinstitute.org/consumerstories"
            ],
            "longitude": "-122.469385770353"
        },
        "jacksonville": {
            "latitude": "30.254267",
            "closest_to": "",
            "address": "California Avenue, Jacksonville, Duval County, Florida, 32210, United States of America",
            "locType": "residential",
            "blogLinks": [
                "https://www.yelp.com/biz/pacific-coast-highway-carmel"
            ],
            "longitude": "-81.7838589"
        },
        "eureka": {
            "latitude": "40.8020712",
            "closest_to": "",
            "address": "Eureka, Humboldt County, California, United States of America",
            "locType": "city",
            "blogLinks": [
                "http://www.travbuddy.com/California-travel-guide-p85"
            ],
            "longitude": "-124.1636728"
        },
        "san francisco": {
            "latitude": "37.7792808",
            "closest_to": "",
            "address": "SF, California, United States of America",
            "locType": "city",
            "blogLinks": [
                "http://www.travbuddy.com/California-travel-guide-p85",
                "http://gocalifornia.about.com/cs/bigsur/a/highwayone.htm",
                "http://www.wineinstitute.org/consumerstories",
                "https://www.gapyear.com/articles/216212/13-incredible-stops-on-the-pacific-coast-highway",
                "http://www.trippy.com/question/California-Where-to-stay-half-way-between-S-F--and-L-A",
                "http://travelblog.viator.com/road-trip-san-francisco-los-angeles/",
                "http://www.minitime.com/trip-tips/Iconic-California-Coastal-Road-Trip-from-LA-to-San-Francisco-article",
                "http://www.trippy.com/question/California-What-are-the-must-see-stops-along-highway-1-between-San-Francisco-and-LA",
                "https://www.yelp.com/biz/pacific-coast-highway-carmel",
                "http://myfamilytravels.com/content/10507-road-trip-usa-pacific-coast-highway-san-francisco-los-angeles"
            ],
            "longitude": "-122.4192362"
        },
        "san francisco bay": {
            "latitude": "37.708264",
            "closest_to": "",
            "address": "San Francisco Bay, Ferry Landing, Alameda, Alameda County, California, 94502, United States of America",
            "locType": "bay",
            "blogLinks": [
                "http://www.travbuddy.com/California-travel-guide-p85"
            ],
            "longitude": "-122.2802469"
        },
        "sacramento": {
            "latitude": "38.5815719",
            "closest_to": "",
            "address": "Sacramento, Sacramento County, California, United States of America",
            "locType": "city",
            "blogLinks": [
                "https://www.yelp.com/biz/pacific-coast-highway-carmel",
                "http://www.travbuddy.com/California-travel-guide-p85",
                "http://www.wineinstitute.org/consumerstories"
            ],
            "longitude": "-121.4943995"
        },
        "ca": {
            "latitude": "37.8242285466918",
            "closest_to": "",
            "address": "Piedmont, Alameda County, California, ca, United States of America",
            "locType": "postcode",
            "blogLinks": [
                "http://www.distancesfrom.com/us/distance-from-Santa-Monica-to-Cambria-via-CA-1/DistanceHistory/34850463.aspx"
            ],
            "longitude": "-122.232613735941"
        },
        "bay area": {
            "latitude": "37.7884969",
            "closest_to": "",
            "address": "San Francisco Bay Area, SF, California, United States of America",
            "locType": "region",
            "blogLinks": [
                "https://www.yelp.com/biz/pacific-coast-highway-carmel",
                "http://myfamilytravels.com/content/10507-road-trip-usa-pacific-coast-highway-san-francisco-los-angeles"
            ],
            "longitude": "-122.3558472"
        },
        "ano nuevo state park": {
            "latitude": "37.1642859",
            "closest_to": "",
            "address": "A\u00f1o Nuevo State Park, White House Canyon Road, San Mateo County, California, United States of America",
            "locType": "park",
            "blogLinks": [
                "https://www.gapyear.com/articles/216212/13-incredible-stops-on-the-pacific-coast-highway"
            ],
            "longitude": "-122.328030779329"
        },
        "s.f.": {
            "latitude": "19.9908291",
            "closest_to": "",
            "address": "California, Bosque de Canalejas, Jilotepec, M\u00e9xico, 54270, M\u00e9xico",
            "locType": "residential",
            "blogLinks": [
                "http://www.trippy.com/question/California-Where-to-stay-half-way-between-S-F--and-L-A"
            ],
            "longitude": "-99.6183945"
        },
        "cape horn": {
            "latitude": "39.1354565",
            "closest_to": "",
            "address": "Cape Horn, Mendocino County, California, United States of America",
            "locType": "hamlet",
            "blogLinks": [
                "http://myfamilytravels.com/content/10507-road-trip-usa-pacific-coast-highway-san-francisco-los-angeles"
            ],
            "longitude": "-123.6352912"
        },
        "palomar": {
            "latitude": "23.48019285",
            "closest_to": "",
            "address": "Palomar, Calzada Maestros Misioneros de 1930, Santiago, Los Cabos, Baja California Sur, M\u00e9xico",
            "locType": "hotel",
            "blogLinks": [
                "https://www.gapyear.com/articles/216212/13-incredible-stops-on-the-pacific-coast-highway"
            ],
            "longitude": "-109.715262801301"
        },
        "alcatraz island": {
            "latitude": "37.8267283",
            "closest_to": "",
            "address": "Alcatraz Island, SF, California, United States of America",
            "locType": "island",
            "blogLinks": [
                "https://www.gapyear.com/articles/216212/13-incredible-stops-on-the-pacific-coast-highway"
            ],
            "longitude": "-122.422746492409"
        },
        "north beach": {
            "latitude": "37.8011749",
            "closest_to": "",
            "address": "North Beach, SF, California, 94133, United States of America",
            "locType": "neighbourhood",
            "blogLinks": [
                "http://www.wineinstitute.org/consumerstories"
            ],
            "longitude": "-122.409002"
        },
        "pacifica": {
            "latitude": "37.6138253",
            "closest_to": "",
            "address": "Pacifica, San Mateo County, California, United States of America",
            "locType": "city",
            "blogLinks": [
                "http://gocalifornia.about.com/cs/bigsur/a/highwayone.htm",
                "http://myfamilytravels.com/content/10507-road-trip-usa-pacific-coast-highway-san-francisco-los-angeles",
                "http://www.minitime.com/trip-tips/Iconic-California-Coastal-Road-Trip-from-LA-to-San-Francisco-article"
            ],
            "longitude": "-122.4869193"
        },
        "napa": {
            "latitude": "38.2971367",
            "closest_to": "",
            "address": "Napa, Napa County, California, United States of America",
            "locType": "city",
            "blogLinks": [
                "https://www.yelp.com/biz/pacific-coast-highway-carmel",
                "http://www.wineinstitute.org/consumerstories"
            ],
            "longitude": "-122.2855292"
        },
        "lake tahoe": {
            "latitude": "39.0888982",
            "closest_to": "",
            "address": "Lake Tahoe, Placer County, California, United States of America",
            "locType": "water",
            "blogLinks": [
                "http://www.travbuddy.com/California-travel-guide-p85"
            ],
            "longitude": "-120.050511752934"
        },
        "mendocino": {
            "latitude": "39.3176491",
            "closest_to": "",
            "address": "Mendocino County, California, United States of America",
            "locType": "administrative",
            "blogLinks": [
                "http://gocalifornia.about.com/cs/bigsur/a/highwayone.htm",
                "http://www.wineinstitute.org/consumerstories"
            ],
            "longitude": "-123.4126398"
        },
        "europe": {
            "latitude": "37.3491727",
            "closest_to": "",
            "address": "Europe Court, Santa Clara, Santa Clara County, California, 95051, United States of America",
            "locType": "residential",
            "blogLinks": [
                "http://www.travbuddy.com/California-travel-guide-p85"
            ],
            "longitude": "-121.9980641"
        },
        "napa valley": {
            "latitude": "39.0234679",
            "closest_to": "",
            "address": "Napa Valley, Cold Spring, Campbell County, Kentucky, 41076, United States of America",
            "locType": "residential",
            "blogLinks": [
                "http://www.travbuddy.com/California-travel-guide-p85"
            ],
            "longitude": "-84.4504647"
        },
        "santa": {
            "latitude": "22.4804035",
            "closest_to": "",
            "address": "California, Santa Isabel de las Lajas, Cienfuegos, Cuba",
            "locType": "hamlet",
            "blogLinks": [
                "https://www.tripadvisor.com/ShowTopic-g28926-i29-k1209722-Best_route_from_San_Luis_Obispo_to_Santa_Monica-California.html"
            ],
            "longitude": "-80.3796642"
        },
        "greece": {
            "latitude": "43.222537",
            "closest_to": "",
            "address": "California Drive, Greece Town, Monroe County, New York, 14616, United States of America",
            "locType": "residential",
            "blogLinks": [
                "http://myfamilytravels.com/content/10507-road-trip-usa-pacific-coast-highway-san-francisco-los-angeles"
            ],
            "longitude": "-77.6362609"
        },
        "berkeley": {
            "latitude": "37.8708393",
            "closest_to": "",
            "address": "Berkeley, Alameda County, California, United States of America",
            "locType": "city",
            "blogLinks": [
                "http://www.travbuddy.com/California-travel-guide-p85"
            ],
            "longitude": "-122.2728638"
        },
        "egypt": {
            "latitude": "37.2547835",
            "closest_to": "",
            "address": "Egypt Creek, Inyo County, California, United States of America",
            "locType": "stream",
            "blogLinks": [
                "http://myfamilytravels.com/content/10507-road-trip-usa-pacific-coast-highway-san-francisco-los-angeles"
            ],
            "longitude": "-118.544859"
        },
        "rockport": {
            "latitude": "39.7387659",
            "closest_to": "",
            "address": "Rockport, Mendocino County, California, United States of America",
            "locType": "hamlet",
            "blogLinks": [
                "http://gocalifornia.about.com/cs/bigsur/a/highwayone.htm"
            ],
            "longitude": "-123.8161312"
        },
        "healdsburg": {
            "latitude": "38.6106812",
            "closest_to": "",
            "address": "Healdsburg, Sonoma County, California, United States of America",
            "locType": "city",
            "blogLinks": [
                "http://www.wineinstitute.org/consumerstories"
            ],
            "longitude": "-122.8701379"
        },
        "balboa park": {
            "latitude": "37.72494875",
            "closest_to": "",
            "address": "Balboa Park, Sergeant John V Young Lane, Ingleside, SF, California, 94112, United States of America",
            "locType": "park",
            "blogLinks": [
                "https://www.gapyear.com/articles/216212/13-incredible-stops-on-the-pacific-coast-highway"
            ],
            "longitude": "-122.444804424152"
        },
        "east beach": {
            "latitude": "37.8061771",
            "closest_to": "",
            "address": "East Beach, Mason Street, Presidio Heights, SF, California, 94129, United States of America",
            "locType": "beach",
            "blogLinks": [
                "https://www.gapyear.com/articles/216212/13-incredible-stops-on-the-pacific-coast-highway"
            ],
            "longitude": "-122.452368017781"
        },
        "california": {
            "latitude": "7.3480915",
            "closest_to": "",
            "address": "California, Santander, Colombia",
            "locType": "village",
            "blogLinks": [
                "http://www.travbuddy.com/California-travel-guide-p85",
                "http://gocalifornia.about.com/cs/bigsur/a/highwayone.htm",
                "http://www.wineinstitute.org/consumerstories",
                "http://traveltips.usatoday.com/places-stop-way-disneyland-san-jose-california-109883.html",
                "https://www.gapyear.com/articles/216212/13-incredible-stops-on-the-pacific-coast-highway",
                "http://www.trippy.com/question/California-Where-to-stay-half-way-between-S-F--and-L-A",
                "http://travelblog.viator.com/road-trip-san-francisco-los-angeles/",
                "http://www.bloggeratlarge.com/bucket-list-ideas/drive-the-pacific-coast-hwy-from-la-to-san-francisco-2/",
                "https://www.tripadvisor.ca/ShowTopic-g28926-i29-k5122462-Night_at_San_Luis_Obispo_or_Santa_Barbara-California.html",
                "https://www.tripadvisor.com/ShowTopic-g28926-i29-k1209722-Best_route_from_San_Luis_Obispo_to_Santa_Monica-California.html",
                "http://www.distancesfrom.com/us/distance-from-Santa-Monica-to-Cambria-via-CA-1/DistanceHistory/34850463.aspx",
                "http://www.trippy.com/question/California-What-are-the-must-see-stops-along-highway-1-between-San-Francisco-and-LA",
                "https://www.yelp.com/biz/pacific-coast-highway-carmel",
                "http://myfamilytravels.com/content/10507-road-trip-usa-pacific-coast-highway-san-francisco-los-angeles",
                "https://www.tripadvisor.com/ShowTopic-g28926-i29-k5122462-Night_at_San_Luis_Obispo_or_Santa_Barbara-California.html"
            ],
            "longitude": "-72.945787"
        },
        "monterrey": {
            "latitude": "32.5492861",
            "closest_to": "",
            "address": "Monterrey, Mexicali, Baja California, M\u00e9xico",
            "locType": "village",
            "blogLinks": [
                "https://www.yelp.com/biz/pacific-coast-highway-carmel"
            ],
            "longitude": "-115.0704122"
        },
        "italy": {
            "latitude": "45.659844",
            "closest_to": "",
            "address": "California, MB, LOM, Italia",
            "locType": "village",
            "blogLinks": [
                "http://myfamilytravels.com/content/10507-road-trip-usa-pacific-coast-highway-san-francisco-los-angeles"
            ],
            "longitude": "9.3130453"
        },
        "san jose": {
            "latitude": "37.3361905",
            "closest_to": "",
            "address": "San Jos\u00e9, Santa Clara County, California, United States of America",
            "locType": "city",
            "blogLinks": [
                "http://www.travbuddy.com/California-travel-guide-p85",
                "http://www.wineinstitute.org/consumerstories",
                "http://traveltips.usatoday.com/places-stop-way-disneyland-san-jose-california-109883.html",
                "https://www.gapyear.com/articles/216212/13-incredible-stops-on-the-pacific-coast-highway",
                "http://www.trippy.com/question/California-Where-to-stay-half-way-between-S-F--and-L-A",
                "http://www.trippy.com/question/California-What-are-the-must-see-stops-along-highway-1-between-San-Francisco-and-LA"
            ],
            "longitude": "-121.8905832"
        },
        "golden gate park": {
            "latitude": "37.7693681",
            "closest_to": "",
            "address": "Golden Gate Park, Overlook Drive, Richmond District, SF, California, 94122, United States of America",
            "locType": "park",
            "blogLinks": [
                "https://www.gapyear.com/articles/216212/13-incredible-stops-on-the-pacific-coast-highway"
            ],
            "longitude": "-122.482183611177"
        },
        "san luis": {
            "latitude": "32.4962137",
            "closest_to": "",
            "address": "California Street, Bienestar Estates, San Luis, Yuma County, Arizona, 85336, United States of America",
            "locType": "residential",
            "blogLinks": [
                "http://myfamilytravels.com/content/10507-road-trip-usa-pacific-coast-highway-san-francisco-los-angeles"
            ],
            "longitude": "-114.7643625"
        },
        "bothe-napa valley state park": {
            "latitude": "38.5414577",
            "closest_to": "",
            "address": "Bothe-Napa Valley State Park, Saint Helena Highway, Larkmead, Napa County, California, 94574; 94515, United States of America",
            "locType": "park",
            "blogLinks": [
                "http://www.wineinstitute.org/consumerstories"
            ],
            "longitude": "-122.50808612741"
        },
        "el dorado county": {
            "latitude": "38.7574137",
            "closest_to": "",
            "address": "El Dorado County, California, United States of America",
            "locType": "administrative",
            "blogLinks": [
                "http://www.travbuddy.com/California-travel-guide-p85"
            ],
            "longitude": "-120.5276128"
        },
        "calistoga": {
            "latitude": "38.582615",
            "closest_to": "",
            "address": "Calistoga, Napa County, California, United States of America",
            "locType": "city",
            "blogLinks": [
                "http://www.wineinstitute.org/consumerstories"
            ],
            "longitude": "-122.583325948608"
        },
        "laguna": {
            "latitude": "38.4210209",
            "closest_to": "",
            "address": "Laguna, Sacramento County, California, United States of America",
            "locType": "hamlet",
            "blogLinks": [
                "https://www.yelp.com/biz/pacific-coast-highway-carmel"
            ],
            "longitude": "-121.4238413"
        },
        "new zealand": {
            "latitude": "-41.1069272",
            "closest_to": "",
            "address": "California Drive, Totara Park, Upper Hutt, Upper Hutt City, Wellington, 5371, New Zealand/Aotearoa",
            "locType": "tertiary",
            "blogLinks": [
                "http://www.trippy.com/question/California-Where-to-stay-half-way-between-S-F--and-L-A"
            ],
            "longitude": "175.0832904"
        },
        "pillar point harbor": {
            "latitude": "37.5006707",
            "closest_to": "",
            "address": "Pillar Point Harbor, San Mateo County, California, United States of America",
            "locType": "dock",
            "blogLinks": [
                "http://myfamilytravels.com/content/10507-road-trip-usa-pacific-coast-highway-san-francisco-los-angeles"
            ],
            "longitude": "-122.4823342"
        },
        "union square": {
            "latitude": "37.78794125",
            "closest_to": "",
            "address": "Union Square, Post Street, Chinatown, SF, California, 94115, United States of America",
            "locType": "park",
            "blogLinks": [
                "https://www.gapyear.com/articles/216212/13-incredible-stops-on-the-pacific-coast-highway"
            ],
            "longitude": "-122.407502671706"
        }
    },
    "san luis obispo": {
        "type": "city",
        "osm_id": "33111824",
        "class": "place",
        "importance": 0.87823218277902,
        "lat": "35.2827525",
        "lon": "-120.6596155",
        "boundingbox": [
            "35.233002",
            "35.31199",
            "-120.7229769",
            "-120.6177727"
        ],
        "display_name": "San Luis Obispo, San Luis Obispo County, California, United States of America",
        "licence": "Data \u00a9 OpenStreetMap contributors, ODbL 1.0. http://www.openstreetmap.org/copyright",
        "icon": "https://nominatim.openstreetmap.org/images/mapicons/poi_place_city.p.20.png",
        "place_id": "71485104",
        "osm_type": "way"
    }
}