{
    "mentions": {
        "' city": {
            "latitude": "7.1083972",
            "closest_to": "",
            "address": "California, Deca Homes Resort Residences Phase 4, Purok 20, New Loon, Davao City, Davao, 8000, Philippines",
            "locType": "residential",
            "blogLinks": [
                "https://godutchrealty.com/blog/top-11-places-to-visit-before-you-retire-to-costa-rica.html"
            ],
            "longitude": "125.4965601"
        },
        "nicaragua": {
            "latitude": "11.9190655",
            "closest_to": "",
            "address": "La California, Villa El Carmen (Municipio), Managua, 16500, Nicaragua",
            "locType": "village",
            "blogLinks": [
                "http://costarica.com/blog/travel/",
                "https://www.anywhere.com/costa-rica/transportation"
            ],
            "longitude": "-86.5160192"
        },
        "costa rica": {
            "latitude": "9.9327612",
            "closest_to": "",
            "address": "California, Carmen, Cant\u00f3n San Jos\u00e9, Provincia San Jos\u00e9, 10101, Costa Rica",
            "locType": "administrative",
            "blogLinks": [
                "https://godutchrealty.com/blog/top-11-places-to-visit-before-you-retire-to-costa-rica.html",
                "http://costarica.com/attractions/",
                "https://www.godutchrealty.com/5-Top-Places-visit-Costa-Rica",
                "http://costarica.com/blog/travel/",
                "https://www.anywhere.com/costa-rica/transportation",
                "https://www.tripadvisor.com/Tourism-g1122840-Santa_Ana_San_Jose_Metro_Province_of_San_Jose-Vacations.html",
                "https://www.tripadvisor.ca/AttractionsNear-g1122840-d2554231-Aloft_San_Jose_Hotel-Santa_Ana_San_Jose_Metro_Province_of_San_Jose.html",
                "https://www.anywhere.com/costa-rica/destinations/habitat/city",
                "http://distancecalculator.globefeed.com/Costa_Rica_Distance_Calculator.asp",
                "http://traveltips.usatoday.com/fun-things-los-angeles-san-francisco-14664.html"
            ],
            "longitude": "-84.0665223"
        },
        "palmar sur": {
            "latitude": "22.9884582",
            "closest_to": "",
            "address": "El Palmar, Cabo San Lucas, Los Cabos, Baja California Sur, M\u00e9xico",
            "locType": "stream",
            "blogLinks": [
                "https://www.anywhere.com/costa-rica/destinations/habitat/city"
            ],
            "longitude": "-109.8279455"
        },
        "san jose costa rica": {
            "latitude": "10.7345746",
            "closest_to": "",
            "address": "california, Carretera Juan Rafael Mora Porras, Cure\u00f1a, Cant\u00f3n Sarapiqu\u00ed, Provincia Heredia, 41005, Costa Rica",
            "locType": "bar",
            "blogLinks": [
                "http://www.sanjoseca.gov/visitors.asp",
                "https://www.tripadvisor.ca/AttractionsNear-g1122840-d2554231-Aloft_San_Jose_Hotel-Santa_Ana_San_Jose_Metro_Province_of_San_Jose.html"
            ],
            "longitude": "-83.969532"
        },
        "langosta": {
            "latitude": "24.1197066",
            "closest_to": "",
            "address": "Langosta, La Paz, Baja California Sur, 23080, M\u00e9xico",
            "locType": "residential",
            "blogLinks": [
                "http://costarica.com/blog/travel/"
            ],
            "longitude": "-110.3183734"
        },
        "manuel antonio": {
            "latitude": "27.5545083",
            "closest_to": "",
            "address": "California, Manuel alvarez (San Antonio, Los Hoyos), Cajeme, Sonora, 85019, M\u00e9xico",
            "locType": "primary",
            "blogLinks": [
                "http://costarica.com/blog/travel/"
            ],
            "longitude": "-109.9453285"
        },
        "liberia": {
            "latitude": "28.674844",
            "closest_to": "",
            "address": "Liberia, Fraccionamiento California, Chihuahua, M\u00e9xico",
            "locType": "residential",
            "blogLinks": [
                "https://www.anywhere.com/costa-rica/destinations/habitat/city",
                "https://godutchrealty.com/blog/top-11-places-to-visit-before-you-retire-to-costa-rica.html",
                "http://costarica.com/attractions/",
                "http://costarica.com/blog/travel/"
            ],
            "longitude": "-106.0273942"
        },
        "west virginia": {
            "latitude": "38.3380347",
            "closest_to": "",
            "address": "California Avenue, Charleston, Kanawha County, West Virginia, 25311, United States of America",
            "locType": "residential",
            "blogLinks": [
                "https://www.anywhere.com/costa-rica/transportation"
            ],
            "longitude": "-81.6097297"
        },
        "wa": {
            "latitude": "40.0657724",
            "closest_to": "",
            "address": "California, Washington County, Pennsylvania, United States of America",
            "locType": "administrative",
            "blogLinks": [
                "http://costarica.com/blog/travel/"
            ],
            "longitude": "-79.8918435"
        },
        "alajuela": {
            "latitude": "9.9923323",
            "closest_to": "",
            "address": "California, R\u00edo Segundo, Cant\u00f3n Alajuela, Provincia Alajuela, 20109, Costa Rica",
            "locType": "neighbourhood",
            "blogLinks": [
                "https://www.anywhere.com/costa-rica/destinations/habitat/city",
                "http://costarica.com/blog/travel/",
                "https://www.tripadvisor.ca/AttractionsNear-g1122840-d2554231-Aloft_San_Jose_Hotel-Santa_Ana_San_Jose_Metro_Province_of_San_Jose.html"
            ],
            "longitude": "-84.2022877"
        },
        "quepos": {
            "latitude": "9.4216522",
            "closest_to": "",
            "address": "Hotel California, 618, Manuel Antonio, Quepos, Cant\u00f3n Quepos, Provincia Puntarenas, 60601, Costa Rica",
            "locType": "hotel",
            "blogLinks": [
                "http://costarica.com/attractions/"
            ],
            "longitude": "-84.1570765"
        },
        "central america": {
            "latitude": "13.69924915",
            "closest_to": "",
            "address": "Banco de America Central, 53 Avenida Sur, Residencial Ol\u00edmpica, Colonia Flor Blanca, San Salvador, Municipio de San Salvador, Departamento de San Salvador, 00503, El Salvador",
            "locType": "bank",
            "blogLinks": [
                "http://costarica.com/blog/travel/"
            ],
            "longitude": "-89.2185341551046"
        },
        "tamarindo": {
            "latitude": "24.1200849",
            "closest_to": "",
            "address": "Tamarindo, La Paz, Baja California Sur, 23080, M\u00e9xico",
            "locType": "residential",
            "blogLinks": [
                "http://costarica.com/blog/travel/"
            ],
            "longitude": "-110.3210271"
        },
        "arenal": {
            "latitude": "-14.0638295",
            "closest_to": "",
            "address": "California, Centeno, Ica, ica01, Per\u00fa",
            "locType": "residential",
            "blogLinks": [
                "http://costarica.com/blog/travel/"
            ],
            "longitude": "-75.7381478"
        },
        "california": {
            "latitude": "7.3480915",
            "closest_to": "",
            "address": "California, Santander, Colombia",
            "locType": "village",
            "blogLinks": [
                "http://traveltips.usatoday.com/fun-things-los-angeles-san-francisco-14664.html",
                "http://www.travelcalifornia.com/Cities/Santa_Barbara/santa_barbara.htm"
            ],
            "longitude": "-72.945787"
        },
        "playa grande": {
            "latitude": "22.8769676",
            "closest_to": "",
            "address": "Playa Grande, Cabo San Lucas, Los Cabos, Baja California Sur, M\u00e9xico",
            "locType": "service",
            "blogLinks": [
                "http://costarica.com/blog/travel/"
            ],
            "longitude": "-109.9073198"
        },
        "united kingdom": {
            "latitude": "52.4422729",
            "closest_to": "",
            "address": "California, Birmingham, West Midlands, England, UK",
            "locType": "village",
            "blogLinks": [
                "https://www.tripadvisor.com/Attractions-g33020-Activities-San_Jose_California.html",
                "http://costarica.com/attractions/"
            ],
            "longitude": "-1.9796882"
        },
        "england": {
            "latitude": "52.4422729",
            "closest_to": "",
            "address": "California, Birmingham, West Midlands, England, UK",
            "locType": "village",
            "blogLinks": [
                "http://costarica.com/destinations/manuel-antonio/getting-there/",
                "http://www.travelcalifornia.com/Cities/Santa_Barbara/santa_barbara.htm"
            ],
            "longitude": "-1.9796882"
        },
        "puerto viejo": {
            "latitude": "23.0665659",
            "closest_to": "",
            "address": "Puerto Viejo, Cabo San Lucas, Los Cabos, Baja California Sur, 23405, M\u00e9xico",
            "locType": "residential",
            "blogLinks": [
                "http://costarica.com/blog/travel/"
            ],
            "longitude": "-109.7078626"
        },
        "germany": {
            "latitude": "50.9590814",
            "closest_to": "",
            "address": "California, Lassallestra\u00dfe, M\u00fclheim, K\u00f6ln, Regierungsbezirk K\u00f6ln, Nordrhein-Westfalen, 50667-51149, Deutschland",
            "locType": "beauty",
            "blogLinks": [
                "http://costarica.com/blog/travel/"
            ],
            "longitude": "7.009217"
        },
        "san isidro": {
            "latitude": "26.216614",
            "closest_to": "",
            "address": "San Isidro, Comond\u00fa, Baja California Sur, M\u00e9xico",
            "locType": "town",
            "blogLinks": [
                "https://www.anywhere.com/costa-rica/destinations/habitat/city"
            ],
            "longitude": "-112.019819"
        }
    },
    "san jose": {
        "type": "city",
        "osm_id": "112143",
        "class": "place",
        "importance": 0.79127376502597,
        "lat": "37.3361905",
        "lon": "-121.8905832",
        "boundingbox": [
            "37.124503",
            "37.4692175",
            "-122.0456719",
            "-121.5891529"
        ],
        "display_name": "San Jos\u00e9, Santa Clara County, California, United States of America",
        "licence": "Data \u00a9 OpenStreetMap contributors, ODbL 1.0. http://www.openstreetmap.org/copyright",
        "icon": "https://nominatim.openstreetmap.org/images/mapicons/poi_place_city.p.20.png",
        "place_id": "159251412",
        "osm_type": "relation"
    },
    "santa ana": {
        "type": "city",
        "osm_id": "2311446",
        "class": "place",
        "importance": 0.80067109924196,
        "lat": "33.7494951",
        "lon": "-117.8732212",
        "boundingbox": [
            "33.6916541",
            "33.7840133",
            "-117.9439458",
            "-117.8303494"
        ],
        "display_name": "Santa Ana, Orange County, California, United States of America",
        "licence": "Data \u00a9 OpenStreetMap contributors, ODbL 1.0. http://www.openstreetmap.org/copyright",
        "icon": "https://nominatim.openstreetmap.org/images/mapicons/poi_place_city.p.20.png",
        "place_id": "159122957",
        "osm_type": "relation"
    }
}