{
    "mentions": {
        "nevada": {
            "latitude": "39.3540335",
            "closest_to": "",
            "address": "Nevada County, California, United States of America",
            "locType": "administrative",
            "blogLinks": [
                "http://www.usatourist.com/english/destinations/california/california-driving-tour.html"
            ],
            "longitude": "-120.8089842"
        },
        "golden state": {
            "latitude": "39.6712719",
            "closest_to": "",
            "address": "Golden State Island, Butte County, California, United States of America",
            "locType": "island",
            "blogLinks": [
                "https://www.tripit.com/blog/2016/01/california-driving-distances-and-times.html",
                "http://www.parks.ca.gov/?page_id=22722"
            ],
            "longitude": "-121.9619226"
        },
        "pismo": {
            "latitude": "24.1378257",
            "closest_to": "",
            "address": "Pismo, La Paz, Baja California Sur, 23206, M\u00e9xico",
            "locType": "residential",
            "blogLinks": [
                "http://www.minitime.com/trip-tips/Iconic-California-Coastal-Road-Trip-from-LA-to-San-Francisco-article"
            ],
            "longitude": "-110.3437034"
        },
        "s.f.": {
            "latitude": "19.9908291",
            "closest_to": "",
            "address": "California, Bosque de Canalejas, Jilotepec, M\u00e9xico, 54270, M\u00e9xico",
            "locType": "residential",
            "blogLinks": [
                "http://www.trippy.com/question/California-Where-to-stay-half-way-between-S-F--and-L-A"
            ],
            "longitude": "-99.6183945"
        },
        "cape horn": {
            "latitude": "39.1354565",
            "closest_to": "",
            "address": "Cape Horn, Mendocino County, California, United States of America",
            "locType": "hamlet",
            "blogLinks": [
                "https://myfamilytravels.com/content/10507-road-trip-usa-pacific-coast-highway-san-francisco-los-angeles"
            ],
            "longitude": "-123.6352912"
        },
        "palomar": {
            "latitude": "23.48019285",
            "closest_to": "",
            "address": "Palomar, Calzada Maestros Misioneros de 1930, Santiago, Los Cabos, Baja California Sur, M\u00e9xico",
            "locType": "hotel",
            "blogLinks": [
                "https://www.gapyear.com/articles/216212/13-incredible-stops-on-the-pacific-coast-highway"
            ],
            "longitude": "-109.715262801301"
        },
        "santa ines": {
            "latitude": "22.88332",
            "closest_to": "",
            "address": "Santa Ines, Cabo San Lucas, Los Cabos, Baja California Sur, 23543, M\u00e9xico",
            "locType": "residential",
            "blogLinks": [
                "http://www.parks.ca.gov/?page_id=22722"
            ],
            "longitude": "-109.9425933"
        },
        "mendocino": {
            "latitude": "39.3176491",
            "closest_to": "",
            "address": "Mendocino County, California, United States of America",
            "locType": "administrative",
            "blogLinks": [
                "http://gocalifornia.about.com/cs/bigsur/a/highwayone.htm"
            ],
            "longitude": "-123.4126398"
        },
        "saint louis": {
            "latitude": "39.6985046",
            "closest_to": "",
            "address": "Saint Louis, Sierra County, California, United States of America",
            "locType": "hamlet",
            "blogLinks": [
                "https://www.virtualtourist.com/travel/North_America/United_States_of_America/California/San_Luis_Obispo-755495/Things_To_Do-San_Luis_Obispo-TG-C-1.html"
            ],
            "longitude": "-120.9249513"
        },
        "greece": {
            "latitude": "43.222537",
            "closest_to": "",
            "address": "California Drive, Greece Town, Monroe County, New York, 14616, United States of America",
            "locType": "residential",
            "blogLinks": [
                "https://myfamilytravels.com/content/10507-road-trip-usa-pacific-coast-highway-san-francisco-los-angeles"
            ],
            "longitude": "-77.6362609"
        },
        "williams": {
            "latitude": "39.1546137",
            "closest_to": "",
            "address": "Williams, Colusa County, California, United States of America",
            "locType": "city",
            "blogLinks": [
                "http://www.usatourist.com/english/destinations/california/california-driving-tour.html"
            ],
            "longitude": "-122.1494186"
        },
        "new york city": {
            "latitude": "40.767819",
            "closest_to": "",
            "address": "California Sea Lion, 830, 5th Avenue, Upper East Side, Manhattan, New York County, NYC, New York, 10035, United States of America",
            "locType": "attraction",
            "blogLinks": [
                "https://www.tripit.com/blog/2016/01/california-driving-distances-and-times.html"
            ],
            "longitude": "-73.9717587"
        },
        "argentina": {
            "latitude": "-31.451096",
            "closest_to": "",
            "address": "California, C\u00f3rdoba, Departamento Capital, Cba., Argentina",
            "locType": "administrative",
            "blogLinks": [
                "http://www.parks.ca.gov/?page_id=22722"
            ],
            "longitude": "-64.205523"
        },
        "rockport": {
            "latitude": "39.7387659",
            "closest_to": "",
            "address": "Rockport, Mendocino County, California, United States of America",
            "locType": "hamlet",
            "blogLinks": [
                "http://gocalifornia.about.com/cs/bigsur/a/highwayone.htm"
            ],
            "longitude": "-123.8161312"
        },
        "st. louis": {
            "latitude": "39.6985046",
            "closest_to": "",
            "address": "Saint Louis, Sierra County, California, United States of America",
            "locType": "hamlet",
            "blogLinks": [
                "http://www.parks.ca.gov/?page_id=22722"
            ],
            "longitude": "-120.9249513"
        },
        "california": {
            "latitude": "7.3480915",
            "closest_to": "",
            "address": "California, Santander, Colombia",
            "locType": "village",
            "blogLinks": [
                "http://moon.com/2015/04/best-places-to-stay-on-a-california-coast-road-trip/",
                "http://gocalifornia.about.com/cs/bigsur/a/highwayone.htm",
                "https://www.virtualtourist.com/travel/North_America/United_States_of_America/California/San_Luis_Obispo-755495/Things_To_Do-San_Luis_Obispo-TG-C-1.html",
                "https://www.gapyear.com/articles/216212/13-incredible-stops-on-the-pacific-coast-highway",
                "http://www.trippy.com/question/California-Where-to-stay-half-way-between-S-F--and-L-A",
                "http://www.parks.ca.gov/?page_id=22722",
                "https://myfamilytravels.com/content/10507-road-trip-usa-pacific-coast-highway-san-francisco-los-angeles",
                "http://www.usatourist.com/english/destinations/california/california-driving-tour.html",
                "https://www.tripit.com/blog/2016/01/california-driving-distances-and-times.html",
                "https://www.tripadvisor.com/ShowTopic-g28926-i29-k5122462-Night_at_San_Luis_Obispo_or_Santa_Barbara-California.html"
            ],
            "longitude": "-72.945787"
        },
        "spain": {
            "latitude": "37.1412332",
            "closest_to": "",
            "address": "La California, Mor\u00f3n de la Frontera, Sevilla, Andaluc\u00eda, Espa\u00f1a",
            "locType": "locality",
            "blogLinks": [
                "https://myfamilytravels.com/content/10507-road-trip-usa-pacific-coast-highway-san-francisco-los-angeles",
                "http://www.parks.ca.gov/?page_id=22722"
            ],
            "longitude": "-5.4610806"
        },
        "italy": {
            "latitude": "45.659844",
            "closest_to": "",
            "address": "California, MB, LOM, Italia",
            "locType": "village",
            "blogLinks": [
                "https://myfamilytravels.com/content/10507-road-trip-usa-pacific-coast-highway-san-francisco-los-angeles"
            ],
            "longitude": "9.3130453"
        },
        "united kingdom": {
            "latitude": "52.4422729",
            "closest_to": "",
            "address": "California, Birmingham, West Midlands, England, UK",
            "locType": "village",
            "blogLinks": [
                "https://www.tripadvisor.com/ShowTopic-g28926-i29-k5122462-Night_at_San_Luis_Obispo_or_Santa_Barbara-California.html"
            ],
            "longitude": "-1.9796882"
        },
        "england": {
            "latitude": "52.4422729",
            "closest_to": "",
            "address": "California, Birmingham, West Midlands, England, UK",
            "locType": "village",
            "blogLinks": [
                "https://myfamilytravels.com/content/10507-road-trip-usa-pacific-coast-highway-san-francisco-los-angeles"
            ],
            "longitude": "-1.9796882"
        },
        "l.a.": {
            "latitude": "-13.8305494",
            "closest_to": "",
            "address": "California, Provincia Abel Iturralde, LPZ, Bolivia",
            "locType": "hamlet",
            "blogLinks": [
                "http://www.trippy.com/question/California-Where-to-stay-half-way-between-S-F--and-L-A"
            ],
            "longitude": "-67.9369134"
        },
        "toulouse": {
            "latitude": "43.6094738",
            "closest_to": "",
            "address": "California, Rue Pouzonvile, Capitole, Toulouse Centre, Toulouse, Haute-Garonne, Occitanie, 31000, France",
            "locType": "florist",
            "blogLinks": [
                "https://www.virtualtourist.com/travel/North_America/United_States_of_America/California/San_Luis_Obispo-755495/Things_To_Do-San_Luis_Obispo-TG-C-1.html"
            ],
            "longitude": "1.4444297"
        },
        "new zealand": {
            "latitude": "-41.1069272",
            "closest_to": "",
            "address": "California Drive, Totara Park, Upper Hutt, Upper Hutt City, Wellington, 5371, New Zealand/Aotearoa",
            "locType": "tertiary",
            "blogLinks": [
                "http://www.trippy.com/question/California-Where-to-stay-half-way-between-S-F--and-L-A"
            ],
            "longitude": "175.0832904"
        },
        "rome": {
            "latitude": "41.9628634",
            "closest_to": "",
            "address": "California, Via della Missione, Tivoli, Paterno, Tivoli, RM, LAZ, 00019, Italia",
            "locType": "pub",
            "blogLinks": [
                "http://www.parks.ca.gov/?page_id=22722"
            ],
            "longitude": "12.7977613"
        }
    },
    "san diego": {
        "type": "city",
        "osm_id": "253832",
        "class": "place",
        "importance": 0.93342309681118,
        "lat": "32.7174209",
        "lon": "-117.1627713",
        "boundingbox": [
            "32.5347839",
            "33.114249",
            "-117.3098052",
            "-116.9057225"
        ],
        "display_name": "San Diego, San Diego County, California, United States of America",
        "licence": "Data \u00a9 OpenStreetMap contributors, ODbL 1.0. http://www.openstreetmap.org/copyright",
        "icon": "https://nominatim.openstreetmap.org/images/mapicons/poi_place_city.p.20.png",
        "place_id": "157988328",
        "osm_type": "relation"
    },
    "san luis obispo": {
        "type": "city",
        "osm_id": "33111824",
        "class": "place",
        "importance": 0.87823218277902,
        "lat": "35.2827525",
        "lon": "-120.6596155",
        "boundingbox": [
            "35.233002",
            "35.31199",
            "-120.7229769",
            "-120.6177727"
        ],
        "display_name": "San Luis Obispo, San Luis Obispo County, California, United States of America",
        "licence": "Data \u00a9 OpenStreetMap contributors, ODbL 1.0. http://www.openstreetmap.org/copyright",
        "icon": "https://nominatim.openstreetmap.org/images/mapicons/poi_place_city.p.20.png",
        "place_id": "71485104",
        "osm_type": "way"
    }
}