{
    "mentions": {
        "highway 101": {
            "latitude": "32.9967358",
            "closest_to": "",
            "address": "Highway 101, Solana Beach, San Diego County, California, 92075, United States of America",
            "locType": "primary",
            "blogLinks": [
                "http://www.parks.ca.gov/?page_id=22722",
                "http://travelblog.viator.com/road-trip-san-francisco-los-angeles/",
                "http://traveltips.usatoday.com/places-stop-way-disneyland-san-jose-california-109883.html",
                "http://www.sanluisobispo.com/news/local/article38974257.html"
            ],
            "longitude": "-117.2731974"
        },
        "lake dolores": {
            "latitude": "33.8330727",
            "closest_to": "",
            "address": "Dolores, Los Angeles County, California, United States of America",
            "locType": "hamlet",
            "blogLinks": [
                "http://www.parks.ca.gov/?page_id=22722"
            ],
            "longitude": "-118.2264594"
        },
        "shamel park": {
            "latitude": "33.9455711",
            "closest_to": "",
            "address": "Shamel Park, Arlington Avenue, Riverside, Riverside County, California, 92505:92506, United States of America",
            "locType": "park",
            "blogLinks": [
                "http://myfamilytravels.com/content/10507-road-trip-usa-pacific-coast-highway-san-francisco-los-angeles"
            ],
            "longitude": "-117.3939339"
        },
        "temecula": {
            "latitude": "33.4946353",
            "closest_to": "",
            "address": "Temecula, Riverside County, California, United States of America",
            "locType": "city",
            "blogLinks": [
                "http://traveltips.usatoday.com/places-stop-way-disneyland-san-jose-california-109883.html"
            ],
            "longitude": "-117.147366"
        },
        "golden state": {
            "latitude": "39.6712719",
            "closest_to": "",
            "address": "Golden State Island, Butte County, California, United States of America",
            "locType": "island",
            "blogLinks": [
                "http://www.parks.ca.gov/?page_id=22722"
            ],
            "longitude": "-121.9619226"
        },
        "pacific coast highway": {
            "latitude": "33.6595127",
            "closest_to": "",
            "address": "Pacific Coast Highway, Huntington Beach, Orange County, California, 92648, United States of America",
            "locType": "primary",
            "blogLinks": [
                "http://www.travbuddy.com/California-travel-guide-p85",
                "http://highway1discoveryroute.com/blog/",
                "https://www.gapyear.com/articles/216212/13-incredible-stops-on-the-pacific-coast-highway",
                "http://www.trippy.com/Attractions/Hearst-Castle-San-Simeon-California",
                "http://myfamilytravels.com/content/10507-road-trip-usa-pacific-coast-highway-san-francisco-los-angeles"
            ],
            "longitude": "-118.0051687"
        },
        "university avenue": {
            "latitude": "34.0277235",
            "closest_to": "",
            "address": "University Avenue, Saint James Park, LA, Los Angeles County, California, 90007, United States of America",
            "locType": "residential",
            "blogLinks": [
                "http://gocalifornia.about.com/od/topcalifornia/ss/Los-Angeles-to-San-Francisco-on-US-Hwy-101.htm"
            ],
            "longitude": "-118.2810888"
        },
        "arizona": {
            "latitude": "34.4631398",
            "closest_to": "",
            "address": "Arizona, San Bernardino County, California, 92371, United States of America",
            "locType": "track",
            "blogLinks": [
                "http://www.usatourist.com/english/destinations/california/california-driving-tour.html"
            ],
            "longitude": "-117.5060679"
        },
        "humboldt county": {
            "latitude": "40.5997415",
            "closest_to": "",
            "address": "Humboldt County, California, United States of America",
            "locType": "administrative",
            "blogLinks": [
                "http://www.travbuddy.com/California-travel-guide-p85"
            ],
            "longitude": "-123.8997733"
        },
        "huntington beach": {
            "latitude": "33.6783336",
            "closest_to": "",
            "address": "Huntington Beach, Orange County, California, United States of America",
            "locType": "city",
            "blogLinks": [
                "https://www.gapyear.com/articles/216212/13-incredible-stops-on-the-pacific-coast-highway"
            ],
            "longitude": "-118.0000165"
        },
        "monterey park": {
            "latitude": "34.0512156",
            "closest_to": "",
            "address": "Monterey Park, Los Angeles County, California, United States of America",
            "locType": "city",
            "blogLinks": [
                "http://www.trippy.com/Attractions/Hearst-Castle-San-Simeon-California"
            ],
            "longitude": "-118.1292289"
        },
        "disneyland park": {
            "latitude": "33.8136367",
            "closest_to": "",
            "address": "Disneyland Park, Attraction Exit, Anaheim Resort District, Anaheim, Orange County, California, 217, United States of America",
            "locType": "theme_park",
            "blogLinks": [
                "http://www.trippy.com/Attractions/Hearst-Castle-San-Simeon-California"
            ],
            "longitude": "-117.91971186569"
        },
        "san diego county": {
            "latitude": "32.9637838",
            "closest_to": "",
            "address": "San Diego County, California, United States of America",
            "locType": "administrative",
            "blogLinks": [
                "https://www.gapyear.com/articles/216212/13-incredible-stops-on-the-pacific-coast-highway"
            ],
            "longitude": "-116.7706276"
        },
        "las angeles": {
            "latitude": "33.9995929",
            "closest_to": "",
            "address": "California, Obregon Street, West Whittier, Rosemead, Los Angeles County, California, 90606, United States of America",
            "locType": "abandoned",
            "blogLinks": [
                "http://www.travbuddy.com/California-travel-guide-p85"
            ],
            "longitude": "-118.0668337"
        },
        "florida": {
            "latitude": "29.8738433",
            "closest_to": "",
            "address": "California, Lanark Village, Franklin County, Florida, 32323, United States of America",
            "locType": "residential",
            "blogLinks": [
                "http://traveltips.usatoday.com/places-stop-way-disneyland-san-jose-california-109883.html"
            ],
            "longitude": "-84.6071504"
        },
        "macon": {
            "latitude": "33.7137018",
            "closest_to": "",
            "address": "Macon, Northwood, Irvine, Orange County, California, 92620, United States of America",
            "locType": "residential",
            "blogLinks": [
                "http://gocalifornia.about.com/od/topcalifornia/ss/Los-Angeles-to-San-Francisco-on-US-Hwy-101.htm"
            ],
            "longitude": "-117.7684202"
        },
        "camino capistrano": {
            "latitude": "33.5045525",
            "closest_to": "",
            "address": "Camino Capistrano, San Juan Capistrano, Orange County, California, 92675, United States of America",
            "locType": "secondary",
            "blogLinks": [
                "http://www.parks.ca.gov/?page_id=22722"
            ],
            "longitude": "-117.6641659"
        },
        "pacific coast": {
            "latitude": "33.8047323",
            "closest_to": "",
            "address": "Pacific Coast, Florista Street, Los Alamitos, Orange County, California, 90720, United States of America",
            "locType": "yes",
            "blogLinks": [
                "http://www.usatourist.com/english/destinations/california/california-driving-tour.html",
                "http://gocalifornia.about.com/od/topcalifornia/ss/Los-Angeles-to-San-Francisco-on-US-Hwy-101.htm"
            ],
            "longitude": "-118.063517668143"
        },
        "central valley": {
            "latitude": "40.5626504",
            "closest_to": "",
            "address": "KNNN-FM (Central Valley), Rattlesnake Drive, Shasta County, California, 96001, United States of America",
            "locType": "tower",
            "blogLinks": [
                "http://traveltips.usatoday.com/places-stop-way-disneyland-san-jose-california-109883.html"
            ],
            "longitude": "-122.4530663"
        },
        "napa valley": {
            "latitude": "39.0234679",
            "closest_to": "",
            "address": "Napa Valley, Cold Spring, Campbell County, Kentucky, 41076, United States of America",
            "locType": "residential",
            "blogLinks": [
                "http://www.travbuddy.com/California-travel-guide-p85"
            ],
            "longitude": "-84.4504647"
        },
        "san luis rey": {
            "latitude": "33.2319797",
            "closest_to": "",
            "address": "San Luis Rey, San Diego County, California, United States of America",
            "locType": "hamlet",
            "blogLinks": [
                "http://www.parks.ca.gov/?page_id=22722"
            ],
            "longitude": "-117.3236484"
        },
        "eureka": {
            "latitude": "40.8020712",
            "closest_to": "",
            "address": "Eureka, Humboldt County, California, United States of America",
            "locType": "city",
            "blogLinks": [
                "http://www.travbuddy.com/California-travel-guide-p85"
            ],
            "longitude": "-124.1636728"
        },
        "mallard lake ranch": {
            "latitude": "33.6682758",
            "closest_to": "",
            "address": "Mallard Road, Terra Cotta, Lake Elsinore, Riverside County, California, 92530, United States of America",
            "locType": "residential",
            "blogLinks": [
                "http://highway1discoveryroute.com/blog/"
            ],
            "longitude": "-117.3792448"
        },
        "spain": {
            "latitude": "37.1412332",
            "closest_to": "",
            "address": "La California, Mor\u00f3n de la Frontera, Sevilla, Andaluc\u00eda, Espa\u00f1a",
            "locType": "locality",
            "blogLinks": [
                "http://www.parks.ca.gov/?page_id=22722",
                "http://myfamilytravels.com/content/10507-road-trip-usa-pacific-coast-highway-san-francisco-los-angeles"
            ],
            "longitude": "-5.4610806"
        },
        "southern california": {
            "latitude": "34.0224149",
            "closest_to": "",
            "address": "University of Southern California, Watt Way, Saint James Park, LA, Los Angeles County, California, 90089, United States of America",
            "locType": "university",
            "blogLinks": [
                "http://www.usatourist.com/english/destinations/california/california-driving-tour.html",
                "http://gocalifornia.about.com/od/topcalifornia/ss/Los-Angeles-to-San-Francisco-on-US-Hwy-101.htm"
            ],
            "longitude": "-118.286343973446"
        },
        "guadalupe": {
            "latitude": "29.0350656",
            "closest_to": "",
            "address": "Isla Guadalupe, Ensenada, Baja California, M\u00e9xico",
            "locType": "island",
            "blogLinks": [
                "http://highway1discoveryroute.com/blog/"
            ],
            "longitude": "-118.269896818344"
        },
        "newport beach": {
            "latitude": "33.6170092",
            "closest_to": "",
            "address": "Newport Beach, Orange County, California, United States of America",
            "locType": "city",
            "blogLinks": [
                "http://www.travbuddy.com/California-travel-guide-p85",
                "https://www.gapyear.com/articles/216212/13-incredible-stops-on-the-pacific-coast-highway"
            ],
            "longitude": "-117.92944"
        },
        "palm drive": {
            "latitude": "33.8821143",
            "closest_to": "",
            "address": "Palm Drive, Dos Palmas Corners, Riverside County, California, 92240, United States of America",
            "locType": "secondary",
            "blogLinks": [
                "http://gocalifornia.about.com/od/topcalifornia/ss/Los-Angeles-to-San-Francisco-on-US-Hwy-101.htm"
            ],
            "longitude": "-116.5022099"
        },
        "california-nevada": {
            "latitude": "36.17310935",
            "closest_to": "",
            "address": "California Hotel, Sky Walk(Connection from Main Street to California, Cultural Corridor, Vegas Heights, Las Vegas, Clark County, Nevada, 89101, United States of America",
            "locType": "hotel",
            "blogLinks": [
                "http://www.travbuddy.com/California-travel-guide-p85"
            ],
            "longitude": "-115.144667930325"
        },
        "kennedy library": {
            "latitude": "34.0675",
            "closest_to": "",
            "address": "Kennedy Library, Eagle's Lane, University Hills, Boyle Heights, LA, Los Angeles County, California, 90032, United States of America",
            "locType": "library",
            "blogLinks": [
                "http://www.calpoly.edu/visitors/visitors.html"
            ],
            "longitude": "-118.1674999"
        },
        "republic of california": {
            "latitude": "34.0562192",
            "closest_to": "",
            "address": "Republic Street, El Pueblo, Little Tokyo Historic District, LA, Los Angeles County, California, 90012, United States of America",
            "locType": "residential",
            "blogLinks": [
                "http://www.parks.ca.gov/?page_id=22722"
            ],
            "longitude": "-118.2397302"
        },
        "grand avenue": {
            "latitude": "34.10718",
            "closest_to": "",
            "address": "Grand Avenue, Yucca Valley, San Bernardino County, California, 92284, United States of America",
            "locType": "residential",
            "blogLinks": [
                "http://gocalifornia.about.com/od/topcalifornia/ss/Los-Angeles-to-San-Francisco-on-US-Hwy-101.htm"
            ],
            "longitude": "-116.4257794"
        },
        "ocean beach": {
            "latitude": "32.7477784",
            "closest_to": "",
            "address": "Ocean Beach, San Diego, San Diego County, California, United States of America",
            "locType": "region",
            "blogLinks": [
                "http://travelblog.viator.com/road-trip-san-francisco-los-angeles/"
            ],
            "longitude": "-117.249321"
        },
        "san juan capistrano": {
            "latitude": "33.5016932",
            "closest_to": "",
            "address": "San Juan Capistrano, Orange County, California, United States of America",
            "locType": "city",
            "blogLinks": [
                "http://www.parks.ca.gov/?page_id=22722"
            ],
            "longitude": "-117.6625508"
        },
        "pismo": {
            "latitude": "24.1378257",
            "closest_to": "",
            "address": "Pismo, La Paz, Baja California Sur, 23206, M\u00e9xico",
            "locType": "residential",
            "blogLinks": [
                "http://highway1discoveryroute.com/blog/",
                "https://www.tripadvisor.com/ShowTopic-g33026-i382-k3119562-Driving_from_San_Jose_to_SLO-San_Luis_Obispo_San_Luis_Obispo_County_California.html"
            ],
            "longitude": "-110.3437034"
        },
        "black hill": {
            "latitude": "34.1788953",
            "closest_to": "",
            "address": "Black Hill, San Bernardino County, California, United States of America",
            "locType": "peak",
            "blogLinks": [
                "https://www.gapyear.com/articles/216212/13-incredible-stops-on-the-pacific-coast-highway"
            ],
            "longitude": "-116.49196"
        },
        "mayberry": {
            "latitude": "34.0840814",
            "closest_to": "",
            "address": "Mayberry Street, Silver Lake, Angelino Heights, LA, Los Angeles County, California, 90026, United States of America",
            "locType": "residential",
            "blogLinks": [
                "http://gocalifornia.about.com/od/topcalifornia/ss/Los-Angeles-to-San-Francisco-on-US-Hwy-101.htm"
            ],
            "longitude": "-118.2638576"
        },
        "santa": {
            "latitude": "22.4804035",
            "closest_to": "",
            "address": "California, Santa Isabel de las Lajas, Cienfuegos, Cuba",
            "locType": "hamlet",
            "blogLinks": [
                "http://highway1discoveryroute.com/blog/"
            ],
            "longitude": "-80.3796642"
        },
        "greece": {
            "latitude": "43.222537",
            "closest_to": "",
            "address": "California Drive, Greece Town, Monroe County, New York, 14616, United States of America",
            "locType": "residential",
            "blogLinks": [
                "http://myfamilytravels.com/content/10507-road-trip-usa-pacific-coast-highway-san-francisco-los-angeles"
            ],
            "longitude": "-77.6362609"
        },
        "las vegas strip": {
            "latitude": "36.12050715",
            "closest_to": "",
            "address": "California Pizza Kitchen, South Las Vegas Boulevard, Hughes Center, Paradise, Clark County, Nevada, 89123, United States of America",
            "locType": "restaurant",
            "blogLinks": [
                "http://www.usatourist.com/english/destinations/california/california-driving-tour.html"
            ],
            "longitude": "-115.173775796208"
        },
        "east bay hills": {
            "latitude": "32.745575",
            "closest_to": "",
            "address": "California Street, Old Town, San Diego, San Diego County, California, 92110, United States of America",
            "locType": "residential",
            "blogLinks": [
                "http://www.calpoly.edu/visitors/visitors.html"
            ],
            "longitude": "-117.1854629"
        },
        "mojave desert": {
            "latitude": "35.1456319",
            "closest_to": "",
            "address": "Mojave Desert, Utility Road, San Bernardino County, California, United States of America",
            "locType": "desert",
            "blogLinks": [
                "http://www.usatourist.com/english/destinations/california/california-driving-tour.html"
            ],
            "longitude": "-115.548963686646"
        },
        "san diego river": {
            "latitude": "32.7686163",
            "closest_to": "",
            "address": "San Diego River, San Diego, San Diego County, California, United States of America",
            "locType": "river",
            "blogLinks": [
                "http://www.parks.ca.gov/?page_id=22722"
            ],
            "longitude": "-117.1585474"
        },
        "mission creek rd.": {
            "latitude": "33.329445",
            "closest_to": "",
            "address": "Mission Creek Road, Winterwarm, San Diego County, California, 92028, United States of America",
            "locType": "residential",
            "blogLinks": [
                "http://www.parks.ca.gov/?page_id=22722"
            ],
            "longitude": "-117.2382279"
        },
        "avila": {
            "latitude": "34.151876",
            "closest_to": "",
            "address": "Avila, Los Angeles County, California, 91750, United States of America",
            "locType": "residential",
            "blogLinks": [
                "http://highway1discoveryroute.com/blog/"
            ],
            "longitude": "-117.7559123"
        },
        "united kingdom": {
            "latitude": "52.4422729",
            "closest_to": "",
            "address": "California, Birmingham, West Midlands, England, UK",
            "locType": "village",
            "blogLinks": [
                "http://highway1discoveryroute.com/blog/"
            ],
            "longitude": "-1.9796882"
        },
        "baja california": {
            "latitude": "27.35789705",
            "closest_to": "",
            "address": "Pen\u00ednsula de Baja California, Muleg\u00e9, Baja California Sur, M\u00e9xico",
            "locType": "peninsula",
            "blogLinks": [
                "http://highway1discoveryroute.com/blog/"
            ],
            "longitude": "-113.380835042571"
        },
        "san luis": {
            "latitude": "32.4962137",
            "closest_to": "",
            "address": "California Street, Bienestar Estates, San Luis, Yuma County, Arizona, 85336, United States of America",
            "locType": "residential",
            "blogLinks": [
                "http://highway1discoveryroute.com/blog/",
                "http://gocalifornia.about.com/od/topcalifornia/ss/Los-Angeles-to-San-Francisco-on-US-Hwy-101.htm",
                "http://myfamilytravels.com/content/10507-road-trip-usa-pacific-coast-highway-san-francisco-los-angeles"
            ],
            "longitude": "-114.7643625"
        },
        "las virgenes east": {
            "latitude": "32.4444142",
            "closest_to": "",
            "address": "Las Virgenes, Fracc. Garcia, Tijuana, Baja California, 22125, M\u00e9xico",
            "locType": "residential",
            "blogLinks": [
                "http://gocalifornia.about.com/od/topcalifornia/ss/Los-Angeles-to-San-Francisco-on-US-Hwy-101.htm"
            ],
            "longitude": "-116.9273026"
        },
        "neptune": {
            "latitude": "33.7953668",
            "closest_to": "",
            "address": "Neptune, Palm Springs, Riverside County, California, 92264, United States of America",
            "locType": "residential",
            "blogLinks": [
                "http://www.trippy.com/Attractions/Hearst-Castle-San-Simeon-California"
            ],
            "longitude": "-116.5067839"
        },
        "boulder city": {
            "latitude": "35.974186",
            "closest_to": "",
            "address": "California Avenue, Boulder City, Clark County, Nevada, 89005, United States of America",
            "locType": "residential",
            "blogLinks": [
                "http://www.usatourist.com/english/destinations/california/california-driving-tour.html"
            ],
            "longitude": "-114.8341879"
        },
        "valencia": {
            "latitude": "34.1466768",
            "closest_to": "",
            "address": "Valencia, San Bernardino County, California, United States of America",
            "locType": "hamlet",
            "blogLinks": [
                "http://traveltips.usatoday.com/places-stop-way-disneyland-san-jose-california-109883.html"
            ],
            "longitude": "-117.2725426"
        },
        "morro bay strand": {
            "latitude": "33.255497",
            "closest_to": "",
            "address": "Morro Bay Street, Oceanside, San Diego County, California, 92057, United States of America",
            "locType": "residential",
            "blogLinks": [
                "http://highway1discoveryroute.com/blog/"
            ],
            "longitude": "-117.3174209"
        },
        "foothill boulevard": {
            "latitude": "32.809746",
            "closest_to": "",
            "address": "Foothill Boulevard, Pacific Beach, San Diego, San Diego County, California, 92109, United States of America",
            "locType": "secondary",
            "blogLinks": [
                "http://gocalifornia.about.com/od/topcalifornia/ss/Los-Angeles-to-San-Francisco-on-US-Hwy-101.htm"
            ],
            "longitude": "-117.2474369"
        },
        "new zealand": {
            "latitude": "-41.1069272",
            "closest_to": "",
            "address": "California Drive, Totara Park, Upper Hutt, Upper Hutt City, Wellington, 5371, New Zealand/Aotearoa",
            "locType": "tertiary",
            "blogLinks": [
                "http://www.trippy.com/question/California-Where-to-stay-half-way-between-S-F--and-L-A"
            ],
            "longitude": "175.0832904"
        },
        "la ventana": {
            "latitude": "24.0688002",
            "closest_to": "",
            "address": "La Ventana, La Paz, Baja California Sur, M\u00e9xico",
            "locType": "town",
            "blogLinks": [
                "https://www.tripadvisor.com/ShowTopic-g33026-i382-k3119562-Driving_from_San_Jose_to_SLO-San_Luis_Obispo_San_Luis_Obispo_County_California.html"
            ],
            "longitude": "-109.9911764"
        },
        "us hwy 101": {
            "latitude": "32.9967358",
            "closest_to": "",
            "address": "Highway 101, Solana Beach, San Diego County, California, 92075, United States of America",
            "locType": "primary",
            "blogLinks": [
                "http://gocalifornia.about.com/od/topcalifornia/ss/Los-Angeles-to-San-Francisco-on-US-Hwy-101.htm"
            ],
            "longitude": "-117.2731974"
        },
        "sedona": {
            "latitude": "33.6916439",
            "closest_to": "",
            "address": "Sedona, Foothill Ranch, Lake Forest, Orange County, California, 92610, United States of America",
            "locType": "residential",
            "blogLinks": [
                "http://www.usatourist.com/english/destinations/california/california-driving-tour.html"
            ],
            "longitude": "-117.6689202"
        },
        "st. anthony": {
            "latitude": "33.8449442",
            "closest_to": "",
            "address": "Saints (St Anthony) Stadium, Clark Avenue, Bixby Knolls, Long Beach, Los Angeles County, California, 90712, United States of America",
            "locType": "pitch",
            "blogLinks": [
                "http://www.parks.ca.gov/?page_id=22722"
            ],
            "longitude": "-118.132889673818"
        },
        "grand canyon": {
            "latitude": "33.9332326",
            "closest_to": "",
            "address": "Grand Canyon, Downtown Brea, Brea, Orange County, California, 92821, United States of America",
            "locType": "residential",
            "blogLinks": [
                "http://www.usatourist.com/english/destinations/california/california-driving-tour.html",
                "http://www.trippy.com/Attractions/Hearst-Castle-San-Simeon-California"
            ],
            "longitude": "-117.8915409"
        },
        "palomar": {
            "latitude": "23.48019285",
            "closest_to": "",
            "address": "Palomar, Calzada Maestros Misioneros de 1930, Santiago, Los Cabos, Baja California Sur, M\u00e9xico",
            "locType": "hotel",
            "blogLinks": [
                "https://www.gapyear.com/articles/216212/13-incredible-stops-on-the-pacific-coast-highway"
            ],
            "longitude": "-109.715262801301"
        },
        "oregon": {
            "latitude": "33.7123207",
            "closest_to": "",
            "address": "Oregon, Walnut, Irvine, Orange County, California, 92606, United States of America",
            "locType": "residential",
            "blogLinks": [
                "https://www.gapyear.com/articles/216212/13-incredible-stops-on-the-pacific-coast-highway"
            ],
            "longitude": "-117.7911567"
        },
        "coronado bridge": {
            "latitude": "32.6904606",
            "closest_to": "",
            "address": "San Diego-Coronado Bridge, San Diego, San Diego County, California, 92118, United States of America",
            "locType": "motorway",
            "blogLinks": [
                "https://www.gapyear.com/articles/216212/13-incredible-stops-on-the-pacific-coast-highway"
            ],
            "longitude": "-117.1524863"
        },
        "long beach": {
            "latitude": "33.78538945",
            "closest_to": "",
            "address": "Long Beach, Los Angeles County, California, United States of America",
            "locType": "city",
            "blogLinks": [
                "http://www.travbuddy.com/California-travel-guide-p85",
                "https://www.gapyear.com/articles/216212/13-incredible-stops-on-the-pacific-coast-highway"
            ],
            "longitude": "-118.158049215311"
        },
        "l.a.": {
            "latitude": "-13.8305494",
            "closest_to": "",
            "address": "California, Provincia Abel Iturralde, LPZ, Bolivia",
            "locType": "hamlet",
            "blogLinks": [
                "http://www.trippy.com/question/California-Where-to-stay-half-way-between-S-F--and-L-A",
                "http://www.trippy.com/Attractions/Hearst-Castle-San-Simeon-California"
            ],
            "longitude": "-67.9369134"
        },
        "disneyland": {
            "latitude": "33.8136367",
            "closest_to": "",
            "address": "DL, 1313, South Harbor Boulevard, Anaheim Resort District, Anaheim, Orange County, California, 92805, United States of America",
            "locType": "theme_park",
            "blogLinks": [
                "http://traveltips.usatoday.com/places-stop-way-disneyland-san-jose-california-109883.html"
            ],
            "longitude": "-117.91971186569"
        },
        "mission hills": {
            "latitude": "32.7528279",
            "closest_to": "",
            "address": "Mission Hills, San Diego County, California, United States of America",
            "locType": "hamlet",
            "blogLinks": [
                "http://www.parks.ca.gov/?page_id=22722"
            ],
            "longitude": "-117.1869788"
        },
        "naval air station": {
            "latitude": "32.701613",
            "closest_to": "",
            "address": "Naval Air Station North Island, F West Road, Coronado, San Diego County, California, 92135, United States of America",
            "locType": "military",
            "blogLinks": [
                "http://highway1discoveryroute.com/blog/",
                "http://gocalifornia.about.com/od/topcalifornia/ss/Los-Angeles-to-San-Francisco-on-US-Hwy-101.htm"
            ],
            "longitude": "-117.2043364"
        },
        "santa ines": {
            "latitude": "22.88332",
            "closest_to": "",
            "address": "Santa Ines, Cabo San Lucas, Los Cabos, Baja California Sur, 23543, M\u00e9xico",
            "locType": "residential",
            "blogLinks": [
                "http://www.parks.ca.gov/?page_id=22722"
            ],
            "longitude": "-109.9425933"
        },
        "san diego mission rd.": {
            "latitude": "32.784578",
            "closest_to": "",
            "address": "San Diego Mission Road, City Heights, San Diego, San Diego County, California, 92108, United States of America",
            "locType": "tertiary",
            "blogLinks": [
                "http://www.parks.ca.gov/?page_id=22722"
            ],
            "longitude": "-117.1091279"
        },
        "oceanside": {
            "latitude": "33.1958696",
            "closest_to": "",
            "address": "Oceanside, San Diego County, California, United States of America",
            "locType": "city",
            "blogLinks": [
                "http://www.parks.ca.gov/?page_id=22722"
            ],
            "longitude": "-117.3794833"
        },
        "colorado river": {
            "latitude": "33.58648635",
            "closest_to": "",
            "address": "Colorado River, Riviera Drive, East Blythe, Riverside County, California, 92225, United States of America",
            "locType": "water",
            "blogLinks": [
                "http://www.usatourist.com/english/destinations/california/california-driving-tour.html"
            ],
            "longitude": "-114.542164096234"
        },
        "pomeroy avenue": {
            "latitude": "34.0535263",
            "closest_to": "",
            "address": "Pomeroy Avenue, Brooklyn Heights, Boyle Heights, LA, Los Angeles County, California, 90033, United States of America",
            "locType": "residential",
            "blogLinks": [
                "http://gocalifornia.about.com/od/topcalifornia/ss/Los-Angeles-to-San-Francisco-on-US-Hwy-101.htm"
            ],
            "longitude": "-118.1987544"
        },
        "long beach museum of art": {
            "latitude": "33.76347985",
            "closest_to": "",
            "address": "Long Beach Museum of Art, East Ocean Boulevard, Belmont Shore, Long Beach, Los Angeles County, California, 90814, United States of America",
            "locType": "museum",
            "blogLinks": [
                "https://www.gapyear.com/articles/216212/13-incredible-stops-on-the-pacific-coast-highway"
            ],
            "longitude": "-118.164781543159"
        },
        "orange county": {
            "latitude": "33.7500378",
            "closest_to": "",
            "address": "Orange County, California, United States of America",
            "locType": "administrative",
            "blogLinks": [
                "http://www.travbuddy.com/California-travel-guide-p85"
            ],
            "longitude": "-117.870493"
        },
        "los angeles": {
            "latitude": "34.0543942",
            "closest_to": "",
            "address": "LA, Los Angeles County, California, United States of America",
            "locType": "city",
            "blogLinks": [
                "http://www.travbuddy.com/California-travel-guide-p85",
                "http://traveltips.usatoday.com/places-stop-way-disneyland-san-jose-california-109883.html",
                "http://www.trippy.com/Attractions/Hearst-Castle-San-Simeon-California",
                "https://www.gapyear.com/articles/216212/13-incredible-stops-on-the-pacific-coast-highway",
                "http://www.trippy.com/question/California-Where-to-stay-half-way-between-S-F--and-L-A",
                "http://www.parks.ca.gov/?page_id=22722",
                "http://travelblog.viator.com/road-trip-san-francisco-los-angeles/",
                "http://www.usatourist.com/english/destinations/california/california-driving-tour.html",
                "http://gocalifornia.about.com/od/topcalifornia/ss/Los-Angeles-to-San-Francisco-on-US-Hwy-101.htm",
                "http://highway1discoveryroute.com/blog/",
                "http://www.calpoly.edu/visitors/visitors.html",
                "http://myfamilytravels.com/content/10507-road-trip-usa-pacific-coast-highway-san-francisco-los-angeles"
            ],
            "longitude": "-118.2439408"
        },
        "argentina": {
            "latitude": "-31.451096",
            "closest_to": "",
            "address": "California, C\u00f3rdoba, Departamento Capital, Cba., Argentina",
            "locType": "administrative",
            "blogLinks": [
                "http://www.parks.ca.gov/?page_id=22722"
            ],
            "longitude": "-64.205523"
        },
        "las vegas nevada": {
            "latitude": "36.17310935",
            "closest_to": "",
            "address": "California Hotel, Sky Walk(Connection from Main Street to California, Cultural Corridor, Vegas Heights, Las Vegas, Clark County, Nevada, 89101, United States of America",
            "locType": "hotel",
            "blogLinks": [
                "http://www.usatourist.com/english/destinations/california/california-driving-tour.html"
            ],
            "longitude": "-115.144667930325"
        },
        "reservoir canyon": {
            "latitude": "34.1713689",
            "closest_to": "",
            "address": "Eaton Canyon Reservoir, Pasadena, Los Angeles County, California, 91107, United States of America",
            "locType": "reservoir",
            "blogLinks": [
                "http://www.sanluisobispo.com/news/local/article38974257.html"
            ],
            "longitude": "-118.094559623899"
        },
        "rodeo drive": {
            "latitude": "32.824444",
            "closest_to": "",
            "address": "Rodeo Drive, La Jolla, San Diego, San Diego County, California, 92037, United States of America",
            "locType": "residential",
            "blogLinks": [
                "https://www.gapyear.com/articles/216212/13-incredible-stops-on-the-pacific-coast-highway"
            ],
            "longitude": "-117.2609329"
        },
        "boston": {
            "latitude": "33.696779",
            "closest_to": "",
            "address": "Boston, Heritage Park Apartments, El Camino Real, Irvine, Orange County, California, 92604, United States of America",
            "locType": "residential",
            "blogLinks": [
                "http://highway1discoveryroute.com/blog/"
            ],
            "longitude": "-117.7757132"
        },
        "las virgenes": {
            "latitude": "32.4444142",
            "closest_to": "",
            "address": "Las Virgenes, Fracc. Garcia, Tijuana, Baja California, 22125, M\u00e9xico",
            "locType": "residential",
            "blogLinks": [
                "http://gocalifornia.about.com/od/topcalifornia/ss/Los-Angeles-to-San-Francisco-on-US-Hwy-101.htm"
            ],
            "longitude": "-116.9273026"
        },
        "monterey st.": {
            "latitude": "34.097787",
            "closest_to": "",
            "address": "Monterey Street, Mount Washington, Highland Park, LA, Los Angeles County, California, 90065, United States of America",
            "locType": "residential",
            "blogLinks": [
                "http://www.parks.ca.gov/?page_id=22722"
            ],
            "longitude": "-118.2146689"
        },
        "san diego": {
            "latitude": "32.7174209",
            "closest_to": "",
            "address": "San Diego, San Diego County, California, United States of America",
            "locType": "city",
            "blogLinks": [
                "http://www.travbuddy.com/California-travel-guide-p85",
                "http://www.trippy.com/Attractions/Hearst-Castle-San-Simeon-California",
                "https://www.gapyear.com/articles/216212/13-incredible-stops-on-the-pacific-coast-highway",
                "http://www.parks.ca.gov/?page_id=22722",
                "http://www.usatourist.com/english/destinations/california/california-driving-tour.html",
                "http://highway1discoveryroute.com/blog/",
                "http://myfamilytravels.com/content/10507-road-trip-usa-pacific-coast-highway-san-francisco-los-angeles"
            ],
            "longitude": "-117.1627713"
        },
        "santa clara de asis": {
            "latitude": "33.8802979",
            "closest_to": "",
            "address": "Santa Clara de Asis, 22005, Avenida de la Paz, Yorba Linda, Orange County, California, 92887, United States of America",
            "locType": "place_of_worship",
            "blogLinks": [
                "http://www.parks.ca.gov/?page_id=22722"
            ],
            "longitude": "-117.746951586583"
        },
        "us 101": {
            "latitude": "33.7456524",
            "closest_to": "",
            "address": "West 1st Street, Browning, Tustin, Orange County, California, 92780, United States of America",
            "locType": "secondary",
            "blogLinks": [
                "http://gocalifornia.about.com/od/topcalifornia/ss/Los-Angeles-to-San-Francisco-on-US-Hwy-101.htm"
            ],
            "longitude": "-117.823665"
        },
        "seattle": {
            "latitude": "41.9641881",
            "closest_to": "",
            "address": "Seattle, Dorris, Siskiyou County, California, 96023, United States of America",
            "locType": "residential",
            "blogLinks": [
                "http://www.trippy.com/Attractions/Hearst-Castle-San-Simeon-California"
            ],
            "longitude": "-121.9226289"
        },
        "england": {
            "latitude": "52.4422729",
            "closest_to": "",
            "address": "California, Birmingham, West Midlands, England, UK",
            "locType": "village",
            "blogLinks": [
                "http://myfamilytravels.com/content/10507-road-trip-usa-pacific-coast-highway-san-francisco-los-angeles"
            ],
            "longitude": "-1.9796882"
        },
        "cypress point": {
            "latitude": "33.5170137",
            "closest_to": "",
            "address": "Cypress Point, Temecula, Riverside County, California, United States of America",
            "locType": "administrative",
            "blogLinks": [
                "http://myfamilytravels.com/content/10507-road-trip-usa-pacific-coast-highway-san-francisco-los-angeles"
            ],
            "longitude": "-117.10695135087"
        },
        "las vegas": {
            "latitude": "36.17310935",
            "closest_to": "",
            "address": "California Hotel, Sky Walk(Connection from Main Street to California, Cultural Corridor, Vegas Heights, Las Vegas, Clark County, Nevada, 89101, United States of America",
            "locType": "hotel",
            "blogLinks": [
                "http://www.usatourist.com/english/destinations/california/california-driving-tour.html",
                "https://www.tripadvisor.com/ShowTopic-g33026-i382-k3119562-Driving_from_San_Jose_to_SLO-San_Luis_Obispo_San_Luis_Obispo_County_California.html",
                "http://www.parks.ca.gov/?page_id=22722",
                "http://gocalifornia.about.com/od/topcalifornia/ss/Los-Angeles-to-San-Francisco-on-US-Hwy-101.htm",
                "http://www.trippy.com/Attractions/Hearst-Castle-San-Simeon-California"
            ],
            "longitude": "-115.144667930325"
        },
        "big bear lake": {
            "latitude": "34.253293",
            "closest_to": "",
            "address": "Big Bear Lake, Lagunita Lane, Big Bear Lake, San Bernardino County, California, 92315, United States of America",
            "locType": "water",
            "blogLinks": [
                "http://www.travbuddy.com/California-travel-guide-p85"
            ],
            "longitude": "-116.932209587315"
        },
        "x98train town usa": {
            "latitude": "39.8123836",
            "closest_to": "",
            "address": "Irish Town, Butte County, California, United States of America",
            "locType": "hamlet",
            "blogLinks": [
                "http://highway1discoveryroute.com/blog/"
            ],
            "longitude": "-121.6258072"
        },
        "mecca": {
            "latitude": "33.5701568",
            "closest_to": "",
            "address": "Mecca, Riverside County, California, United States of America",
            "locType": "administrative",
            "blogLinks": [
                "http://myfamilytravels.com/content/10507-road-trip-usa-pacific-coast-highway-san-francisco-los-angeles"
            ],
            "longitude": "-116.0745416"
        },
        "hwy 101": {
            "latitude": "32.9967358",
            "closest_to": "",
            "address": "Highway 101, Solana Beach, San Diego County, California, 92075, United States of America",
            "locType": "primary",
            "blogLinks": [
                "http://gocalifornia.about.com/od/topcalifornia/ss/Los-Angeles-to-San-Francisco-on-US-Hwy-101.htm"
            ],
            "longitude": "-117.2731974"
        },
        "state street": {
            "latitude": "34.1572853",
            "closest_to": "",
            "address": "State Street, San Bernardino, San Bernardino County, California, 92407, United States of America",
            "locType": "secondary",
            "blogLinks": [
                "http://gocalifornia.about.com/od/topcalifornia/ss/Los-Angeles-to-San-Francisco-on-US-Hwy-101.htm"
            ],
            "longitude": "-117.3347322"
        },
        "needles": {
            "latitude": "34.8480597",
            "closest_to": "",
            "address": "Needles, San Bernardino County, California, United States of America",
            "locType": "city",
            "blogLinks": [
                "http://www.usatourist.com/english/destinations/california/california-driving-tour.html"
            ],
            "longitude": "-114.6141315"
        },
        "morro": {
            "latitude": "33.6503247",
            "closest_to": "",
            "address": "El Morro, Rancho Santa Margarita, Orange County, California, 92688, United States of America",
            "locType": "residential",
            "blogLinks": [
                "http://www.trippy.com/Attractions/Hearst-Castle-San-Simeon-California"
            ],
            "longitude": "-117.6212148"
        },
        "wrightwood": {
            "latitude": "34.3583535",
            "closest_to": "",
            "address": "Wrightwood, Ross Street, Wrightwood, San Bernardino County, California, 92397, United States of America",
            "locType": "administrative",
            "blogLinks": [
                "http://www.trippy.com/Attractions/Hearst-Castle-San-Simeon-California"
            ],
            "longitude": "-117.627599739034"
        },
        "rio rd.": {
            "latitude": "34.4960263",
            "closest_to": "",
            "address": "El Rio Road, Victorville, San Bernardino County, California, 92392, United States of America",
            "locType": "residential",
            "blogLinks": [
                "http://www.parks.ca.gov/?page_id=22722"
            ],
            "longitude": "-117.3317399"
        },
        "the edna valley": {
            "latitude": "33.8789058",
            "closest_to": "",
            "address": "Mount Edna, Menifee, Riverside County, California, United States of America",
            "locType": "peak",
            "blogLinks": [
                "http://highway1discoveryroute.com/blog/"
            ],
            "longitude": "-116.8814105"
        },
        "carlsbad": {
            "latitude": "33.1580933",
            "closest_to": "",
            "address": "Carlsbad, San Diego County, California, United States of America",
            "locType": "city",
            "blogLinks": [
                "http://www.travbuddy.com/California-travel-guide-p85",
                "http://www.trippy.com/Attractions/Hearst-Castle-San-Simeon-California"
            ],
            "longitude": "-117.3505938"
        },
        "monterrey": {
            "latitude": "32.5492861",
            "closest_to": "",
            "address": "Monterrey, Mexicali, Baja California, M\u00e9xico",
            "locType": "village",
            "blogLinks": [
                "http://www.parks.ca.gov/?page_id=22722"
            ],
            "longitude": "-115.0704122"
        },
        "moonstone drive": {
            "latitude": "34.078796",
            "closest_to": "",
            "address": "Moonstone Drive, Rose Hill, Highland Park, LA, Los Angeles County, California, 90032, United States of America",
            "locType": "residential",
            "blogLinks": [
                "http://highway1discoveryroute.com/blog/"
            ],
            "longitude": "-118.1949773"
        },
        "s.f.": {
            "latitude": "19.9908291",
            "closest_to": "",
            "address": "California, Bosque de Canalejas, Jilotepec, M\u00e9xico, 54270, M\u00e9xico",
            "locType": "residential",
            "blogLinks": [
                "http://www.trippy.com/question/California-Where-to-stay-half-way-between-S-F--and-L-A",
                "http://www.trippy.com/Attractions/Hearst-Castle-San-Simeon-California"
            ],
            "longitude": "-99.6183945"
        },
        "manhattan beach": {
            "latitude": "33.8950839",
            "closest_to": "",
            "address": "Manhattan Beach, Los Angeles County, California, United States of America",
            "locType": "city",
            "blogLinks": [
                "https://visitslo.com/"
            ],
            "longitude": "-118.4000146"
        },
        "death valley": {
            "latitude": "36.42404725",
            "closest_to": "",
            "address": "Death Valley, Timbisha, Inyo County, California, 92328, United States of America",
            "locType": "desert",
            "blogLinks": [
                "http://www.trippy.com/Attractions/Hearst-Castle-San-Simeon-California"
            ],
            "longitude": "-116.914043572057"
        },
        "ventura beach": {
            "latitude": "32.772073",
            "closest_to": "",
            "address": "Ventura Place, Pacific Beach, San Diego, San Diego County, California, 92109, United States of America",
            "locType": "unclassified",
            "blogLinks": [
                "https://www.gapyear.com/articles/216212/13-incredible-stops-on-the-pacific-coast-highway"
            ],
            "longitude": "-117.2514716"
        },
        "bordeaux": {
            "latitude": "33.565885",
            "closest_to": "",
            "address": "Bordeaux, Coto de Caza, Orange County, California, 92690, United States of America",
            "locType": "residential",
            "blogLinks": [
                "http://www.calpoly.edu/visitors/visitors.html"
            ],
            "longitude": "-117.5946383"
        },
        "kingman": {
            "latitude": "33.3508348",
            "closest_to": "",
            "address": "Kingman, 31422, Borrego Palm Canyon Road, San Diego County, California, United States of America",
            "locType": "camp_site",
            "blogLinks": [
                "http://www.usatourist.com/english/destinations/california/california-driving-tour.html"
            ],
            "longitude": "-116.5745266"
        },
        "malibu": {
            "latitude": "33.7932142",
            "closest_to": "",
            "address": "Malibu, Palm Springs, Riverside County, California, 92264, United States of America",
            "locType": "residential",
            "blogLinks": [
                "http://www.travbuddy.com/California-travel-guide-p85",
                "https://www.gapyear.com/articles/216212/13-incredible-stops-on-the-pacific-coast-highway",
                "http://gocalifornia.about.com/od/topcalifornia/ss/Los-Angeles-to-San-Francisco-on-US-Hwy-101.htm",
                "http://myfamilytravels.com/content/10507-road-trip-usa-pacific-coast-highway-san-francisco-los-angeles"
            ],
            "longitude": "-116.5023561"
        },
        "maine": {
            "latitude": "47.0692088",
            "closest_to": "",
            "address": "California, Aroostook County, Maine, United States of America",
            "locType": "hamlet",
            "blogLinks": [
                "http://traveltips.usatoday.com/places-stop-way-disneyland-san-jose-california-109883.html"
            ],
            "longitude": "-68.1058634"
        },
        "san gabriel": {
            "latitude": "34.0991325",
            "closest_to": "",
            "address": "San Gabriel, Los Angeles County, California, United States of America",
            "locType": "city",
            "blogLinks": [
                "http://www.parks.ca.gov/?page_id=22722"
            ],
            "longitude": "-118.108604"
        },
        "egypt": {
            "latitude": "37.2547835",
            "closest_to": "",
            "address": "Egypt Creek, Inyo County, California, United States of America",
            "locType": "stream",
            "blogLinks": [
                "http://myfamilytravels.com/content/10507-road-trip-usa-pacific-coast-highway-san-francisco-los-angeles"
            ],
            "longitude": "-118.544859"
        },
        "edna valley": {
            "latitude": "33.8789058",
            "closest_to": "",
            "address": "Mount Edna, Menifee, Riverside County, California, United States of America",
            "locType": "peak",
            "blogLinks": [
                "http://highway1discoveryroute.com/blog/",
                "http://www.calpoly.edu/visitors/visitors.html"
            ],
            "longitude": "-116.8814105"
        },
        "maui": {
            "latitude": "33.8117742",
            "closest_to": "",
            "address": "Maui, 1313, South Harbor Boulevard, Anaheim Resort District, Anaheim, Orange County, California, 217, United States of America",
            "locType": "artwork",
            "blogLinks": [
                "http://traveltips.usatoday.com/places-stop-way-disneyland-san-jose-california-109883.html"
            ],
            "longitude": "-117.9195069"
        },
        "coyote valley": {
            "latitude": "33.8958419",
            "closest_to": "",
            "address": "Coyote Creek, La Mirada, Los Angeles County, California, United States of America",
            "locType": "stream",
            "blogLinks": [
                "http://gocalifornia.about.com/od/topcalifornia/ss/Los-Angeles-to-San-Francisco-on-US-Hwy-101.htm"
            ],
            "longitude": "-117.9881711"
        },
        "montana": {
            "latitude": "37.413991",
            "closest_to": "",
            "address": "Montana, Rovana, Inyo County, California, United States of America",
            "locType": "residential",
            "blogLinks": [
                "http://highway1discoveryroute.com/blog/"
            ],
            "longitude": "-118.6129969"
        },
        "sunset boulevard": {
            "latitude": "34.0759222",
            "closest_to": "",
            "address": "Sunset Boulevard, Echo Park, Angelino Heights, LA, Los Angeles County, California, 90026, United States of America",
            "locType": "primary",
            "blogLinks": [
                "https://www.gapyear.com/articles/216212/13-incredible-stops-on-the-pacific-coast-highway"
            ],
            "longitude": "-118.2554183"
        },
        "denmark": {
            "latitude": "57.4379493",
            "closest_to": "",
            "address": "California, Lodsgade, Frederikshavn, Frederikshavn Kommune, Region Nordjylland, 9900, Danmark",
            "locType": "cafe",
            "blogLinks": [
                "http://gocalifornia.about.com/od/topcalifornia/ss/Los-Angeles-to-San-Francisco-on-US-Hwy-101.htm"
            ],
            "longitude": "10.5361043"
        },
        "st. louis": {
            "latitude": "39.6985046",
            "closest_to": "",
            "address": "Saint Louis, Sierra County, California, United States of America",
            "locType": "hamlet",
            "blogLinks": [
                "http://www.parks.ca.gov/?page_id=22722"
            ],
            "longitude": "-120.9249513"
        },
        "california": {
            "latitude": "7.3480915",
            "closest_to": "",
            "address": "California, Santander, Colombia",
            "locType": "village",
            "blogLinks": [
                "http://www.travbuddy.com/California-travel-guide-p85",
                "https://www.tripadvisor.com/ShowTopic-g33026-i382-k3119562-Driving_from_San_Jose_to_SLO-San_Luis_Obispo_San_Luis_Obispo_County_California.html",
                "http://traveltips.usatoday.com/places-stop-way-disneyland-san-jose-california-109883.html",
                "http://www.trippy.com/Attractions/Hearst-Castle-San-Simeon-California",
                "https://www.gapyear.com/articles/216212/13-incredible-stops-on-the-pacific-coast-highway",
                "http://www.trippy.com/question/California-Where-to-stay-half-way-between-S-F--and-L-A",
                "http://www.parks.ca.gov/?page_id=22722",
                "http://travelblog.viator.com/road-trip-san-francisco-los-angeles/",
                "http://www.sanluisobispo.com/news/local/article38974257.html",
                "http://www.usatourist.com/english/destinations/california/california-driving-tour.html",
                "http://gocalifornia.about.com/od/topcalifornia/ss/Los-Angeles-to-San-Francisco-on-US-Hwy-101.htm",
                "http://highway1discoveryroute.com/blog/",
                "http://www.calpoly.edu/visitors/visitors.html",
                "http://myfamilytravels.com/content/10507-road-trip-usa-pacific-coast-highway-san-francisco-los-angeles"
            ],
            "longitude": "-72.945787"
        },
        "pacific beach": {
            "latitude": "32.7978268",
            "closest_to": "",
            "address": "Pacific Beach, San Diego, San Diego County, California, United States of America",
            "locType": "suburb",
            "blogLinks": [
                "https://www.gapyear.com/articles/216212/13-incredible-stops-on-the-pacific-coast-highway"
            ],
            "longitude": "-117.2403182"
        },
        "bay": {
            "latitude": "33.6899249",
            "closest_to": "",
            "address": "Bay, Meadows Mobile Home Park, El Camino Real, Irvine, Orange County, California, 92406, United States of America",
            "locType": "service",
            "blogLinks": [
                "http://travelblog.viator.com/road-trip-san-francisco-los-angeles/"
            ],
            "longitude": "-117.7729354"
        },
        "mission beach": {
            "latitude": "32.7827144",
            "closest_to": "",
            "address": "Mission Beach, San Diego County, California, United States of America",
            "locType": "hamlet",
            "blogLinks": [
                "https://www.gapyear.com/articles/216212/13-incredible-stops-on-the-pacific-coast-highway"
            ],
            "longitude": "-117.2525056"
        },
        "palm springs": {
            "latitude": "33.8246269",
            "closest_to": "",
            "address": "Palm Springs, Riverside County, California, United States of America",
            "locType": "city",
            "blogLinks": [
                "http://www.usatourist.com/english/destinations/california/california-driving-tour.html"
            ],
            "longitude": "-116.5403029"
        },
        "laguna beach": {
            "latitude": "33.5420888",
            "closest_to": "",
            "address": "Laguna Beach, Orange County, California, United States of America",
            "locType": "city",
            "blogLinks": [
                "https://www.gapyear.com/articles/216212/13-incredible-stops-on-the-pacific-coast-highway"
            ],
            "longitude": "-117.7834146"
        },
        "south mission drive": {
            "latitude": "34.0857762",
            "closest_to": "",
            "address": "South Mission Drive, San Bernardino, San Bernardino County, California, 92410, United States of America",
            "locType": "residential",
            "blogLinks": [
                "http://www.parks.ca.gov/?page_id=22722"
            ],
            "longitude": "-117.3098581"
        },
        "italy": {
            "latitude": "45.659844",
            "closest_to": "",
            "address": "California, MB, LOM, Italia",
            "locType": "village",
            "blogLinks": [
                "http://myfamilytravels.com/content/10507-road-trip-usa-pacific-coast-highway-san-francisco-los-angeles"
            ],
            "longitude": "9.3130453"
        },
        "san diego bay": {
            "latitude": "32.6500534",
            "closest_to": "",
            "address": "San Diego Bay, Leyte Road, Crown Island, Coronado, San Diego County, California, 92118, United States of America",
            "locType": "bay",
            "blogLinks": [
                "https://www.gapyear.com/articles/216212/13-incredible-stops-on-the-pacific-coast-highway"
            ],
            "longitude": "-117.1341977"
        },
        "rome": {
            "latitude": "41.9628634",
            "closest_to": "",
            "address": "California, Via della Missione, Tivoli, Paterno, Tivoli, RM, LAZ, 00019, Italia",
            "locType": "pub",
            "blogLinks": [
                "http://www.parks.ca.gov/?page_id=22722"
            ],
            "longitude": "12.7977613"
        },
        "barstow": {
            "latitude": "34.8957684",
            "closest_to": "",
            "address": "Barstow, San Bernardino County, California, United States of America",
            "locType": "administrative",
            "blogLinks": [
                "http://www.travbuddy.com/California-travel-guide-p85",
                "http://www.usatourist.com/english/destinations/california/california-driving-tour.html"
            ],
            "longitude": "-117.0172076"
        }
    },
    "san jose": {
        "type": "city",
        "osm_id": "112143",
        "class": "place",
        "importance": 0.79127376502597,
        "lat": "37.3361905",
        "lon": "-121.8905832",
        "boundingbox": [
            "37.124503",
            "37.4692175",
            "-122.0456719",
            "-121.5891529"
        ],
        "display_name": "San Jos\u00e9, Santa Clara County, California, United States of America",
        "licence": "Data \u00a9 OpenStreetMap contributors, ODbL 1.0. http://www.openstreetmap.org/copyright",
        "icon": "https://nominatim.openstreetmap.org/images/mapicons/poi_place_city.p.20.png",
        "place_id": "159251412",
        "osm_type": "relation"
    },
    "san luis obispo": {
        "type": "city",
        "osm_id": "33111824",
        "class": "place",
        "importance": 0.87823218277902,
        "lat": "35.2827525",
        "lon": "-120.6596155",
        "boundingbox": [
            "35.233002",
            "35.31199",
            "-120.7229769",
            "-120.6177727"
        ],
        "display_name": "San Luis Obispo, San Luis Obispo County, California, United States of America",
        "licence": "Data \u00a9 OpenStreetMap contributors, ODbL 1.0. http://www.openstreetmap.org/copyright",
        "icon": "https://nominatim.openstreetmap.org/images/mapicons/poi_place_city.p.20.png",
        "place_id": "71485104",
        "osm_type": "way"
    }
}