{
    "mentions": {
        "highway 101": {
            "latitude": "32.9967358",
            "closest_to": "",
            "address": "Highway 101, Solana Beach, San Diego County, California, 92075, United States of America",
            "locType": "primary",
            "blogLinks": [
                "http://travelblog.viator.com/road-trip-san-francisco-los-angeles/",
                "http://traveltips.usatoday.com/places-stop-way-disneyland-san-jose-california-109883.html",
                "https://www.tripadvisor.com/ShowTopic-g33048-i271-k1382651-Drive_time_Santa_Cruz_to_San_Luis_Obispo-Santa_Cruz_California.html"
            ],
            "longitude": "-117.2731974"
        },
        "spain": {
            "latitude": "37.1412332",
            "closest_to": "",
            "address": "La California, Mor\u00f3n de la Frontera, Sevilla, Andaluc\u00eda, Espa\u00f1a",
            "locType": "locality",
            "blogLinks": [
                "http://myfamilytravels.com/content/10507-road-trip-usa-pacific-coast-highway-san-francisco-los-angeles"
            ],
            "longitude": "-5.4610806"
        },
        "creek valley": {
            "latitude": "39.3751013",
            "closest_to": "",
            "address": "Creek, Mendocino County, California, United States of America",
            "locType": "stream",
            "blogLinks": [
                "http://www.wineinstitute.org/consumerstories"
            ],
            "longitude": "-123.0482197"
        },
        "pacific coast highway": {
            "latitude": "33.6595127",
            "closest_to": "",
            "address": "Pacific Coast Highway, Huntington Beach, Orange County, California, 92648, United States of America",
            "locType": "primary",
            "blogLinks": [
                "https://www.gapyear.com/articles/216212/13-incredible-stops-on-the-pacific-coast-highway",
                "http://www.travbuddy.com/California-travel-guide-p85",
                "http://myfamilytravels.com/content/10507-road-trip-usa-pacific-coast-highway-san-francisco-los-angeles",
                "http://www.usatourist.com/english/destinations/california/california-driving-tour.html",
                "http://gocalifornia.about.com/cs/bigsur/a/highwayone.htm",
                "https://www.yelp.com/biz/pacific-coast-highway-carmel"
            ],
            "longitude": "-118.0051687"
        },
        "usa": {
            "latitude": "36.7014631",
            "closest_to": "",
            "address": "California, United States of America",
            "locType": "administrative",
            "blogLinks": [
                "http://myfamilytravels.com/content/10507-road-trip-usa-pacific-coast-highway-san-francisco-los-angeles",
                "http://www.usatourist.com/english/destinations/california/california-driving-tour.html"
            ],
            "longitude": "-118.7559973"
        },
        "arizona": {
            "latitude": "34.4631398",
            "closest_to": "",
            "address": "Arizona, San Bernardino County, California, 92371, United States of America",
            "locType": "track",
            "blogLinks": [
                "http://www.usatourist.com/english/destinations/california/california-driving-tour.html"
            ],
            "longitude": "-117.5060679"
        },
        "yreka": {
            "latitude": "41.7326157",
            "closest_to": "",
            "address": "Yreka, Siskiyou County, California, United States of America",
            "locType": "city",
            "blogLinks": [
                "https://www.yelp.com/biz/pacific-coast-highway-carmel"
            ],
            "longitude": "-122.6377654"
        },
        "vancouver": {
            "latitude": "34.824773",
            "closest_to": "",
            "address": "Vancouver, San Bernardino County, California, United States of America",
            "locType": "residential",
            "blogLinks": [
                "https://www.yelp.com/biz/pacific-coast-highway-carmel"
            ],
            "longitude": "-117.4634669"
        },
        "phoenix": {
            "latitude": "33.6988015",
            "closest_to": "",
            "address": "Phoenix, Heritage Park Apartments, El Camino Real, Irvine, Orange County, California, 92604, United States of America",
            "locType": "residential",
            "blogLinks": [
                "https://www.tripadvisor.com/ShowTopic-g33048-i271-k1382651-Drive_time_Santa_Cruz_to_San_Luis_Obispo-Santa_Cruz_California.html"
            ],
            "longitude": "-117.7764481"
        },
        "humboldt county": {
            "latitude": "40.5997415",
            "closest_to": "",
            "address": "Humboldt County, California, United States of America",
            "locType": "administrative",
            "blogLinks": [
                "http://www.travbuddy.com/California-travel-guide-p85"
            ],
            "longitude": "-123.8997733"
        },
        "huntington beach": {
            "latitude": "33.6783336",
            "closest_to": "",
            "address": "Huntington Beach, Orange County, California, United States of America",
            "locType": "city",
            "blogLinks": [
                "https://www.gapyear.com/articles/216212/13-incredible-stops-on-the-pacific-coast-highway",
                "https://www.yelp.com/biz/pacific-coast-highway-carmel"
            ],
            "longitude": "-118.0000165"
        },
        "el dorado county": {
            "latitude": "38.7574137",
            "closest_to": "",
            "address": "El Dorado County, California, United States of America",
            "locType": "administrative",
            "blogLinks": [
                "http://www.travbuddy.com/California-travel-guide-p85"
            ],
            "longitude": "-120.5276128"
        },
        "long beach": {
            "latitude": "33.78538945",
            "closest_to": "",
            "address": "Long Beach, Los Angeles County, California, United States of America",
            "locType": "city",
            "blogLinks": [
                "https://www.yelp.com/biz/pacific-coast-highway-carmel",
                "https://www.gapyear.com/articles/216212/13-incredible-stops-on-the-pacific-coast-highway",
                "http://www.travbuddy.com/California-travel-guide-p85"
            ],
            "longitude": "-118.158049215311"
        },
        "san diego county": {
            "latitude": "32.9637838",
            "closest_to": "",
            "address": "San Diego County, California, United States of America",
            "locType": "administrative",
            "blogLinks": [
                "https://www.gapyear.com/articles/216212/13-incredible-stops-on-the-pacific-coast-highway"
            ],
            "longitude": "-116.7706276"
        },
        "us": {
            "latitude": "36.7014631",
            "closest_to": "",
            "address": "California, United States of America",
            "locType": "administrative",
            "blogLinks": [
                "https://www.yelp.com/biz/pacific-coast-highway-carmel",
                "http://gocalifornia.about.com/cs/bigsur/a/highwayone.htm",
                "http://www.usatourist.com/english/destinations/california/california-driving-tour.html",
                "http://www.travbuddy.com/California-travel-guide-p85"
            ],
            "longitude": "-118.7559973"
        },
        "las angeles": {
            "latitude": "33.9995929",
            "closest_to": "",
            "address": "California, Obregon Street, West Whittier, Rosemead, Los Angeles County, California, 90606, United States of America",
            "locType": "abandoned",
            "blogLinks": [
                "http://www.travbuddy.com/California-travel-guide-p85"
            ],
            "longitude": "-118.0668337"
        },
        "florida": {
            "latitude": "29.8738433",
            "closest_to": "",
            "address": "California, Lanark Village, Franklin County, Florida, 32323, United States of America",
            "locType": "residential",
            "blogLinks": [
                "http://traveltips.usatoday.com/places-stop-way-disneyland-san-jose-california-109883.html",
                "https://www.yelp.com/biz/pacific-coast-highway-carmel"
            ],
            "longitude": "-84.6071504"
        },
        "mexico": {
            "latitude": "28.973",
            "closest_to": "",
            "address": "California, Hermosillo, Sonora, M\u00e9xico",
            "locType": "village",
            "blogLinks": [
                "https://www.yelp.com/biz/pacific-coast-highway-carmel"
            ],
            "longitude": "-111.8196666"
        },
        "santa monica": {
            "latitude": "34.0195598",
            "closest_to": "",
            "address": "Santa Monica, Los Angeles County, California, United States of America",
            "locType": "city",
            "blogLinks": [
                "http://travelblog.viator.com/road-trip-san-francisco-los-angeles/",
                "http://gocalifornia.about.com/cs/bigsur/a/highwayone.htm",
                "http://myfamilytravels.com/content/10507-road-trip-usa-pacific-coast-highway-san-francisco-los-angeles",
                "https://www.yelp.com/biz/pacific-coast-highway-carmel"
            ],
            "longitude": "-118.4869738"
        },
        "venice beach": {
            "latitude": "33.9862012",
            "closest_to": "",
            "address": "Venice Beach, Venice Beach Bike Path, Venice, LA, Los Angeles County, California, 90405, United States of America",
            "locType": "police",
            "blogLinks": [
                "http://myfamilytravels.com/content/10507-road-trip-usa-pacific-coast-highway-san-francisco-los-angeles"
            ],
            "longitude": "-118.4739815"
        },
        "pacific coast": {
            "latitude": "33.8047323",
            "closest_to": "",
            "address": "Pacific Coast, Florista Street, Los Alamitos, Orange County, California, 90720, United States of America",
            "locType": "yes",
            "blogLinks": [
                "http://www.usatourist.com/english/destinations/california/california-driving-tour.html",
                "https://www.yelp.com/biz/pacific-coast-highway-carmel"
            ],
            "longitude": "-118.063517668143"
        },
        "sunset boulevard": {
            "latitude": "34.0759222",
            "closest_to": "",
            "address": "Sunset Boulevard, Echo Park, Angelino Heights, LA, Los Angeles County, California, 90026, United States of America",
            "locType": "primary",
            "blogLinks": [
                "https://www.gapyear.com/articles/216212/13-incredible-stops-on-the-pacific-coast-highway"
            ],
            "longitude": "-118.2554183"
        },
        "central valley": {
            "latitude": "40.5626504",
            "closest_to": "",
            "address": "KNNN-FM (Central Valley), Rattlesnake Drive, Shasta County, California, 96001, United States of America",
            "locType": "tower",
            "blogLinks": [
                "http://traveltips.usatoday.com/places-stop-way-disneyland-san-jose-california-109883.html"
            ],
            "longitude": "-122.4530663"
        },
        "monterrey": {
            "latitude": "32.5492861",
            "closest_to": "",
            "address": "Monterrey, Mexicali, Baja California, M\u00e9xico",
            "locType": "village",
            "blogLinks": [
                "https://www.yelp.com/biz/pacific-coast-highway-carmel"
            ],
            "longitude": "-115.0704122"
        },
        "colorado river": {
            "latitude": "33.58648635",
            "closest_to": "",
            "address": "Colorado River, Riviera Drive, East Blythe, Riverside County, California, 92225, United States of America",
            "locType": "water",
            "blogLinks": [
                "http://www.usatourist.com/english/destinations/california/california-driving-tour.html"
            ],
            "longitude": "-114.542164096234"
        },
        "eureka": {
            "latitude": "40.8020712",
            "closest_to": "",
            "address": "Eureka, Humboldt County, California, United States of America",
            "locType": "city",
            "blogLinks": [
                "http://www.travbuddy.com/California-travel-guide-p85"
            ],
            "longitude": "-124.1636728"
        },
        "la jolla": {
            "latitude": "32.8472711",
            "closest_to": "",
            "address": "La Jolla, San Diego, San Diego County, California, United States of America",
            "locType": "suburb",
            "blogLinks": [
                "https://www.yelp.com/biz/pacific-coast-highway-carmel"
            ],
            "longitude": "-117.2742085"
        },
        "pacific": {
            "latitude": "38.7601815",
            "closest_to": "",
            "address": "Pacific, El Dorado County, California, United States of America",
            "locType": "hamlet",
            "blogLinks": [
                "http://www.travbuddy.com/California-travel-guide-p85",
                "http://travelblog.viator.com/road-trip-san-francisco-los-angeles/",
                "http://www.wineinstitute.org/consumerstories",
                "http://www.usatourist.com/english/destinations/california/california-driving-tour.html",
                "http://www.minitime.com/trip-tips/Iconic-California-Coastal-Road-Trip-from-LA-to-San-Francisco-article"
            ],
            "longitude": "-120.507146"
        },
        "encinitas": {
            "latitude": "33.0369867",
            "closest_to": "",
            "address": "Encinitas, San Diego County, California, United States of America",
            "locType": "city",
            "blogLinks": [
                "https://www.yelp.com/biz/pacific-coast-highway-carmel"
            ],
            "longitude": "-117.2919817"
        },
        "fourth street": {
            "latitude": "34.0456752",
            "closest_to": "",
            "address": "Fourth Street, Walnut Hills Mobile Home Park, Pomona, Los Angeles County, California, 91765, United States of America",
            "locType": "residential",
            "blogLinks": [
                "http://www.wineinstitute.org/consumerstories"
            ],
            "longitude": "-117.819163"
        },
        "southern california": {
            "latitude": "34.0224149",
            "closest_to": "",
            "address": "University of Southern California, Watt Way, Saint James Park, LA, Los Angeles County, California, 90089, United States of America",
            "locType": "university",
            "blogLinks": [
                "http://www.wineinstitute.org/consumerstories",
                "http://www.usatourist.com/english/destinations/california/california-driving-tour.html",
                "https://www.yelp.com/biz/pacific-coast-highway-carmel"
            ],
            "longitude": "-118.286343973446"
        },
        "los angeles county": {
            "latitude": "34.3155072",
            "closest_to": "",
            "address": "Los Angeles County, California, United States of America",
            "locType": "administrative",
            "blogLinks": [
                "http://www.travbuddy.com/California-travel-guide-p85"
            ],
            "longitude": "-118.2096813"
        },
        "newport beach": {
            "latitude": "33.6170092",
            "closest_to": "",
            "address": "Newport Beach, Orange County, California, United States of America",
            "locType": "city",
            "blogLinks": [
                "https://www.yelp.com/biz/pacific-coast-highway-carmel",
                "https://www.gapyear.com/articles/216212/13-incredible-stops-on-the-pacific-coast-highway",
                "http://www.travbuddy.com/California-travel-guide-p85"
            ],
            "longitude": "-117.92944"
        },
        "san clemente": {
            "latitude": "33.4270275",
            "closest_to": "",
            "address": "San Clemente, Orange County, California, United States of America",
            "locType": "city",
            "blogLinks": [
                "https://www.yelp.com/biz/pacific-coast-highway-carmel"
            ],
            "longitude": "-117.6124178"
        },
        "california-nevada": {
            "latitude": "36.17310935",
            "closest_to": "",
            "address": "California Hotel, Sky Walk(Connection from Main Street to California, Cultural Corridor, Vegas Heights, Las Vegas, Clark County, Nevada, 89101, United States of America",
            "locType": "hotel",
            "blogLinks": [
                "http://www.travbuddy.com/California-travel-guide-p85"
            ],
            "longitude": "-115.144667930325"
        },
        "south lake tahoe": {
            "latitude": "38.929125",
            "closest_to": "",
            "address": "South Lake Tahoe, El Dorado County, California, United States of America",
            "locType": "city",
            "blogLinks": [
                "http://www.travbuddy.com/California-travel-guide-p85"
            ],
            "longitude": "-119.987846390157"
        },
        "bel-air": {
            "latitude": "34.0827278",
            "closest_to": "",
            "address": "Bel Air, Westwood, LA, Los Angeles County, California, 90095, United States of America",
            "locType": "neighbourhood",
            "blogLinks": [
                "https://answers.yahoo.com/question/index?qid=20090220174433AALFycn"
            ],
            "longitude": "-118.4479801"
        },
        "oceanside": {
            "latitude": "33.1958696",
            "closest_to": "",
            "address": "Oceanside, San Diego County, California, United States of America",
            "locType": "city",
            "blogLinks": [
                "https://www.yelp.com/biz/pacific-coast-highway-carmel"
            ],
            "longitude": "-117.3794833"
        },
        "nevada": {
            "latitude": "39.3540335",
            "closest_to": "",
            "address": "Nevada County, California, United States of America",
            "locType": "administrative",
            "blogLinks": [
                "http://www.usatourist.com/english/destinations/california/california-driving-tour.html"
            ],
            "longitude": "-120.8089842"
        },
        "ocean beach": {
            "latitude": "32.7477784",
            "closest_to": "",
            "address": "Ocean Beach, San Diego, San Diego County, California, United States of America",
            "locType": "region",
            "blogLinks": [
                "http://travelblog.viator.com/road-trip-san-francisco-los-angeles/",
                "https://www.yelp.com/biz/pacific-coast-highway-carmel"
            ],
            "longitude": "-117.249321"
        },
        "san juan capistrano": {
            "latitude": "33.5016932",
            "closest_to": "",
            "address": "San Juan Capistrano, Orange County, California, United States of America",
            "locType": "city",
            "blogLinks": [
                "http://gocalifornia.about.com/cs/bigsur/a/highwayone.htm"
            ],
            "longitude": "-117.6625508"
        },
        "tijuana": {
            "latitude": "32.5008626",
            "closest_to": "",
            "address": "Tijuana, Baja California, M\u00e9xico",
            "locType": "city",
            "blogLinks": [
                "https://www.yelp.com/biz/pacific-coast-highway-carmel"
            ],
            "longitude": "-116.9641656"
        },
        "hollywood": {
            "latitude": "34.1028268",
            "closest_to": "",
            "address": "Hollywood, LA, Los Angeles County, California, United States of America",
            "locType": "suburb",
            "blogLinks": [
                "http://myfamilytravels.com/content/10507-road-trip-usa-pacific-coast-highway-san-francisco-los-angeles",
                "http://www.wineinstitute.org/consumerstories",
                "https://www.gapyear.com/articles/216212/13-incredible-stops-on-the-pacific-coast-highway",
                "http://www.usatourist.com/english/destinations/california/california-driving-tour.html",
                "http://www.travbuddy.com/California-travel-guide-p85"
            ],
            "longitude": "-118.3299898"
        },
        "third street promenade": {
            "latitude": "34.01632465",
            "closest_to": "",
            "address": "Third Street Promenade, Santa Monica, Los Angeles County, California, 90401, United States of America",
            "locType": "pedestrian",
            "blogLinks": [
                "http://www.wineinstitute.org/consumerstories"
            ],
            "longitude": "-118.496879184169"
        },
        "williams": {
            "latitude": "39.1546137",
            "closest_to": "",
            "address": "Williams, Colusa County, California, United States of America",
            "locType": "city",
            "blogLinks": [
                "http://www.usatourist.com/english/destinations/california/california-driving-tour.html"
            ],
            "longitude": "-122.1494186"
        },
        "pismo": {
            "latitude": "24.1378257",
            "closest_to": "",
            "address": "Pismo, La Paz, Baja California Sur, 23206, M\u00e9xico",
            "locType": "residential",
            "blogLinks": [
                "http://www.minitime.com/trip-tips/Iconic-California-Coastal-Road-Trip-from-LA-to-San-Francisco-article"
            ],
            "longitude": "-110.3437034"
        },
        "northern california": {
            "latitude": "32.7349196",
            "closest_to": "",
            "address": "Northern Frontier, San Diego, San Diego County, California, United States of America",
            "locType": "locality",
            "blogLinks": [
                "http://www.minitime.com/trip-tips/Iconic-California-Coastal-Road-Trip-from-LA-to-San-Francisco-article"
            ],
            "longitude": "-117.1545973"
        },
        "black hill": {
            "latitude": "34.1788953",
            "closest_to": "",
            "address": "Black Hill, San Bernardino County, California, United States of America",
            "locType": "peak",
            "blogLinks": [
                "https://www.gapyear.com/articles/216212/13-incredible-stops-on-the-pacific-coast-highway"
            ],
            "longitude": "-116.49196"
        },
        "state beach": {
            "latitude": "34.03385755",
            "closest_to": "",
            "address": "Malibu Lagoon State Beach, Pacific Coast Highway, Malibu, Los Angeles County, California, 90265, United States of America",
            "locType": "beach",
            "blogLinks": [
                "http://myfamilytravels.com/content/10507-road-trip-usa-pacific-coast-highway-san-francisco-los-angeles",
                "http://www.trippy.com/question/California-Where-to-stay-half-way-between-S-F--and-L-A"
            ],
            "longitude": "-118.679064060789"
        },
        "balboa island": {
            "latitude": "33.6064778",
            "closest_to": "",
            "address": "Balboa Island, Newport Beach, Orange County, California, United States of America",
            "locType": "suburb",
            "blogLinks": [
                "https://www.yelp.com/biz/pacific-coast-highway-carmel"
            ],
            "longitude": "-117.8920818"
        },
        "napa valley": {
            "latitude": "39.0234679",
            "closest_to": "",
            "address": "Napa Valley, Cold Spring, Campbell County, Kentucky, 41076, United States of America",
            "locType": "residential",
            "blogLinks": [
                "http://www.travbuddy.com/California-travel-guide-p85"
            ],
            "longitude": "-84.4504647"
        },
        "greece": {
            "latitude": "43.222537",
            "closest_to": "",
            "address": "California Drive, Greece Town, Monroe County, New York, 14616, United States of America",
            "locType": "residential",
            "blogLinks": [
                "http://myfamilytravels.com/content/10507-road-trip-usa-pacific-coast-highway-san-francisco-los-angeles"
            ],
            "longitude": "-77.6362609"
        },
        "west coast": {
            "latitude": "34.0222263",
            "closest_to": "",
            "address": "West Coast, Motor Avenue, Palms, LA, Los Angeles County, California, 90034-5702, United States of America",
            "locType": "plumber",
            "blogLinks": [
                "https://www.gapyear.com/articles/216212/13-incredible-stops-on-the-pacific-coast-highway",
                "http://www.trippy.com/question/California-What-are-the-must-see-stops-along-highway-1-between-San-Francisco-and-LA"
            ],
            "longitude": "-118.4051087"
        },
        "solana beach": {
            "latitude": "32.9905597",
            "closest_to": "",
            "address": "Solana Beach, San Diego County, California, United States of America",
            "locType": "city",
            "blogLinks": [
                "https://www.yelp.com/biz/pacific-coast-highway-carmel"
            ],
            "longitude": "-117.2691315"
        },
        "rockport": {
            "latitude": "39.7387659",
            "closest_to": "",
            "address": "Rockport, Mendocino County, California, United States of America",
            "locType": "hamlet",
            "blogLinks": [
                "http://gocalifornia.about.com/cs/bigsur/a/highwayone.htm"
            ],
            "longitude": "-123.8161312"
        },
        "tillamook": {
            "latitude": "32.728329",
            "closest_to": "",
            "address": "Tillamook Bay Drive, San Diego, San Diego County, California, 92114, United States of America",
            "locType": "residential",
            "blogLinks": [
                "https://www.yelp.com/biz/pacific-coast-highway-carmel"
            ],
            "longitude": "-117.0726319"
        },
        "san luis": {
            "latitude": "32.4962137",
            "closest_to": "",
            "address": "California Street, Bienestar Estates, San Luis, Yuma County, Arizona, 85336, United States of America",
            "locType": "residential",
            "blogLinks": [
                "http://myfamilytravels.com/content/10507-road-trip-usa-pacific-coast-highway-san-francisco-los-angeles"
            ],
            "longitude": "-114.7643625"
        },
        "redondo beach": {
            "latitude": "33.8455911",
            "closest_to": "",
            "address": "Redondo Beach, Los Angeles County, California, United States of America",
            "locType": "city",
            "blogLinks": [
                "https://www.yelp.com/biz/pacific-coast-highway-carmel"
            ],
            "longitude": "-118.3886765"
        },
        "italy": {
            "latitude": "45.659844",
            "closest_to": "",
            "address": "California, MB, LOM, Italia",
            "locType": "village",
            "blogLinks": [
                "http://myfamilytravels.com/content/10507-road-trip-usa-pacific-coast-highway-san-francisco-los-angeles"
            ],
            "longitude": "9.3130453"
        },
        "capistrano beach": {
            "latitude": "33.4625277",
            "closest_to": "",
            "address": "Capistrano Beach, Orange County, California, United States of America",
            "locType": "hamlet",
            "blogLinks": [
                "http://gocalifornia.about.com/cs/bigsur/a/highwayone.htm"
            ],
            "longitude": "-117.6717174"
        },
        "mojave desert": {
            "latitude": "35.1456319",
            "closest_to": "",
            "address": "Mojave Desert, Utility Road, San Bernardino County, California, United States of America",
            "locType": "desert",
            "blogLinks": [
                "http://www.usatourist.com/english/destinations/california/california-driving-tour.html"
            ],
            "longitude": "-115.548963686646"
        },
        "las vegas strip": {
            "latitude": "36.12050715",
            "closest_to": "",
            "address": "California Pizza Kitchen, South Las Vegas Boulevard, Hughes Center, Paradise, Clark County, Nevada, 89123, United States of America",
            "locType": "restaurant",
            "blogLinks": [
                "http://www.usatourist.com/english/destinations/california/california-driving-tour.html"
            ],
            "longitude": "-115.173775796208"
        },
        "boulder city": {
            "latitude": "35.974186",
            "closest_to": "",
            "address": "California Avenue, Boulder City, Clark County, Nevada, 89005, United States of America",
            "locType": "residential",
            "blogLinks": [
                "http://www.usatourist.com/english/destinations/california/california-driving-tour.html"
            ],
            "longitude": "-114.8341879"
        },
        "valencia": {
            "latitude": "34.1466768",
            "closest_to": "",
            "address": "Valencia, San Bernardino County, California, United States of America",
            "locType": "hamlet",
            "blogLinks": [
                "http://traveltips.usatoday.com/places-stop-way-disneyland-san-jose-california-109883.html"
            ],
            "longitude": "-117.2725426"
        },
        "kingman": {
            "latitude": "33.3508348",
            "closest_to": "",
            "address": "Kingman, 31422, Borrego Palm Canyon Road, San Diego County, California, United States of America",
            "locType": "camp_site",
            "blogLinks": [
                "http://www.usatourist.com/english/destinations/california/california-driving-tour.html"
            ],
            "longitude": "-116.5745266"
        },
        "la": {
            "latitude": "36.7014631",
            "closest_to": "",
            "address": "California, United States of America",
            "locType": "administrative",
            "blogLinks": [
                "https://www.yelp.com/biz/pacific-coast-highway-carmel",
                "http://www.trippy.com/question/California-Where-to-stay-half-way-between-S-F--and-L-A",
                "https://answers.yahoo.com/question/index?qid=20090220174433AALFycn",
                "http://www.travbuddy.com/California-travel-guide-p85",
                "http://myfamilytravels.com/content/10507-road-trip-usa-pacific-coast-highway-san-francisco-los-angeles",
                "http://www.trippy.com/question/California-What-are-the-must-see-stops-along-highway-1-between-San-Francisco-and-LA",
                "http://www.minitime.com/trip-tips/Iconic-California-Coastal-Road-Trip-from-LA-to-San-Francisco-article"
            ],
            "longitude": "-118.7559973"
        },
        "germany": {
            "latitude": "50.9590814",
            "closest_to": "",
            "address": "California, Lassallestra\u00dfe, M\u00fclheim, K\u00f6ln, Regierungsbezirk K\u00f6ln, Nordrhein-Westfalen, 50667-51149, Deutschland",
            "locType": "beauty",
            "blogLinks": [
                "https://www.tripadvisor.com/Tourism-g33026-San_Luis_Obispo_San_Luis_Obispo_County_California-Vacations.html"
            ],
            "longitude": "7.009217"
        },
        "new zealand": {
            "latitude": "-41.1069272",
            "closest_to": "",
            "address": "California Drive, Totara Park, Upper Hutt, Upper Hutt City, Wellington, 5371, New Zealand/Aotearoa",
            "locType": "tertiary",
            "blogLinks": [
                "http://www.trippy.com/question/California-Where-to-stay-half-way-between-S-F--and-L-A"
            ],
            "longitude": "175.0832904"
        },
        "us hwy 101": {
            "latitude": "32.9967358",
            "closest_to": "",
            "address": "Highway 101, Solana Beach, San Diego County, California, 92075, United States of America",
            "locType": "primary",
            "blogLinks": [
                "http://gocalifornia.about.com/cs/bigsur/a/highwayone.htm"
            ],
            "longitude": "-117.2731974"
        },
        "sedona": {
            "latitude": "33.6916439",
            "closest_to": "",
            "address": "Sedona, Foothill Ranch, Lake Forest, Orange County, California, 92610, United States of America",
            "locType": "residential",
            "blogLinks": [
                "http://www.usatourist.com/english/destinations/california/california-driving-tour.html"
            ],
            "longitude": "-117.6689202"
        },
        "united kingdom": {
            "latitude": "52.4422729",
            "closest_to": "",
            "address": "California, Birmingham, West Midlands, England, UK",
            "locType": "village",
            "blogLinks": [
                "http://travelblog.viator.com/road-trip-san-francisco-los-angeles/"
            ],
            "longitude": "-1.9796882"
        },
        "grand canyon": {
            "latitude": "33.9332326",
            "closest_to": "",
            "address": "Grand Canyon, Downtown Brea, Brea, Orange County, California, 92821, United States of America",
            "locType": "residential",
            "blogLinks": [
                "http://www.usatourist.com/english/destinations/california/california-driving-tour.html"
            ],
            "longitude": "-117.8915409"
        },
        "pacific avenue": {
            "latitude": "34.1571445",
            "closest_to": "",
            "address": "Pacific Avenue, Glendale, Los Angeles County, California, 91203, United States of America",
            "locType": "secondary",
            "blogLinks": [
                "https://www.gapyear.com/articles/216212/13-incredible-stops-on-the-pacific-coast-highway"
            ],
            "longitude": "-118.2641839"
        },
        "oregon": {
            "latitude": "33.7123207",
            "closest_to": "",
            "address": "Oregon, Walnut, Irvine, Orange County, California, 92606, United States of America",
            "locType": "residential",
            "blogLinks": [
                "https://www.gapyear.com/articles/216212/13-incredible-stops-on-the-pacific-coast-highway",
                "https://www.yelp.com/biz/pacific-coast-highway-carmel"
            ],
            "longitude": "-117.7911567"
        },
        "coronado bridge": {
            "latitude": "32.6904606",
            "closest_to": "",
            "address": "San Diego-Coronado Bridge, San Diego, San Diego County, California, 92118, United States of America",
            "locType": "motorway",
            "blogLinks": [
                "https://www.gapyear.com/articles/216212/13-incredible-stops-on-the-pacific-coast-highway"
            ],
            "longitude": "-117.1524863"
        },
        "yosemite": {
            "latitude": "37.7488554",
            "closest_to": "",
            "address": "Yosemite, Village Drive, Yosemite Village, Yosemite Valley, Mariposa County, California, United States of America",
            "locType": "attraction",
            "blogLinks": [
                "http://www.usatourist.com/english/destinations/california/california-driving-tour.html"
            ],
            "longitude": "-119.5893389"
        },
        "l.a.": {
            "latitude": "-13.8305494",
            "closest_to": "",
            "address": "California, Provincia Abel Iturralde, LPZ, Bolivia",
            "locType": "hamlet",
            "blogLinks": [
                "https://www.tripadvisor.com/Tourism-g33026-San_Luis_Obispo_San_Luis_Obispo_County_California-Vacations.html",
                "http://www.trippy.com/question/California-Where-to-stay-half-way-between-S-F--and-L-A",
                "https://www.yelp.com/biz/pacific-coast-highway-carmel"
            ],
            "longitude": "-67.9369134"
        },
        "disneyland": {
            "latitude": "33.8136367",
            "closest_to": "",
            "address": "DL, 1313, South Harbor Boulevard, Anaheim Resort District, Anaheim, Orange County, California, 92805, United States of America",
            "locType": "theme_park",
            "blogLinks": [
                "http://traveltips.usatoday.com/places-stop-way-disneyland-san-jose-california-109883.html",
                "http://www.travbuddy.com/California-travel-guide-p85"
            ],
            "longitude": "-117.91971186569"
        },
        "canada": {
            "latitude": "33.7298842",
            "closest_to": "",
            "address": "La Canada, Lower Peters Canyon, Irvine, Orange County, California, 92602, United States of America",
            "locType": "residential",
            "blogLinks": [
                "https://www.yelp.com/biz/pacific-coast-highway-carmel"
            ],
            "longitude": "-117.7641381"
        },
        "santa monica pier": {
            "latitude": "34.0104809",
            "closest_to": "",
            "address": "Santa Monica Pier, Santa Monica, Los Angeles County, California, CA 90401, United States of America",
            "locType": "service",
            "blogLinks": [
                "http://myfamilytravels.com/content/10507-road-trip-usa-pacific-coast-highway-san-francisco-los-angeles",
                "http://www.wineinstitute.org/consumerstories",
                "https://www.gapyear.com/articles/216212/13-incredible-stops-on-the-pacific-coast-highway"
            ],
            "longitude": "-118.4960541"
        },
        "mendocino": {
            "latitude": "39.3176491",
            "closest_to": "",
            "address": "Mendocino County, California, United States of America",
            "locType": "administrative",
            "blogLinks": [
                "http://gocalifornia.about.com/cs/bigsur/a/highwayone.htm",
                "http://www.wineinstitute.org/consumerstories"
            ],
            "longitude": "-123.4126398"
        },
        "long beach museum of art": {
            "latitude": "33.76347985",
            "closest_to": "",
            "address": "Long Beach Museum of Art, East Ocean Boulevard, Belmont Shore, Long Beach, Los Angeles County, California, 90814, United States of America",
            "locType": "museum",
            "blogLinks": [
                "https://www.gapyear.com/articles/216212/13-incredible-stops-on-the-pacific-coast-highway"
            ],
            "longitude": "-118.164781543159"
        },
        "rodeo drive": {
            "latitude": "32.824444",
            "closest_to": "",
            "address": "Rodeo Drive, La Jolla, San Diego, San Diego County, California, 92037, United States of America",
            "locType": "residential",
            "blogLinks": [
                "https://www.gapyear.com/articles/216212/13-incredible-stops-on-the-pacific-coast-highway"
            ],
            "longitude": "-117.2609329"
        },
        "los angeles": {
            "latitude": "34.0543942",
            "closest_to": "",
            "address": "LA, Los Angeles County, California, United States of America",
            "locType": "city",
            "blogLinks": [
                "http://www.trippy.com/question/California-Where-to-stay-half-way-between-S-F--and-L-A",
                "https://www.gapyear.com/articles/216212/13-incredible-stops-on-the-pacific-coast-highway",
                "https://answers.yahoo.com/question/index?qid=20090220174433AALFycn",
                "http://www.travbuddy.com/California-travel-guide-p85",
                "http://travelblog.viator.com/road-trip-san-francisco-los-angeles/",
                "http://myfamilytravels.com/content/10507-road-trip-usa-pacific-coast-highway-san-francisco-los-angeles",
                "http://www.usatourist.com/english/destinations/california/california-driving-tour.html",
                "https://www.tripadvisor.com/Tourism-g33026-San_Luis_Obispo_San_Luis_Obispo_County_California-Vacations.html",
                "http://traveltips.usatoday.com/places-stop-way-disneyland-san-jose-california-109883.html",
                "http://gocalifornia.about.com/cs/bigsur/a/highwayone.htm",
                "http://www.wineinstitute.org/consumerstories",
                "http://www.minitime.com/trip-tips/Iconic-California-Coastal-Road-Trip-from-LA-to-San-Francisco-article"
            ],
            "longitude": "-118.2439408"
        },
        "old encinitas": {
            "latitude": "33.0369867",
            "closest_to": "",
            "address": "Encinitas, San Diego County, California, United States of America",
            "locType": "city",
            "blogLinks": [
                "https://www.yelp.com/biz/pacific-coast-highway-carmel"
            ],
            "longitude": "-117.2919817"
        },
        "gaslamp quarter": {
            "latitude": "32.7109444",
            "closest_to": "",
            "address": "Gaslamp Quarter, San Diego County, California, United States of America",
            "locType": "hamlet",
            "blogLinks": [
                "http://www.wineinstitute.org/consumerstories"
            ],
            "longitude": "-117.1597028"
        },
        "orange county": {
            "latitude": "33.7500378",
            "closest_to": "",
            "address": "Orange County, California, United States of America",
            "locType": "administrative",
            "blogLinks": [
                "https://www.yelp.com/biz/pacific-coast-highway-carmel",
                "http://gocalifornia.about.com/cs/bigsur/a/highwayone.htm",
                "http://www.travbuddy.com/California-travel-guide-p85"
            ],
            "longitude": "-117.870493"
        },
        "marina del rey": {
            "latitude": "33.9774017",
            "closest_to": "",
            "address": "Marina del Rey, Ocean Park, Los Angeles County, California, United States of America",
            "locType": "suburb",
            "blogLinks": [
                "http://myfamilytravels.com/content/10507-road-trip-usa-pacific-coast-highway-san-francisco-los-angeles"
            ],
            "longitude": "-118.4508017"
        },
        "laguna beach": {
            "latitude": "33.5420888",
            "closest_to": "",
            "address": "Laguna Beach, Orange County, California, United States of America",
            "locType": "city",
            "blogLinks": [
                "https://www.gapyear.com/articles/216212/13-incredible-stops-on-the-pacific-coast-highway",
                "https://www.yelp.com/biz/pacific-coast-highway-carmel"
            ],
            "longitude": "-117.7834146"
        },
        "san diego": {
            "latitude": "32.7174209",
            "closest_to": "",
            "address": "San Diego, San Diego County, California, United States of America",
            "locType": "city",
            "blogLinks": [
                "https://www.gapyear.com/articles/216212/13-incredible-stops-on-the-pacific-coast-highway",
                "http://www.travbuddy.com/California-travel-guide-p85",
                "http://myfamilytravels.com/content/10507-road-trip-usa-pacific-coast-highway-san-francisco-los-angeles",
                "http://www.usatourist.com/english/destinations/california/california-driving-tour.html",
                "http://www.trippy.com/question/California-What-are-the-must-see-stops-along-highway-1-between-San-Francisco-and-LA",
                "https://www.yelp.com/biz/pacific-coast-highway-carmel"
            ],
            "longitude": "-117.1627713"
        },
        "pacific beach": {
            "latitude": "32.7978268",
            "closest_to": "",
            "address": "Pacific Beach, San Diego, San Diego County, California, United States of America",
            "locType": "suburb",
            "blogLinks": [
                "https://www.gapyear.com/articles/216212/13-incredible-stops-on-the-pacific-coast-highway"
            ],
            "longitude": "-117.2403182"
        },
        "whistler": {
            "latitude": "34.3090058",
            "closest_to": "",
            "address": "Whistler Avenue, LA, Los Angeles County, California, 91344, United States of America",
            "locType": "residential",
            "blogLinks": [
                "https://www.yelp.com/biz/pacific-coast-highway-carmel"
            ],
            "longitude": "-118.5053852"
        },
        "england": {
            "latitude": "52.4422729",
            "closest_to": "",
            "address": "California, Birmingham, West Midlands, England, UK",
            "locType": "village",
            "blogLinks": [
                "http://myfamilytravels.com/content/10507-road-trip-usa-pacific-coast-highway-san-francisco-los-angeles"
            ],
            "longitude": "-1.9796882"
        },
        "cypress point": {
            "latitude": "33.5170137",
            "closest_to": "",
            "address": "Cypress Point, Temecula, Riverside County, California, United States of America",
            "locType": "administrative",
            "blogLinks": [
                "http://myfamilytravels.com/content/10507-road-trip-usa-pacific-coast-highway-san-francisco-los-angeles"
            ],
            "longitude": "-117.10695135087"
        },
        "las vegas": {
            "latitude": "36.17310935",
            "closest_to": "",
            "address": "California Hotel, Sky Walk(Connection from Main Street to California, Cultural Corridor, Vegas Heights, Las Vegas, Clark County, Nevada, 89101, United States of America",
            "locType": "hotel",
            "blogLinks": [
                "http://myfamilytravels.com/content/10507-road-trip-usa-pacific-coast-highway-san-francisco-los-angeles",
                "http://www.usatourist.com/english/destinations/california/california-driving-tour.html"
            ],
            "longitude": "-115.144667930325"
        },
        "big bear lake": {
            "latitude": "34.253293",
            "closest_to": "",
            "address": "Big Bear Lake, Lagunita Lane, Big Bear Lake, San Bernardino County, California, 92315, United States of America",
            "locType": "water",
            "blogLinks": [
                "http://www.travbuddy.com/California-travel-guide-p85"
            ],
            "longitude": "-116.932209587315"
        },
        "shamel park": {
            "latitude": "33.9455711",
            "closest_to": "",
            "address": "Shamel Park, Arlington Avenue, Riverside, Riverside County, California, 92505:92506, United States of America",
            "locType": "park",
            "blogLinks": [
                "http://myfamilytravels.com/content/10507-road-trip-usa-pacific-coast-highway-san-francisco-los-angeles"
            ],
            "longitude": "-117.3939339"
        },
        "mecca": {
            "latitude": "33.5701568",
            "closest_to": "",
            "address": "Mecca, Riverside County, California, United States of America",
            "locType": "administrative",
            "blogLinks": [
                "http://myfamilytravels.com/content/10507-road-trip-usa-pacific-coast-highway-san-francisco-los-angeles"
            ],
            "longitude": "-116.0745416"
        },
        "hwy 101": {
            "latitude": "32.9967358",
            "closest_to": "",
            "address": "Highway 101, Solana Beach, San Diego County, California, 92075, United States of America",
            "locType": "primary",
            "blogLinks": [
                "https://www.tripadvisor.com/ShowTopic-g33048-i271-k1382651-Drive_time_Santa_Cruz_to_San_Luis_Obispo-Santa_Cruz_California.html"
            ],
            "longitude": "-117.2731974"
        },
        "jacksonville": {
            "latitude": "30.254267",
            "closest_to": "",
            "address": "California Avenue, Jacksonville, Duval County, Florida, 32210, United States of America",
            "locType": "residential",
            "blogLinks": [
                "https://www.yelp.com/biz/pacific-coast-highway-carmel"
            ],
            "longitude": "-81.7838589"
        },
        "state street": {
            "latitude": "34.1572853",
            "closest_to": "",
            "address": "State Street, San Bernardino, San Bernardino County, California, 92407, United States of America",
            "locType": "secondary",
            "blogLinks": [
                "http://www.minitime.com/trip-tips/Iconic-California-Coastal-Road-Trip-from-LA-to-San-Francisco-article"
            ],
            "longitude": "-117.3347322"
        },
        "needles": {
            "latitude": "34.8480597",
            "closest_to": "",
            "address": "Needles, San Bernardino County, California, United States of America",
            "locType": "city",
            "blogLinks": [
                "http://www.usatourist.com/english/destinations/california/california-driving-tour.html"
            ],
            "longitude": "-114.6141315"
        },
        "seal beach": {
            "latitude": "33.741176",
            "closest_to": "",
            "address": "Seal Beach, Orange County, California, United States of America",
            "locType": "city",
            "blogLinks": [
                "https://www.yelp.com/biz/pacific-coast-highway-carmel"
            ],
            "longitude": "-118.1046355"
        },
        "las vegas nevada": {
            "latitude": "36.17310935",
            "closest_to": "",
            "address": "California Hotel, Sky Walk(Connection from Main Street to California, Cultural Corridor, Vegas Heights, Las Vegas, Clark County, Nevada, 89101, United States of America",
            "locType": "hotel",
            "blogLinks": [
                "http://www.usatourist.com/english/destinations/california/california-driving-tour.html"
            ],
            "longitude": "-115.144667930325"
        },
        "torrey pines road": {
            "latitude": "32.8491824",
            "closest_to": "",
            "address": "Torrey Pines Road, La Jolla, San Diego, San Diego County, California, 92037, United States of America",
            "locType": "secondary",
            "blogLinks": [
                "https://www.yelp.com/biz/pacific-coast-highway-carmel"
            ],
            "longitude": "-117.2620194"
        },
        "carlsbad": {
            "latitude": "33.1580933",
            "closest_to": "",
            "address": "Carlsbad, San Diego County, California, United States of America",
            "locType": "city",
            "blogLinks": [
                "https://www.yelp.com/biz/pacific-coast-highway-carmel",
                "http://www.travbuddy.com/California-travel-guide-p85"
            ],
            "longitude": "-117.3505938"
        },
        "united states": {
            "latitude": "36.7014631",
            "closest_to": "",
            "address": "California, United States of America",
            "locType": "administrative",
            "blogLinks": [
                "https://www.tripadvisor.com/Tourism-g33026-San_Luis_Obispo_San_Luis_Obispo_County_California-Vacations.html"
            ],
            "longitude": "-118.7559973"
        },
        "s.f.": {
            "latitude": "19.9908291",
            "closest_to": "",
            "address": "California, Bosque de Canalejas, Jilotepec, M\u00e9xico, 54270, M\u00e9xico",
            "locType": "residential",
            "blogLinks": [
                "http://www.trippy.com/question/California-Where-to-stay-half-way-between-S-F--and-L-A"
            ],
            "longitude": "-99.6183945"
        },
        "cape horn": {
            "latitude": "39.1354565",
            "closest_to": "",
            "address": "Cape Horn, Mendocino County, California, United States of America",
            "locType": "hamlet",
            "blogLinks": [
                "http://myfamilytravels.com/content/10507-road-trip-usa-pacific-coast-highway-san-francisco-los-angeles"
            ],
            "longitude": "-123.6352912"
        },
        "ocean": {
            "latitude": "33.9157306",
            "closest_to": "",
            "address": "Ocean, Hawthorne, Los Angeles County, California, 90261, United States of America",
            "locType": "residential",
            "blogLinks": [
                "http://www.trippy.com/question/California-What-are-the-must-see-stops-along-highway-1-between-San-Francisco-and-LA"
            ],
            "longitude": "-118.3763704"
        },
        "manhattan beach": {
            "latitude": "33.8950839",
            "closest_to": "",
            "address": "Manhattan Beach, Los Angeles County, California, United States of America",
            "locType": "city",
            "blogLinks": [
                "http://gocalifornia.about.com/cs/bigsur/a/highwayone.htm",
                "https://www.yelp.com/biz/pacific-coast-highway-carmel"
            ],
            "longitude": "-118.4000146"
        },
        "maui": {
            "latitude": "33.8117742",
            "closest_to": "",
            "address": "Maui, 1313, South Harbor Boulevard, Anaheim Resort District, Anaheim, Orange County, California, 217, United States of America",
            "locType": "artwork",
            "blogLinks": [
                "http://traveltips.usatoday.com/places-stop-way-disneyland-san-jose-california-109883.html"
            ],
            "longitude": "-117.9195069"
        },
        "ventura beach": {
            "latitude": "32.772073",
            "closest_to": "",
            "address": "Ventura Place, Pacific Beach, San Diego, San Diego County, California, 92109, United States of America",
            "locType": "unclassified",
            "blogLinks": [
                "https://www.gapyear.com/articles/216212/13-incredible-stops-on-the-pacific-coast-highway"
            ],
            "longitude": "-117.2514716"
        },
        "cardiff": {
            "latitude": "33.6883363",
            "closest_to": "",
            "address": "Cardiff, Westpark, Irvine, Orange County, California, 92606, United States of America",
            "locType": "residential",
            "blogLinks": [
                "https://www.yelp.com/biz/pacific-coast-highway-carmel"
            ],
            "longitude": "-117.806356451668"
        },
        "barstow": {
            "latitude": "34.8957684",
            "closest_to": "",
            "address": "Barstow, San Bernardino County, California, United States of America",
            "locType": "administrative",
            "blogLinks": [
                "http://www.usatourist.com/english/destinations/california/california-driving-tour.html",
                "http://www.travbuddy.com/California-travel-guide-p85"
            ],
            "longitude": "-117.0172076"
        },
        "yosemite national park": {
            "latitude": "37.84054795",
            "closest_to": "",
            "address": "Yosemite National Park, Mt. Hoffmann Trail, Mariposa County, California, United States of America",
            "locType": "national_park",
            "blogLinks": [
                "http://www.travbuddy.com/California-travel-guide-p85"
            ],
            "longitude": "-119.516587698025"
        },
        "beverly hills": {
            "latitude": "34.0736204",
            "closest_to": "",
            "address": "Beverly Hills, Los Angeles County, California, United States of America",
            "locType": "city",
            "blogLinks": [
                "http://www.usatourist.com/english/destinations/california/california-driving-tour.html",
                "http://www.travbuddy.com/California-travel-guide-p85"
            ],
            "longitude": "-118.4003562"
        },
        "malibu": {
            "latitude": "33.7932142",
            "closest_to": "",
            "address": "Malibu, Palm Springs, Riverside County, California, 92264, United States of America",
            "locType": "residential",
            "blogLinks": [
                "https://www.gapyear.com/articles/216212/13-incredible-stops-on-the-pacific-coast-highway",
                "https://answers.yahoo.com/question/index?qid=20090220174433AALFycn",
                "http://www.travbuddy.com/California-travel-guide-p85",
                "http://myfamilytravels.com/content/10507-road-trip-usa-pacific-coast-highway-san-francisco-los-angeles",
                "http://gocalifornia.about.com/cs/bigsur/a/highwayone.htm",
                "https://www.yelp.com/biz/pacific-coast-highway-carmel"
            ],
            "longitude": "-116.5023561"
        },
        "maine": {
            "latitude": "47.0692088",
            "closest_to": "",
            "address": "California, Aroostook County, Maine, United States of America",
            "locType": "hamlet",
            "blogLinks": [
                "http://traveltips.usatoday.com/places-stop-way-disneyland-san-jose-california-109883.html"
            ],
            "longitude": "-68.1058634"
        },
        "burbank": {
            "latitude": "34.1816482",
            "closest_to": "",
            "address": "Burbank, Los Angeles County, California, United States of America",
            "locType": "city",
            "blogLinks": [
                "http://www.travbuddy.com/California-travel-guide-p85"
            ],
            "longitude": "-118.3258553"
        },
        "egypt": {
            "latitude": "37.2547835",
            "closest_to": "",
            "address": "Egypt Creek, Inyo County, California, United States of America",
            "locType": "stream",
            "blogLinks": [
                "http://myfamilytravels.com/content/10507-road-trip-usa-pacific-coast-highway-san-francisco-los-angeles"
            ],
            "longitude": "-118.544859"
        },
        "san fernando valley": {
            "latitude": "34.2819461",
            "closest_to": "",
            "address": "San Fernando, Los Angeles County, California, United States of America",
            "locType": "administrative",
            "blogLinks": [
                "https://www.gapyear.com/articles/216212/13-incredible-stops-on-the-pacific-coast-highway",
                "https://answers.yahoo.com/question/index?qid=20090220174433AALFycn"
            ],
            "longitude": "-118.4389718"
        },
        "south rim": {
            "latitude": "39.0214541",
            "closest_to": "",
            "address": "Rim, Plumas Lake, Yuba County, California, United States of America",
            "locType": "residential",
            "blogLinks": [
                "http://www.usatourist.com/english/destinations/california/california-driving-tour.html"
            ],
            "longitude": "-121.5548741"
        },
        "palomar": {
            "latitude": "23.48019285",
            "closest_to": "",
            "address": "Palomar, Calzada Maestros Misioneros de 1930, Santiago, Los Cabos, Baja California Sur, M\u00e9xico",
            "locType": "hotel",
            "blogLinks": [
                "https://www.gapyear.com/articles/216212/13-incredible-stops-on-the-pacific-coast-highway"
            ],
            "longitude": "-109.715262801301"
        },
        "temecula": {
            "latitude": "33.4946353",
            "closest_to": "",
            "address": "Temecula, Riverside County, California, United States of America",
            "locType": "city",
            "blogLinks": [
                "http://traveltips.usatoday.com/places-stop-way-disneyland-san-jose-california-109883.html"
            ],
            "longitude": "-117.147366"
        },
        "california": {
            "latitude": "7.3480915",
            "closest_to": "",
            "address": "California, Santander, Colombia",
            "locType": "village",
            "blogLinks": [
                "https://www.viamagazine.com/destinations/san-luis-obispo",
                "http://www.trippy.com/question/California-Where-to-stay-half-way-between-S-F--and-L-A",
                "https://www.gapyear.com/articles/216212/13-incredible-stops-on-the-pacific-coast-highway",
                "https://answers.yahoo.com/question/index?qid=20090220174433AALFycn",
                "http://www.travbuddy.com/California-travel-guide-p85",
                "http://travelblog.viator.com/road-trip-san-francisco-los-angeles/",
                "http://myfamilytravels.com/content/10507-road-trip-usa-pacific-coast-highway-san-francisco-los-angeles",
                "http://www.trippy.com/question/California-What-are-the-must-see-stops-along-highway-1-between-San-Francisco-and-LA",
                "http://www.usatourist.com/english/destinations/california/california-driving-tour.html",
                "https://www.tripadvisor.com/Tourism-g33026-San_Luis_Obispo_San_Luis_Obispo_County_California-Vacations.html",
                "http://traveltips.usatoday.com/places-stop-way-disneyland-san-jose-california-109883.html",
                "http://gocalifornia.about.com/cs/bigsur/a/highwayone.htm",
                "http://www.wineinstitute.org/consumerstories",
                "https://www.yelp.com/biz/pacific-coast-highway-carmel"
            ],
            "longitude": "-72.945787"
        },
        "seattle": {
            "latitude": "41.9641881",
            "closest_to": "",
            "address": "Seattle, Dorris, Siskiyou County, California, 96023, United States of America",
            "locType": "residential",
            "blogLinks": [
                "http://www.trippy.com/question/California-What-are-the-must-see-stops-along-highway-1-between-San-Francisco-and-LA"
            ],
            "longitude": "-121.9226289"
        },
        "bay": {
            "latitude": "33.6899249",
            "closest_to": "",
            "address": "Bay, Meadows Mobile Home Park, El Camino Real, Irvine, Orange County, California, 92406, United States of America",
            "locType": "service",
            "blogLinks": [
                "http://travelblog.viator.com/road-trip-san-francisco-los-angeles/",
                "https://www.yelp.com/biz/pacific-coast-highway-carmel"
            ],
            "longitude": "-117.7729354"
        },
        "downtown ventura": {
            "latitude": "34.15184445",
            "closest_to": "",
            "address": "Downtown Johnny's, 14649, Ventura Boulevard, Sherman Oaks, LA, Los Angeles County, California, 91403, United States of America",
            "locType": "restaurant",
            "blogLinks": [
                "https://www.gapyear.com/articles/216212/13-incredible-stops-on-the-pacific-coast-highway"
            ],
            "longitude": "-118.452523182928"
        },
        "valley": {
            "latitude": "34.0148403",
            "closest_to": "",
            "address": "Valley, South Stimson Avenue, Industry, Los Angeles County, California, 91745, United States of America",
            "locType": "yes",
            "blogLinks": [
                "https://answers.yahoo.com/question/index?qid=20090220174433AALFycn"
            ],
            "longitude": "-117.955234675878"
        },
        "mission beach": {
            "latitude": "32.7827144",
            "closest_to": "",
            "address": "Mission Beach, San Diego County, California, United States of America",
            "locType": "hamlet",
            "blogLinks": [
                "https://www.gapyear.com/articles/216212/13-incredible-stops-on-the-pacific-coast-highway"
            ],
            "longitude": "-117.2525056"
        },
        "palm springs": {
            "latitude": "33.8246269",
            "closest_to": "",
            "address": "Palm Springs, Riverside County, California, United States of America",
            "locType": "city",
            "blogLinks": [
                "http://www.usatourist.com/english/destinations/california/california-driving-tour.html"
            ],
            "longitude": "-116.5403029"
        },
        "abbot kinney boulevard": {
            "latitude": "33.9915304",
            "closest_to": "",
            "address": "Abbot Kinney Boulevard, Venice, LA, Los Angeles County, California, 90291, United States of America",
            "locType": "tertiary",
            "blogLinks": [
                "http://myfamilytravels.com/content/10507-road-trip-usa-pacific-coast-highway-san-francisco-los-angeles"
            ],
            "longitude": "-118.4694806"
        },
        "san diego bay": {
            "latitude": "32.6500534",
            "closest_to": "",
            "address": "San Diego Bay, Leyte Road, Crown Island, Coronado, San Diego County, California, 92118, United States of America",
            "locType": "bay",
            "blogLinks": [
                "https://www.gapyear.com/articles/216212/13-incredible-stops-on-the-pacific-coast-highway"
            ],
            "longitude": "-117.1341977"
        },
        "lake tahoe": {
            "latitude": "39.0888982",
            "closest_to": "",
            "address": "Lake Tahoe, Placer County, California, United States of America",
            "locType": "water",
            "blogLinks": [
                "http://www.travbuddy.com/California-travel-guide-p85"
            ],
            "longitude": "-120.050511752934"
        },
        "dana point": {
            "latitude": "33.4669721",
            "closest_to": "",
            "address": "Dana Point, Orange County, California, United States of America",
            "locType": "city",
            "blogLinks": [
                "https://www.yelp.com/biz/pacific-coast-highway-carmel"
            ],
            "longitude": "-117.6981074"
        }
    },
    "santa cruz": {
        "type": "city",
        "osm_id": "111737",
        "class": "place",
        "importance": 0.80562903030115,
        "lat": "36.9735903",
        "lon": "-122.0260569",
        "boundingbox": [
            "36.9479995",
            "37.0251537",
            "-122.1512979",
            "-121.9867104"
        ],
        "display_name": "Santa Cruz, Santa Cruz County, California, United States of America",
        "licence": "Data \u00a9 OpenStreetMap contributors, ODbL 1.0. http://www.openstreetmap.org/copyright",
        "icon": "https://nominatim.openstreetmap.org/images/mapicons/poi_place_city.p.20.png",
        "place_id": "157779626",
        "osm_type": "relation"
    },
    "san luis obispo": {
        "type": "city",
        "osm_id": "33111824",
        "class": "place",
        "importance": 0.87823218277902,
        "lat": "35.2827525",
        "lon": "-120.6596155",
        "boundingbox": [
            "35.233002",
            "35.31199",
            "-120.7229769",
            "-120.6177727"
        ],
        "display_name": "San Luis Obispo, San Luis Obispo County, California, United States of America",
        "licence": "Data \u00a9 OpenStreetMap contributors, ODbL 1.0. http://www.openstreetmap.org/copyright",
        "icon": "https://nominatim.openstreetmap.org/images/mapicons/poi_place_city.p.20.png",
        "place_id": "71485104",
        "osm_type": "way"
    }
}