{
    "mentions": {
        "santa ynez": {
            "latitude": "34.608637",
            "closest_to": "",
            "address": "Santa Ynez, Stadium Place, Santa Ynez, Santa Barbara County, California, 93463, United States of America",
            "locType": "administrative",
            "blogLinks": [
                "https://www.tripadvisor.com/ShowTopic-g28926-i29-k4630542-Road_Trip_from_Santa_Barbara_to_San_Francisco-California.html",
                "http://www.caroadtrip.com/2012/07/Santa-barbara-to-monterey-by-car.html"
            ],
            "longitude": "-120.104677321497"
        },
        "highway 101": {
            "latitude": "32.9967358",
            "closest_to": "",
            "address": "Highway 101, Solana Beach, San Diego County, California, 92075, United States of America",
            "locType": "primary",
            "blogLinks": [
                "http://www.caroadtrip.com/2012/07/Santa-barbara-to-monterey-by-car.html"
            ],
            "longitude": "-117.2731974"
        },
        "san diego": {
            "latitude": "32.7174209",
            "closest_to": "",
            "address": "San Diego, San Diego County, California, United States of America",
            "locType": "city",
            "blogLinks": [
                "http://www.distancesfrom.com/us/distance-from-Santa-Clarita-to-Santa-Ana/DistanceHistory/14900619.aspx",
                "http://www.caroadtrip.com/2012/07/Santa-barbara-to-monterey-by-car.html"
            ],
            "longitude": "-117.1627713"
        },
        "gallatin": {
            "latitude": "40.5646162",
            "closest_to": "",
            "address": "Gallatin Peak, Lassen County, California, United States of America",
            "locType": "peak",
            "blogLinks": [
                "http://www.bestplaces.net/city/california/santa_clarita"
            ],
            "longitude": "-120.7418996"
        },
        "solvang": {
            "latitude": "34.5958572",
            "closest_to": "",
            "address": "Solvang, Santa Barbara County, California, United States of America",
            "locType": "city",
            "blogLinks": [
                "http://www.caroadtrip.com/2012/07/Santa-barbara-to-monterey-by-car.html"
            ],
            "longitude": "-120.1390893"
        },
        "santa barbara county": {
            "latitude": "34.7136533",
            "closest_to": "",
            "address": "Santa Barbara County, California, United States of America",
            "locType": "administrative",
            "blogLinks": [
                "http://www.caroadtrip.com/2012/07/Santa-barbara-to-monterey-by-car.html"
            ],
            "longitude": "-119.9858231"
        },
        "usa": {
            "latitude": "36.7014631",
            "closest_to": "",
            "address": "California, United States of America",
            "locType": "administrative",
            "blogLinks": [
                "http://www.distancesfrom.com/us/distance-from-Santa-Clarita-to-Santa-Ana/DistanceHistory/14900619.aspx",
                "http://www.distancesfrom.com/us/map-from-Santa-Clarita-to-Santa-Ana/MapHistory/14900619.aspx",
                "http://www.distancesfrom.com/us/travel-from-Santa-Clarita-to-Santa-Ana/TravelFromHistory/14900619.aspx"
            ],
            "longitude": "-118.7559973"
        },
        "santa barbara": {
            "latitude": "34.4221319",
            "closest_to": "",
            "address": "Santa Barbara, Santa Barbara County, California, United States of America",
            "locType": "city",
            "blogLinks": [
                "https://www.tripadvisor.com/ShowTopic-g28926-i29-k4630542-Road_Trip_from_Santa_Barbara_to_San_Francisco-California.html",
                "http://www.livability.com/ca",
                "http://www.caroadtrip.com/2012/07/Santa-barbara-to-monterey-by-car.html"
            ],
            "longitude": "-119.7026672"
        },
        "asilomar beach": {
            "latitude": "36.6241141",
            "closest_to": "",
            "address": "Asilomar State Beach, Sunset Drive, Pacific Grove, Monterey County, California, 93950, United States of America",
            "locType": "park",
            "blogLinks": [
                "https://www.tripadvisor.com/ShowTopic-g28926-i29-k4630542-Road_Trip_from_Santa_Barbara_to_San_Francisco-California.html"
            ],
            "longitude": "-121.940055839932"
        },
        "east canyon trail": {
            "latitude": "37.2916997",
            "closest_to": "",
            "address": "Canyon Trail, Santa Clara County, California, United States of America",
            "locType": "track",
            "blogLinks": [
                "https://www.yelp.com/list/best-places-to-hike-in-santa-clarita-newhall-3"
            ],
            "longitude": "-122.1307968"
        },
        "monterey peninsula": {
            "latitude": "36.5878734",
            "closest_to": "",
            "address": "Monterey Regional Airport, Airport Road, Seaside, Del Monte Heights, Monterey County, California, 93940, United States of America",
            "locType": "aerodrome",
            "blogLinks": [
                "https://www.tripadvisor.com/ShowTopic-g28926-i29-k4630542-Road_Trip_from_Santa_Barbara_to_San_Francisco-California.html"
            ],
            "longitude": "-121.843618374407"
        },
        "half moon bay": {
            "latitude": "37.4635519",
            "closest_to": "",
            "address": "Half Moon Bay, San Mateo County, California, United States of America",
            "locType": "city",
            "blogLinks": [
                "https://www.tripadvisor.com/ShowTopic-g28926-i29-k4630542-Road_Trip_from_Santa_Barbara_to_San_Francisco-California.html"
            ],
            "longitude": "-122.4285861"
        },
        "pismo beach": {
            "latitude": "35.1427533",
            "closest_to": "",
            "address": "Pismo Beach, San Luis Obispo County, California, United States of America",
            "locType": "city",
            "blogLinks": [
                "http://www.caroadtrip.com/2012/07/Santa-barbara-to-monterey-by-car.html"
            ],
            "longitude": "-120.6412826"
        },
        "santa maria": {
            "latitude": "34.9531295",
            "closest_to": "",
            "address": "Santa Maria, Santa Barbara County, California, United States of America",
            "locType": "city",
            "blogLinks": [
                "http://www.caroadtrip.com/2012/07/Santa-barbara-to-monterey-by-car.html"
            ],
            "longitude": "-120.4358576"
        },
        "santa cruz": {
            "latitude": "36.9735903",
            "closest_to": "",
            "address": "Santa Cruz, Santa Cruz County, California, United States of America",
            "locType": "city",
            "blogLinks": [
                "https://www.tripadvisor.com/ShowTopic-g28926-i29-k4630542-Road_Trip_from_Santa_Barbara_to_San_Francisco-California.html"
            ],
            "longitude": "-122.0260569"
        },
        "pismo beach beach": {
            "latitude": "35.11755065",
            "closest_to": "",
            "address": "Pismo Beach, West Grand Avenue, Grover Beach, San Luis Obispo County, California, 93433, United States of America",
            "locType": "beach",
            "blogLinks": [
                "https://www.tripadvisor.com/ShowTopic-g28926-i29-k4630542-Road_Trip_from_Santa_Barbara_to_San_Francisco-California.html"
            ],
            "longitude": "-120.63389169711"
        },
        "us": {
            "latitude": "36.7014631",
            "closest_to": "",
            "address": "California, United States of America",
            "locType": "administrative",
            "blogLinks": [
                "https://www.ridebooker.com/transfers/santa-clarita-ca/santa-ana-ca",
                "http://distancecalculator.globefeed.com/US_Distance_Calculator.asp?state=CA",
                "http://www.distancesfrom.com/us/travel-from-Santa-Clarita-to-Santa-Ana/TravelFromHistory/14900619.aspx"
            ],
            "longitude": "-118.7559973"
        },
        "placer": {
            "latitude": "39.1012064",
            "closest_to": "",
            "address": "Placer County, California, United States of America",
            "locType": "administrative",
            "blogLinks": [
                "https://www.yelp.com/list/best-places-to-hike-in-santa-clarita-newhall-3"
            ],
            "longitude": "-120.7650605"
        },
        "bixby bridge": {
            "latitude": "36.3710197",
            "closest_to": "",
            "address": "Bixby Creek Bridge, Notleys Landing, Monterey County, California, 93923, United States of America",
            "locType": "primary",
            "blogLinks": [
                "https://www.tripadvisor.com/ShowTopic-g28926-i29-k4630542-Road_Trip_from_Santa_Barbara_to_San_Francisco-California.html"
            ],
            "longitude": "-121.9017572"
        },
        "monterey": {
            "latitude": "36.5844165",
            "closest_to": "",
            "address": "Monterey, Monterey County, California, United States of America",
            "locType": "city",
            "blogLinks": [
                "https://www.tripadvisor.com/ShowTopic-g28926-i29-k4630542-Road_Trip_from_Santa_Barbara_to_San_Francisco-California.html",
                "http://www.caroadtrip.com/2012/07/Santa-barbara-to-monterey-by-car.html"
            ],
            "longitude": "-121.866792846206"
        },
        "nadeau trail": {
            "latitude": "36.3367173",
            "closest_to": "",
            "address": "Nadeau Trail, Panamint Springs, Inyo County, California, United States of America",
            "locType": "primary",
            "blogLinks": [
                "https://www.yelp.com/list/best-places-to-hike-in-santa-clarita-newhall-3"
            ],
            "longitude": "-117.4549599"
        },
        "julia pfeiffer burns state park": {
            "latitude": "36.16998345",
            "closest_to": "",
            "address": "Julia Pfeiffer Burns State Park, Ewoldsen trail, Monterey County, California, United States of America",
            "locType": "park",
            "blogLinks": [
                "https://www.tripadvisor.com/ShowTopic-g28926-i29-k4630542-Road_Trip_from_Santa_Barbara_to_San_Francisco-California.html"
            ],
            "longitude": "-121.665388254615"
        },
        "pico canyon": {
            "latitude": "37.8179437",
            "closest_to": "",
            "address": "Redwood Peak, Contra Costa County, California, United States of America",
            "locType": "peak",
            "blogLinks": [
                "https://www.yelp.com/list/best-places-to-hike-in-santa-clarita-newhall-3"
            ],
            "longitude": "-122.1765619"
        },
        "pacific": {
            "latitude": "38.7601815",
            "closest_to": "",
            "address": "Pacific, El Dorado County, California, United States of America",
            "locType": "hamlet",
            "blogLinks": [
                "http://www.bestplaces.net/county/california/santa_clara"
            ],
            "longitude": "-120.507146"
        },
        "cambria": {
            "latitude": "35.5641381",
            "closest_to": "",
            "address": "Cambria, San Luis Obispo County, California, United States of America",
            "locType": "administrative",
            "blogLinks": [
                "https://www.tripadvisor.com/ShowTopic-g28926-i29-k4630542-Road_Trip_from_Santa_Barbara_to_San_Francisco-California.html"
            ],
            "longitude": "-121.0807467"
        },
        "america": {
            "latitude": "36.2573198",
            "closest_to": "",
            "address": "America, Kings County, California, 93246, United States of America",
            "locType": "residential",
            "blogLinks": [
                "http://www.livability.com/ca",
                "http://www.bestplaces.net/city/california/santa_clarita"
            ],
            "longitude": "-119.8948706"
        },
        "sonoma": {
            "latitude": "38.5110803",
            "closest_to": "",
            "address": "Sonoma County, California, United States of America",
            "locType": "administrative",
            "blogLinks": [
                "https://www.tripadvisor.com/ShowTopic-g28926-i29-k4630542-Road_Trip_from_Santa_Barbara_to_San_Francisco-California.html"
            ],
            "longitude": "-122.8473387"
        },
        "united kingdom": {
            "latitude": "52.4422729",
            "closest_to": "",
            "address": "California, Birmingham, West Midlands, England, UK",
            "locType": "village",
            "blogLinks": [
                "https://www.ridebooker.com/transfers/santa-ana-ca/santa-clarita-ca/van"
            ],
            "longitude": "-1.9796882"
        },
        "la mountains": {
            "latitude": "37.7384411",
            "closest_to": "",
            "address": "Mountains, 8001, Sierra Circle, Half Dome Village, Yosemite Valley, Mariposa County, California, United States of America",
            "locType": "yes",
            "blogLinks": [
                "https://www.yelp.com/list/best-places-to-hike-in-santa-clarita-newhall-3"
            ],
            "longitude": "-119.577636961039"
        },
        "u.s.": {
            "latitude": "-32.5446226",
            "closest_to": "",
            "address": "La California, Municipio de Las Rosas, Departamento Belgrano, Sta. Fe, Argentina",
            "locType": "hamlet",
            "blogLinks": [
                "http://www.bestplaces.net/county/california/santa_clara",
                "http://www.bestplaces.net/city/california/santa_clarita"
            ],
            "longitude": "-61.5489543"
        },
        "santa clara": {
            "latitude": "37.3541132",
            "closest_to": "",
            "address": "Santa Clara, Santa Clara County, California, United States of America",
            "locType": "city",
            "blogLinks": [
                "http://www.distancesfrom.com/us/map-from-Santa-Clarita-to-Santa-Ana/MapHistory/14900619.aspx",
                "http://www.livability.com/ca",
                "http://www.bestplaces.net/county/california/santa_clara"
            ],
            "longitude": "-121.9551743"
        },
        "santa clara county": {
            "latitude": "37.2333253",
            "closest_to": "",
            "address": "Santa Clara County, California, United States of America",
            "locType": "administrative",
            "blogLinks": [
                "http://www.bestplaces.net/county/california/santa_clara"
            ],
            "longitude": "-121.6846348"
        },
        "monterey bay aquarium": {
            "latitude": "36.61809095",
            "closest_to": "",
            "address": "MBA, 886, Cannery Row, Monterey, Monterey County, California, 93940, United States of America",
            "locType": "aquarium",
            "blogLinks": [
                "https://www.tripadvisor.com/ShowTopic-g28926-i29-k4630542-Road_Trip_from_Santa_Barbara_to_San_Francisco-California.html"
            ],
            "longitude": "-121.901680002002"
        },
        "morro bay": {
            "latitude": "35.3658075",
            "closest_to": "",
            "address": "Morro Bay, San Luis Obispo County, California, United States of America",
            "locType": "city",
            "blogLinks": [
                "https://www.tripadvisor.com/ShowTopic-g28926-i29-k4630542-Road_Trip_from_Santa_Barbara_to_San_Francisco-California.html",
                "http://www.caroadtrip.com/2012/07/Santa-barbara-to-monterey-by-car.html"
            ],
            "longitude": "-120.8499012"
        },
        "lompoc": {
            "latitude": "34.6391501",
            "closest_to": "",
            "address": "Lompoc, Santa Barbara County, California, United States of America",
            "locType": "city",
            "blogLinks": [
                "https://www.tripadvisor.com/ShowTopic-g28926-i29-k4630542-Road_Trip_from_Santa_Barbara_to_San_Francisco-California.html"
            ],
            "longitude": "-120.4579408"
        },
        "pacific ocean": {
            "latitude": "36.16305775",
            "closest_to": "",
            "address": "Pacific Ocean, Cabrillo Highway, Monterey County, California, 93920, United States of America",
            "locType": "cliff",
            "blogLinks": [
                "http://www.bestplaces.net/city/california/santa_clarita"
            ],
            "longitude": "-121.678715787326"
        },
        "hearst castle": {
            "latitude": "35.6853689",
            "closest_to": "",
            "address": "Hearst Castle, 750, Hearst Castle Road, San Simeon, San Luis Obispo County, California, 93452, United States of America",
            "locType": "museum",
            "blogLinks": [
                "https://www.tripadvisor.com/ShowTopic-g28926-i29-k4630542-Road_Trip_from_Santa_Barbara_to_San_Francisco-California.html"
            ],
            "longitude": "-121.167587299509"
        },
        "x93long beach": {
            "latitude": "35.13738",
            "closest_to": "",
            "address": "Beach, Pismo Beach Senior Mobile Home Park, Pismo Beach, San Luis Obispo County, California, 93449, United States of America",
            "locType": "service",
            "blogLinks": [
                "http://www.bestplaces.net/city/california/santa_clarita"
            ],
            "longitude": "-120.6345489"
        },
        "big sur": {
            "latitude": "36.270241",
            "closest_to": "",
            "address": "Big Sur, Monterey County, California, United States of America",
            "locType": "village",
            "blogLinks": [
                "http://www.caroadtrip.com/2012/07/Santa-barbara-to-monterey-by-car.html"
            ],
            "longitude": "-121.8074544"
        },
        "oceano dunes state vehicular recreation area": {
            "latitude": "35.0466838",
            "closest_to": "",
            "address": "Oceano Dunes State Vehicular Recreation Area, Sand Highway, Callender, San Luis Obispo County, California, 93445, United States of America",
            "locType": "park",
            "blogLinks": [
                "http://www.caroadtrip.com/2012/07/Santa-barbara-to-monterey-by-car.html"
            ],
            "longitude": "-120.612508426361"
        },
        "united states": {
            "latitude": "36.7014631",
            "closest_to": "",
            "address": "California, United States of America",
            "locType": "administrative",
            "blogLinks": [
                "http://www.distancecalculator.net/from-santa-clarita-to-santa-ana",
                "https://www.tripadvisor.com/Attractions-g33043-Activities-Santa_Ana_California.html"
            ],
            "longitude": "-118.7559973"
        },
        "pismo": {
            "latitude": "24.1378257",
            "closest_to": "",
            "address": "Pismo, La Paz, Baja California Sur, 23206, M\u00e9xico",
            "locType": "residential",
            "blogLinks": [
                "http://www.caroadtrip.com/2012/07/Santa-barbara-to-monterey-by-car.html"
            ],
            "longitude": "-110.3437034"
        },
        "san francisco": {
            "latitude": "37.7792808",
            "closest_to": "",
            "address": "SF, California, United States of America",
            "locType": "city",
            "blogLinks": [
                "https://www.tripadvisor.com/ShowTopic-g28926-i29-k4630542-Road_Trip_from_Santa_Barbara_to_San_Francisco-California.html",
                "http://www.livability.com/ca"
            ],
            "longitude": "-122.4192362"
        },
        "texas": {
            "latitude": "29.7181118",
            "closest_to": "",
            "address": "California, Baytown, Harris County, Texas, 77520, United States of America",
            "locType": "residential",
            "blogLinks": [
                "http://www.caroadtrip.com/2012/07/Santa-barbara-to-monterey-by-car.html"
            ],
            "longitude": "-94.997906"
        },
        "big basin redwoods": {
            "latitude": "37.1550317",
            "closest_to": "",
            "address": "Big Basin Redwoods State Park, Last Chance Trail, Big Basin, Santa Cruz County, California, United States of America",
            "locType": "park",
            "blogLinks": [
                "https://www.tripadvisor.com/ShowTopic-g28926-i29-k4630542-Road_Trip_from_Santa_Barbara_to_San_Francisco-California.html"
            ],
            "longitude": "-122.239816619658"
        },
        "mediterranean": {
            "latitude": "33.7439509",
            "closest_to": "",
            "address": "Mediterranean, Palm Desert, Riverside County, California, 92211, United States of America",
            "locType": "residential",
            "blogLinks": [
                "http://www.livability.com/ca",
                "http://www.bestplaces.net/county/california/santa_clara"
            ],
            "longitude": "-116.3534838"
        },
        "l.a.": {
            "latitude": "-13.8305494",
            "closest_to": "",
            "address": "California, Provincia Abel Iturralde, LPZ, Bolivia",
            "locType": "hamlet",
            "blogLinks": [
                "https://www.tripadvisor.com/ShowTopic-g28926-i29-k4630542-Road_Trip_from_Santa_Barbara_to_San_Francisco-California.html",
                "http://www.bestplaces.net/city/california/santa_clarita"
            ],
            "longitude": "-67.9369134"
        },
        "point sur lighthouse": {
            "latitude": "36.3063497",
            "closest_to": "",
            "address": "Point Sur Lighthouse, Cabrillo Highway, Big Sur, Monterey County, California, 93923, United States of America",
            "locType": "lighthouse",
            "blogLinks": [
                "https://www.tripadvisor.com/ShowTopic-g28926-i29-k4630542-Road_Trip_from_Santa_Barbara_to_San_Francisco-California.html"
            ],
            "longitude": "-121.901627042301"
        },
        "la/santa barbara": {
            "latitude": "34.4221319",
            "closest_to": "",
            "address": "Santa Barbara, Santa Barbara County, California, United States of America",
            "locType": "city",
            "blogLinks": [
                "https://www.tripadvisor.com/ShowTopic-g28926-i29-k4630542-Road_Trip_from_Santa_Barbara_to_San_Francisco-California.html"
            ],
            "longitude": "-119.7026672"
        },
        "creek": {
            "latitude": "39.3751013",
            "closest_to": "",
            "address": "Creek, Mendocino County, California, United States of America",
            "locType": "stream",
            "blogLinks": [
                "https://www.yelp.com/list/best-places-to-hike-in-santa-clarita-newhall-3"
            ],
            "longitude": "-123.0482197"
        },
        "malibu": {
            "latitude": "33.7932142",
            "closest_to": "",
            "address": "Malibu, Palm Springs, Riverside County, California, 92264, United States of America",
            "locType": "residential",
            "blogLinks": [
                "http://www.bestplaces.net/city/california/santa_clarita"
            ],
            "longitude": "-116.5023561"
        },
        "ca": {
            "latitude": "37.8242285466918",
            "closest_to": "",
            "address": "Piedmont, Alameda County, California, ca, United States of America",
            "locType": "postcode",
            "blogLinks": [
                "http://www.distancesfrom.com/us/distance-from-Santa-Clarita-to-Santa-Ana/DistanceHistory/14900619.aspx",
                "http://www.distancesfrom.com/us/map-from-Santa-Clarita-to-Santa-Ana/MapHistory/14900619.aspx",
                "http://www.distancesfrom.com/us/travel-from-Santa-Clarita-to-Santa-Ana/TravelFromHistory/14900619.aspx"
            ],
            "longitude": "-122.232613735941"
        },
        "santa": {
            "latitude": "22.4804035",
            "closest_to": "",
            "address": "California, Santa Isabel de las Lajas, Cienfuegos, Cuba",
            "locType": "hamlet",
            "blogLinks": [
                "https://www.tripadvisor.com/ShowTopic-g28926-i29-k4630542-Road_Trip_from_Santa_Barbara_to_San_Francisco-California.html",
                "http://www.distancesfrom.com/us/map-from-Santa-Clarita-to-Santa-Ana/MapHistory/14900619.aspx",
                "http://www.distancesfrom.com/us/travel-from-Santa-Clarita-to-Santa-Ana/TravelFromHistory/14900619.aspx"
            ],
            "longitude": "-80.3796642"
        },
        "berkeley": {
            "latitude": "37.8708393",
            "closest_to": "",
            "address": "Berkeley, Alameda County, California, United States of America",
            "locType": "city",
            "blogLinks": [
                "http://www.livability.com/ca"
            ],
            "longitude": "-122.2728638"
        },
        "moonstone landing": {
            "latitude": "35.57328515",
            "closest_to": "",
            "address": "Moonstone Landing, 6240, Moonstone Beach, Cambria, San Luis Obispo County, California, CA 93428, United States of America",
            "locType": "hotel",
            "blogLinks": [
                "https://www.tripadvisor.com/ShowTopic-g28926-i29-k4630542-Road_Trip_from_Santa_Barbara_to_San_Francisco-California.html"
            ],
            "longitude": "-121.112222323451"
        },
        "mojave desert": {
            "latitude": "35.1456319",
            "closest_to": "",
            "address": "Mojave Desert, Utility Road, San Bernardino County, California, United States of America",
            "locType": "desert",
            "blogLinks": [
                "http://www.livability.com/ca"
            ],
            "longitude": "-115.548963686646"
        },
        "sunnyvale": {
            "latitude": "37.3688301",
            "closest_to": "",
            "address": "Sunnyvale, Santa Clara County, California, United States of America",
            "locType": "city",
            "blogLinks": [
                "http://www.bestplaces.net/county/california/santa_clara"
            ],
            "longitude": "-122.0363495"
        },
        "san jose": {
            "latitude": "37.3361905",
            "closest_to": "",
            "address": "San Jos\u00e9, Santa Clara County, California, United States of America",
            "locType": "city",
            "blogLinks": [
                "http://www.livability.com/ca",
                "http://www.bestplaces.net/county/california/santa_clara"
            ],
            "longitude": "-121.8905832"
        },
        "el capitan": {
            "latitude": "41.8690059",
            "closest_to": "",
            "address": "El Capitan, Siskiyou County, California, United States of America",
            "locType": "peak",
            "blogLinks": [
                "http://www.caroadtrip.com/2012/07/Santa-barbara-to-monterey-by-car.html"
            ],
            "longitude": "-123.6122864"
        },
        "carmel beach": {
            "latitude": "36.5512525",
            "closest_to": "",
            "address": "Carmel Beach, Scenic Road, Carmel-by-the-Sea, Monterey County, California, 93921, United States of America",
            "locType": "beach",
            "blogLinks": [
                "https://www.tripadvisor.com/ShowTopic-g28926-i29-k4630542-Road_Trip_from_Santa_Barbara_to_San_Francisco-California.html"
            ],
            "longitude": "-121.929450352027"
        },
        "riverside-san bernardino": {
            "latitude": "34.908786",
            "closest_to": "",
            "address": "Riverside Road, Harvard, San Bernardino County, California, 92365, United States of America",
            "locType": "tertiary",
            "blogLinks": [
                "http://www.bestplaces.net/city/california/santa_clarita"
            ],
            "longitude": "-116.6537219"
        },
        "carmel": {
            "latitude": "38.75511285",
            "closest_to": "",
            "address": "Carmel, Roseville, Placer County, California, 95747, United States of America",
            "locType": "residential",
            "blogLinks": [
                "https://www.tripadvisor.com/ShowTopic-g28926-i29-k4630542-Road_Trip_from_Santa_Barbara_to_San_Francisco-California.html"
            ],
            "longitude": "-121.353308848273"
        },
        "gaviota": {
            "latitude": "34.4716558",
            "closest_to": "",
            "address": "Gaviota, Santa Barbara County, California, United States of America",
            "locType": "hamlet",
            "blogLinks": [
                "http://www.caroadtrip.com/2012/07/Santa-barbara-to-monterey-by-car.html"
            ],
            "longitude": "-120.2148715"
        },
        "la": {
            "latitude": "36.7014631",
            "closest_to": "",
            "address": "California, United States of America",
            "locType": "administrative",
            "blogLinks": [
                "https://www.tripadvisor.com/ShowTopic-g28926-i29-k4630542-Road_Trip_from_Santa_Barbara_to_San_Francisco-California.html",
                "http://www.bestplaces.net/city/california/santa_clarita"
            ],
            "longitude": "-118.7559973"
        },
        "california": {
            "latitude": "7.3480915",
            "closest_to": "",
            "address": "California, Santander, Colombia",
            "locType": "village",
            "blogLinks": [
                "https://www.ridebooker.com/transfers/santa-clarita-ca/santa-ana-ca/luxury-suv",
                "https://www.yelp.com/list/best-places-to-hike-in-santa-clarita-newhall-3",
                "http://www.livability.com/ca",
                "http://www.caroadtrip.com/2012/07/Santa-barbara-to-monterey-by-car.html",
                "http://distancecalculator.globefeed.com/US_Distance_Calculator.asp?state=CA",
                "http://visitsantaclarita.com/things-to-do/",
                "https://www.ridebooker.com/transfers/santa-ana-ca/santa-clarita-ca/van",
                "https://www.ridebooker.com/transfers/santa-clarita-ca/santa-ana-ca/47-pax-bus",
                "http://www.bestplaces.net/city/california/santa_clarita",
                "http://visitsantaclarita.com/",
                "http://www.bestplaces.net/county/california/santa_clara"
            ],
            "longitude": "-72.945787"
        }
    },
    "santa clarita": {
        "type": "city",
        "osm_id": "2313083",
        "class": "place",
        "importance": 0.75253815368059,
        "lat": "34.3916641",
        "lon": "-118.5425859",
        "boundingbox": [
            "34.340498",
            "34.477213",
            "-118.6131919",
            "-118.3760709"
        ],
        "display_name": "Santa Clarita, Los Angeles County, California, United States of America",
        "licence": "Data \u00a9 OpenStreetMap contributors, ODbL 1.0. http://www.openstreetmap.org/copyright",
        "icon": "https://nominatim.openstreetmap.org/images/mapicons/poi_place_city.p.20.png",
        "place_id": "159444356",
        "osm_type": "relation"
    },
    "santa ana": {
        "type": "city",
        "osm_id": "2311446",
        "class": "place",
        "importance": 0.80067109924196,
        "lat": "33.7494951",
        "lon": "-117.8732212",
        "boundingbox": [
            "33.6916541",
            "33.7840133",
            "-117.9439458",
            "-117.8303494"
        ],
        "display_name": "Santa Ana, Orange County, California, United States of America",
        "licence": "Data \u00a9 OpenStreetMap contributors, ODbL 1.0. http://www.openstreetmap.org/copyright",
        "icon": "https://nominatim.openstreetmap.org/images/mapicons/poi_place_city.p.20.png",
        "place_id": "159122957",
        "osm_type": "relation"
    }
}