{
    "san luis obispo": {
        "type": "city",
        "class": "place",
        "lat": "35.2827525",
        "lon": "-120.6596155",
        "licence": "Data \u00a9 OpenStreetMap contributors, ODbL 1.0. http://www.openstreetmap.org/copyright",
        "osm_type": "way",
        "importance": 0.87823218277902,
        "boundingbox": [
            "35.233002",
            "35.31199",
            "-120.7229769",
            "-120.6177727"
        ],
        "icon": "https://nominatim.openstreetmap.org/images/mapicons/poi_place_city.p.20.png",
        "osm_id": "33111824",
        "display_name": "San Luis Obispo, San Luis Obispo County, California, United States of America",
        "place_id": "71485104"
    },
    "big bear lake": {
        "display_name": "Big Bear Lake, Lagunita Lane, Big Bear Lake, San Bernardino County, California, 92315, United States of America",
        "type": "water",
        "boundingbox": [
            "34.2375569",
            "34.2689983",
            "-116.9775303",
            "-116.8663043"
        ],
        "class": "natural",
        "importance": 0.80624782713774,
        "osm_id": "4045674",
        "lat": "34.253293",
        "licence": "Data \u00a9 OpenStreetMap contributors, ODbL 1.0. http://www.openstreetmap.org/copyright",
        "place_id": "159717820",
        "osm_type": "relation",
        "lon": "-116.932209587315"
    },
    "mentions": {
        "san diego": {
            "closest_to": "big bear lake",
            "locType": "city",
            "address": "San Diego, San Diego County, California, United States of America",
            "latitude": "32.7174209",
            "longitude": "-117.1627713",
            "blogLinks": [
                "https://www.gapyear.com/articles/216212/13-incredible-stops-on-the-pacific-coast-highway",
                "http://gocalifornia.about.com/od/caplaceslist/",
                "http://www.destination360.com/north-america/us/california/hearst-castle"
            ]
        },
        "long beach museum of art": {
            "closest_to": "san luis obispo",
            "locType": "museum",
            "address": "Long Beach Museum of Art, East Ocean Boulevard, Belmont Shore, Long Beach, Los Angeles County, California, 90814, United States of America",
            "latitude": "33.76347985",
            "longitude": "-118.164781543159",
            "blogLinks": [
                "https://www.gapyear.com/articles/216212/13-incredible-stops-on-the-pacific-coast-highway"
            ]
        },
        "monterey bay": {
            "closest_to": "san luis obispo",
            "locType": "bay",
            "address": "Monterey Bay, Monterey County, California, United States of America",
            "latitude": "36.7999557",
            "longitude": "-121.9010667",
            "blogLinks": [
                "https://www.gapyear.com/articles/216212/13-incredible-stops-on-the-pacific-coast-highway",
                "http://www.hopper.com/articles/291/five-great-stops-between-los-angeles-and-san-francisco-on-the-pacific-coast-highway"
            ]
        },
        "yosemite national park": {
            "closest_to": "san luis obispo",
            "locType": "national_park",
            "address": "Yosemite National Park, Mt. Hoffmann Trail, Mariposa County, California, United States of America",
            "latitude": "37.84054795",
            "longitude": "-119.516587698025",
            "blogLinks": [
                "https://www.gapyear.com/articles/216212/13-incredible-stops-on-the-pacific-coast-highway"
            ]
        },
        "mission beach": {
            "closest_to": "big bear lake",
            "locType": "hamlet",
            "address": "Mission Beach, San Diego County, California, United States of America",
            "latitude": "32.7827144",
            "longitude": "-117.2525056",
            "blogLinks": [
                "https://www.gapyear.com/articles/216212/13-incredible-stops-on-the-pacific-coast-highway"
            ]
        },
        "bob jones trail": {
            "closest_to": "san luis obispo",
            "locType": "cycleway",
            "address": "Bob Jones Trail, San Luis Obispo, San Luis Obispo County, California, 93405, United States of America",
            "latitude": "35.2469875",
            "longitude": "-120.6797429",
            "blogLinks": [
                "https://www.tripadvisor.com/Tourism-g33026-San_Luis_Obispo_San_Luis_Obispo_County_California-Vacations.html"
            ]
        },
        "limekiln state park": {
            "closest_to": "san luis obispo",
            "locType": "park",
            "address": "Limekiln State Park, Twitchell Elevator, Lucia, Monterey County, California, United States of America",
            "latitude": "36.0227366",
            "longitude": "-121.527771252348",
            "blogLinks": [
                "http://www.destination360.com/north-america/us/california/hearst-castle"
            ]
        },
        "ventura": {
            "closest_to": "san luis obispo",
            "locType": "administrative",
            "address": "Ventura County, California, United States of America",
            "latitude": "34.4458248",
            "longitude": "-119.0779358",
            "blogLinks": [
                "https://www.gapyear.com/articles/216212/13-incredible-stops-on-the-pacific-coast-highway"
            ]
        },
        "arlington theatre": {
            "closest_to": "san luis obispo",
            "locType": "theatre",
            "address": "Arlington Theatre, 1317, State Street, Santa Barbara, Santa Barbara County, California, 93101, United States of America",
            "latitude": "34.4242119",
            "longitude": "-119.70696995537",
            "blogLinks": [
                "https://www.gapyear.com/articles/216212/13-incredible-stops-on-the-pacific-coast-highway"
            ]
        },
        "skate park": {
            "closest_to": "san luis obispo",
            "locType": "recreation_ground",
            "address": "Skate Park, Gilroy, Santa Clara County, California, 95036, United States of America",
            "latitude": "37.02295575",
            "longitude": "-121.585292446619",
            "blogLinks": [
                "https://www.tripadvisor.com/Tourism-g33026-San_Luis_Obispo_San_Luis_Obispo_County_California-Vacations.html"
            ]
        },
        "pacific avenue": {
            "closest_to": "san luis obispo",
            "locType": "secondary",
            "address": "Pacific Avenue, Glendale, Los Angeles County, California, 91203, United States of America",
            "latitude": "34.1571445",
            "longitude": "-118.2641839",
            "blogLinks": [
                "https://www.gapyear.com/articles/216212/13-incredible-stops-on-the-pacific-coast-highway"
            ]
        },
        "mission san luis obispo de tolosa": {
            "closest_to": "san luis obispo",
            "locType": "place_of_worship",
            "address": "Mission San Luis Obispo de Tolosa, 782, Chorro Street, San Luis Obispo, San Luis Obispo County, California, 93405, United States of America",
            "latitude": "35.2807422",
            "longitude": "-120.664098712263",
            "blogLinks": [
                "http://www.virtualslo.com/san-luis-obispo-attractions"
            ]
        },
        "oro state park": {
            "closest_to": "san luis obispo",
            "locType": "track",
            "address": "Montana de Oro State Park, San Luis Obispo County, California, United States of America",
            "latitude": "35.2714109",
            "longitude": "-120.8888312",
            "blogLinks": [
                "http://www.sanluisobispo.com/news/local/article38974257.html",
                "http://www.sfgate.com/travel/article/San-Luis-Obispo-attractions-Slow-is-the-way-to-go-5112057.php"
            ]
        },
        "half moon bay": {
            "closest_to": "san luis obispo",
            "locType": "city",
            "address": "Half Moon Bay, San Mateo County, California, United States of America",
            "latitude": "37.4635519",
            "longitude": "-122.4285861",
            "blogLinks": [
                "https://www.gapyear.com/articles/216212/13-incredible-stops-on-the-pacific-coast-highway"
            ]
        },
        "old town": {
            "closest_to": "san luis obispo",
            "locType": "locality",
            "address": "Old Town, Golden Hills, Kern County, California, United States of America",
            "latitude": "35.142943",
            "longitude": "-118.4954422",
            "blogLinks": [
                "https://www.gapyear.com/articles/216212/13-incredible-stops-on-the-pacific-coast-highway"
            ]
        },
        "san francisco": {
            "closest_to": "san luis obispo",
            "locType": "city",
            "address": "SF, California, United States of America",
            "latitude": "37.7792808",
            "longitude": "-122.4192362",
            "blogLinks": [
                "https://www.gapyear.com/articles/216212/13-incredible-stops-on-the-pacific-coast-highway",
                "https://www.tripadvisor.com/Tourism-g33026-San_Luis_Obispo_San_Luis_Obispo_County_California-Vacations.html",
                "http://www.hopper.com/articles/291/five-great-stops-between-los-angeles-and-san-francisco-on-the-pacific-coast-highway",
                "http://www.destination360.com/north-america/us/california/hearst-castle"
            ]
        },
        "avila beach": {
            "closest_to": "san luis obispo",
            "locType": "hamlet",
            "address": "Avila Beach, San Luis Obispo County, California, United States of America",
            "latitude": "35.1799752",
            "longitude": "-120.7318417",
            "blogLinks": [
                "http://www.sfgate.com/travel/article/San-Luis-Obispo-attractions-Slow-is-the-way-to-go-5112057.php",
                "http://www.virtualslo.com/san-luis-obispo-attractions"
            ]
        },
        "bixby bridge": {
            "closest_to": "san luis obispo",
            "locType": "primary",
            "address": "Bixby Creek Bridge, Notleys Landing, Monterey County, California, 93923, United States of America",
            "latitude": "36.3710197",
            "longitude": "-121.9017572",
            "blogLinks": [
                "https://www.gapyear.com/articles/216212/13-incredible-stops-on-the-pacific-coast-highway"
            ]
        },
        "california state park": {
            "closest_to": "san luis obispo",
            "locType": "park",
            "address": "California Citrus State Historic Park, Van Buren Boulevard, Riverside, Riverside County, California, 92504, United States of America",
            "latitude": "33.895296",
            "longitude": "-117.420521298137",
            "blogLinks": [
                "http://www.virtualslo.com/san-luis-obispo-attractions"
            ]
        },
        "southern california": {
            "closest_to": "san luis obispo",
            "locType": "university",
            "address": "University of Southern California, Watt Way, Saint James Park, LA, Los Angeles County, California, 90089, United States of America",
            "latitude": "34.0224149",
            "longitude": "-118.286343973446",
            "blogLinks": [
                "http://www.hopper.com/articles/291/five-great-stops-between-los-angeles-and-san-francisco-on-the-pacific-coast-highway",
                "http://www.destination360.com/north-america/us/california/hearst-castle"
            ]
        },
        "cholame": {
            "closest_to": "san luis obispo",
            "locType": "hamlet",
            "address": "Cholame, San Luis Obispo County, California, United States of America",
            "latitude": "35.7238556",
            "longitude": "-120.2965383",
            "blogLinks": [
                "http://www.sanluisobispo.com/news/local/article38974257.html"
            ]
        },
        "slo county": {
            "closest_to": "san luis obispo",
            "locType": "service",
            "address": "Slo San Simeon Road, San Simeon, San Luis Obispo County, California, United States of America",
            "latitude": "35.6442814",
            "longitude": "-121.1870436",
            "blogLinks": [
                "https://www.tripadvisor.com/Tourism-g33026-San_Luis_Obispo_San_Luis_Obispo_County_California-Vacations.html"
            ]
        },
        "balboa park": {
            "closest_to": "san luis obispo",
            "locType": "park",
            "address": "Balboa Park, Sergeant John V Young Lane, Ingleside, SF, California, 94112, United States of America",
            "latitude": "37.72494875",
            "longitude": "-122.444804424152",
            "blogLinks": [
                "https://www.gapyear.com/articles/216212/13-incredible-stops-on-the-pacific-coast-highway"
            ]
        },
        "west coast": {
            "closest_to": "san luis obispo",
            "locType": "plumber",
            "address": "West Coast, Motor Avenue, Palms, LA, Los Angeles County, California, 90034-5702, United States of America",
            "latitude": "34.0222263",
            "longitude": "-118.4051087",
            "blogLinks": [
                "https://www.gapyear.com/articles/216212/13-incredible-stops-on-the-pacific-coast-highway"
            ]
        },
        "union square": {
            "closest_to": "san luis obispo",
            "locType": "park",
            "address": "Union Square, Post Street, Chinatown, SF, California, 94115, United States of America",
            "latitude": "37.78794125",
            "longitude": "-122.407502671706",
            "blogLinks": [
                "https://www.gapyear.com/articles/216212/13-incredible-stops-on-the-pacific-coast-highway"
            ]
        },
        "santa cruz": {
            "closest_to": "san luis obispo",
            "locType": "city",
            "address": "Santa Cruz, Santa Cruz County, California, United States of America",
            "latitude": "36.9735903",
            "longitude": "-122.0260569",
            "blogLinks": [
                "https://www.gapyear.com/articles/216212/13-incredible-stops-on-the-pacific-coast-highway"
            ]
        },
        "san diego bay": {
            "closest_to": "big bear lake",
            "locType": "bay",
            "address": "San Diego Bay, Leyte Road, Crown Island, Coronado, San Diego County, California, 92118, United States of America",
            "latitude": "32.6500534",
            "longitude": "-117.1341977",
            "blogLinks": [
                "https://www.gapyear.com/articles/216212/13-incredible-stops-on-the-pacific-coast-highway"
            ]
        },
        "north coast": {
            "closest_to": "san luis obispo",
            "locType": "fuel",
            "address": "Coast, Ashby Avenue, Claremont, Berkeley, Alameda County, California, 94705, United States of America",
            "latitude": "37.858337",
            "longitude": "-122.2447393",
            "blogLinks": [
                "http://www.virtualslo.com/san-luis-obispo-attractions"
            ]
        },
        "golden gate park": {
            "closest_to": "san luis obispo",
            "locType": "park",
            "address": "Golden Gate Park, Overlook Drive, Richmond District, SF, California, 94122, United States of America",
            "latitude": "37.7693681",
            "longitude": "-122.482183611177",
            "blogLinks": [
                "https://www.gapyear.com/articles/216212/13-incredible-stops-on-the-pacific-coast-highway"
            ]
        },
        "atascadero": {
            "closest_to": "san luis obispo",
            "locType": "city",
            "address": "Atascadero, San Luis Obispo County, California, United States of America",
            "latitude": "35.4894169",
            "longitude": "-120.6707254",
            "blogLinks": [
                "http://www.virtualslo.com/san-luis-obispo-attractions"
            ]
        },
        "san luis obispo railroad museum": {
            "closest_to": "san luis obispo",
            "locType": "museum",
            "address": "San Luis Obispo Railroad Museum, 1940, Santa Barbara Street, Railroad District, San Luis Obispo, San Luis Obispo County, California, 93401, United States of America",
            "latitude": "35.2732013",
            "longitude": "-120.655587426774",
            "blogLinks": [
                "https://www.tripadvisor.com/Tourism-g33026-San_Luis_Obispo_San_Luis_Obispo_County_California-Vacations.html"
            ]
        },
        "oxnard": {
            "closest_to": "san luis obispo",
            "locType": "city",
            "address": "Oxnard, Ventura County, California, United States of America",
            "latitude": "34.1976308",
            "longitude": "-119.1803817",
            "blogLinks": [
                "https://www.gapyear.com/articles/216212/13-incredible-stops-on-the-pacific-coast-highway"
            ]
        },
        "pacific beach": {
            "closest_to": "big bear lake",
            "locType": "suburb",
            "address": "Pacific Beach, San Diego, San Diego County, California, United States of America",
            "latitude": "32.7978268",
            "longitude": "-117.2403182",
            "blogLinks": [
                "https://www.gapyear.com/articles/216212/13-incredible-stops-on-the-pacific-coast-highway"
            ]
        },
        "laguna beach": {
            "closest_to": "san luis obispo",
            "locType": "city",
            "address": "Laguna Beach, Orange County, California, United States of America",
            "latitude": "33.5420888",
            "longitude": "-117.7834146",
            "blogLinks": [
                "https://www.gapyear.com/articles/216212/13-incredible-stops-on-the-pacific-coast-highway"
            ]
        },
        "cal poly san luis obispo": {
            "closest_to": "san luis obispo",
            "locType": "parking",
            "address": "Cal Poly, Mount Bishop Road, Paso Robles, San Luis Obispo County, California, 93407, United States of America",
            "latitude": "35.30440705",
            "longitude": "-120.670126285884",
            "blogLinks": [
                "http://www.virtualslo.com/san-luis-obispo-attractions"
            ]
        },
        "black hill": {
            "closest_to": "big bear lake",
            "locType": "peak",
            "address": "Black Hill, San Bernardino County, California, United States of America",
            "latitude": "34.1788953",
            "longitude": "-116.49196",
            "blogLinks": [
                "https://www.gapyear.com/articles/216212/13-incredible-stops-on-the-pacific-coast-highway"
            ]
        },
        "morro bay": {
            "closest_to": "san luis obispo",
            "locType": "city",
            "address": "Morro Bay, San Luis Obispo County, California, United States of America",
            "latitude": "35.3658075",
            "longitude": "-120.8499012",
            "blogLinks": [
                "http://www.sfgate.com/travel/article/San-Luis-Obispo-attractions-Slow-is-the-way-to-go-5112057.php"
            ]
        },
        "tank farm road": {
            "closest_to": "san luis obispo",
            "locType": "tertiary",
            "address": "Tank Farm Road, San Luis Obispo, San Luis Obispo County, California, 93401, United States of America",
            "latitude": "35.2467421",
            "longitude": "-120.66996",
            "blogLinks": [
                "http://www.sfgate.com/travel/article/San-Luis-Obispo-attractions-Slow-is-the-way-to-go-5112057.php"
            ]
        },
        "central coast": {
            "closest_to": "san luis obispo",
            "locType": "residential",
            "address": "Central Coast Street, Bakersfield, Kern County, California, 93314, United States of America",
            "latitude": "35.3611193",
            "longitude": "-119.1665989",
            "blogLinks": [
                "https://www.tripadvisor.com/Tourism-g33026-San_Luis_Obispo_San_Luis_Obispo_County_California-Vacations.html",
                "http://www.sfgate.com/travel/article/San-Luis-Obispo-attractions-Slow-is-the-way-to-go-5112057.php",
                "http://www.destination360.com/north-america/us/california/hearst-castle"
            ]
        },
        "monterey county": {
            "closest_to": "san luis obispo",
            "locType": "administrative",
            "address": "Monterey County, California, United States of America",
            "latitude": "36.2231079",
            "longitude": "-121.3877427",
            "blogLinks": [
                "http://www.destination360.com/north-america/us/california/hearst-castle"
            ]
        },
        "santa maria": {
            "closest_to": "san luis obispo",
            "locType": "city",
            "address": "Santa Maria, Santa Barbara County, California, United States of America",
            "latitude": "34.9531295",
            "longitude": "-120.4358576",
            "blogLinks": [
                "http://www.sfgate.com/travel/article/San-Luis-Obispo-attractions-Slow-is-the-way-to-go-5112057.php"
            ]
        },
        "highway 101": {
            "closest_to": "big bear lake",
            "locType": "primary",
            "address": "Highway 101, Solana Beach, San Diego County, California, 92075, United States of America",
            "latitude": "32.9967358",
            "longitude": "-117.2731974",
            "blogLinks": [
                "http://www.sanluisobispo.com/news/local/article38974257.html"
            ]
        },
        "soda lake": {
            "closest_to": "san luis obispo",
            "locType": "water",
            "address": "Soda Lake, Soda Lake Road, San Luis Obispo County, California, United States of America",
            "latitude": "35.23913735",
            "longitude": "-119.895515964214",
            "blogLinks": [
                "https://www.gapyear.com/articles/216212/13-incredible-stops-on-the-pacific-coast-highway"
            ]
        },
        "rio theatre": {
            "closest_to": "san luis obispo",
            "locType": "theatre",
            "address": "Rio Theatre, Soquel Avenue, Soquel Avenue Commercial Corridor, Eastside, Santa Cruz, Santa Cruz County, California, 95062, United States of America",
            "latitude": "36.9801486",
            "longitude": "-122.0104295",
            "blogLinks": [
                "https://www.gapyear.com/articles/216212/13-incredible-stops-on-the-pacific-coast-highway"
            ]
        },
        "santa barbara county": {
            "closest_to": "san luis obispo",
            "locType": "administrative",
            "address": "Santa Barbara County, California, United States of America",
            "latitude": "34.7136533",
            "longitude": "-119.9858231",
            "blogLinks": [
                "http://www.sfgate.com/travel/article/San-Luis-Obispo-attractions-Slow-is-the-way-to-go-5112057.php"
            ]
        },
        "bay area": {
            "closest_to": "san luis obispo",
            "locType": "region",
            "address": "San Francisco Bay Area, SF, California, United States of America",
            "latitude": "37.7884969",
            "longitude": "-122.3558472",
            "blogLinks": [
                "http://www.tripleblaze.com/best/?c=59",
                "http://www.sfgate.com/travel/article/San-Luis-Obispo-attractions-Slow-is-the-way-to-go-5112057.php"
            ]
        },
        "santa monica pier": {
            "closest_to": "san luis obispo",
            "locType": "service",
            "address": "Santa Monica Pier, Santa Monica, Los Angeles County, California, CA 90401, United States of America",
            "latitude": "34.0104809",
            "longitude": "-118.4960541",
            "blogLinks": [
                "https://www.gapyear.com/articles/216212/13-incredible-stops-on-the-pacific-coast-highway"
            ]
        },
        "coronado bridge": {
            "closest_to": "big bear lake",
            "locType": "motorway",
            "address": "San Diego-Coronado Bridge, San Diego, San Diego County, California, 92118, United States of America",
            "latitude": "32.6904606",
            "longitude": "-117.1524863",
            "blogLinks": [
                "https://www.gapyear.com/articles/216212/13-incredible-stops-on-the-pacific-coast-highway"
            ]
        },
        "san jose": {
            "closest_to": "san luis obispo",
            "locType": "city",
            "address": "San Jos\u00e9, Santa Clara County, California, United States of America",
            "latitude": "37.3361905",
            "longitude": "-121.8905832",
            "blogLinks": [
                "https://www.gapyear.com/articles/216212/13-incredible-stops-on-the-pacific-coast-highway"
            ]
        },
        "san diego county": {
            "closest_to": "big bear lake",
            "locType": "administrative",
            "address": "San Diego County, California, United States of America",
            "latitude": "32.9637838",
            "longitude": "-116.7706276",
            "blogLinks": [
                "https://www.gapyear.com/articles/216212/13-incredible-stops-on-the-pacific-coast-highway"
            ]
        },
        "pacific grove": {
            "closest_to": "san luis obispo",
            "locType": "city",
            "address": "Pacific Grove, Monterey County, California, United States of America",
            "latitude": "36.6174432",
            "longitude": "-121.9155905",
            "blogLinks": [
                "http://www.destination360.com/north-america/us/california/hearst-castle"
            ]
        },
        "los osos": {
            "closest_to": "san luis obispo",
            "locType": "village",
            "address": "Los Osos, San Luis Obispo County, California, United States of America",
            "latitude": "35.3107214",
            "longitude": "-120.8323486",
            "blogLinks": [
                "http://www.sfgate.com/travel/article/San-Luis-Obispo-attractions-Slow-is-the-way-to-go-5112057.php"
            ]
        },
        "el moro elfin forest": {
            "closest_to": "san luis obispo",
            "locType": "protected_area",
            "address": "El Moro Elfin Forest Preserve, 15th Street, Baywood-Los Osos, San Luis Obispo County, California, 93402, United States of America",
            "latitude": "35.33376935",
            "longitude": "-120.82692824744",
            "blogLinks": [
                "http://www.sfgate.com/travel/article/San-Luis-Obispo-attractions-Slow-is-the-way-to-go-5112057.php"
            ]
        },
        "monterey bay aquarium": {
            "closest_to": "san luis obispo",
            "locType": "aquarium",
            "address": "MBA, 886, Cannery Row, Monterey, Monterey County, California, 93940, United States of America",
            "latitude": "36.61809095",
            "longitude": "-121.901680002002",
            "blogLinks": [
                "https://www.gapyear.com/articles/216212/13-incredible-stops-on-the-pacific-coast-highway",
                "http://www.hopper.com/articles/291/five-great-stops-between-los-angeles-and-san-francisco-on-the-pacific-coast-highway"
            ]
        },
        "buellton": {
            "closest_to": "san luis obispo",
            "locType": "city",
            "address": "Buellton, Santa Barbara County, California, United States of America",
            "latitude": "34.6134727",
            "longitude": "-120.1936691",
            "blogLinks": [
                "http://www.sfgate.com/travel/article/San-Luis-Obispo-attractions-Slow-is-the-way-to-go-5112057.php"
            ]
        },
        "carmel-by-the-sea": {
            "closest_to": "san luis obispo",
            "locType": "city",
            "address": "Carmel-by-the-Sea, Monterey County, California, United States of America",
            "latitude": "36.5552387",
            "longitude": "-121.9232878",
            "blogLinks": [
                "https://www.gapyear.com/articles/216212/13-incredible-stops-on-the-pacific-coast-highway",
                "http://www.hopper.com/articles/291/five-great-stops-between-los-angeles-and-san-francisco-on-the-pacific-coast-highway"
            ]
        },
        "oregon": {
            "closest_to": "san luis obispo",
            "locType": "residential",
            "address": "Oregon, Walnut, Irvine, Orange County, California, 92606, United States of America",
            "latitude": "33.7123207",
            "longitude": "-117.7911567",
            "blogLinks": [
                "https://www.gapyear.com/articles/216212/13-incredible-stops-on-the-pacific-coast-highway"
            ]
        },
        "central california": {
            "closest_to": "san luis obispo",
            "locType": "hamlet",
            "address": "Central, Yolo County, California, United States of America",
            "latitude": "38.392688",
            "longitude": "-121.573011",
            "blogLinks": [
                "http://www.virtualslo.com/san-luis-obispo-attractions"
            ]
        },
        "downtown ventura": {
            "closest_to": "san luis obispo",
            "locType": "restaurant",
            "address": "Downtown Johnny's, 14649, Ventura Boulevard, Sherman Oaks, LA, Los Angeles County, California, 91403, United States of America",
            "latitude": "34.15184445",
            "longitude": "-118.452523182928",
            "blogLinks": [
                "https://www.gapyear.com/articles/216212/13-incredible-stops-on-the-pacific-coast-highway"
            ]
        },
        "pfeiffer beach": {
            "closest_to": "san luis obispo",
            "locType": "beach",
            "address": "Pfeiffer Beach, Sycamore Canyon Road, Big Sur, Monterey County, California, 93920, United States of America",
            "latitude": "36.23934855",
            "longitude": "-121.81778571416",
            "blogLinks": [
                "https://www.gapyear.com/articles/216212/13-incredible-stops-on-the-pacific-coast-highway"
            ]
        },
        "alcatraz island": {
            "closest_to": "san luis obispo",
            "locType": "island",
            "address": "Alcatraz Island, SF, California, United States of America",
            "latitude": "37.8267283",
            "longitude": "-122.422746492409",
            "blogLinks": [
                "https://www.gapyear.com/articles/216212/13-incredible-stops-on-the-pacific-coast-highway"
            ]
        },
        "san luis obispo county": {
            "closest_to": "san luis obispo",
            "locType": "administrative",
            "address": "San Luis Obispo County, California, United States of America",
            "latitude": "35.3540209",
            "longitude": "-120.3757162",
            "blogLinks": [
                "https://www.tripadvisor.com/Tourism-g33026-San_Luis_Obispo_San_Luis_Obispo_County_California-Vacations.html",
                "http://www.sanluisobispo.com/news/local/article38974257.html",
                "http://www.hopper.com/articles/291/five-great-stops-between-los-angeles-and-san-francisco-on-the-pacific-coast-highway",
                "http://www.destination360.com/north-america/us/california/hearst-castle"
            ]
        },
        "islay hill": {
            "closest_to": "san luis obispo",
            "locType": "peak",
            "address": "Islay Hill, San Luis Obispo, San Luis Obispo County, California, United States of America",
            "latitude": "35.2455305",
            "longitude": "-120.622392",
            "blogLinks": [
                "https://www.gapyear.com/articles/216212/13-incredible-stops-on-the-pacific-coast-highway"
            ]
        },
        "big sur": {
            "closest_to": "san luis obispo",
            "locType": "village",
            "address": "Big Sur, Monterey County, California, United States of America",
            "latitude": "36.270241",
            "longitude": "-121.8074544",
            "blogLinks": [
                "http://www.destination360.com/north-america/us/california/hearst-castle"
            ]
        },
        "hollywood": {
            "closest_to": "san luis obispo",
            "locType": "suburb",
            "address": "Hollywood, LA, Los Angeles County, California, United States of America",
            "latitude": "34.1028268",
            "longitude": "-118.3299898",
            "blogLinks": [
                "https://www.gapyear.com/articles/216212/13-incredible-stops-on-the-pacific-coast-highway",
                "http://www.destination360.com/north-america/us/california/hearst-castle"
            ]
        },
        "charlottesville": {
            "closest_to": "san luis obispo",
            "locType": "residential",
            "address": "Charlottesville Lane, Ceres, Stanislaus County, California, 95307, United States of America",
            "latitude": "37.605753",
            "longitude": "-120.9356999",
            "blogLinks": [
                "http://www.livability.com/best-places/top-100-best-places-to-live/2016?page=2"
            ]
        },
        "silicon valley": {
            "closest_to": "san luis obispo",
            "locType": "school",
            "address": "Carnegie Mellon Silicon Valley, South Akron Road, Santa Clara County, California, 94035-0016, United States of America",
            "latitude": "37.4105333",
            "longitude": "-122.0597491",
            "blogLinks": [
                "https://www.gapyear.com/articles/216212/13-incredible-stops-on-the-pacific-coast-highway"
            ]
        },
        "denver": {
            "closest_to": "san luis obispo",
            "locType": "residential",
            "address": "Denver, Heritage Park Apartments, El Camino Real, Irvine, Orange County, California, 92604, United States of America",
            "latitude": "33.6996403",
            "longitude": "-117.7762651",
            "blogLinks": [
                "http://www.livability.com/best-places/top-100-best-places-to-live/2016?page=2"
            ]
        },
        "ventura beach": {
            "closest_to": "big bear lake",
            "locType": "unclassified",
            "address": "Ventura Place, Pacific Beach, San Diego, San Diego County, California, 92109, United States of America",
            "latitude": "32.772073",
            "longitude": "-117.2514716",
            "blogLinks": [
                "https://www.gapyear.com/articles/216212/13-incredible-stops-on-the-pacific-coast-highway"
            ]
        },
        "lobero theatre": {
            "closest_to": "san luis obispo",
            "locType": "theatre",
            "address": "Lobero Theatre, Anacapa Street, Santa Barbara, Santa Barbara County, California, 93105, United States of America",
            "latitude": "34.4216681",
            "longitude": "-119.700020768116",
            "blogLinks": [
                "https://www.gapyear.com/articles/216212/13-incredible-stops-on-the-pacific-coast-highway"
            ]
        },
        "san luis obispo": {
            "closest_to": "san luis obispo",
            "locType": "city",
            "address": "San Luis Obispo, San Luis Obispo County, California, United States of America",
            "latitude": "35.2827525",
            "longitude": "-120.6596155",
            "blogLinks": [
                "http://www.livability.com/best-places/top-100-best-places-to-live/2016?page=2",
                "http://www.destination360.com/north-america/us/california/hearst-castle",
                "https://www.gapyear.com/articles/216212/13-incredible-stops-on-the-pacific-coast-highway",
                "http://www.sanluisobispo.com/news/local/article38974257.html",
                "http://www.sfgate.com/travel/article/San-Luis-Obispo-attractions-Slow-is-the-way-to-go-5112057.php",
                "https://www.tripadvisor.com/Tourism-g33026-San_Luis_Obispo_San_Luis_Obispo_County_California-Vacations.html",
                "http://www.virtualslo.com/san-luis-obispo-attractions"
            ]
        },
        "santa barbara": {
            "closest_to": "san luis obispo",
            "locType": "city",
            "address": "Santa Barbara, Santa Barbara County, California, United States of America",
            "latitude": "34.4221319",
            "longitude": "-119.7026672",
            "blogLinks": [
                "https://www.gapyear.com/articles/216212/13-incredible-stops-on-the-pacific-coast-highway",
                "http://www.hopper.com/articles/291/five-great-stops-between-los-angeles-and-san-francisco-on-the-pacific-coast-highway"
            ]
        },
        "pismo beach": {
            "closest_to": "san luis obispo",
            "locType": "city",
            "address": "Pismo Beach, San Luis Obispo County, California, United States of America",
            "latitude": "35.1427533",
            "longitude": "-120.6412826",
            "blogLinks": [
                "https://www.gapyear.com/articles/216212/13-incredible-stops-on-the-pacific-coast-highway",
                "http://www.sanluisobispo.com/news/local/article38974257.html",
                "http://www.hopper.com/articles/291/five-great-stops-between-los-angeles-and-san-francisco-on-the-pacific-coast-highway",
                "http://www.virtualslo.com/san-luis-obispo-attractions"
            ]
        },
        "huntington beach": {
            "closest_to": "san luis obispo",
            "locType": "city",
            "address": "Huntington Beach, Orange County, California, United States of America",
            "latitude": "33.6783336",
            "longitude": "-118.0000165",
            "blogLinks": [
                "https://www.gapyear.com/articles/216212/13-incredible-stops-on-the-pacific-coast-highway"
            ]
        },
        "downtown san luis obispo": {
            "closest_to": "san luis obispo",
            "locType": "motel",
            "address": "Avenue Inn Downtown San Luis Obispo, 345, Pacific Street, San Luis Obispo, San Luis Obispo County, California, 93401, United States of America",
            "latitude": "35.2748845",
            "longitude": "-120.66819803545",
            "blogLinks": [
                "https://www.gapyear.com/articles/216212/13-incredible-stops-on-the-pacific-coast-highway"
            ]
        },
        "point sur state historic park": {
            "closest_to": "san luis obispo",
            "locType": "park",
            "address": "Point Sur State Historic Park, Cabrillo Highway, Big Sur, Monterey County, California, 93923, United States of America",
            "latitude": "36.315378",
            "longitude": "-121.881955510784",
            "blogLinks": [
                "https://www.gapyear.com/articles/216212/13-incredible-stops-on-the-pacific-coast-highway"
            ]
        },
        "east beach": {
            "closest_to": "san luis obispo",
            "locType": "beach",
            "address": "East Beach, Mason Street, Presidio Heights, SF, California, 94129, United States of America",
            "latitude": "37.8061771",
            "longitude": "-122.452368017781",
            "blogLinks": [
                "https://www.gapyear.com/articles/216212/13-incredible-stops-on-the-pacific-coast-highway"
            ]
        },
        "san simeon": {
            "closest_to": "san luis obispo",
            "locType": "hamlet",
            "address": "San Simeon, San Luis Obispo County, California, United States of America",
            "latitude": "35.6438587",
            "longitude": "-121.1907532",
            "blogLinks": [
                "https://www.gapyear.com/articles/216212/13-incredible-stops-on-the-pacific-coast-highway",
                "http://www.hopper.com/articles/291/five-great-stops-between-los-angeles-and-san-francisco-on-the-pacific-coast-highway",
                "http://www.destination360.com/north-america/us/california/hearst-castle",
                "http://www.virtualslo.com/san-luis-obispo-attractions"
            ]
        },
        "pacific ocean": {
            "closest_to": "san luis obispo",
            "locType": "cliff",
            "address": "Pacific Ocean, Cabrillo Highway, Monterey County, California, 93920, United States of America",
            "latitude": "36.16305775",
            "longitude": "-121.678715787326",
            "blogLinks": [
                "http://www.livability.com/best-places/top-100-best-places-to-live/2016?page=2",
                "http://www.hopper.com/articles/291/five-great-stops-between-los-angeles-and-san-francisco-on-the-pacific-coast-highway",
                "http://www.virtualslo.com/san-luis-obispo-attractions"
            ]
        },
        "san elijo": {
            "closest_to": "big bear lake",
            "locType": "residential",
            "address": "San Elijo, Olivenhain, San Diego County, California, 92091, United States of America",
            "latitude": "33.0228",
            "longitude": "-117.2283709",
            "blogLinks": [
                "http://www.tripleblaze.com/best/?c=59"
            ]
        },
        "mcway falls": {
            "closest_to": "san luis obispo",
            "locType": "waterfall",
            "address": "McWay Falls, Monterey County, California, United States of America",
            "latitude": "36.1578211",
            "longitude": "-121.6723957",
            "blogLinks": [
                "https://www.gapyear.com/articles/216212/13-incredible-stops-on-the-pacific-coast-highway"
            ]
        },
        "san fernando valley": {
            "closest_to": "san luis obispo",
            "locType": "administrative",
            "address": "San Fernando, Los Angeles County, California, United States of America",
            "latitude": "34.2819461",
            "longitude": "-118.4389718",
            "blogLinks": [
                "https://www.gapyear.com/articles/216212/13-incredible-stops-on-the-pacific-coast-highway"
            ]
        },
        "diablo canyon": {
            "closest_to": "san luis obispo",
            "locType": "industrial",
            "address": "Centrale nucl\u00e9aire de Diablo Canyon, San Luis Obispo County, California, United States of America",
            "latitude": "35.2120261",
            "longitude": "-120.85429598377",
            "blogLinks": [
                "http://www.sanluisobispo.com/news/local/article38974257.html"
            ]
        },
        "bubblegum alley": {
            "closest_to": "san luis obispo",
            "locType": "attraction",
            "address": "Bubblegum Alley, San Luis Obispo, San Luis Obispo County, California, 93405, United States of America",
            "latitude": "35.2791663",
            "longitude": "-120.6638629",
            "blogLinks": [
                "https://www.gapyear.com/articles/216212/13-incredible-stops-on-the-pacific-coast-highway",
                "http://www.sfgate.com/travel/article/San-Luis-Obispo-attractions-Slow-is-the-way-to-go-5112057.php"
            ]
        },
        "long beach": {
            "closest_to": "san luis obispo",
            "locType": "city",
            "address": "Long Beach, Los Angeles County, California, United States of America",
            "latitude": "33.78538945",
            "longitude": "-118.158049215311",
            "blogLinks": [
                "https://www.gapyear.com/articles/216212/13-incredible-stops-on-the-pacific-coast-highway"
            ]
        },
        "dinosaur caves park": {
            "closest_to": "san luis obispo",
            "locType": "park",
            "address": "Dinosaur Caves Park, 2701, Price Street, Pismo Beach, San Luis Obispo County, California, 93449, United States of America",
            "latitude": "35.15378375",
            "longitude": "-120.664611203543",
            "blogLinks": [
                "http://www.sanluisobispo.com/news/local/article38974257.html"
            ]
        },
        "lopez lake": {
            "closest_to": "san luis obispo",
            "locType": "water",
            "address": "Lopez Lake, Wittenberg Creek, San Luis Obispo County, California, 94320, United States of America",
            "latitude": "35.2060338",
            "longitude": "-120.483517275303",
            "blogLinks": [
                "http://www.sanluisobispo.com/news/local/article38974257.html"
            ]
        },
        "sunset boulevard": {
            "closest_to": "san luis obispo",
            "locType": "primary",
            "address": "Sunset Boulevard, Echo Park, Angelino Heights, LA, Los Angeles County, California, 90026, United States of America",
            "latitude": "34.0759222",
            "longitude": "-118.2554183",
            "blogLinks": [
                "https://www.gapyear.com/articles/216212/13-incredible-stops-on-the-pacific-coast-highway"
            ]
        },
        "united states": {
            "closest_to": "san luis obispo",
            "locType": "administrative",
            "address": "California, United States of America",
            "latitude": "36.7014631",
            "longitude": "-118.7559973",
            "blogLinks": [
                "https://www.tripadvisor.com/Tourism-g33026-San_Luis_Obispo_San_Luis_Obispo_County_California-Vacations.html"
            ]
        },
        "santa cruz beach boardwalk": {
            "closest_to": "san luis obispo",
            "locType": "attraction",
            "address": "Santa Cruz Beach Boardwalk, Boardwalk, Beach & Boardwalk District (Commercial), Seabright, Santa Cruz, Santa Cruz County, California, 1982, United States of America",
            "latitude": "36.96446855",
            "longitude": "-122.016027247326",
            "blogLinks": [
                "https://www.gapyear.com/articles/216212/13-incredible-stops-on-the-pacific-coast-highway"
            ]
        },
        "pacific coast highway": {
            "closest_to": "san luis obispo",
            "locType": "primary",
            "address": "Pacific Coast Highway, Huntington Beach, Orange County, California, 92648, United States of America",
            "latitude": "33.6595127",
            "longitude": "-118.0051687",
            "blogLinks": [
                "https://www.gapyear.com/articles/216212/13-incredible-stops-on-the-pacific-coast-highway",
                "http://www.hopper.com/articles/291/five-great-stops-between-los-angeles-and-san-francisco-on-the-pacific-coast-highway"
            ]
        },
        "monterey": {
            "closest_to": "san luis obispo",
            "locType": "city",
            "address": "Monterey, Monterey County, California, United States of America",
            "latitude": "36.5844165",
            "longitude": "-121.866792846206",
            "blogLinks": [
                "https://www.gapyear.com/articles/216212/13-incredible-stops-on-the-pacific-coast-highway",
                "https://www.tripadvisor.com/Tourism-g33026-San_Luis_Obispo_San_Luis_Obispo_County_California-Vacations.html",
                "http://www.destination360.com/north-america/us/california/hearst-castle",
                "http://www.virtualslo.com/san-luis-obispo-attractions"
            ]
        },
        "los angeles": {
            "closest_to": "san luis obispo",
            "locType": "city",
            "address": "LA, Los Angeles County, California, United States of America",
            "latitude": "34.0543942",
            "longitude": "-118.2439408",
            "blogLinks": [
                "https://www.gapyear.com/articles/216212/13-incredible-stops-on-the-pacific-coast-highway",
                "https://www.tripadvisor.com/Tourism-g33026-San_Luis_Obispo_San_Luis_Obispo_County_California-Vacations.html",
                "http://www.hopper.com/articles/291/five-great-stops-between-los-angeles-and-san-francisco-on-the-pacific-coast-highway"
            ]
        },
        "california coast": {
            "closest_to": "big bear lake",
            "locType": "bank",
            "address": "California Coast Credit Union, Park Boulevard, Hillcrest, San Diego, San Diego County, California, 92116, United States of America",
            "latitude": "32.7586361",
            "longitude": "-117.1464145",
            "blogLinks": [
                "http://www.virtualslo.com/san-luis-obispo-attractions"
            ]
        },
        "lombard street": {
            "closest_to": "san luis obispo",
            "locType": "residential",
            "address": "1079, Lombard Street, Russian Hill, SF, California, 94109, United States of America",
            "latitude": "37.802076",
            "longitude": "-122.418809",
            "blogLinks": [
                "https://www.gapyear.com/articles/216212/13-incredible-stops-on-the-pacific-coast-highway"
            ]
        },
        "irvine": {
            "closest_to": "san luis obispo",
            "locType": "city",
            "address": "Irvine, Orange County, California, United States of America",
            "latitude": "33.6856969",
            "longitude": "-117.8259818",
            "blogLinks": [
                "http://www.tripleblaze.com/best/?c=59"
            ]
        },
        "nipomo": {
            "closest_to": "san luis obispo",
            "locType": "administrative",
            "address": "Nipomo, Crosby Way, Nipomo, San Luis Obispo County, California, 93444, United States of America",
            "latitude": "35.0358216",
            "longitude": "-120.496418815962",
            "blogLinks": [
                "http://www.virtualslo.com/san-luis-obispo-attractions"
            ]
        },
        "morro bay estuary": {
            "closest_to": "san luis obispo",
            "locType": "protected_area",
            "address": "Morro Estuary Natural Preserve, Morro Bay State Park Road, Morro Bay, San Luis Obispo County, California, 93442, United States of America",
            "latitude": "35.34429655",
            "longitude": "-120.832195691858",
            "blogLinks": [
                "http://www.virtualslo.com/san-luis-obispo-attractions"
            ]
        },
        "south": {
            "closest_to": "san luis obispo",
            "locType": "peak",
            "address": "South, Los Angeles County, California, United States of America",
            "latitude": "33.3054766",
            "longitude": "-118.3432299",
            "blogLinks": [
                "http://www.destination360.com/north-america/us/california/hearst-castle"
            ]
        },
        "westport beach": {
            "closest_to": "san luis obispo",
            "locType": "residential",
            "address": "Westport, Newport Center, Newport Beach, Orange County, California, 92660, United States of America",
            "latitude": "33.637635",
            "longitude": "-117.8688239",
            "blogLinks": [
                "http://www.tripleblaze.com/best/?c=59"
            ]
        },
        "carrizo plain national monument": {
            "closest_to": "san luis obispo",
            "locType": "national_park",
            "address": "Carrizo Plain National Monument, Soda Lake Road, San Luis Obispo County, California, United States of America",
            "latitude": "35.1145994",
            "longitude": "-119.723426208757",
            "blogLinks": [
                "http://www.sanluisobispo.com/news/local/article38974257.html"
            ]
        },
        "palo alto": {
            "closest_to": "san luis obispo",
            "locType": "city",
            "address": "Palo Alto, Santa Clara County, California, United States of America",
            "latitude": "37.442156",
            "longitude": "-122.1634471",
            "blogLinks": [
                "http://gocalifornia.about.com/od/caplaceslist/"
            ]
        },
        "port san luis": {
            "closest_to": "san luis obispo",
            "locType": "hamlet",
            "address": "Port San Luis, San Luis Obispo County, California, United States of America",
            "latitude": "35.1749752",
            "longitude": "-120.7551761",
            "blogLinks": [
                "http://www.sanluisobispo.com/news/local/article38974257.html"
            ]
        },
        "san andreas fault": {
            "closest_to": "san luis obispo",
            "locType": "fault",
            "address": "San Andreas Fault, Franciscan Loop Trail, Los Trancos Woods, San Mateo County, California, United States of America",
            "latitude": "37.3266078",
            "longitude": "-122.1794844",
            "blogLinks": [
                "http://www.sanluisobispo.com/news/local/article38974257.html"
            ]
        },
        "wilder ranch state park": {
            "closest_to": "san luis obispo",
            "locType": "park",
            "address": "Wilder Ranch State Park, Coast Road, Westside, Santa Cruz County, California, 95060, United States of America",
            "latitude": "36.96021805",
            "longitude": "-122.079566815934",
            "blogLinks": [
                "https://www.gapyear.com/articles/216212/13-incredible-stops-on-the-pacific-coast-highway"
            ]
        },
        "santa barbara botanic garden": {
            "closest_to": "san luis obispo",
            "locType": "park",
            "address": "Santa Barbara Botanic Gardens, Mission Canyon Road, Mission Canyon, Santa Barbara County, California, 93105, United States of America",
            "latitude": "34.456953",
            "longitude": "-119.709585108231",
            "blogLinks": [
                "https://www.gapyear.com/articles/216212/13-incredible-stops-on-the-pacific-coast-highway"
            ]
        },
        "newport beach": {
            "closest_to": "san luis obispo",
            "locType": "city",
            "address": "Newport Beach, Orange County, California, United States of America",
            "latitude": "33.6170092",
            "longitude": "-117.92944",
            "blogLinks": [
                "https://www.gapyear.com/articles/216212/13-incredible-stops-on-the-pacific-coast-highway"
            ]
        },
        "montana": {
            "closest_to": "san luis obispo",
            "locType": "residential",
            "address": "Montana, Rovana, Inyo County, California, United States of America",
            "latitude": "37.413991",
            "longitude": "-118.6129969",
            "blogLinks": [
                "http://www.tripleblaze.com/best/?c=59",
                "http://www.virtualslo.com/san-luis-obispo-attractions"
            ]
        },
        "rodeo drive": {
            "closest_to": "big bear lake",
            "locType": "residential",
            "address": "Rodeo Drive, La Jolla, San Diego, San Diego County, California, 92037, United States of America",
            "latitude": "32.824444",
            "longitude": "-117.2609329",
            "blogLinks": [
                "https://www.gapyear.com/articles/216212/13-incredible-stops-on-the-pacific-coast-highway"
            ]
        },
        "ano nuevo state park": {
            "closest_to": "san luis obispo",
            "locType": "park",
            "address": "A\u00f1o Nuevo State Park, White House Canyon Road, San Mateo County, California, United States of America",
            "latitude": "37.1642859",
            "longitude": "-122.328030779329",
            "blogLinks": [
                "https://www.gapyear.com/articles/216212/13-incredible-stops-on-the-pacific-coast-highway"
            ]
        },
        "malibu": {
            "closest_to": "big bear lake",
            "locType": "residential",
            "address": "Malibu, Palm Springs, Riverside County, California, 92264, United States of America",
            "latitude": "33.7932142",
            "longitude": "-116.5023561",
            "blogLinks": [
                "https://www.gapyear.com/articles/216212/13-incredible-stops-on-the-pacific-coast-highway"
            ]
        }
    }
}