{
    "carlsbad": {
        "type": "city",
        "osm_id": "2305279",
        "class": "place",
        "importance": 0.66828891079931,
        "lat": "33.1580933",
        "lon": "-117.3505938",
        "boundingbox": [
            "33.0601812",
            "33.1824213",
            "-117.3588312",
            "-117.2162645"
        ],
        "display_name": "Carlsbad, San Diego County, California, United States of America",
        "licence": "Data \u00a9 OpenStreetMap contributors, ODbL 1.0. http://www.openstreetmap.org/copyright",
        "icon": "https://nominatim.openstreetmap.org/images/mapicons/poi_place_city.p.20.png",
        "place_id": "159570669",
        "osm_type": "relation"
    },
    "mentions": {
        "highway 101": {
            "latitude": "32.9967358",
            "closest_to": "carlsbad",
            "address": "Highway 101, Solana Beach, San Diego County, California, 92075, United States of America",
            "locType": "primary",
            "blogLinks": [
                "http://www.sandiego.org/articles/tours-sightseeing/highway-101-california.aspx"
            ],
            "longitude": "-117.2731974"
        },
        "fairbanks ranch": {
            "latitude": "33.7438604",
            "closest_to": "fremont",
            "address": "Fairbanks Drive, Tustin Ranch, Tustin, Orange County, California, 92782, United States of America",
            "locType": "residential",
            "blogLinks": [
                "http://www.sandiego.org/articles/tours-sightseeing/highway-101-california.aspx"
            ],
            "longitude": "-117.7880668"
        },
        "museum of contemporary art san diego": {
            "latitude": "32.8445548",
            "closest_to": "carlsbad",
            "address": "Museum of Contemporary Art San Diego, 700, Prospect Street, La Jolla, San Diego, San Diego County, California, 92037-4291, United States of America",
            "locType": "museum",
            "blogLinks": [
                "http://www.sandiego.org/articles/25-fun-free-things-to-do-in-san-diego.aspx"
            ],
            "longitude": "-117.2779949"
        },
        "palos verdes peninsula ca": {
            "latitude": "33.77984925",
            "closest_to": "fremont",
            "address": "Palos Verdes Peninsula High School, Hawthorne Boulevard, Rolling Hills Estates, Los Angeles County, California, 90274, United States of America",
            "locType": "school",
            "blogLinks": [
                "http://www.california-blog.com/"
            ],
            "longitude": "-118.372196730215"
        },
        "grand canyon village": {
            "latitude": "34.1825988",
            "closest_to": "fremont",
            "address": "California State University, San Bernardino, Central Walk, San Bernardino, San Bernardino County, California, 92407, United States of America",
            "locType": "university",
            "blogLinks": [
                "http://www.distancesfrom.com/us/distance-from-Fremont-to-Fremont-via-Grand-Canyon-Village-Page-Las-Vegas-San-Diego-Carlsbad-Los-Ange/DistanceHistory/26920581.aspx"
            ],
            "longitude": "-117.321886392209"
        },
        "usa": {
            "latitude": "36.7014631",
            "closest_to": "fremont",
            "address": "California, United States of America",
            "locType": "administrative",
            "blogLinks": [
                "http://www.sandiego.org/articles/tours-sightseeing/highway-101-california.aspx",
                "http://www.distancesfrom.com/us/distance-from-Fremont-to-Fremont-via-Grand-Canyon-Village-Page-Las-Vegas-San-Diego-Carlsbad-Los-Ange/DistanceHistory/26920581.aspx"
            ],
            "longitude": "-118.7559973"
        },
        "pioneer village": {
            "latitude": "37.29948025",
            "closest_to": "fremont",
            "address": "Pioneer Village, Merced, Merced County, California, 95340, United States of America",
            "locType": "residential",
            "blogLinks": [
                "http://www.movoto.com/blog/top-ten/best-places-in-new-mexico/"
            ],
            "longitude": "-120.496377139436"
        },
        "legoland drive": {
            "latitude": "33.1334161",
            "closest_to": "carlsbad",
            "address": "Legoland Drive, Carlsbad, San Diego County, California, 92009, United States of America",
            "locType": "tertiary",
            "blogLinks": [
                "http://www.distancesfrom.com/us/travel-from-Fremont-to-Legoland-Drive-Carlsbad/TravelFromHistory/12857914.aspx"
            ],
            "longitude": "-117.3171628"
        },
        "mount san jacinto ca": {
            "latitude": "33.7839084",
            "closest_to": "fremont",
            "address": "San Jacinto, Riverside County, California, United States of America",
            "locType": "city",
            "blogLinks": [
                "http://www.california-blog.com/"
            ],
            "longitude": "-116.9586349"
        },
        "charlottesville": {
            "latitude": "37.605753",
            "closest_to": "fremont",
            "address": "Charlottesville Lane, Ceres, Stanislaus County, California, 95307, United States of America",
            "locType": "residential",
            "blogLinks": [
                "http://www.cbsnews.com/news/the-10-happiest-and-saddest-cities-in-the-us/"
            ],
            "longitude": "-120.9356999"
        },
        "mount san gorgonio ca": {
            "latitude": "33.9121294",
            "closest_to": "fremont",
            "address": "San Gorgonio Avenue, Banning, Riverside County, California, 92220, United States of America",
            "locType": "secondary",
            "blogLinks": [
                "http://www.california-blog.com/"
            ],
            "longitude": "-116.8766731"
        },
        "mission bay ca": {
            "latitude": "37.7707742",
            "closest_to": "fremont",
            "address": "Mission Bay, SF, California, 94158, United States of America",
            "locType": "neighbourhood",
            "blogLinks": [
                "http://www.california-blog.com/"
            ],
            "longitude": "-122.3911711"
        },
        "prague": {
            "latitude": "37.722053",
            "closest_to": "fremont",
            "address": "Prague Street, Crocker-Amazon, SF, California, 94112, United States of America",
            "locType": "residential",
            "blogLinks": [
                "http://karolinapatryk.com/karlovy-vary-travel-guide/"
            ],
            "longitude": "-122.4248479"
        },
        "moreno valley ca": {
            "latitude": "33.937517",
            "closest_to": "fremont",
            "address": "Moreno Valley, Riverside County, California, United States of America",
            "locType": "city",
            "blogLinks": [
                "http://www.california-blog.com/"
            ],
            "longitude": "-117.2305943"
        },
        "mission san luis rey": {
            "latitude": "33.22648",
            "closest_to": "fremont",
            "address": "San Luis Rey Mission Expressway, Oceanside, San Diego County, California, 92057, United States of America",
            "locType": "trunk",
            "blogLinks": [
                "http://www.sandiego.org/articles/tours-sightseeing/highway-101-california.aspx"
            ],
            "longitude": "-117.3235506"
        },
        "d.c.": {
            "latitude": "36.82841715",
            "closest_to": "fremont",
            "address": "CL, Clovis, Fresno County, California, 93612, United States of America",
            "locType": "basin",
            "blogLinks": [
                "http://www.cbsnews.com/news/the-10-happiest-and-saddest-cities-in-the-us/"
            ],
            "longitude": "-119.728121480654"
        },
        "del mar fairgrounds": {
            "latitude": "32.97578065",
            "closest_to": "carlsbad",
            "address": "Del Mar Fairgrounds, 2260, Jimmy Durante Boulevard, Del Mar, San Diego County, California, 92014, United States of America",
            "locType": "pitch",
            "blogLinks": [
                "http://www.sandiego.org/articles/tours-sightseeing/highway-101-california.aspx"
            ],
            "longitude": "-117.261735377207"
        },
        "science center": {
            "latitude": "37.96779075",
            "closest_to": "fremont",
            "address": "Science Center (SC) 401, Stubbs Road, Pleasant Hill, Contra Costa County, California, 94523, United States of America",
            "locType": "yes",
            "blogLinks": [
                "http://www.movoto.com/blog/top-ten/best-places-in-new-mexico/"
            ],
            "longitude": "-122.074593288525"
        },
        "la jolla": {
            "latitude": "32.8472711",
            "closest_to": "carlsbad",
            "address": "La Jolla, San Diego, San Diego County, California, United States of America",
            "locType": "suburb",
            "blogLinks": [
                "http://www.sandiego.org/articles/tours-sightseeing/highway-101-california.aspx",
                "http://www.sandiego.org/articles/25-fun-free-things-to-do-in-san-diego.aspx"
            ],
            "longitude": "-117.2742085"
        },
        "pacific": {
            "latitude": "38.7601815",
            "closest_to": "fremont",
            "address": "Pacific, El Dorado County, California, United States of America",
            "locType": "hamlet",
            "blogLinks": [
                "http://www.sandiego.org/articles/tours-sightseeing/highway-101-california.aspx"
            ],
            "longitude": "-120.507146"
        },
        "encinitas": {
            "latitude": "33.0369867",
            "closest_to": "carlsbad",
            "address": "Encinitas, San Diego County, California, United States of America",
            "locType": "city",
            "blogLinks": [
                "http://www.sandiego.org/articles/tours-sightseeing/highway-101-california.aspx"
            ],
            "longitude": "-117.2919817"
        },
        "southern california": {
            "latitude": "34.0224149",
            "closest_to": "fremont",
            "address": "University of Southern California, Watt Way, Saint James Park, LA, Los Angeles County, California, 90089, United States of America",
            "locType": "university",
            "blogLinks": [
                "http://www.sandiego.org/articles/tours-sightseeing/highway-101-california.aspx"
            ],
            "longitude": "-118.286343973446"
        },
        "north albuquerque": {
            "latitude": "32.8074701",
            "closest_to": "carlsbad",
            "address": "Albuquerque Street, Pacific Beach, San Diego, San Diego County, California, 92109, United States of America",
            "locType": "residential",
            "blogLinks": [
                "http://www.movoto.com/blog/top-ten/best-places-in-new-mexico/"
            ],
            "longitude": "-117.2184314"
        },
        "colorado": {
            "latitude": "33.71351445",
            "closest_to": "fremont",
            "address": "Colorado, Walnut, Irvine, Orange County, California, 92606, United States of America",
            "locType": "residential",
            "blogLinks": [
                "http://www.cbsnews.com/news/the-10-happiest-and-saddest-cities-in-the-us/"
            ],
            "longitude": "-117.791165718199"
        },
        "old town san diego": {
            "latitude": "32.7542167",
            "closest_to": "carlsbad",
            "address": "Old Town San Diego, San Diego County, California, United States of America",
            "locType": "hamlet",
            "blogLinks": [
                "http://www.california-blog.com/"
            ],
            "longitude": "-117.1969792"
        },
        "solana beach": {
            "latitude": "32.9905597",
            "closest_to": "carlsbad",
            "address": "Solana Beach, San Diego County, California, United States of America",
            "locType": "city",
            "blogLinks": [
                "http://www.sandiego.org/articles/tours-sightseeing/highway-101-california.aspx"
            ],
            "longitude": "-117.2691315"
        },
        "oceanside": {
            "latitude": "33.1958696",
            "closest_to": "fremont",
            "address": "Oceanside, San Diego County, California, United States of America",
            "locType": "city",
            "blogLinks": [
                "http://www.sandiego.org/articles/tours-sightseeing/highway-101-california.aspx"
            ],
            "longitude": "-117.3794833"
        },
        "otay lake reservoir": {
            "latitude": "32.628006",
            "closest_to": "carlsbad",
            "address": "Lower Otay Reservoir, Eastlake Greens, San Diego County, California, 91915, United States of America",
            "locType": "reservoir",
            "blogLinks": [
                "http://www.sandiego.org/articles/25-fun-free-things-to-do-in-san-diego.aspx"
            ],
            "longitude": "-116.926258556031"
        },
        "duke city": {
            "latitude": "39.1504525",
            "closest_to": "fremont",
            "address": "Duke Court, Yuba City, Sutter County, California, 95991, United States of America",
            "locType": "residential",
            "blogLinks": [
                "http://www.movoto.com/blog/top-ten/best-places-in-new-mexico/"
            ],
            "longitude": "-121.6277765"
        },
        "hollywood": {
            "latitude": "34.1028268",
            "closest_to": "fremont",
            "address": "Hollywood, LA, Los Angeles County, California, United States of America",
            "locType": "suburb",
            "blogLinks": [
                "http://www.sandiego.org/articles/tours-sightseeing/highway-101-california.aspx"
            ],
            "longitude": "-118.3299898"
        },
        "mount baldy ca": {
            "latitude": "34.2361168",
            "closest_to": "fremont",
            "address": "Mount Baldy, Los Angeles County, California, United States of America",
            "locType": "hamlet",
            "blogLinks": [
                "http://www.california-blog.com/"
            ],
            "longitude": "-117.6600552"
        },
        "mount palomar ca": {
            "latitude": "33.1278146",
            "closest_to": "carlsbad",
            "address": "California Bank & Trust, 2501, Palomar Airport Road, Carlsbad, San Diego County, California, 92011, United States of America",
            "locType": "bank",
            "blogLinks": [
                "http://www.california-blog.com/"
            ],
            "longitude": "-117.270809764613"
        },
        "museum of contemporary art san diego - la jolla": {
            "latitude": "32.8445548",
            "closest_to": "carlsbad",
            "address": "Museum of Contemporary Art San Diego, 700, Prospect Street, La Jolla, San Diego, San Diego County, California, 92037-4291, United States of America",
            "locType": "museum",
            "blogLinks": [
                "http://www.sandiego.org/articles/tours-sightseeing/highway-101-california.aspx"
            ],
            "longitude": "-117.2779949"
        },
        "coast highway": {
            "latitude": "33.1818019",
            "closest_to": "fremont",
            "address": "Coast Highway, 1304 1/2, South Tremont Street, Oceanside, San Diego County, California, 92054, United States of America",
            "locType": "station",
            "blogLinks": [
                "http://www.sandiego.org/articles/tours-sightseeing/highway-101-california.aspx"
            ],
            "longitude": "-117.368699"
        },
        "rock spring": {
            "latitude": "33.6940465",
            "closest_to": "fremont",
            "address": "Rock Spring, El Camino Real, Irvine, Orange County, California, 92604, United States of America",
            "locType": "residential",
            "blogLinks": [
                "http://karolinapatryk.com/karlovy-vary-travel-guide/"
            ],
            "longitude": "-117.7884599"
        },
        "ca": {
            "latitude": "37.8242285466918",
            "closest_to": "fremont",
            "address": "Piedmont, Alameda County, California, ca, United States of America",
            "locType": "postcode",
            "blogLinks": [
                "http://www.distancesfrom.com/us/distance-from-Fremont-to-Fremont-via-Grand-Canyon-Village-Page-Las-Vegas-San-Diego-Carlsbad-Los-Ange/DistanceHistory/26920581.aspx"
            ],
            "longitude": "-122.232613735941"
        },
        "morongo valley": {
            "latitude": "34.0537585",
            "closest_to": "fremont",
            "address": "Morongo Valley, Vista Drive, Morongo Valley, San Bernardino County, California, 92256, United States of America",
            "locType": "administrative",
            "blogLinks": [
                "http://www.california-blog.com/"
            ],
            "longitude": "-116.596723958419"
        },
        "west coast": {
            "latitude": "34.0222263",
            "closest_to": "fremont",
            "address": "West Coast, Motor Avenue, Palms, LA, Los Angeles County, California, 90034-5702, United States of America",
            "locType": "plumber",
            "blogLinks": [
                "http://www.sandiego.org/articles/tours-sightseeing/highway-101-california.aspx"
            ],
            "longitude": "-118.4051087"
        },
        "balboa park": {
            "latitude": "37.72494875",
            "closest_to": "fremont",
            "address": "Balboa Park, Sergeant John V Young Lane, Ingleside, SF, California, 94112, United States of America",
            "locType": "park",
            "blogLinks": [
                "http://www.sandiego.org/articles/25-fun-free-things-to-do-in-san-diego.aspx"
            ],
            "longitude": "-122.444804424152"
        },
        "artesia": {
            "latitude": "33.8690197",
            "closest_to": "fremont",
            "address": "Artesia, Los Angeles County, California, United States of America",
            "locType": "city",
            "blogLinks": [
                "http://www.movoto.com/blog/top-ten/best-places-in-new-mexico/"
            ],
            "longitude": "-118.0796194"
        },
        "bohemia": {
            "latitude": "39.446293",
            "closest_to": "fremont",
            "address": "Bohemia Avenue, Palermo, Butte County, California, 95966, United States of America",
            "locType": "residential",
            "blogLinks": [
                "http://www.sandiego.org/articles/tours-sightseeing/highway-101-california.aspx"
            ],
            "longitude": "-121.5351519"
        },
        "morro bay ca": {
            "latitude": "35.3658075",
            "closest_to": "fremont",
            "address": "Morro Bay, San Luis Obispo County, California, United States of America",
            "locType": "city",
            "blogLinks": [
                "http://www.california-blog.com/"
            ],
            "longitude": "-120.8499012"
        },
        "monterey peninsula ca": {
            "latitude": "36.5878734",
            "closest_to": "fremont",
            "address": "Monterey Regional Airport, Airport Road, Seaside, Del Monte Heights, Monterey County, California, 93940, United States of America",
            "locType": "aerodrome",
            "blogLinks": [
                "http://www.california-blog.com/"
            ],
            "longitude": "-121.843618374407"
        },
        "lake view": {
            "latitude": "37.0431899",
            "closest_to": "fremont",
            "address": "Lake View, Vista del Lago Mobile Home Park, Scotts Valley, Santa Cruz County, California, 95066, United States of America",
            "locType": "residential",
            "blogLinks": [
                "http://www.seattle.gov/visiting-seattle/points-of-interest"
            ],
            "longitude": "-122.0311295"
        },
        "los alamos": {
            "latitude": "34.7379311",
            "closest_to": "fremont",
            "address": "Los Alamos, Bell Street, Los Alamos, Santa Barbara County, California, 93455, United States of America",
            "locType": "administrative",
            "blogLinks": [
                "http://www.movoto.com/blog/top-ten/best-places-in-new-mexico/"
            ],
            "longitude": "-120.26591036241"
        },
        "san diego botanic garden": {
            "latitude": "33.053482",
            "closest_to": "carlsbad",
            "address": "San Diego Botanic Garden, Pacific View Lane, Encinitas, San Diego County, California, 92024, United States of America",
            "locType": "garden",
            "blogLinks": [
                "http://www.sandiego.org/articles/tours-sightseeing/highway-101-california.aspx"
            ],
            "longitude": "-117.281085005264"
        },
        "fremont": {
            "latitude": "37.5482697",
            "closest_to": "fremont",
            "address": "Fremont, Alameda County, California, United States of America",
            "locType": "city",
            "blogLinks": [
                "http://www.distancesfrom.com/us/how-far-is-Fremont-CA-from-Carlsbad/HowFarHistory/4853110.aspx",
                "http://www.distancesfrom.com/us/distance-from-Fremont-to-Fremont-via-Grand-Canyon-Village-Page-Las-Vegas-San-Diego-Carlsbad-Los-Ange/DistanceHistory/26920581.aspx",
                "http://www.distancesfrom.com/us/travel-from-Fremont-to-Legoland-Drive-Carlsbad/TravelFromHistory/12857914.aspx",
                "https://www.nps.gov/cave/index.htm",
                "http://www.distancesfrom.com/us/flight-distance-from-Carlsbad-to-Fremont-CA/FlightHistory/4853110.aspx",
                "http://www.cbsnews.com/news/the-10-happiest-and-saddest-cities-in-the-us/",
                "https://www.distancecalculator.net/from-fremont-to-carlsbad",
                "http://visitcarlsbad.com/",
                "http://www.sandiego.org/articles/25-fun-free-things-to-do-in-san-diego.aspx",
                "http://www.distancesfrom.com/us/distance-from-Carlsbad-to-Fremont-CA/DistanceHistory/4853110.aspx"
            ],
            "longitude": "-121.9885718"
        },
        "boulder": {
            "latitude": "34.2380959",
            "closest_to": "fremont",
            "address": "Boulder, Big Bear Lake, San Bernardino County, California, 92315, United States of America",
            "locType": "residential",
            "blogLinks": [
                "http://www.sandiego.org/articles/tours-sightseeing/highway-101-california.aspx",
                "http://www.cbsnews.com/news/the-10-happiest-and-saddest-cities-in-the-us/"
            ],
            "longitude": "-116.9543269"
        },
        "torrey pines state beach": {
            "latitude": "32.91754945",
            "closest_to": "carlsbad",
            "address": "Torrey Pines State Beach, Yucca Point Trail, Del Mar, San Diego, San Diego County, California, 92121, United States of America",
            "locType": "beach",
            "blogLinks": [
                "http://www.sandiego.org/articles/25-fun-free-things-to-do-in-san-diego.aspx"
            ],
            "longitude": "-117.259044437013"
        },
        "carlsbad california": {
            "latitude": "33.1580933",
            "closest_to": "carlsbad",
            "address": "Carlsbad, San Diego County, California, United States of America",
            "locType": "city",
            "blogLinks": [
                "http://www.sandiego.org/articles/tours-sightseeing/highway-101-california.aspx"
            ],
            "longitude": "-117.3505938"
        },
        "newport beach ca": {
            "latitude": "33.6170092",
            "closest_to": "fremont",
            "address": "Newport Beach, Orange County, California, United States of America",
            "locType": "city",
            "blogLinks": [
                "http://www.california-blog.com/"
            ],
            "longitude": "-117.92944"
        },
        "illinois": {
            "latitude": "34.4646044",
            "closest_to": "fremont",
            "address": "Illinois, Paris, Los Angeles County, California, 93510, United States of America",
            "locType": "residential",
            "blogLinks": [
                "http://www.movoto.com/blog/top-ten/best-places-in-new-mexico/"
            ],
            "longitude": "-118.1758901"
        },
        "palm springs air museum ca": {
            "latitude": "33.83250375",
            "closest_to": "carlsbad",
            "address": "Palm Springs Air Museum, 745, North Gene Autry Trail, Palm Springs, Riverside County, California, 92262, United States of America",
            "locType": "museum",
            "blogLinks": [
                "http://www.california-blog.com/"
            ],
            "longitude": "-116.504677958796"
        },
        "lanai": {
            "latitude": "34.1480559",
            "closest_to": "fremont",
            "address": "Lanai Road, Encino, LA, Los Angeles County, California, 91436, United States of America",
            "locType": "residential",
            "blogLinks": [
                "http://www.sandiego.org/articles/tours-sightseeing/highway-101-california.aspx"
            ],
            "longitude": "-118.4922841"
        },
        "pittsburgh": {
            "latitude": "39.5151683",
            "closest_to": "fremont",
            "address": "Pittsburgh Hill, Yuba County, California, United States of America",
            "locType": "peak",
            "blogLinks": [
                "http://www.movoto.com/blog/top-ten/best-places-in-new-mexico/"
            ],
            "longitude": "-121.1002348"
        },
        "pebble beach ca": {
            "latitude": "36.5664874",
            "closest_to": "fremont",
            "address": "Pebble Beach, Monterey County, California, United States of America",
            "locType": "hamlet",
            "blogLinks": [
                "http://www.california-blog.com/"
            ],
            "longitude": "-121.9466112"
        },
        "el paso": {
            "latitude": "36.8487922",
            "closest_to": "fremont",
            "address": "El Paso, Clovis, Fresno County, California, 93611, United States of America",
            "locType": "residential",
            "blogLinks": [
                "http://www.movoto.com/blog/top-ten/best-places-in-new-mexico/"
            ],
            "longitude": "-119.6823199"
        },
        "gainesville": {
            "latitude": "37.3431176",
            "closest_to": "fremont",
            "address": "Gainesville Avenue, Alum Rock, San Jos\u00e9, Santa Clara County, California, 95122, United States of America",
            "locType": "residential",
            "blogLinks": [
                "http://www.cbsnews.com/news/the-10-happiest-and-saddest-cities-in-the-us/"
            ],
            "longitude": "-121.8302917"
        },
        "ojai valley": {
            "latitude": "34.4480495",
            "closest_to": "fremont",
            "address": "Ojai, Ventura County, California, United States of America",
            "locType": "city",
            "blogLinks": [
                "http://www.california-blog.com/"
            ],
            "longitude": "-119.2428889"
        },
        "chicago": {
            "latitude": "37.7850531",
            "closest_to": "fremont",
            "address": "Chicago, Woodstock, Alameda, Alameda County, California, 94501, United States of America",
            "locType": "residential",
            "blogLinks": [
                "http://www.cbsnews.com/news/the-10-happiest-and-saddest-cities-in-the-us/",
                "http://www.movoto.com/blog/top-ten/best-places-in-new-mexico/"
            ],
            "longitude": "-122.2872948"
        },
        "montenegro": {
            "latitude": "34.179739",
            "closest_to": "fremont",
            "address": "Montenegro Circle, Thousand Oaks, Ventura County, California, 91320, United States of America",
            "locType": "residential",
            "blogLinks": [
                "http://karolinapatryk.com/karlovy-vary-travel-guide/"
            ],
            "longitude": "-118.9543239"
        },
        "moscow": {
            "latitude": "37.7131859",
            "closest_to": "fremont",
            "address": "Moscow Street, Crocker-Amazon, SF, California, 94112, United States of America",
            "locType": "residential",
            "blogLinks": [
                "http://karolinapatryk.com/karlovy-vary-travel-guide/"
            ],
            "longitude": "-122.4337084"
        },
        "us": {
            "latitude": "36.7014631",
            "closest_to": "fremont",
            "address": "California, United States of America",
            "locType": "administrative",
            "blogLinks": [
                "http://www.distancesfrom.com/us/how-far-is-Fremont-CA-from-Carlsbad/HowFarHistory/4853110.aspx",
                "http://distancecalculator.globefeed.com/US_Distance_Calculator.asp?state=CA"
            ],
            "longitude": "-118.7559973"
        },
        "new hampshire": {
            "latitude": "33.7157856",
            "closest_to": "fremont",
            "address": "New Hampshire, Walnut, Irvine, Orange County, California, 92606, United States of America",
            "locType": "residential",
            "blogLinks": [
                "http://www.distancesfrom.com/us/distance-from-Fremont-to-Fremont-via-Grand-Canyon-Village-Page-Las-Vegas-San-Diego-Carlsbad-Los-Ange/DistanceHistory/26920581.aspx"
            ],
            "longitude": "-117.7905719"
        },
        "rio rancho": {
            "latitude": "32.991397",
            "closest_to": "carlsbad",
            "address": "Rio Rancho, San Diego, San Diego County, California, 92168, United States of America",
            "locType": "residential",
            "blogLinks": [
                "http://www.movoto.com/blog/top-ten/best-places-in-new-mexico/"
            ],
            "longitude": "-117.1677022"
        },
        "farmington": {
            "latitude": "37.926645",
            "closest_to": "fremont",
            "address": "Farmington, CA 4, Farmington, San Joaquin County, California, 95230, United States of America",
            "locType": "administrative",
            "blogLinks": [
                "http://www.movoto.com/blog/top-ten/best-places-in-new-mexico/"
            ],
            "longitude": "-120.985359054624"
        },
        "los angeles": {
            "latitude": "34.0543942",
            "closest_to": "fremont",
            "address": "LA, Los Angeles County, California, United States of America",
            "locType": "city",
            "blogLinks": [
                "http://www.distancesfrom.com/us/distance-from-Fremont-to-Fremont-via-Grand-Canyon-Village-Page-Las-Vegas-San-Diego-Carlsbad-Los-Ange/DistanceHistory/26920581.aspx",
                "http://www.cbsnews.com/news/the-10-happiest-and-saddest-cities-in-the-us/",
                "http://www.distancesfrom.com/us/distance-from-Carlsbad-to-Fremont-CA/DistanceHistory/4853110.aspx"
            ],
            "longitude": "-118.2439408"
        },
        "north lake ca": {
            "latitude": "37.76958295",
            "closest_to": "fremont",
            "address": "North Lake, Chain of Lakes Drive East, Sunset District, SF, California, 94122, United States of America",
            "locType": "water",
            "blogLinks": [
                "http://www.california-blog.com/"
            ],
            "longitude": "-122.501983281136"
        },
        "medford": {
            "latitude": "33.7053166",
            "closest_to": "fremont",
            "address": "Medford, Stonegate, Irvine, Orange County, California, 92676, United States of America",
            "locType": "residential",
            "blogLinks": [
                "http://www.cbsnews.com/news/the-10-happiest-and-saddest-cities-in-the-us/"
            ],
            "longitude": "-117.7381732"
        },
        "albuquerque": {
            "latitude": "32.8074701",
            "closest_to": "carlsbad",
            "address": "Albuquerque Street, Pacific Beach, San Diego, San Diego County, California, 92109, United States of America",
            "locType": "residential",
            "blogLinks": [
                "http://www.movoto.com/blog/top-ten/best-places-in-new-mexico/"
            ],
            "longitude": "-117.2184314"
        },
        "north valley": {
            "latitude": "37.3863287",
            "closest_to": "fremont",
            "address": "Berryessa, San Jos\u00e9, Santa Clara County, California, United States of America",
            "locType": "suburb",
            "blogLinks": [
                "http://www.movoto.com/blog/top-ten/best-places-in-new-mexico/"
            ],
            "longitude": "-121.8605103"
        },
        "carlsbad village": {
            "latitude": "33.1717184",
            "closest_to": "carlsbad",
            "address": "Carlsbad Village Drive, Carlsbad, San Diego County, California, 92008, United States of America",
            "locType": "secondary",
            "blogLinks": [
                "http://www.sandiego.org/articles/tours-sightseeing/highway-101-california.aspx"
            ],
            "longitude": "-117.322507"
        },
        "san diego": {
            "latitude": "32.7174209",
            "closest_to": "carlsbad",
            "address": "San Diego, San Diego County, California, United States of America",
            "locType": "city",
            "blogLinks": [
                "http://karolinapatryk.com/karlovy-vary-travel-guide/",
                "http://www.sandiego.org/articles/tours-sightseeing/highway-101-california.aspx",
                "http://www.distancesfrom.com/us/distance-from-Fremont-to-Fremont-via-Grand-Canyon-Village-Page-Las-Vegas-San-Diego-Carlsbad-Los-Ange/DistanceHistory/26920581.aspx",
                "http://www.sandiego.org/articles/25-fun-free-things-to-do-in-san-diego.aspx",
                "https://www.distancecalculator.net/from-fremont-to-carlsbad"
            ],
            "longitude": "-117.1627713"
        },
        "morro rock ca": {
            "latitude": "35.369669",
            "closest_to": "fremont",
            "address": "Morro Rock, Morro Bay, San Luis Obispo County, California, United States of America",
            "locType": "peak",
            "blogLinks": [
                "http://www.california-blog.com/"
            ],
            "longitude": "-120.8676993"
        },
        "lake view cemetery": {
            "latitude": "38.82408575",
            "closest_to": "fremont",
            "address": "Lake View (Calpine 17), Sonoma County, California, United States of America",
            "locType": "industrial",
            "blogLinks": [
                "http://www.seattle.gov/visiting-seattle/points-of-interest"
            ],
            "longitude": "-122.781798289099"
        },
        "legoland drive carlsbad": {
            "latitude": "33.1334161",
            "closest_to": "carlsbad",
            "address": "Legoland Drive, Carlsbad, San Diego County, California, 92009, United States of America",
            "locType": "tertiary",
            "blogLinks": [
                "http://www.distancesfrom.com/us/how-far-is-Fremont-CA-from-Carlsbad/HowFarHistory/4853110.aspx",
                "http://www.distancesfrom.com/us/travel-from-Fremont-to-Legoland-Drive-Carlsbad/TravelFromHistory/12857914.aspx"
            ],
            "longitude": "-117.3171628"
        },
        "water park": {
            "latitude": "33.9044755",
            "closest_to": "fremont",
            "address": "water park, Gibson Street, Riverside, Riverside County, California, 92503, United States of America",
            "locType": "water",
            "blogLinks": [
                "http://www.sandiego.org/articles/tours-sightseeing/highway-101-california.aspx"
            ],
            "longitude": "-117.429414124427"
        },
        "mono lake ca": {
            "latitude": "38.0077189",
            "closest_to": "fremont",
            "address": "Mono Lake, Mono County, California, United States of America",
            "locType": "water",
            "blogLinks": [
                "http://www.california-blog.com/"
            ],
            "longitude": "-118.967033937845"
        },
        "las vegas": {
            "latitude": "36.17310935",
            "closest_to": "fremont",
            "address": "California Hotel, Sky Walk(Connection from Main Street to California, Cultural Corridor, Vegas Heights, Las Vegas, Clark County, Nevada, 89101, United States of America",
            "locType": "hotel",
            "blogLinks": [
                "http://www.distancesfrom.com/us/distance-from-Fremont-to-Fremont-via-Grand-Canyon-Village-Page-Las-Vegas-San-Diego-Carlsbad-Los-Ange/DistanceHistory/26920581.aspx"
            ],
            "longitude": "-115.144667930325"
        },
        "san diego bay": {
            "latitude": "32.6500534",
            "closest_to": "carlsbad",
            "address": "San Diego Bay, Leyte Road, Crown Island, Coronado, San Diego County, California, 92118, United States of America",
            "locType": "bay",
            "blogLinks": [
                "http://www.sandiego.org/articles/25-fun-free-things-to-do-in-san-diego.aspx"
            ],
            "longitude": "-117.1341977"
        },
        "monrovia": {
            "latitude": "34.1483499",
            "closest_to": "fremont",
            "address": "Monrovia, Los Angeles County, California, United States of America",
            "locType": "city",
            "blogLinks": [
                "http://www.california-blog.com/"
            ],
            "longitude": "-118.0014516"
        },
        "napa valley ca": {
            "latitude": "38.2972603",
            "closest_to": "fremont",
            "address": "California Boulevard, Napa, Napa County, California, 94558, United States of America",
            "locType": "secondary",
            "blogLinks": [
                "http://www.california-blog.com/"
            ],
            "longitude": "-122.3002947"
        },
        "ontario": {
            "latitude": "34.065846",
            "closest_to": "fremont",
            "address": "Ontario, San Bernardino County, California, United States of America",
            "locType": "city",
            "blogLinks": [
                "http://www.california-blog.com/"
            ],
            "longitude": "-117.6484303"
        },
        "california resort": {
            "latitude": "33.80638705",
            "closest_to": "fremont",
            "address": "DCA, 1620, South Disneyland Drive, Anaheim Resort District, Anaheim, Orange County, California, 92802, United States of America",
            "locType": "theme_park",
            "blogLinks": [
                "http://www.sandiego.org/articles/tours-sightseeing/highway-101-california.aspx"
            ],
            "longitude": "-117.919940244086"
        },
        "seal beach": {
            "latitude": "33.741176",
            "closest_to": "fremont",
            "address": "Seal Beach, Orange County, California, United States of America",
            "locType": "city",
            "blogLinks": [
                "http://www.sandiego.org/articles/tours-sightseeing/highway-101-california.aspx"
            ],
            "longitude": "-118.1046355"
        },
        "pacific ocean": {
            "latitude": "36.16305775",
            "closest_to": "fremont",
            "address": "Pacific Ocean, Cabrillo Highway, Monterey County, California, 93920, United States of America",
            "locType": "cliff",
            "blogLinks": [
                "http://www.sandiego.org/articles/tours-sightseeing/highway-101-california.aspx",
                "http://www.sandiego.org/articles/25-fun-free-things-to-do-in-san-diego.aspx"
            ],
            "longitude": "-121.678715787326"
        },
        "carlsbad": {
            "latitude": "33.1580933",
            "closest_to": "carlsbad",
            "address": "Carlsbad, San Diego County, California, United States of America",
            "locType": "city",
            "blogLinks": [
                "http://www.distancesfrom.com/us/how-far-is-Fremont-CA-from-Carlsbad/HowFarHistory/4853110.aspx",
                "http://www.distancesfrom.com/us/distance-from-Fremont-to-Fremont-via-Grand-Canyon-Village-Page-Las-Vegas-San-Diego-Carlsbad-Los-Ange/DistanceHistory/26920581.aspx",
                "http://www.seattle.gov/visiting-seattle/points-of-interest",
                "http://distancecalculator.globefeed.com/US_Distance_Calculator.asp?state=CA",
                "http://www.distancesfrom.com/us/travel-from-Fremont-to-Legoland-Drive-Carlsbad/TravelFromHistory/12857914.aspx",
                "http://www.distancesfrom.com/us/flight-distance-from-Carlsbad-to-Fremont-CA/FlightHistory/4853110.aspx",
                "http://www.movoto.com/blog/top-ten/best-places-in-new-mexico/",
                "http://karolinapatryk.com/karlovy-vary-travel-guide/",
                "http://www.sandiego.org/articles/tours-sightseeing/highway-101-california.aspx",
                "http://visitcarlsbad.com/",
                "https://www.distancecalculator.net/from-fremont-to-carlsbad",
                "http://www.distancesfrom.com/us/distance-from-Carlsbad-to-Fremont-CA/DistanceHistory/4853110.aspx"
            ],
            "longitude": "-117.3505938"
        },
        "united states": {
            "latitude": "36.7014631",
            "closest_to": "fremont",
            "address": "California, United States of America",
            "locType": "administrative",
            "blogLinks": [
                "http://www.sandiego.org/articles/tours-sightseeing/highway-101-california.aspx",
                "http://www.sandiego.org/articles/25-fun-free-things-to-do-in-san-diego.aspx",
                "https://www.distancecalculator.net/from-fremont-to-carlsbad",
                "http://www.distancesfrom.com/us/travel-from-Fremont-to-Legoland-Drive-Carlsbad/TravelFromHistory/12857914.aspx"
            ],
            "longitude": "-118.7559973"
        },
        "watsonville": {
            "latitude": "36.9092773",
            "closest_to": "fremont",
            "address": "Watsonville, Santa Cruz County, California, United States of America",
            "locType": "city",
            "blogLinks": [
                "http://www.distancesfrom.com/us/flight-distance-from-Carlsbad-to-Fremont-CA/FlightHistory/4853110.aspx"
            ],
            "longitude": "-121.752907"
        },
        "chaco canyon": {
            "latitude": "33.5780091",
            "closest_to": "fremont",
            "address": "Chaco Canyon Road, California Oaks, Murrieta, Riverside County, California, 92562, United States of America",
            "locType": "residential",
            "blogLinks": [
                "http://www.movoto.com/blog/top-ten/best-places-in-new-mexico/"
            ],
            "longitude": "-117.215901"
        },
        "chula vista": {
            "latitude": "32.6400541",
            "closest_to": "carlsbad",
            "address": "Chula Vista, San Diego County, California, United States of America",
            "locType": "city",
            "blogLinks": [
                "http://www.sandiego.org/articles/25-fun-free-things-to-do-in-san-diego.aspx"
            ],
            "longitude": "-117.0841954"
        },
        "la jolla cove": {
            "latitude": "32.85051835",
            "closest_to": "carlsbad",
            "address": "La Jolla Cove, Coast Boulevard, La Jolla, San Diego, San Diego County, California, 92037, United States of America",
            "locType": "beach",
            "blogLinks": [
                "http://www.sandiego.org/articles/25-fun-free-things-to-do-in-san-diego.aspx"
            ],
            "longitude": "-117.273024234204"
        },
        "historic highway 101": {
            "latitude": "33.7388166",
            "closest_to": "fremont",
            "address": "Historic, Orchard Hills, Irvine, Orange County, California, 92602, United States of America",
            "locType": "residential",
            "blogLinks": [
                "http://www.sandiego.org/articles/tours-sightseeing/highway-101-california.aspx"
            ],
            "longitude": "-117.7608795"
        },
        "riverside national cemetery": {
            "latitude": "33.87692125",
            "closest_to": "fremont",
            "address": "Riverside National Cemetery, 22495, Alessandro, Riverside County, California, 92518, United States of America",
            "locType": "cemetery",
            "blogLinks": [
                "http://www.california-blog.com/"
            ],
            "longitude": "-117.270726607134"
        },
        "101": {
            "latitude": "37.772385",
            "closest_to": "fremont",
            "address": "Gough & Market (City College), Gough Street, Western Addition, SF, California, 94114, United States of America",
            "locType": "car_sharing",
            "blogLinks": [
                "http://www.sandiego.org/articles/tours-sightseeing/highway-101-california.aspx"
            ],
            "longitude": "-122.4213849"
        },
        "medina": {
            "latitude": "33.6508958",
            "closest_to": "fremont",
            "address": "Medina, Palmia, Mission Viejo, Orange County, California, 92692, United States of America",
            "locType": "residential",
            "blogLinks": [
                "http://www.seattle.gov/visiting-seattle/points-of-interest"
            ],
            "longitude": "-117.6325209"
        },
        "bellingham": {
            "latitude": "34.2065565",
            "closest_to": "fremont",
            "address": "Bellingham Avenue, Hewitt, North Hollywood, LA, Los Angeles County, California, 91605, United States of America",
            "locType": "residential",
            "blogLinks": [
                "http://www.cbsnews.com/news/the-10-happiest-and-saddest-cities-in-the-us/"
            ],
            "longitude": "-118.3988466"
        },
        "la": {
            "latitude": "36.7014631",
            "closest_to": "fremont",
            "address": "California, United States of America",
            "locType": "administrative",
            "blogLinks": [
                "http://www.movoto.com/blog/top-ten/best-places-in-new-mexico/"
            ],
            "longitude": "-118.7559973"
        },
        "topeka": {
            "latitude": "33.6911755",
            "closest_to": "fremont",
            "address": "Topeka, El Camino Real, Irvine, Orange County, California, 92406, United States of America",
            "locType": "residential",
            "blogLinks": [
                "http://www.cbsnews.com/news/the-10-happiest-and-saddest-cities-in-the-us/"
            ],
            "longitude": "-117.7703945"
        },
        "mojave desert ca": {
            "latitude": "35.1456319",
            "closest_to": "fremont",
            "address": "Mojave Desert, Utility Road, San Bernardino County, California, United States of America",
            "locType": "desert",
            "blogLinks": [
                "http://www.california-blog.com/"
            ],
            "longitude": "-115.548963686646"
        },
        "az": {
            "latitude": "33.3547482",
            "closest_to": "carlsbad",
            "address": "California, Gold Canyon RV & Golf Resort, San Tan Valley, Pinal County, Arizona, 85219, United States of America",
            "locType": "service",
            "blogLinks": [
                "http://www.cbsnews.com/news/the-10-happiest-and-saddest-cities-in-the-us/"
            ],
            "longitude": "-111.4698532"
        },
        "monterey bay aquarium ca": {
            "latitude": "36.61809095",
            "closest_to": "fremont",
            "address": "MBA, 886, Cannery Row, Monterey, Monterey County, California, 93940, United States of America",
            "locType": "aquarium",
            "blogLinks": [
                "http://www.california-blog.com/"
            ],
            "longitude": "-121.901680002002"
        },
        "legoland drive carlsbad route": {
            "latitude": "33.1334161",
            "closest_to": "carlsbad",
            "address": "Legoland Drive, Carlsbad, San Diego County, California, 92009, United States of America",
            "locType": "tertiary",
            "blogLinks": [
                "http://www.distancesfrom.com/us/travel-from-Fremont-to-Legoland-Drive-Carlsbad/TravelFromHistory/12857914.aspx"
            ],
            "longitude": "-117.3171628"
        },
        "honolulu": {
            "latitude": "34.2337712",
            "closest_to": "fremont",
            "address": "Honolulu Avenue, LA, Los Angeles County, California, 91042, United States of America",
            "locType": "secondary",
            "blogLinks": [
                "http://www.cbsnews.com/news/the-10-happiest-and-saddest-cities-in-the-us/"
            ],
            "longitude": "-118.2700871"
        },
        "america": {
            "latitude": "36.2573198",
            "closest_to": "fremont",
            "address": "America, Kings County, California, 93246, United States of America",
            "locType": "residential",
            "blogLinks": [
                "http://www.sandiego.org/articles/tours-sightseeing/highway-101-california.aspx"
            ],
            "longitude": "-119.8948706"
        },
        "santa fe": {
            "latitude": "32.4395109",
            "closest_to": "carlsbad",
            "address": "Santa Fe, Tijuana, Baja California, M\u00e9xico",
            "locType": "village",
            "blogLinks": [
                "http://www.movoto.com/blog/top-ten/best-places-in-new-mexico/"
            ],
            "longitude": "-117.0336822"
        },
        "kern river": {
            "latitude": "36.6816956",
            "closest_to": "fremont",
            "address": "Kern River, Tulare County, California, United States of America",
            "locType": "river",
            "blogLinks": [
                "http://www.california-blog.com/"
            ],
            "longitude": "-118.4124188"
        },
        "anza-borrego desert state park": {
            "latitude": "33.2528053",
            "closest_to": "carlsbad",
            "address": "Anza-Borrego Desert State Park, Palm Canyon Drive, Borrego, San Diego County, California, 92004, United States of America",
            "locType": "protected_area",
            "blogLinks": [
                "http://www.sandiego.org/articles/25-fun-free-things-to-do-in-san-diego.aspx"
            ],
            "longitude": "-116.330414288395"
        },
        "san diego county": {
            "latitude": "32.9637838",
            "closest_to": "carlsbad",
            "address": "San Diego County, California, United States of America",
            "locType": "administrative",
            "blogLinks": [
                "http://www.sandiego.org/articles/tours-sightseeing/highway-101-california.aspx"
            ],
            "longitude": "-116.7706276"
        },
        "laguna": {
            "latitude": "38.4210209",
            "closest_to": "fremont",
            "address": "Laguna, Sacramento County, California, United States of America",
            "locType": "hamlet",
            "blogLinks": [
                "http://www.sandiego.org/articles/25-fun-free-things-to-do-in-san-diego.aspx"
            ],
            "longitude": "-121.4238413"
        },
        "hotel derby": {
            "latitude": "37.3343828",
            "closest_to": "fremont",
            "address": "Hotel De Anza, 233, West Santa Clara Street, Little Italy, Japantown, San Jos\u00e9, Santa Clara County, California, 95113, United States of America",
            "locType": "hotel",
            "blogLinks": [
                "http://karolinapatryk.com/karlovy-vary-travel-guide/"
            ],
            "longitude": "-121.895065751971"
        }
    },
    "fremont": {
        "type": "city",
        "osm_id": "111943",
        "class": "place",
        "importance": 0.70373394703995,
        "lat": "37.5482697",
        "lon": "-121.9885718",
        "boundingbox": [
            "37.4539501",
            "37.6066739",
            "-122.1509872",
            "-121.8701127"
        ],
        "display_name": "Fremont, Alameda County, California, United States of America",
        "licence": "Data \u00a9 OpenStreetMap contributors, ODbL 1.0. http://www.openstreetmap.org/copyright",
        "icon": "https://nominatim.openstreetmap.org/images/mapicons/poi_place_city.p.20.png",
        "place_id": "159050638",
        "osm_type": "relation"
    }
}