{
    "malibu": {
        "type": "residential",
        "osm_id": "7335067",
        "class": "highway",
        "importance": 0.3,
        "lat": "33.7932142",
        "licence": "Data \u00a9 OpenStreetMap contributors, ODbL 1.0. http://www.openstreetmap.org/copyright",
        "place_id": "58129970",
        "lon": "-116.5023561",
        "boundingbox": [
            "33.7923238",
            "33.7940184",
            "-116.5023599",
            "-116.5023526"
        ],
        "display_name": "Malibu, Palm Springs, Riverside County, California, 92264, United States of America",
        "osm_type": "way"
    },
    "mentions": {
        "pacific coast highway": {
            "latitude": "33.6595127",
            "closest_to": "malibu",
            "address": "Pacific Coast Highway, Huntington Beach, Orange County, California, 92648, United States of America",
            "locType": "primary",
            "blogLinks": [
                "https://www.virtualtourist.com/travel/North_America/United_States_of_America/California/Things_To_Do-California-PCH_Pacific_Coast_Highway_Highway_1-BR-1.html",
                "https://www.gapyear.com/articles/216212/13-incredible-stops-on-the-pacific-coast-highway",
                "http://www.tripleblaze.com/best/?c=8",
                "https://www.yelp.com/biz/pacific-coast-highway-carmel"
            ],
            "longitude": "-118.0051687"
        },
        "lake union": {
            "latitude": "38.3216512",
            "closest_to": "fremont",
            "address": "Union, Napa County, California, United States of America",
            "locType": "hamlet",
            "blogLinks": [
                "https://www.guideadvisor.com/explore/seattle/",
                "http://www.visitseattle.org/neighborhoods/downtown-seattle/"
            ],
            "longitude": "-122.3099434"
        },
        "primm": {
            "latitude": "37.333961",
            "closest_to": "malibu",
            "address": "Primm Avenue, Little Saigon, San Jos\u00e9, Santa Clara County, California, 95122, United States of America",
            "locType": "residential",
            "blogLinks": [
                "https://www.vegas.com/traveltips/top-10-tips-for-driving-from-la-to-vegas/"
            ],
            "longitude": "-121.8420481"
        },
        "carmel-by-the-sea": {
            "latitude": "36.5552387",
            "closest_to": "malibu",
            "address": "Carmel-by-the-Sea, Monterey County, California, United States of America",
            "locType": "city",
            "blogLinks": [
                "https://www.gapyear.com/articles/216212/13-incredible-stops-on-the-pacific-coast-highway"
            ],
            "longitude": "-121.9232878"
        },
        "yreka": {
            "latitude": "41.7326157",
            "closest_to": "fremont",
            "address": "Yreka, Siskiyou County, California, United States of America",
            "locType": "city",
            "blogLinks": [
                "https://www.yelp.com/biz/pacific-coast-highway-carmel"
            ],
            "longitude": "-122.6377654"
        },
        "mount san gorgonio ca": {
            "latitude": "33.9121294",
            "closest_to": "malibu",
            "address": "San Gorgonio Avenue, Banning, Riverside County, California, 92220, United States of America",
            "locType": "secondary",
            "blogLinks": [
                "http://www.california-blog.com/"
            ],
            "longitude": "-116.8766731"
        },
        "mission bay ca": {
            "latitude": "37.7707742",
            "closest_to": "fremont",
            "address": "Mission Bay, SF, California, 94158, United States of America",
            "locType": "neighbourhood",
            "blogLinks": [
                "http://www.california-blog.com/"
            ],
            "longitude": "-122.3911711"
        },
        "bixby bridge": {
            "latitude": "36.3710197",
            "closest_to": "malibu",
            "address": "Bixby Creek Bridge, Notleys Landing, Monterey County, California, 93923, United States of America",
            "locType": "primary",
            "blogLinks": [
                "https://www.gapyear.com/articles/216212/13-incredible-stops-on-the-pacific-coast-highway",
                "https://www.yelp.com/biz/pacific-coast-highway-carmel"
            ],
            "longitude": "-121.9017572"
        },
        "moreno valley ca": {
            "latitude": "33.937517",
            "closest_to": "malibu",
            "address": "Moreno Valley, Riverside County, California, United States of America",
            "locType": "city",
            "blogLinks": [
                "http://www.california-blog.com/"
            ],
            "longitude": "-117.2305943"
        },
        "pacific coast": {
            "latitude": "33.8047323",
            "closest_to": "malibu",
            "address": "Pacific Coast, Florista Street, Los Alamitos, Orange County, California, 90720, United States of America",
            "locType": "yes",
            "blogLinks": [
                "https://www.yelp.com/biz/pacific-coast-highway-carmel"
            ],
            "longitude": "-118.063517668143"
        },
        "sin city": {
            "latitude": "37.7771563",
            "closest_to": "fremont",
            "address": "Wong Tai Sin Temple, Balboa Street, Jordan Park, SF, California, 94121, United States of America",
            "locType": "place_of_worship",
            "blogLinks": [
                "https://www.vegas.com/traveltips/top-10-tips-for-driving-from-la-to-vegas/"
            ],
            "longitude": "-122.4635886"
        },
        "mission beach": {
            "latitude": "32.7827144",
            "closest_to": "malibu",
            "address": "Mission Beach, San Diego County, California, United States of America",
            "locType": "hamlet",
            "blogLinks": [
                "https://www.gapyear.com/articles/216212/13-incredible-stops-on-the-pacific-coast-highway"
            ],
            "longitude": "-117.2525056"
        },
        "la jolla": {
            "latitude": "32.8472711",
            "closest_to": "malibu",
            "address": "La Jolla, San Diego, San Diego County, California, United States of America",
            "locType": "suburb",
            "blogLinks": [
                "https://www.yelp.com/biz/pacific-coast-highway-carmel"
            ],
            "longitude": "-117.2742085"
        },
        "encinitas": {
            "latitude": "33.0369867",
            "closest_to": "malibu",
            "address": "Encinitas, San Diego County, California, United States of America",
            "locType": "city",
            "blogLinks": [
                "https://www.yelp.com/biz/pacific-coast-highway-carmel"
            ],
            "longitude": "-117.2919817"
        },
        "southern california": {
            "latitude": "34.0224149",
            "closest_to": "malibu",
            "address": "University of Southern California, Watt Way, Saint James Park, LA, Los Angeles County, California, 90089, United States of America",
            "locType": "university",
            "blogLinks": [
                "https://www.yelp.com/biz/pacific-coast-highway-carmel",
                "https://www.vegas.com/traveltips/top-10-tips-for-driving-from-la-to-vegas/"
            ],
            "longitude": "-118.286343973446"
        },
        "palm springs air museum ca": {
            "latitude": "33.83250375",
            "closest_to": "malibu",
            "address": "Palm Springs Air Museum, 745, North Gene Autry Trail, Palm Springs, Riverside County, California, 92262, United States of America",
            "locType": "museum",
            "blogLinks": [
                "http://www.california-blog.com/"
            ],
            "longitude": "-116.504677958796"
        },
        "morro rock ca": {
            "latitude": "35.369669",
            "closest_to": "malibu",
            "address": "Morro Rock, Morro Bay, San Luis Obispo County, California, United States of America",
            "locType": "peak",
            "blogLinks": [
                "http://www.california-blog.com/"
            ],
            "longitude": "-120.8676993"
        },
        "old town san diego": {
            "latitude": "32.7542167",
            "closest_to": "malibu",
            "address": "Old Town San Diego, San Diego County, California, United States of America",
            "locType": "hamlet",
            "blogLinks": [
                "http://www.california-blog.com/"
            ],
            "longitude": "-117.1969792"
        },
        "' soda lake": {
            "latitude": "35.23913735",
            "closest_to": "malibu",
            "address": "Soda Lake, Soda Lake Road, San Luis Obispo County, California, United States of America",
            "locType": "water",
            "blogLinks": [
                "https://www.gapyear.com/articles/216212/13-incredible-stops-on-the-pacific-coast-highway"
            ],
            "longitude": "-119.895515964214"
        },
        "chilnualna falls": {
            "latitude": "37.5486657",
            "closest_to": "malibu",
            "address": "North Chilnualna Falls Road, North Wawona, Mariposa County, California, 95389, United States of America",
            "locType": "residential",
            "blogLinks": [
                "http://www.tripleblaze.com/best/?c=8"
            ],
            "longitude": "-119.633114"
        },
        "san jose": {
            "latitude": "37.3361905",
            "closest_to": "malibu",
            "address": "San Jos\u00e9, Santa Clara County, California, United States of America",
            "locType": "city",
            "blogLinks": [
                "https://www.gapyear.com/articles/216212/13-incredible-stops-on-the-pacific-coast-highway"
            ],
            "longitude": "-121.8905832"
        },
        "santa monica beach": {
            "latitude": "34.159111",
            "closest_to": "malibu",
            "address": "Santa Monica Drive, Channel Islands Beach, Ventura County, California, 93035, United States of America",
            "locType": "residential",
            "blogLinks": [
                "https://www.yelp.com/biz/pacific-coast-highway-carmel"
            ],
            "longitude": "-119.2203179"
        },
        "arlington theatre": {
            "latitude": "34.4242119",
            "closest_to": "malibu",
            "address": "Arlington Theatre, 1317, State Street, Santa Barbara, Santa Barbara County, California, 93101, United States of America",
            "locType": "theatre",
            "blogLinks": [
                "https://www.gapyear.com/articles/216212/13-incredible-stops-on-the-pacific-coast-highway"
            ],
            "longitude": "-119.70696995537"
        },
        "ocean beach": {
            "latitude": "32.7477784",
            "closest_to": "malibu",
            "address": "Ocean Beach, San Diego, San Diego County, California, United States of America",
            "locType": "region",
            "blogLinks": [
                "https://www.yelp.com/biz/pacific-coast-highway-carmel"
            ],
            "longitude": "-117.249321"
        },
        "santa cruz beach boardwalk": {
            "latitude": "36.96446855",
            "closest_to": "malibu",
            "address": "Santa Cruz Beach Boardwalk, Boardwalk, Beach & Boardwalk District (Commercial), Seabright, Santa Cruz, Santa Cruz County, California, 1982, United States of America",
            "locType": "attraction",
            "blogLinks": [
                "https://www.gapyear.com/articles/216212/13-incredible-stops-on-the-pacific-coast-highway"
            ],
            "longitude": "-122.016027247326"
        },
        "menace park": {
            "latitude": "33.9561041",
            "closest_to": "malibu",
            "address": "Dennis the Menace Park, Arrington Avenue, Downey, Los Angeles County, California, 90240, United States of America",
            "locType": "park",
            "blogLinks": [
                "https://www.virtualtourist.com/travel/North_America/United_States_of_America/California/Things_To_Do-California-PCH_Pacific_Coast_Highway_Highway_1-BR-1.html"
            ],
            "longitude": "-118.111319915996"
        },
        "hollywood": {
            "latitude": "34.1028268",
            "closest_to": "malibu",
            "address": "Hollywood, LA, Los Angeles County, California, United States of America",
            "locType": "suburb",
            "blogLinks": [
                "https://www.gapyear.com/articles/216212/13-incredible-stops-on-the-pacific-coast-highway"
            ],
            "longitude": "-118.3299898"
        },
        "ano nuevo state park": {
            "latitude": "37.1642859",
            "closest_to": "malibu",
            "address": "A\u00f1o Nuevo State Park, White House Canyon Road, San Mateo County, California, United States of America",
            "locType": "park",
            "blogLinks": [
                "https://www.gapyear.com/articles/216212/13-incredible-stops-on-the-pacific-coast-highway"
            ],
            "longitude": "-122.328030779329"
        },
        "san francisco": {
            "latitude": "37.7792808",
            "closest_to": "fremont",
            "address": "SF, California, United States of America",
            "locType": "city",
            "blogLinks": [
                "https://www.virtualtourist.com/travel/North_America/United_States_of_America/California/Things_To_Do-California-PCH_Pacific_Coast_Highway_Highway_1-BR-1.html",
                "https://www.gapyear.com/articles/216212/13-incredible-stops-on-the-pacific-coast-highway",
                "https://www.yelp.com/biz/pacific-coast-highway-carmel"
            ],
            "longitude": "-122.4192362"
        },
        "mount palomar ca": {
            "latitude": "33.1278146",
            "closest_to": "malibu",
            "address": "California Bank & Trust, 2501, Palomar Airport Road, Carlsbad, San Diego County, California, 92011, United States of America",
            "locType": "bank",
            "blogLinks": [
                "http://www.california-blog.com/"
            ],
            "longitude": "-117.270809764613"
        },
        "alcatraz island": {
            "latitude": "37.8267283",
            "closest_to": "fremont",
            "address": "Alcatraz Island, SF, California, United States of America",
            "locType": "island",
            "blogLinks": [
                "https://www.gapyear.com/articles/216212/13-incredible-stops-on-the-pacific-coast-highway"
            ],
            "longitude": "-122.422746492409"
        },
        "ca": {
            "latitude": "37.8242285466918",
            "closest_to": "fremont",
            "address": "Piedmont, Alameda County, California, ca, United States of America",
            "locType": "postcode",
            "blogLinks": [
                "http://www.distancesfrom.com/us/distance-from-Malibu-to-Fremont/DistanceHistory/32586050.aspx",
                "http://www.distancesfrom.com/us/how-far-is-Fremont-from-Anaheim-Resort-via-Long-Beach-Santa-Monica-Malibu-Morro-Bay-Lucia-Big-Sur/HowFarHistory/29223874.aspx",
                "http://www.distancesfrom.com/us/travel-from-Fremont-to-Fremont-via-Mammoth-Lakes-Joshua-Tree-Malibu/TravelFromHistory/29244660.aspx",
                "http://www.distancesfrom.com/us/how-far-is-Fremont-from-Fremont-via-Mammoth-Lakes-Joshua-Tree-Malibu/HowFarHistory/29244660.aspx",
                "http://www.distancesfrom.com/us/how-far-is-Fremont-from-Malibu/HowFarHistory/32586050.aspx"
            ],
            "longitude": "-122.232613735941"
        },
        "west coast": {
            "latitude": "34.0222263",
            "closest_to": "malibu",
            "address": "West Coast, Motor Avenue, Palms, LA, Los Angeles County, California, 90034-5702, United States of America",
            "locType": "plumber",
            "blogLinks": [
                "https://www.gapyear.com/articles/216212/13-incredible-stops-on-the-pacific-coast-highway"
            ],
            "longitude": "-118.4051087"
        },
        "san luis obispo": {
            "latitude": "35.2827525",
            "closest_to": "malibu",
            "address": "San Luis Obispo, San Luis Obispo County, California, United States of America",
            "locType": "city",
            "blogLinks": [
                "https://www.virtualtourist.com/travel/North_America/United_States_of_America/California/Things_To_Do-California-PCH_Pacific_Coast_Highway_Highway_1-BR-1.html",
                "https://www.gapyear.com/articles/216212/13-incredible-stops-on-the-pacific-coast-highway",
                "https://www.yelp.com/biz/pacific-coast-highway-carmel"
            ],
            "longitude": "-120.6596155"
        },
        "whidbey": {
            "latitude": "35.4060011",
            "closest_to": "malibu",
            "address": "Whidbey Street, Morro Bay, San Luis Obispo County, California, 93442, United States of America",
            "locType": "residential",
            "blogLinks": [
                "https://www.guideadvisor.com/explore/seattle/"
            ],
            "longitude": "-120.8649256"
        },
        "victorville": {
            "latitude": "34.5361067",
            "closest_to": "malibu",
            "address": "Victorville, San Bernardino County, California, United States of America",
            "locType": "city",
            "blogLinks": [
                "https://www.vegas.com/traveltips/top-10-tips-for-driving-from-la-to-vegas/"
            ],
            "longitude": "-117.2911564"
        },
        "morro bay ca": {
            "latitude": "35.3658075",
            "closest_to": "malibu",
            "address": "Morro Bay, San Luis Obispo County, California, United States of America",
            "locType": "city",
            "blogLinks": [
                "http://www.california-blog.com/"
            ],
            "longitude": "-120.8499012"
        },
        "monterey peninsula ca": {
            "latitude": "36.5878734",
            "closest_to": "malibu",
            "address": "Monterey Regional Airport, Airport Road, Seaside, Del Monte Heights, Monterey County, California, 93940, United States of America",
            "locType": "aerodrome",
            "blogLinks": [
                "http://www.california-blog.com/"
            ],
            "longitude": "-121.843618374407"
        },
        "east beach": {
            "latitude": "37.8061771",
            "closest_to": "fremont",
            "address": "East Beach, Mason Street, Presidio Heights, SF, California, 94129, United States of America",
            "locType": "beach",
            "blogLinks": [
                "https://www.gapyear.com/articles/216212/13-incredible-stops-on-the-pacific-coast-highway"
            ],
            "longitude": "-122.452368017781"
        },
        "bubblegum alley": {
            "latitude": "35.2791663",
            "closest_to": "malibu",
            "address": "Bubblegum Alley, San Luis Obispo, San Luis Obispo County, California, 93405, United States of America",
            "locType": "attraction",
            "blogLinks": [
                "https://www.gapyear.com/articles/216212/13-incredible-stops-on-the-pacific-coast-highway"
            ],
            "longitude": "-120.6638629"
        },
        "fremont": {
            "latitude": "37.5482697",
            "closest_to": "malibu",
            "address": "Fremont, Alameda County, California, United States of America",
            "locType": "city",
            "blogLinks": [
                "https://www.guideadvisor.com/explore/seattle/",
                "http://www.distancesfrom.com/us/how-far-is-Fremont-from-Anaheim-Resort-via-Long-Beach-Santa-Monica-Malibu-Morro-Bay-Lucia-Big-Sur/HowFarHistory/29223874.aspx",
                "http://www.distancesfrom.com/us/travel-from-Fremont-to-Fremont-via-Mammoth-Lakes-Joshua-Tree-Malibu/TravelFromHistory/29244660.aspx",
                "http://www.distancesfrom.com/us/how-far-is-Fremont-from-Fremont-via-Mammoth-Lakes-Joshua-Tree-Malibu/HowFarHistory/29244660.aspx",
                "http://www.distancesfrom.com/us/how-far-is-Fremont-from-Malibu/HowFarHistory/32586050.aspx",
                "http://www.tripleblaze.com/best/?c=8",
                "http://www.distancesfrom.com/us/distance-from-Malibu-to-Fremont/DistanceHistory/32586050.aspx"
            ],
            "longitude": "-121.9885718"
        },
        "old town": {
            "latitude": "35.142943",
            "closest_to": "malibu",
            "address": "Old Town, Golden Hills, Kern County, California, United States of America",
            "locType": "locality",
            "blogLinks": [
                "https://www.gapyear.com/articles/216212/13-incredible-stops-on-the-pacific-coast-highway"
            ],
            "longitude": "-118.4954422"
        },
        "rio theatre": {
            "latitude": "36.9801486",
            "closest_to": "malibu",
            "address": "Rio Theatre, Soquel Avenue, Soquel Avenue Commercial Corridor, Eastside, Santa Cruz, Santa Cruz County, California, 95062, United States of America",
            "locType": "theatre",
            "blogLinks": [
                "https://www.gapyear.com/articles/216212/13-incredible-stops-on-the-pacific-coast-highway"
            ],
            "longitude": "-122.0104295"
        },
        "santa cruz": {
            "latitude": "36.9735903",
            "closest_to": "malibu",
            "address": "Santa Cruz, Santa Cruz County, California, United States of America",
            "locType": "city",
            "blogLinks": [
                "https://www.gapyear.com/articles/216212/13-incredible-stops-on-the-pacific-coast-highway",
                "https://www.yelp.com/biz/pacific-coast-highway-carmel"
            ],
            "longitude": "-122.0260569"
        },
        "whittier hills whittier": {
            "latitude": "33.9397495",
            "closest_to": "malibu",
            "address": "Whittwood Branch Whittier Public Library, Starbuck Street, Friendly Hills, Whittier, Los Angeles County, California, 90603, United States of America",
            "locType": "library",
            "blogLinks": [
                "http://www.tripleblaze.com/best/?c=8"
            ],
            "longitude": "-117.993545449378"
        },
        "mount san jacinto ca": {
            "latitude": "33.7839084",
            "closest_to": "malibu",
            "address": "San Jacinto, Riverside County, California, United States of America",
            "locType": "city",
            "blogLinks": [
                "http://www.california-blog.com/"
            ],
            "longitude": "-116.9586349"
        },
        "lobero theatre": {
            "latitude": "34.4216681",
            "closest_to": "malibu",
            "address": "Lobero Theatre, Anacapa Street, Santa Barbara, Santa Barbara County, California, 93105, United States of America",
            "locType": "theatre",
            "blogLinks": [
                "https://www.gapyear.com/articles/216212/13-incredible-stops-on-the-pacific-coast-highway"
            ],
            "longitude": "-119.700020768116"
        },
        "pacific avenue": {
            "latitude": "34.1571445",
            "closest_to": "malibu",
            "address": "Pacific Avenue, Glendale, Los Angeles County, California, 91203, United States of America",
            "locType": "secondary",
            "blogLinks": [
                "https://www.gapyear.com/articles/216212/13-incredible-stops-on-the-pacific-coast-highway"
            ],
            "longitude": "-118.2641839"
        },
        "san ysidro": {
            "latitude": "32.5520013",
            "closest_to": "malibu",
            "address": "San Ysidro, San Diego, San Diego County, California, United States of America",
            "locType": "suburb",
            "blogLinks": [
                "https://www.virtualtourist.com/travel/North_America/United_States_of_America/California/Things_To_Do-California-PCH_Pacific_Coast_Highway_Highway_1-BR-1.html"
            ],
            "longitude": "-117.0430812"
        },
        "santa barbara": {
            "latitude": "34.4221319",
            "closest_to": "malibu",
            "address": "Santa Barbara, Santa Barbara County, California, United States of America",
            "locType": "city",
            "blogLinks": [
                "https://www.virtualtourist.com/travel/North_America/United_States_of_America/California/Things_To_Do-California-PCH_Pacific_Coast_Highway_Highway_1-BR-1.html",
                "https://www.gapyear.com/articles/216212/13-incredible-stops-on-the-pacific-coast-highway",
                "https://www.yelp.com/biz/pacific-coast-highway-carmel"
            ],
            "longitude": "-119.7026672"
        },
        "belltown": {
            "latitude": "34.011681",
            "closest_to": "malibu",
            "address": "Belltown, Riverside County, California, United States of America",
            "locType": "hamlet",
            "blogLinks": [
                "https://www.guideadvisor.com/explore/seattle/"
            ],
            "longitude": "-117.3833788"
        },
        "tijuana": {
            "latitude": "32.5008626",
            "closest_to": "malibu",
            "address": "Tijuana, Baja California, M\u00e9xico",
            "locType": "city",
            "blogLinks": [
                "https://www.yelp.com/biz/pacific-coast-highway-carmel"
            ],
            "longitude": "-116.9641656"
        },
        "monterey peninsula": {
            "latitude": "36.5878734",
            "closest_to": "malibu",
            "address": "Monterey Regional Airport, Airport Road, Seaside, Del Monte Heights, Monterey County, California, 93940, United States of America",
            "locType": "aerodrome",
            "blogLinks": [
                "https://www.virtualtourist.com/travel/North_America/United_States_of_America/California/Things_To_Do-California-PCH_Pacific_Coast_Highway_Highway_1-BR-1.html"
            ],
            "longitude": "-121.843618374407"
        },
        "canada": {
            "latitude": "33.7298842",
            "closest_to": "malibu",
            "address": "La Canada, Lower Peters Canyon, Irvine, Orange County, California, 92602, United States of America",
            "locType": "residential",
            "blogLinks": [
                "https://www.virtualtourist.com/travel/North_America/United_States_of_America/California/Things_To_Do-California-PCH_Pacific_Coast_Highway_Highway_1-BR-1.html",
                "https://www.yelp.com/biz/pacific-coast-highway-carmel"
            ],
            "longitude": "-117.7641381"
        },
        "santa monica pier": {
            "latitude": "34.0104809",
            "closest_to": "malibu",
            "address": "Santa Monica Pier, Santa Monica, Los Angeles County, California, CA 90401, United States of America",
            "locType": "service",
            "blogLinks": [
                "https://www.gapyear.com/articles/216212/13-incredible-stops-on-the-pacific-coast-highway"
            ],
            "longitude": "-118.4960541"
        },
        "el estero lake": {
            "latitude": "36.5974565",
            "closest_to": "malibu",
            "address": "El Estero Lake, Pearl Street, Monterey, Monterey County, California, 93940, United States of America",
            "locType": "water",
            "blogLinks": [
                "https://www.virtualtourist.com/travel/North_America/United_States_of_America/California/Things_To_Do-California-PCH_Pacific_Coast_Highway_Highway_1-BR-1.html"
            ],
            "longitude": "-121.887722741207"
        },
        "pacific crest trail": {
            "latitude": "38.69418",
            "closest_to": "fremont",
            "address": "Pacific Crest Trail, Pleasant Valley, El Dorado County, California, 95667, United States of America",
            "locType": "residential",
            "blogLinks": [
                "http://www.tripleblaze.com/best/?c=8"
            ],
            "longitude": "-120.6375709"
        },
        "los angeles": {
            "latitude": "34.0543942",
            "closest_to": "malibu",
            "address": "LA, Los Angeles County, California, United States of America",
            "locType": "city",
            "blogLinks": [
                "https://www.virtualtourist.com/travel/North_America/United_States_of_America/California/Things_To_Do-California-PCH_Pacific_Coast_Highway_Highway_1-BR-1.html",
                "https://www.gapyear.com/articles/216212/13-incredible-stops-on-the-pacific-coast-highway"
            ],
            "longitude": "-118.2439408"
        },
        "old encinitas": {
            "latitude": "33.0369867",
            "closest_to": "malibu",
            "address": "Encinitas, San Diego County, California, United States of America",
            "locType": "city",
            "blogLinks": [
                "https://www.yelp.com/biz/pacific-coast-highway-carmel"
            ],
            "longitude": "-117.2919817"
        },
        "mount rainier": {
            "latitude": "33.9996667",
            "closest_to": "malibu",
            "address": "Mount Rainier Street, Sunnyslope, Jurupa Valley, Riverside County, California, 92509, United States of America",
            "locType": "residential",
            "blogLinks": [
                "https://www.guideadvisor.com/explore/seattle/"
            ],
            "longitude": "-117.4482688"
        },
        "pfeiffer beach": {
            "latitude": "36.23934855",
            "closest_to": "malibu",
            "address": "Pfeiffer Beach, Sycamore Canyon Road, Big Sur, Monterey County, California, 93920, United States of America",
            "locType": "beach",
            "blogLinks": [
                "https://www.gapyear.com/articles/216212/13-incredible-stops-on-the-pacific-coast-highway"
            ],
            "longitude": "-121.81778571416"
        },
        "anaheim": {
            "latitude": "33.8347516",
            "closest_to": "malibu",
            "address": "Anaheim, Orange County, California, United States of America",
            "locType": "city",
            "blogLinks": [
                "http://www.distancesfrom.com/us/how-far-is-Fremont-from-Anaheim-Resort-via-Long-Beach-Santa-Monica-Malibu-Morro-Bay-Lucia-Big-Sur/HowFarHistory/29223874.aspx"
            ],
            "longitude": "-117.9117319"
        },
        "cardiff": {
            "latitude": "33.6883363",
            "closest_to": "malibu",
            "address": "Cardiff, Westpark, Irvine, Orange County, California, 92606, United States of America",
            "locType": "residential",
            "blogLinks": [
                "https://www.yelp.com/biz/pacific-coast-highway-carmel"
            ],
            "longitude": "-117.806356451668"
        },
        "point sur state historic park": {
            "latitude": "36.315378",
            "closest_to": "malibu",
            "address": "Point Sur State Historic Park, Cabrillo Highway, Big Sur, Monterey County, California, 93923, United States of America",
            "locType": "park",
            "blogLinks": [
                "https://www.gapyear.com/articles/216212/13-incredible-stops-on-the-pacific-coast-highway"
            ],
            "longitude": "-121.881955510784"
        },
        "torrey pines road": {
            "latitude": "32.8491824",
            "closest_to": "malibu",
            "address": "Torrey Pines Road, La Jolla, San Diego, San Diego County, California, 92037, United States of America",
            "locType": "secondary",
            "blogLinks": [
                "https://www.yelp.com/biz/pacific-coast-highway-carmel"
            ],
            "longitude": "-117.2620194"
        },
        "bay area": {
            "latitude": "37.7884969",
            "closest_to": "fremont",
            "address": "San Francisco Bay Area, SF, California, United States of America",
            "locType": "region",
            "blogLinks": [
                "https://www.yelp.com/biz/pacific-coast-highway-carmel"
            ],
            "longitude": "-122.3558472"
        },
        "whistler": {
            "latitude": "34.3090058",
            "closest_to": "malibu",
            "address": "Whistler Avenue, LA, Los Angeles County, California, 91344, United States of America",
            "locType": "residential",
            "blogLinks": [
                "https://www.yelp.com/biz/pacific-coast-highway-carmel"
            ],
            "longitude": "-118.5053852"
        },
        "mono lake ca": {
            "latitude": "38.0077189",
            "closest_to": "malibu",
            "address": "Mono Lake, Mono County, California, United States of America",
            "locType": "water",
            "blogLinks": [
                "http://www.california-blog.com/"
            ],
            "longitude": "-118.967033937845"
        },
        "las vegas": {
            "latitude": "36.17310935",
            "closest_to": "malibu",
            "address": "California Hotel, Sky Walk(Connection from Main Street to California, Cultural Corridor, Vegas Heights, Las Vegas, Clark County, Nevada, 89101, United States of America",
            "locType": "hotel",
            "blogLinks": [
                "https://www.yelp.com/biz/pacific-coast-highway-carmel",
                "https://www.fremont.gov/",
                "https://www.vegas.com/traveltips/top-10-tips-for-driving-from-la-to-vegas/"
            ],
            "longitude": "-115.144667930325"
        },
        "napa valley ca": {
            "latitude": "38.2972603",
            "closest_to": "fremont",
            "address": "California Boulevard, Napa, Napa County, California, 94558, United States of America",
            "locType": "secondary",
            "blogLinks": [
                "http://www.california-blog.com/"
            ],
            "longitude": "-122.3002947"
        },
        "tillamook": {
            "latitude": "32.728329",
            "closest_to": "malibu",
            "address": "Tillamook Bay Drive, San Diego, San Diego County, California, 92114, United States of America",
            "locType": "residential",
            "blogLinks": [
                "https://www.yelp.com/biz/pacific-coast-highway-carmel"
            ],
            "longitude": "-117.0726319"
        },
        "monterey": {
            "latitude": "36.5844165",
            "closest_to": "malibu",
            "address": "Monterey, Monterey County, California, United States of America",
            "locType": "city",
            "blogLinks": [
                "https://www.gapyear.com/articles/216212/13-incredible-stops-on-the-pacific-coast-highway",
                "https://www.yelp.com/biz/pacific-coast-highway-carmel"
            ],
            "longitude": "-121.866792846206"
        },
        "anaheim resort": {
            "latitude": "33.8025071",
            "closest_to": "malibu",
            "address": "Anaheim, South Douglass Road, Anaheim Resort District, Anaheim, Orange County, California, 92806, United States of America",
            "locType": "station",
            "blogLinks": [
                "http://www.distancesfrom.com/us/how-far-is-Fremont-from-Anaheim-Resort-via-Long-Beach-Santa-Monica-Malibu-Morro-Bay-Lucia-Big-Sur/HowFarHistory/29223874.aspx"
            ],
            "longitude": "-117.8779988"
        },
        "seal beach": {
            "latitude": "33.741176",
            "closest_to": "malibu",
            "address": "Seal Beach, Orange County, California, United States of America",
            "locType": "city",
            "blogLinks": [
                "https://www.yelp.com/biz/pacific-coast-highway-carmel"
            ],
            "longitude": "-118.1046355"
        },
        "big sur": {
            "latitude": "36.270241",
            "closest_to": "malibu",
            "address": "Big Sur, Monterey County, California, United States of America",
            "locType": "village",
            "blogLinks": [
                "https://www.yelp.com/biz/pacific-coast-highway-carmel"
            ],
            "longitude": "-121.8074544"
        },
        "sacramento": {
            "latitude": "38.5815719",
            "closest_to": "fremont",
            "address": "Sacramento, Sacramento County, California, United States of America",
            "locType": "city",
            "blogLinks": [
                "https://www.yelp.com/biz/pacific-coast-highway-carmel"
            ],
            "longitude": "-121.4943995"
        },
        "monterey bay whale": {
            "latitude": "36.803599",
            "closest_to": "malibu",
            "address": "Monterey Bay Aquarium Research Institute, Whale Way, Moss Landing, Monterey County, California, 95039, United States of America",
            "locType": "school",
            "blogLinks": [
                "https://www.virtualtourist.com/travel/North_America/United_States_of_America/California/Things_To_Do-California-PCH_Pacific_Coast_Highway_Highway_1-BR-1.html"
            ],
            "longitude": "-121.7880749"
        },
        "pasadena": {
            "latitude": "34.1476452",
            "closest_to": "malibu",
            "address": "Pasadena, Los Angeles County, California, United States of America",
            "locType": "city",
            "blogLinks": [
                "http://www.tripleblaze.com/best/?c=8"
            ],
            "longitude": "-118.1444778"
        },
        "san simeon": {
            "latitude": "35.6438587",
            "closest_to": "malibu",
            "address": "San Simeon, San Luis Obispo County, California, United States of America",
            "locType": "hamlet",
            "blogLinks": [
                "https://www.virtualtourist.com/travel/North_America/United_States_of_America/California/Things_To_Do-California-PCH_Pacific_Coast_Highway_Highway_1-BR-1.html",
                "https://www.gapyear.com/articles/216212/13-incredible-stops-on-the-pacific-coast-highway",
                "https://www.yelp.com/biz/pacific-coast-highway-carmel"
            ],
            "longitude": "-121.1907532"
        },
        "ocean": {
            "latitude": "33.9157306",
            "closest_to": "malibu",
            "address": "Ocean, Hawthorne, Los Angeles County, California, 90261, United States of America",
            "locType": "residential",
            "blogLinks": [
                "https://www.virtualtourist.com/travel/North_America/United_States_of_America/California/Things_To_Do-California-PCH_Pacific_Coast_Highway_Highway_1-BR-1.html"
            ],
            "longitude": "-118.3763704"
        },
        "newport beach ca": {
            "latitude": "33.6170092",
            "closest_to": "malibu",
            "address": "Newport Beach, Orange County, California, United States of America",
            "locType": "city",
            "blogLinks": [
                "http://www.california-blog.com/"
            ],
            "longitude": "-117.92944"
        },
        "malibu": {
            "latitude": "33.7932142",
            "closest_to": "malibu",
            "address": "Malibu, Palm Springs, Riverside County, California, 92264, United States of America",
            "locType": "residential",
            "blogLinks": [
                "http://www.distancesfrom.com/us/how-far-is-Fremont-from-Anaheim-Resort-via-Long-Beach-Santa-Monica-Malibu-Morro-Bay-Lucia-Big-Sur/HowFarHistory/29223874.aspx",
                "https://www.virtualtourist.com/travel/North_America/United_States_of_America/California/Things_To_Do-California-PCH_Pacific_Coast_Highway_Highway_1-BR-1.html",
                "https://www.gapyear.com/articles/216212/13-incredible-stops-on-the-pacific-coast-highway",
                "http://www.distancesfrom.com/us/travel-from-Fremont-to-Fremont-via-Mammoth-Lakes-Joshua-Tree-Malibu/TravelFromHistory/29244660.aspx",
                "http://www.distancesfrom.com/us/how-far-is-Fremont-from-Fremont-via-Mammoth-Lakes-Joshua-Tree-Malibu/HowFarHistory/29244660.aspx",
                "http://www.distancesfrom.com/us/how-far-is-Fremont-from-Malibu/HowFarHistory/32586050.aspx",
                "http://www.tripleblaze.com/best/?c=8",
                "http://www.distancesfrom.com/us/distance-from-Malibu-to-Fremont/DistanceHistory/32586050.aspx",
                "http://www.california-blog.com/",
                "https://www.yelp.com/biz/pacific-coast-highway-carmel"
            ],
            "longitude": "-116.5023561"
        },
        "san fernando valley": {
            "latitude": "34.2819461",
            "closest_to": "malibu",
            "address": "San Fernando, Los Angeles County, California, United States of America",
            "locType": "administrative",
            "blogLinks": [
                "https://www.gapyear.com/articles/216212/13-incredible-stops-on-the-pacific-coast-highway"
            ],
            "longitude": "-118.4389718"
        },
        "ventura": {
            "latitude": "34.4458248",
            "closest_to": "malibu",
            "address": "Ventura County, California, United States of America",
            "locType": "administrative",
            "blogLinks": [
                "https://www.gapyear.com/articles/216212/13-incredible-stops-on-the-pacific-coast-highway"
            ],
            "longitude": "-119.0779358"
        },
        "ventura beach": {
            "latitude": "32.772073",
            "closest_to": "malibu",
            "address": "Ventura Place, Pacific Beach, San Diego, San Diego County, California, 92109, United States of America",
            "locType": "unclassified",
            "blogLinks": [
                "https://www.gapyear.com/articles/216212/13-incredible-stops-on-the-pacific-coast-highway"
            ],
            "longitude": "-117.2514716"
        },
        "monterrey": {
            "latitude": "32.5492861",
            "closest_to": "malibu",
            "address": "Monterrey, Mexicali, Baja California, M\u00e9xico",
            "locType": "village",
            "blogLinks": [
                "https://www.yelp.com/biz/pacific-coast-highway-carmel"
            ],
            "longitude": "-115.0704122"
        },
        "long beach": {
            "latitude": "33.78538945",
            "closest_to": "malibu",
            "address": "Long Beach, Los Angeles County, California, United States of America",
            "locType": "city",
            "blogLinks": [
                "http://www.distancesfrom.com/us/how-far-is-Fremont-from-Anaheim-Resort-via-Long-Beach-Santa-Monica-Malibu-Morro-Bay-Lucia-Big-Sur/HowFarHistory/29223874.aspx",
                "https://www.gapyear.com/articles/216212/13-incredible-stops-on-the-pacific-coast-highway",
                "https://www.yelp.com/biz/pacific-coast-highway-carmel"
            ],
            "longitude": "-118.158049215311"
        },
        "america": {
            "latitude": "36.2573198",
            "closest_to": "malibu",
            "address": "America, Kings County, California, 93246, United States of America",
            "locType": "residential",
            "blogLinks": [
                "http://www.visitseattle.org/neighborhoods/downtown-seattle/"
            ],
            "longitude": "-119.8948706"
        },
        "santa barbara botanic garden": {
            "latitude": "34.456953",
            "closest_to": "malibu",
            "address": "Santa Barbara Botanic Gardens, Mission Canyon Road, Mission Canyon, Santa Barbara County, California, 93105, United States of America",
            "locType": "park",
            "blogLinks": [
                "https://www.gapyear.com/articles/216212/13-incredible-stops-on-the-pacific-coast-highway"
            ],
            "longitude": "-119.709585108231"
        },
        "kern river": {
            "latitude": "36.6816956",
            "closest_to": "malibu",
            "address": "Kern River, Tulare County, California, United States of America",
            "locType": "river",
            "blogLinks": [
                "http://www.california-blog.com/"
            ],
            "longitude": "-118.4124188"
        },
        "san diego county": {
            "latitude": "32.9637838",
            "closest_to": "malibu",
            "address": "San Diego County, California, United States of America",
            "locType": "administrative",
            "blogLinks": [
                "https://www.virtualtourist.com/travel/North_America/United_States_of_America/California/Things_To_Do-California-PCH_Pacific_Coast_Highway_Highway_1-BR-1.html",
                "https://www.gapyear.com/articles/216212/13-incredible-stops-on-the-pacific-coast-highway"
            ],
            "longitude": "-116.7706276"
        },
        "bainbridge": {
            "latitude": "33.7136298",
            "closest_to": "malibu",
            "address": "Bainbridge, Stonegate, Irvine, Orange County, California, 92676, United States of America",
            "locType": "residential",
            "blogLinks": [
                "https://www.guideadvisor.com/explore/seattle/"
            ],
            "longitude": "-117.743064"
        },
        "pismo beach": {
            "latitude": "35.1427533",
            "closest_to": "malibu",
            "address": "Pismo Beach, San Luis Obispo County, California, United States of America",
            "locType": "city",
            "blogLinks": [
                "https://www.gapyear.com/articles/216212/13-incredible-stops-on-the-pacific-coast-highway",
                "https://www.yelp.com/biz/pacific-coast-highway-carmel"
            ],
            "longitude": "-120.6412826"
        },
        "barstow": {
            "latitude": "34.8957684",
            "closest_to": "malibu",
            "address": "Barstow, San Bernardino County, California, United States of America",
            "locType": "administrative",
            "blogLinks": [
                "https://www.vegas.com/traveltips/top-10-tips-for-driving-from-la-to-vegas/"
            ],
            "longitude": "-117.0172076"
        },
        "palos verdes peninsula ca": {
            "latitude": "33.77984925",
            "closest_to": "malibu",
            "address": "Palos Verdes Peninsula High School, Hawthorne Boulevard, Rolling Hills Estates, Los Angeles County, California, 90274, United States of America",
            "locType": "school",
            "blogLinks": [
                "http://www.california-blog.com/"
            ],
            "longitude": "-118.372196730215"
        },
        "usa": {
            "latitude": "36.7014631",
            "closest_to": "malibu",
            "address": "California, United States of America",
            "locType": "administrative",
            "blogLinks": [
                "http://www.distancesfrom.com/us/distance-from-Malibu-to-Fremont/DistanceHistory/32586050.aspx",
                "http://www.distancesfrom.com/us/how-far-is-Fremont-from-Anaheim-Resort-via-Long-Beach-Santa-Monica-Malibu-Morro-Bay-Lucia-Big-Sur/HowFarHistory/29223874.aspx",
                "http://www.distancesfrom.com/us/travel-from-Fremont-to-Fremont-via-Mammoth-Lakes-Joshua-Tree-Malibu/TravelFromHistory/29244660.aspx",
                "http://www.distancesfrom.com/us/how-far-is-Fremont-from-Fremont-via-Mammoth-Lakes-Joshua-Tree-Malibu/HowFarHistory/29244660.aspx",
                "http://www.distancesfrom.com/us/how-far-is-Fremont-from-Malibu/HowFarHistory/32586050.aspx"
            ],
            "longitude": "-118.7559973"
        },
        "vancouver": {
            "latitude": "34.824773",
            "closest_to": "malibu",
            "address": "Vancouver, San Bernardino County, California, United States of America",
            "locType": "residential",
            "blogLinks": [
                "https://www.yelp.com/biz/pacific-coast-highway-carmel"
            ],
            "longitude": "-117.4634669"
        },
        "crescent city": {
            "latitude": "41.8528065",
            "closest_to": "fremont",
            "address": "Crescent City, Del Norte County, California, United States of America",
            "locType": "city",
            "blogLinks": [
                "https://www.virtualtourist.com/travel/North_America/United_States_of_America/California/Things_To_Do-California-PCH_Pacific_Coast_Highway_Highway_1-BR-1.html"
            ],
            "longitude": "-124.149861883096"
        },
        "monterey bay": {
            "latitude": "36.7999557",
            "closest_to": "malibu",
            "address": "Monterey Bay, Monterey County, California, United States of America",
            "locType": "bay",
            "blogLinks": [
                "https://www.gapyear.com/articles/216212/13-incredible-stops-on-the-pacific-coast-highway"
            ],
            "longitude": "-121.9010667"
        },
        "mammoth lakes": {
            "latitude": "37.6432525",
            "closest_to": "malibu",
            "address": "Mammoth Lakes, Mono County, California, United States of America",
            "locType": "administrative",
            "blogLinks": [
                "http://www.distancesfrom.com/us/how-far-is-Fremont-from-Fremont-via-Mammoth-Lakes-Joshua-Tree-Malibu/HowFarHistory/29244660.aspx",
                "http://www.distancesfrom.com/us/travel-from-Fremont-to-Fremont-via-Mammoth-Lakes-Joshua-Tree-Malibu/TravelFromHistory/29244660.aspx"
            ],
            "longitude": "-118.9668508"
        },
        "huntington beach": {
            "latitude": "33.6783336",
            "closest_to": "malibu",
            "address": "Huntington Beach, Orange County, California, United States of America",
            "locType": "city",
            "blogLinks": [
                "https://www.gapyear.com/articles/216212/13-incredible-stops-on-the-pacific-coast-highway",
                "https://www.yelp.com/biz/pacific-coast-highway-carmel"
            ],
            "longitude": "-118.0000165"
        },
        "us": {
            "latitude": "36.7014631",
            "closest_to": "malibu",
            "address": "California, United States of America",
            "locType": "administrative",
            "blogLinks": [
                "https://www.virtualtourist.com/travel/North_America/United_States_of_America/California/Things_To_Do-California-PCH_Pacific_Coast_Highway_Highway_1-BR-1.html",
                "https://www.yelp.com/biz/pacific-coast-highway-carmel"
            ],
            "longitude": "-118.7559973"
        },
        "wilder ranch state park": {
            "latitude": "36.96021805",
            "closest_to": "malibu",
            "address": "Wilder Ranch State Park, Coast Road, Westside, Santa Cruz County, California, 95060, United States of America",
            "locType": "park",
            "blogLinks": [
                "https://www.gapyear.com/articles/216212/13-incredible-stops-on-the-pacific-coast-highway"
            ],
            "longitude": "-122.079566815934"
        },
        "pebble beach ca": {
            "latitude": "36.5664874",
            "closest_to": "malibu",
            "address": "Pebble Beach, Monterey County, California, United States of America",
            "locType": "hamlet",
            "blogLinks": [
                "http://www.california-blog.com/"
            ],
            "longitude": "-121.9466112"
        },
        "oxnard": {
            "latitude": "34.1976308",
            "closest_to": "malibu",
            "address": "Oxnard, Ventura County, California, United States of America",
            "locType": "city",
            "blogLinks": [
                "https://www.gapyear.com/articles/216212/13-incredible-stops-on-the-pacific-coast-highway"
            ],
            "longitude": "-119.1803817"
        },
        "santa monica": {
            "latitude": "34.0195598",
            "closest_to": "malibu",
            "address": "Santa Monica, Los Angeles County, California, United States of America",
            "locType": "city",
            "blogLinks": [
                "http://www.distancesfrom.com/us/how-far-is-Fremont-from-Anaheim-Resort-via-Long-Beach-Santa-Monica-Malibu-Morro-Bay-Lucia-Big-Sur/HowFarHistory/29223874.aspx",
                "https://www.virtualtourist.com/travel/North_America/United_States_of_America/California/Things_To_Do-California-PCH_Pacific_Coast_Highway_Highway_1-BR-1.html",
                "https://www.yelp.com/biz/pacific-coast-highway-carmel"
            ],
            "longitude": "-118.4869738"
        },
        "seattle": {
            "latitude": "41.9641881",
            "closest_to": "fremont",
            "address": "Seattle, Dorris, Siskiyou County, California, 96023, United States of America",
            "locType": "residential",
            "blogLinks": [
                "https://www.guideadvisor.com/explore/seattle/",
                "http://www.distancesfrom.com/us/how-far-is-Fremont-from-Fremont-via-Mammoth-Lakes-Joshua-Tree-Malibu/HowFarHistory/29244660.aspx",
                "http://www.distancesfrom.com/us/travel-from-Fremont-to-Fremont-via-Mammoth-Lakes-Joshua-Tree-Malibu/TravelFromHistory/29244660.aspx",
                "http://www.visitseattle.org/neighborhoods/downtown-seattle/"
            ],
            "longitude": "-121.9226289"
        },
        "pacific crest": {
            "latitude": "33.4906116",
            "closest_to": "malibu",
            "address": "Pacific Crest, Laguna Niguel, Orange County, California, 92677, United States of America",
            "locType": "residential",
            "blogLinks": [
                "http://www.tripleblaze.com/best/?c=8"
            ],
            "longitude": "-117.694672"
        },
        "mcway falls": {
            "latitude": "36.1578211",
            "closest_to": "malibu",
            "address": "McWay Falls, Monterey County, California, United States of America",
            "locType": "waterfall",
            "blogLinks": [
                "https://www.gapyear.com/articles/216212/13-incredible-stops-on-the-pacific-coast-highway"
            ],
            "longitude": "-121.6723957"
        },
        "newport beach": {
            "latitude": "33.6170092",
            "closest_to": "malibu",
            "address": "Newport Beach, Orange County, California, United States of America",
            "locType": "city",
            "blogLinks": [
                "https://www.gapyear.com/articles/216212/13-incredible-stops-on-the-pacific-coast-highway",
                "https://www.yelp.com/biz/pacific-coast-highway-carmel"
            ],
            "longitude": "-117.92944"
        },
        "islay hill": {
            "latitude": "35.2455305",
            "closest_to": "malibu",
            "address": "Islay Hill, San Luis Obispo, San Luis Obispo County, California, United States of America",
            "locType": "peak",
            "blogLinks": [
                "https://www.gapyear.com/articles/216212/13-incredible-stops-on-the-pacific-coast-highway"
            ],
            "longitude": "-120.622392"
        },
        "monterey bay aquarium": {
            "latitude": "36.61809095",
            "closest_to": "malibu",
            "address": "MBA, 886, Cannery Row, Monterey, Monterey County, California, 93940, United States of America",
            "locType": "aquarium",
            "blogLinks": [
                "https://www.gapyear.com/articles/216212/13-incredible-stops-on-the-pacific-coast-highway"
            ],
            "longitude": "-121.901680002002"
        },
        "oceanside": {
            "latitude": "33.1958696",
            "closest_to": "malibu",
            "address": "Oceanside, San Diego County, California, United States of America",
            "locType": "city",
            "blogLinks": [
                "https://www.yelp.com/biz/pacific-coast-highway-carmel"
            ],
            "longitude": "-117.3794833"
        },
        "nevada": {
            "latitude": "39.3540335",
            "closest_to": "fremont",
            "address": "Nevada County, California, United States of America",
            "locType": "administrative",
            "blogLinks": [
                "https://www.vegas.com/traveltips/top-10-tips-for-driving-from-la-to-vegas/"
            ],
            "longitude": "-120.8089842"
        },
        "san clemente": {
            "latitude": "33.4270275",
            "closest_to": "malibu",
            "address": "San Clemente, Orange County, California, United States of America",
            "locType": "city",
            "blogLinks": [
                "https://www.yelp.com/biz/pacific-coast-highway-carmel"
            ],
            "longitude": "-117.6124178"
        },
        "aliso creek": {
            "latitude": "33.602558",
            "closest_to": "malibu",
            "address": "Aliso Creek, Laguna Woods, Orange County, California, United States of America",
            "locType": "stream",
            "blogLinks": [
                "http://www.tripleblaze.com/best/?c=8"
            ],
            "longitude": "-117.7034805"
        },
        "mount baldy ca": {
            "latitude": "34.2361168",
            "closest_to": "malibu",
            "address": "Mount Baldy, Los Angeles County, California, United States of America",
            "locType": "hamlet",
            "blogLinks": [
                "http://www.california-blog.com/"
            ],
            "longitude": "-117.6600552"
        },
        "black hill": {
            "latitude": "34.1788953",
            "closest_to": "malibu",
            "address": "Black Hill, San Bernardino County, California, United States of America",
            "locType": "peak",
            "blogLinks": [
                "https://www.gapyear.com/articles/216212/13-incredible-stops-on-the-pacific-coast-highway"
            ],
            "longitude": "-116.49196"
        },
        "balboa island": {
            "latitude": "33.6064778",
            "closest_to": "malibu",
            "address": "Balboa Island, Newport Beach, Orange County, California, United States of America",
            "locType": "suburb",
            "blogLinks": [
                "https://www.yelp.com/biz/pacific-coast-highway-carmel"
            ],
            "longitude": "-117.8920818"
        },
        "hawaii": {
            "latitude": "36.8347819",
            "closest_to": "malibu",
            "address": "Hawaii, Fresno County, California, 93650, United States of America",
            "locType": "service",
            "blogLinks": [
                "https://www.yelp.com/biz/pacific-coast-highway-carmel"
            ],
            "longitude": "-119.7966952"
        },
        "creek": {
            "latitude": "39.3751013",
            "closest_to": "fremont",
            "address": "Creek, Mendocino County, California, United States of America",
            "locType": "stream",
            "blogLinks": [
                "http://www.tripleblaze.com/best/?c=8"
            ],
            "longitude": "-123.0482197"
        },
        "broadway": {
            "latitude": "37.7958391",
            "closest_to": "fremont",
            "address": "Broadway, Russian Hill, SF, California, 94109;94115, United States of America",
            "locType": "primary",
            "blogLinks": [
                "https://www.guideadvisor.com/explore/seattle/",
                "http://www.visitseattle.org/neighborhoods/downtown-seattle/"
            ],
            "longitude": "-122.4226908"
        },
        "morongo valley": {
            "latitude": "34.0537585",
            "closest_to": "malibu",
            "address": "Morongo Valley, Vista Drive, Morongo Valley, San Bernardino County, California, 92256, United States of America",
            "locType": "administrative",
            "blogLinks": [
                "http://www.california-blog.com/"
            ],
            "longitude": "-116.596723958419"
        },
        "solana beach": {
            "latitude": "32.9905597",
            "closest_to": "malibu",
            "address": "Solana Beach, San Diego County, California, United States of America",
            "locType": "city",
            "blogLinks": [
                "https://www.yelp.com/biz/pacific-coast-highway-carmel"
            ],
            "longitude": "-117.2691315"
        },
        "mojave desert ca": {
            "latitude": "35.1456319",
            "closest_to": "malibu",
            "address": "Mojave Desert, Utility Road, San Bernardino County, California, United States of America",
            "locType": "desert",
            "blogLinks": [
                "http://www.california-blog.com/"
            ],
            "longitude": "-115.548963686646"
        },
        "balboa park": {
            "latitude": "37.72494875",
            "closest_to": "fremont",
            "address": "Balboa Park, Sergeant John V Young Lane, Ingleside, SF, California, 94112, United States of America",
            "locType": "park",
            "blogLinks": [
                "https://www.gapyear.com/articles/216212/13-incredible-stops-on-the-pacific-coast-highway"
            ],
            "longitude": "-122.444804424152"
        },
        "mojave desert": {
            "latitude": "35.1456319",
            "closest_to": "malibu",
            "address": "Mojave Desert, Utility Road, San Bernardino County, California, United States of America",
            "locType": "desert",
            "blogLinks": [
                "https://www.vegas.com/traveltips/top-10-tips-for-driving-from-la-to-vegas/"
            ],
            "longitude": "-115.548963686646"
        },
        "redondo beach": {
            "latitude": "33.8455911",
            "closest_to": "malibu",
            "address": "Redondo Beach, Los Angeles County, California, United States of America",
            "locType": "city",
            "blogLinks": [
                "https://www.yelp.com/biz/pacific-coast-highway-carmel"
            ],
            "longitude": "-118.3886765"
        },
        "golden gate park": {
            "latitude": "37.7693681",
            "closest_to": "fremont",
            "address": "Golden Gate Park, Overlook Drive, Richmond District, SF, California, 94122, United States of America",
            "locType": "park",
            "blogLinks": [
                "https://www.gapyear.com/articles/216212/13-incredible-stops-on-the-pacific-coast-highway"
            ],
            "longitude": "-122.482183611177"
        },
        "monrovia": {
            "latitude": "34.1483499",
            "closest_to": "malibu",
            "address": "Monrovia, Los Angeles County, California, United States of America",
            "locType": "city",
            "blogLinks": [
                "http://www.california-blog.com/"
            ],
            "longitude": "-118.0014516"
        },
        "frisco": {
            "latitude": "35.0714062",
            "closest_to": "malibu",
            "address": "Frisco Way, Los Berros, San Luis Obispo County, California, 93420, United States of America",
            "locType": "residential",
            "blogLinks": [
                "https://www.yelp.com/biz/pacific-coast-highway-carmel"
            ],
            "longitude": "-120.5207138"
        },
        "la": {
            "latitude": "36.7014631",
            "closest_to": "malibu",
            "address": "California, United States of America",
            "locType": "administrative",
            "blogLinks": [
                "https://www.virtualtourist.com/travel/North_America/United_States_of_America/California/Things_To_Do-California-PCH_Pacific_Coast_Highway_Highway_1-BR-1.html",
                "http://www.visitseattle.org/neighborhoods/downtown-seattle/",
                "https://www.yelp.com/biz/pacific-coast-highway-carmel"
            ],
            "longitude": "-118.7559973"
        },
        "downtown ventura": {
            "latitude": "34.15184445",
            "closest_to": "malibu",
            "address": "Downtown Johnny's, 14649, Ventura Boulevard, Sherman Oaks, LA, Los Angeles County, California, 91403, United States of America",
            "locType": "restaurant",
            "blogLinks": [
                "https://www.gapyear.com/articles/216212/13-incredible-stops-on-the-pacific-coast-highway"
            ],
            "longitude": "-118.452523182928"
        },
        "union square": {
            "latitude": "37.78794125",
            "closest_to": "fremont",
            "address": "Union Square, Post Street, Chinatown, SF, California, 94115, United States of America",
            "locType": "park",
            "blogLinks": [
                "https://www.gapyear.com/articles/216212/13-incredible-stops-on-the-pacific-coast-highway"
            ],
            "longitude": "-122.407502671706"
        },
        "ocean boulevard": {
            "latitude": "33.7547252",
            "closest_to": "malibu",
            "address": "Ocean Boulevard, Wilmington, LA, Los Angeles County, California, 90731, United States of America",
            "locType": "motorway",
            "blogLinks": [
                "https://www.virtualtourist.com/travel/North_America/United_States_of_America/California/Things_To_Do-California-PCH_Pacific_Coast_Highway_Highway_1-BR-1.html"
            ],
            "longitude": "-118.249512"
        },
        "oregon": {
            "latitude": "33.7123207",
            "closest_to": "malibu",
            "address": "Oregon, Walnut, Irvine, Orange County, California, 92606, United States of America",
            "locType": "residential",
            "blogLinks": [
                "https://www.gapyear.com/articles/216212/13-incredible-stops-on-the-pacific-coast-highway",
                "https://www.yelp.com/biz/pacific-coast-highway-carmel"
            ],
            "longitude": "-117.7911567"
        },
        "coronado bridge": {
            "latitude": "32.6904606",
            "closest_to": "malibu",
            "address": "San Diego-Coronado Bridge, San Diego, San Diego County, California, 92118, United States of America",
            "locType": "motorway",
            "blogLinks": [
                "https://www.gapyear.com/articles/216212/13-incredible-stops-on-the-pacific-coast-highway"
            ],
            "longitude": "-117.1524863"
        },
        "half moon bay": {
            "latitude": "37.4635519",
            "closest_to": "fremont",
            "address": "Half Moon Bay, San Mateo County, California, United States of America",
            "locType": "city",
            "blogLinks": [
                "https://www.gapyear.com/articles/216212/13-incredible-stops-on-the-pacific-coast-highway",
                "https://www.yelp.com/biz/pacific-coast-highway-carmel"
            ],
            "longitude": "-122.4285861"
        },
        "santa maria": {
            "latitude": "34.9531295",
            "closest_to": "malibu",
            "address": "Santa Maria, Santa Barbara County, California, United States of America",
            "locType": "city",
            "blogLinks": [
                "https://www.yelp.com/biz/pacific-coast-highway-carmel"
            ],
            "longitude": "-120.4358576"
        },
        "monterey county": {
            "latitude": "36.2231079",
            "closest_to": "malibu",
            "address": "Monterey County, California, United States of America",
            "locType": "administrative",
            "blogLinks": [
                "http://www.distancesfrom.com/us/how-far-is-Fremont-from-Anaheim-Resort-via-Long-Beach-Santa-Monica-Malibu-Morro-Bay-Lucia-Big-Sur/HowFarHistory/29223874.aspx"
            ],
            "longitude": "-121.3877427"
        },
        "seacoast drive": {
            "latitude": "32.5802809",
            "closest_to": "malibu",
            "address": "Seacoast Drive, Imperial Beach, San Diego County, California, 91932, United States of America",
            "locType": "residential",
            "blogLinks": [
                "https://www.virtualtourist.com/travel/North_America/United_States_of_America/California/Things_To_Do-California-PCH_Pacific_Coast_Highway_Highway_1-BR-1.html"
            ],
            "longitude": "-117.1317287"
        },
        "long beach museum of art": {
            "latitude": "33.76347985",
            "closest_to": "malibu",
            "address": "Long Beach Museum of Art, East Ocean Boulevard, Belmont Shore, Long Beach, Los Angeles County, California, 90814, United States of America",
            "locType": "museum",
            "blogLinks": [
                "https://www.gapyear.com/articles/216212/13-incredible-stops-on-the-pacific-coast-highway"
            ],
            "longitude": "-118.164781543159"
        },
        "rodeo drive": {
            "latitude": "32.824444",
            "closest_to": "malibu",
            "address": "Rodeo Drive, La Jolla, San Diego, San Diego County, California, 92037, United States of America",
            "locType": "residential",
            "blogLinks": [
                "https://www.gapyear.com/articles/216212/13-incredible-stops-on-the-pacific-coast-highway"
            ],
            "longitude": "-117.2609329"
        },
        "north lake ca": {
            "latitude": "37.76958295",
            "closest_to": "fremont",
            "address": "North Lake, Chain of Lakes Drive East, Sunset District, SF, California, 94122, United States of America",
            "locType": "water",
            "blogLinks": [
                "http://www.california-blog.com/"
            ],
            "longitude": "-122.501983281136"
        },
        "orange county": {
            "latitude": "33.7500378",
            "closest_to": "malibu",
            "address": "Orange County, California, United States of America",
            "locType": "administrative",
            "blogLinks": [
                "https://www.yelp.com/biz/pacific-coast-highway-carmel"
            ],
            "longitude": "-117.870493"
        },
        "redwoods national park": {
            "latitude": "41.28336695",
            "closest_to": "fremont",
            "address": "Redwoods National Park, Redwood Highway, Humboldt County, California, 95555, United States of America",
            "locType": "toilets",
            "blogLinks": [
                "https://www.virtualtourist.com/travel/North_America/United_States_of_America/California/Things_To_Do-California-PCH_Pacific_Coast_Highway_Highway_1-BR-1.html"
            ],
            "longitude": "-124.092382867978"
        },
        "laguna beach": {
            "latitude": "33.5420888",
            "closest_to": "malibu",
            "address": "Laguna Beach, Orange County, California, United States of America",
            "locType": "city",
            "blogLinks": [
                "https://www.gapyear.com/articles/216212/13-incredible-stops-on-the-pacific-coast-highway",
                "https://www.yelp.com/biz/pacific-coast-highway-carmel"
            ],
            "longitude": "-117.7834146"
        },
        "san diego": {
            "latitude": "32.7174209",
            "closest_to": "malibu",
            "address": "San Diego, San Diego County, California, United States of America",
            "locType": "city",
            "blogLinks": [
                "https://www.gapyear.com/articles/216212/13-incredible-stops-on-the-pacific-coast-highway",
                "http://www.tripleblaze.com/best/?c=8",
                "https://www.yelp.com/biz/pacific-coast-highway-carmel"
            ],
            "longitude": "-117.1627713"
        },
        "cambria": {
            "latitude": "35.5641381",
            "closest_to": "malibu",
            "address": "Cambria, San Luis Obispo County, California, United States of America",
            "locType": "administrative",
            "blogLinks": [
                "https://www.virtualtourist.com/travel/North_America/United_States_of_America/California/Things_To_Do-California-PCH_Pacific_Coast_Highway_Highway_1-BR-1.html",
                "https://www.yelp.com/biz/pacific-coast-highway-carmel"
            ],
            "longitude": "-121.0807467"
        },
        "pacific highway": {
            "latitude": "32.721338",
            "closest_to": "malibu",
            "address": "Pacific Highway, Hillcrest, San Diego, San Diego County, California, 92110, United States of America",
            "locType": "primary",
            "blogLinks": [
                "https://www.virtualtourist.com/travel/North_America/United_States_of_America/California/Things_To_Do-California-PCH_Pacific_Coast_Highway_Highway_1-BR-1.html"
            ],
            "longitude": "-117.1711169"
        },
        "eaton canyon park": {
            "latitude": "34.18216575",
            "closest_to": "malibu",
            "address": "Eaton Canyon Park, Canyon View Lane, Pasadena, Los Angeles County, California, 91107, United States of America",
            "locType": "park",
            "blogLinks": [
                "http://www.tripleblaze.com/best/?c=8"
            ],
            "longitude": "-118.095556461784"
        },
        "seacrest park": {
            "latitude": "33.8757441",
            "closest_to": "malibu",
            "address": "Seacrest Drive, Buena Park, Orange County, California, 90621, United States of America",
            "locType": "residential",
            "blogLinks": [
                "https://www.guideadvisor.com/explore/seattle/"
            ],
            "longitude": "-117.9767985"
        },
        "silicon valley": {
            "latitude": "37.4105333",
            "closest_to": "malibu",
            "address": "Carnegie Mellon Silicon Valley, South Akron Road, Santa Clara County, California, 94035-0016, United States of America",
            "locType": "school",
            "blogLinks": [
                "https://www.gapyear.com/articles/216212/13-incredible-stops-on-the-pacific-coast-highway"
            ],
            "longitude": "-122.0597491"
        },
        "ontario": {
            "latitude": "34.065846",
            "closest_to": "malibu",
            "address": "Ontario, San Bernardino County, California, United States of America",
            "locType": "city",
            "blogLinks": [
                "http://www.california-blog.com/"
            ],
            "longitude": "-117.6484303"
        },
        "california highway patrol": {
            "latitude": "33.7517195",
            "closest_to": "malibu",
            "address": "California Highway Patrol, 79650, Varner Road, Indio, Riverside County, California, 92203, United States of America",
            "locType": "police",
            "blogLinks": [
                "https://www.vegas.com/traveltips/top-10-tips-for-driving-from-la-to-vegas/"
            ],
            "longitude": "-116.2731591"
        },
        "pacific ocean": {
            "latitude": "36.16305775",
            "closest_to": "malibu",
            "address": "Pacific Ocean, Cabrillo Highway, Monterey County, California, 93920, United States of America",
            "locType": "cliff",
            "blogLinks": [
                "https://www.virtualtourist.com/travel/North_America/United_States_of_America/California/Things_To_Do-California-PCH_Pacific_Coast_Highway_Highway_1-BR-1.html",
                "https://www.yelp.com/biz/pacific-coast-highway-carmel"
            ],
            "longitude": "-121.678715787326"
        },
        "us highway 101": {
            "latitude": "32.9967358",
            "closest_to": "malibu",
            "address": "Highway 101, Solana Beach, San Diego County, California, 92075, United States of America",
            "locType": "primary",
            "blogLinks": [
                "https://www.virtualtourist.com/travel/North_America/United_States_of_America/California/Things_To_Do-California-PCH_Pacific_Coast_Highway_Highway_1-BR-1.html"
            ],
            "longitude": "-117.2731974"
        },
        "lombard street": {
            "latitude": "37.802076",
            "closest_to": "fremont",
            "address": "1079, Lombard Street, Russian Hill, SF, California, 94109, United States of America",
            "locType": "residential",
            "blogLinks": [
                "https://www.gapyear.com/articles/216212/13-incredible-stops-on-the-pacific-coast-highway"
            ],
            "longitude": "-122.418809"
        },
        "carlsbad": {
            "latitude": "33.1580933",
            "closest_to": "malibu",
            "address": "Carlsbad, San Diego County, California, United States of America",
            "locType": "city",
            "blogLinks": [
                "https://www.yelp.com/biz/pacific-coast-highway-carmel"
            ],
            "longitude": "-117.3505938"
        },
        "united states": {
            "latitude": "36.7014631",
            "closest_to": "malibu",
            "address": "California, United States of America",
            "locType": "administrative",
            "blogLinks": [
                "http://www.distancesfrom.com/us/how-far-is-Fremont-from-Anaheim-Resort-via-Long-Beach-Santa-Monica-Malibu-Morro-Bay-Lucia-Big-Sur/HowFarHistory/29223874.aspx",
                "https://www.virtualtourist.com/travel/North_America/United_States_of_America/California/Things_To_Do-California-PCH_Pacific_Coast_Highway_Highway_1-BR-1.html",
                "https://www.tripadvisor.com/Attractions-g32676-Activities-Malibu_California.html",
                "https://www.tripadvisor.com/Attractions-g32411-Activities-Fremont_California.html"
            ],
            "longitude": "-118.7559973"
        },
        "morro bay": {
            "latitude": "35.3658075",
            "closest_to": "malibu",
            "address": "Morro Bay, San Luis Obispo County, California, United States of America",
            "locType": "city",
            "blogLinks": [
                "https://www.guideadvisor.com/explore/seattle/",
                "http://www.distancesfrom.com/us/how-far-is-Fremont-from-Anaheim-Resort-via-Long-Beach-Santa-Monica-Malibu-Morro-Bay-Lucia-Big-Sur/HowFarHistory/29223874.aspx"
            ],
            "longitude": "-120.8499012"
        },
        "manhattan beach": {
            "latitude": "33.8950839",
            "closest_to": "malibu",
            "address": "Manhattan Beach, Los Angeles County, California, United States of America",
            "locType": "city",
            "blogLinks": [
                "https://www.yelp.com/biz/pacific-coast-highway-carmel"
            ],
            "longitude": "-118.4000146"
        },
        "sunset boulevard": {
            "latitude": "34.0759222",
            "closest_to": "malibu",
            "address": "Sunset Boulevard, Echo Park, Angelino Heights, LA, Los Angeles County, California, 90026, United States of America",
            "locType": "primary",
            "blogLinks": [
                "https://www.gapyear.com/articles/216212/13-incredible-stops-on-the-pacific-coast-highway"
            ],
            "longitude": "-118.2554183"
        },
        "riverside national cemetery": {
            "latitude": "33.87692125",
            "closest_to": "malibu",
            "address": "Riverside National Cemetery, 22495, Alessandro, Riverside County, California, 92518, United States of America",
            "locType": "cemetery",
            "blogLinks": [
                "http://www.california-blog.com/"
            ],
            "longitude": "-117.270726607134"
        },
        "california highway 1": {
            "latitude": "37.7931799",
            "closest_to": "fremont",
            "address": "One California Street Building, 1, California Street, Financial District, SF, California, 94121, United States of America",
            "locType": "yes",
            "blogLinks": [
                "https://www.virtualtourist.com/travel/North_America/United_States_of_America/California/Things_To_Do-California-PCH_Pacific_Coast_Highway_Highway_1-BR-1.html"
            ],
            "longitude": "-122.397168822203"
        },
        "laguna": {
            "latitude": "38.4210209",
            "closest_to": "fremont",
            "address": "Laguna, Sacramento County, California, United States of America",
            "locType": "hamlet",
            "blogLinks": [
                "https://www.yelp.com/biz/pacific-coast-highway-carmel"
            ],
            "longitude": "-121.4238413"
        },
        "point lobos": {
            "latitude": "36.5157454",
            "closest_to": "malibu",
            "address": "Point Lobos, Carmel Highlands, Monterey County, California, 93921, United States of America",
            "locType": "service",
            "blogLinks": [
                "https://www.virtualtourist.com/travel/North_America/United_States_of_America/California/Things_To_Do-California-PCH_Pacific_Coast_Highway_Highway_1-BR-1.html"
            ],
            "longitude": "-121.946368069847"
        },
        "pioneer square": {
            "latitude": "36.31467455",
            "closest_to": "malibu",
            "address": "Shopping Center Pioneer Square, North Lemoore Avenue, Lemoore, Kings County, California, 93245, United States of America",
            "locType": "mall",
            "blogLinks": [
                "https://www.guideadvisor.com/explore/seattle/"
            ],
            "longitude": "-119.780118971312"
        },
        "monterey bay aquarium ca": {
            "latitude": "36.61809095",
            "closest_to": "malibu",
            "address": "MBA, 886, Cannery Row, Monterey, Monterey County, California, 93940, United States of America",
            "locType": "aquarium",
            "blogLinks": [
                "http://www.california-blog.com/"
            ],
            "longitude": "-121.901680002002"
        },
        "pacific beach": {
            "latitude": "32.7978268",
            "closest_to": "malibu",
            "address": "Pacific Beach, San Diego, San Diego County, California, United States of America",
            "locType": "suburb",
            "blogLinks": [
                "https://www.gapyear.com/articles/216212/13-incredible-stops-on-the-pacific-coast-highway"
            ],
            "longitude": "-117.2403182"
        },
        "bay": {
            "latitude": "33.6899249",
            "closest_to": "malibu",
            "address": "Bay, Meadows Mobile Home Park, El Camino Real, Irvine, Orange County, California, 92406, United States of America",
            "locType": "service",
            "blogLinks": [
                "https://www.yelp.com/biz/pacific-coast-highway-carmel"
            ],
            "longitude": "-117.7729354"
        },
        "ojai valley": {
            "latitude": "34.4480495",
            "closest_to": "malibu",
            "address": "Ojai, Ventura County, California, United States of America",
            "locType": "city",
            "blogLinks": [
                "http://www.california-blog.com/"
            ],
            "longitude": "-119.2428889"
        },
        "carmel": {
            "latitude": "38.75511285",
            "closest_to": "fremont",
            "address": "Carmel, Roseville, Placer County, California, 95747, United States of America",
            "locType": "residential",
            "blogLinks": [
                "https://www.virtualtourist.com/travel/North_America/United_States_of_America/California/Things_To_Do-California-PCH_Pacific_Coast_Highway_Highway_1-BR-1.html",
                "https://www.yelp.com/biz/pacific-coast-highway-carmel"
            ],
            "longitude": "-121.353308848273"
        },
        "san diego bay": {
            "latitude": "32.6500534",
            "closest_to": "malibu",
            "address": "San Diego Bay, Leyte Road, Crown Island, Coronado, San Diego County, California, 92118, United States of America",
            "locType": "bay",
            "blogLinks": [
                "https://www.gapyear.com/articles/216212/13-incredible-stops-on-the-pacific-coast-highway"
            ],
            "longitude": "-117.1341977"
        },
        "dana point": {
            "latitude": "33.4669721",
            "closest_to": "malibu",
            "address": "Dana Point, Orange County, California, United States of America",
            "locType": "city",
            "blogLinks": [
                "https://www.yelp.com/biz/pacific-coast-highway-carmel"
            ],
            "longitude": "-117.6981074"
        }
    },
    "fremont": {
        "type": "city",
        "osm_id": "111943",
        "class": "place",
        "importance": 0.70373394703995,
        "lat": "37.5482697",
        "lon": "-121.9885718",
        "boundingbox": [
            "37.4539501",
            "37.6066739",
            "-122.1509872",
            "-121.8701127"
        ],
        "display_name": "Fremont, Alameda County, California, United States of America",
        "licence": "Data \u00a9 OpenStreetMap contributors, ODbL 1.0. http://www.openstreetmap.org/copyright",
        "icon": "https://nominatim.openstreetmap.org/images/mapicons/poi_place_city.p.20.png",
        "place_id": "159050638",
        "osm_type": "relation"
    }
}