{
    "fresno": {
        "type": "city",
        "osm_id": "33120274",
        "class": "place",
        "importance": 0.79213103374115,
        "lat": "36.748793",
        "lon": "-119.714839601149",
        "boundingbox": [
            "36.747122",
            "36.75042",
            "-119.7159249",
            "-119.7091549"
        ],
        "display_name": "Fresno, Fresno County, California, United States of America",
        "licence": "Data \u00a9 OpenStreetMap contributors, ODbL 1.0. http://www.openstreetmap.org/copyright",
        "icon": "https://nominatim.openstreetmap.org/images/mapicons/poi_place_city.p.20.png",
        "place_id": "72530219",
        "osm_type": "way"
    },
    "pasadena": {
        "type": "city",
        "osm_id": "3529725",
        "class": "place",
        "importance": 0.7778961552687,
        "lat": "34.1476452",
        "lon": "-118.1444778",
        "boundingbox": [
            "34.1172023",
            "34.251905",
            "-118.1981389",
            "-118.0654789"
        ],
        "display_name": "Pasadena, Los Angeles County, California, United States of America",
        "licence": "Data \u00a9 OpenStreetMap contributors, ODbL 1.0. http://www.openstreetmap.org/copyright",
        "icon": "https://nominatim.openstreetmap.org/images/mapicons/poi_place_city.p.20.png",
        "place_id": "159486921",
        "osm_type": "relation"
    },
    "mentions": {
        "sunset strip": {
            "latitude": "33.7224763",
            "closest_to": "pasadena",
            "address": "Sunset Strip, Happy Wanderer, Indio, Riverside County, California, 92201, United States of America",
            "locType": "living_street",
            "blogLinks": [
                "http://www.travbuddy.com/California-popular-cities-p85",
                "https://www.virtualtourist.com/travel/North_America/United_States_of_America/California/Things_To_Do-California-TG-C-1.html"
            ],
            "longitude": "-116.1940439"
        },
        "irvine": {
            "latitude": "33.6856969",
            "closest_to": "pasadena",
            "address": "Irvine, Orange County, California, United States of America",
            "locType": "city",
            "blogLinks": [
                "http://www.tripleblaze.com/best/?c=59",
                "http://www.movoto.com/blog/top-ten/most-boring-places-in-california/"
            ],
            "longitude": "-117.8259818"
        },
        "el dorado county": {
            "latitude": "38.7574137",
            "closest_to": "fresno",
            "address": "El Dorado County, California, United States of America",
            "locType": "administrative",
            "blogLinks": [
                "http://www.travbuddy.com/California-popular-cities-p85"
            ],
            "longitude": "-120.5276128"
        },
        "lancaster blvd": {
            "latitude": "34.874125",
            "closest_to": "pasadena",
            "address": "Lancaster Boulevard, Kern County, California, 93524, United States of America",
            "locType": "tertiary",
            "blogLinks": [
                "http://www.movoto.com/blog/top-ten/most-boring-places-in-california/"
            ],
            "longitude": "-117.9170289"
        },
        "oakhurst": {
            "latitude": "37.333178",
            "closest_to": "fresno",
            "address": "Oakhurst, Junction Drive, Oakhurst, Madera County, California, 93644, United States of America",
            "locType": "administrative",
            "blogLinks": [
                "http://www.travbuddy.com/California-popular-cities-p85"
            ],
            "longitude": "-119.657244022836"
        },
        "mount san gorgonio ca": {
            "latitude": "33.9121294",
            "closest_to": "pasadena",
            "address": "San Gorgonio Avenue, Banning, Riverside County, California, 92220, United States of America",
            "locType": "secondary",
            "blogLinks": [
                "http://www.california-blog.com/"
            ],
            "longitude": "-116.8766731"
        },
        "palmdale": {
            "latitude": "34.5793131",
            "closest_to": "pasadena",
            "address": "Palmdale, Los Angeles County, California, United States of America",
            "locType": "city",
            "blogLinks": [
                "http://www.movoto.com/blog/top-ten/most-boring-places-in-california/"
            ],
            "longitude": "-118.1171107"
        },
        "san francisco maritime national historical park": {
            "latitude": "37.8065013",
            "closest_to": "fresno",
            "address": "San Francisco Maritime National Historical Park, Beach Street, Russian Hill, SF, California, 94109, United States of America",
            "locType": "park",
            "blogLinks": [
                "https://en.wikipedia.org/wiki/List_of_National_Historic_Landmarks_in_California"
            ],
            "longitude": "-122.4233938"
        },
        "lake isabella": {
            "latitude": "35.637646",
            "closest_to": "pasadena",
            "address": "Lake Isabella, Keyesville Road, Kern County, California, 93240, United States of America",
            "locType": "administrative",
            "blogLinks": [
                "https://www.virtualtourist.com/travel/North_America/United_States_of_America/California/Things_To_Do-California-TG-C-1.html"
            ],
            "longitude": "-118.484657714814"
        },
        "presidio of san diego": {
            "latitude": "32.7551266",
            "closest_to": "pasadena",
            "address": "Presidio Drive, Old Town, San Diego, San Diego County, California, 92103, United States of America",
            "locType": "residential",
            "blogLinks": [
                "https://en.wikipedia.org/wiki/List_of_National_Historic_Landmarks_in_California"
            ],
            "longitude": "-117.1903213"
        },
        "san francisco bay area": {
            "latitude": "37.7884969",
            "closest_to": "fresno",
            "address": "San Francisco Bay Area, SF, California, United States of America",
            "locType": "region",
            "blogLinks": [
                "http://www.travbuddy.com/California-popular-cities-p85"
            ],
            "longitude": "-122.3558472"
        },
        "moreno valley ca": {
            "latitude": "33.937517",
            "closest_to": "pasadena",
            "address": "Moreno Valley, Riverside County, California, United States of America",
            "locType": "city",
            "blogLinks": [
                "http://www.california-blog.com/"
            ],
            "longitude": "-117.2305943"
        },
        "longhorn": {
            "latitude": "36.7861841",
            "closest_to": "pasadena",
            "address": "Longhorn Drive, Fresno County, California, 93657, United States of America",
            "locType": "residential",
            "blogLinks": [
                "http://www.movoto.com/blog/top-ten/most-boring-places-in-california/"
            ],
            "longitude": "-119.2962228"
        },
        "pacific coast": {
            "latitude": "33.8047323",
            "closest_to": "pasadena",
            "address": "Pacific Coast, Florista Street, Los Alamitos, Orange County, California, 90720, United States of America",
            "locType": "yes",
            "blogLinks": [
                "https://en.wikipedia.org/wiki/List_of_National_Historic_Landmarks_in_California"
            ],
            "longitude": "-118.063517668143"
        },
        "lake merced": {
            "latitude": "37.71934845",
            "closest_to": "fresno",
            "address": "Lake Merced, Lake Merced Bike Path, SF, California, 94132, United States of America",
            "locType": "water",
            "blogLinks": [
                "http://www.movoto.com/blog/top-ten/most-boring-places-in-california/"
            ],
            "longitude": "-122.494659699192"
        },
        "santa monica": {
            "latitude": "34.0195598",
            "closest_to": "pasadena",
            "address": "Santa Monica, Los Angeles County, California, United States of America",
            "locType": "city",
            "blogLinks": [
                "http://www.travbuddy.com/California-popular-cities-p85",
                "http://www.movoto.com/blog/top-ten/most-boring-places-in-california/"
            ],
            "longitude": "-118.4869738"
        },
        "coachella": {
            "latitude": "33.6795519",
            "closest_to": "pasadena",
            "address": "Coachella, Riverside County, California, United States of America",
            "locType": "administrative",
            "blogLinks": [
                "https://www.virtualtourist.com/travel/North_America/United_States_of_America/California/Things_To_Do-California-TG-C-1.html"
            ],
            "longitude": "-116.1763379"
        },
        "los angeles county": {
            "latitude": "34.3155072",
            "closest_to": "pasadena",
            "address": "Los Angeles County, California, United States of America",
            "locType": "administrative",
            "blogLinks": [
                "http://places-to-see.net/california/",
                "http://www.travbuddy.com/California-popular-cities-p85"
            ],
            "longitude": "-118.2096813"
        },
        "west coast": {
            "latitude": "34.0222263",
            "closest_to": "pasadena",
            "address": "West Coast, Motor Avenue, Palms, LA, Los Angeles County, California, 90034-5702, United States of America",
            "locType": "plumber",
            "blogLinks": [
                "https://en.wikipedia.org/wiki/List_of_National_Historic_Landmarks_in_California",
                "http://places-to-see.net/california/",
                "https://www.virtualtourist.com/travel/North_America/United_States_of_America/California/Things_To_Do-California-TG-C-1.html",
                "http://www.movoto.com/blog/top-ten/most-boring-places-in-california/"
            ],
            "longitude": "-118.4051087"
        },
        "old town san diego": {
            "latitude": "32.7542167",
            "closest_to": "pasadena",
            "address": "Old Town San Diego, San Diego County, California, United States of America",
            "locType": "hamlet",
            "blogLinks": [
                "http://www.california-blog.com/"
            ],
            "longitude": "-117.1969792"
        },
        "old sacramento state historic park": {
            "latitude": "38.5891509",
            "closest_to": "fresno",
            "address": "Old Sacramento State Historic Park, Sacramento River Parkway, Sacramento, Sacramento County, California, 95814, United States of America",
            "locType": "park",
            "blogLinks": [
                "https://en.wikipedia.org/wiki/List_of_National_Historic_Landmarks_in_California"
            ],
            "longitude": "-121.505013401895"
        },
        "chilnualna falls": {
            "latitude": "37.5486657",
            "closest_to": "fresno",
            "address": "North Chilnualna Falls Road, North Wawona, Mariposa County, California, 95389, United States of America",
            "locType": "residential",
            "blogLinks": [
                "http://www.tripleblaze.com/best/?c=8"
            ],
            "longitude": "-119.633114"
        },
        "san jose": {
            "latitude": "37.3361905",
            "closest_to": "fresno",
            "address": "San Jos\u00e9, Santa Clara County, California, United States of America",
            "locType": "city",
            "blogLinks": [
                "http://places-to-see.net/california/",
                "http://www.travbuddy.com/California-popular-cities-p85"
            ],
            "longitude": "-121.8905832"
        },
        "fresno": {
            "latitude": "36.748793",
            "closest_to": "pasadena",
            "address": "Fresno, Fresno County, California, United States of America",
            "locType": "city",
            "blogLinks": [
                "http://www.tripleblaze.com/best/?c=8",
                "http://www.timeanddate.com/worldclock/distances.html?n=390",
                "http://www.movoto.com/blog/top-ten/most-boring-places-in-california/",
                "http://places-to-see.net/california/",
                "https://www.virtualtourist.com/travel/North_America/United_States_of_America/California/Fresno-752659/Things_To_Do-Fresno-TG-C-1.html",
                "http://www.distancesfrom.com/us/travel-from-Pasadena-to-Fresno-CA/TravelFromHistory/6287170.aspx",
                "https://www.virtualtourist.com/travel/North_America/United_States_of_America/California/Things_To_Do-California-TG-C-1.html",
                "https://en.wikipedia.org/wiki/List_of_National_Historic_Landmarks_in_California",
                "http://www.distancesfrom.com/us/flight-distance-from-Pasadena-to-Fresno/FlightHistory/21367872.aspx"
            ],
            "longitude": "-119.714839601149"
        },
        "mount san jacinto ca": {
            "latitude": "33.7839084",
            "closest_to": "pasadena",
            "address": "San Jacinto, Riverside County, California, United States of America",
            "locType": "city",
            "blogLinks": [
                "http://www.california-blog.com/"
            ],
            "longitude": "-116.9586349"
        },
        "san francisco bay area of california": {
            "latitude": "37.7884969",
            "closest_to": "fresno",
            "address": "San Francisco Bay Area, SF, California, United States of America",
            "locType": "region",
            "blogLinks": [
                "http://www.travbuddy.com/California-popular-cities-p85"
            ],
            "longitude": "-122.3558472"
        },
        "san francisco bay": {
            "latitude": "37.708264",
            "closest_to": "fresno",
            "address": "San Francisco Bay, Ferry Landing, Alameda, Alameda County, California, 94502, United States of America",
            "locType": "bay",
            "blogLinks": [
                "https://en.wikipedia.org/wiki/List_of_National_Historic_Landmarks_in_California",
                "http://places-to-see.net/california/",
                "http://www.travbuddy.com/California-popular-cities-p85"
            ],
            "longitude": "-122.2802469"
        },
        "mount palomar ca": {
            "latitude": "33.1278146",
            "closest_to": "pasadena",
            "address": "California Bank & Trust, 2501, Palomar Airport Road, Carlsbad, San Diego County, California, 92011, United States of America",
            "locType": "bank",
            "blogLinks": [
                "http://www.california-blog.com/"
            ],
            "longitude": "-117.270809764613"
        },
        "alta california": {
            "latitude": "37.3964868",
            "closest_to": "fresno",
            "address": "Alta California, 20421, Geer Avenue, Irwin, Merced County, California, 95324, United States of America",
            "locType": "house",
            "blogLinks": [
                "https://en.wikipedia.org/wiki/List_of_National_Historic_Landmarks_in_California"
            ],
            "longitude": "-120.8579018"
        },
        "monterey presidio": {
            "latitude": "36.63696865",
            "closest_to": "fresno",
            "address": "Presidio of Monterey, Seaside, Monterey County, California, 93955, United States of America",
            "locType": "military",
            "blogLinks": [
                "https://en.wikipedia.org/wiki/List_of_National_Historic_Landmarks_in_California"
            ],
            "longitude": "-121.823572839106"
        },
        "victorville": {
            "latitude": "34.5361067",
            "closest_to": "pasadena",
            "address": "Victorville, San Bernardino County, California, United States of America",
            "locType": "city",
            "blogLinks": [
                "http://www.movoto.com/blog/top-ten/most-boring-places-in-california/"
            ],
            "longitude": "-117.2911564"
        },
        "sierra nevada": {
            "latitude": "39.097593",
            "closest_to": "fresno",
            "address": "Sierra, Wolf, Nevada County, California, 95949, United States of America",
            "locType": "residential",
            "blogLinks": [
                "https://www.virtualtourist.com/travel/North_America/United_States_of_America/California/Things_To_Do-California-TG-C-1.html"
            ],
            "longitude": "-121.1396689"
        },
        "ca": {
            "latitude": "37.8242285466918",
            "closest_to": "fresno",
            "address": "Piedmont, Alameda County, California, ca, United States of America",
            "locType": "postcode",
            "blogLinks": [
                "http://www.movoto.com/blog/top-ten/most-boring-places-in-california/",
                "http://www.distancesfrom.com/us/flight-distance-from-Pasadena-to-Fresno/FlightHistory/21367872.aspx"
            ],
            "longitude": "-122.232613735941"
        },
        "berkeley": {
            "latitude": "37.8708393",
            "closest_to": "fresno",
            "address": "Berkeley, Alameda County, California, United States of America",
            "locType": "city",
            "blogLinks": [
                "http://www.travbuddy.com/California-popular-cities-p85",
                "http://www.movoto.com/blog/top-ten/most-boring-places-in-california/"
            ],
            "longitude": "-122.2728638"
        },
        "morro rock ca": {
            "latitude": "35.369669",
            "closest_to": "pasadena",
            "address": "Morro Rock, Morro Bay, San Luis Obispo County, California, United States of America",
            "locType": "peak",
            "blogLinks": [
                "http://www.california-blog.com/"
            ],
            "longitude": "-120.8676993"
        },
        "san luis obispo": {
            "latitude": "35.2827525",
            "closest_to": "pasadena",
            "address": "San Luis Obispo, San Luis Obispo County, California, United States of America",
            "locType": "city",
            "blogLinks": [
                "http://www.distancesfrom.com/us/travel-from-Pasadena-to-Fresno-CA/TravelFromHistory/6287170.aspx"
            ],
            "longitude": "-120.6596155"
        },
        "monterey state historic park": {
            "latitude": "36.6037129",
            "closest_to": "fresno",
            "address": "Monterey State Historic Park, Decatur Street, Monterey, Monterey County, California, 93944, United States of America",
            "locType": "park",
            "blogLinks": [
                "https://en.wikipedia.org/wiki/List_of_National_Historic_Landmarks_in_California"
            ],
            "longitude": "-121.89495898106"
        },
        "hermosa beach": {
            "latitude": "33.86428",
            "closest_to": "pasadena",
            "address": "Hermosa Beach, Los Angeles County, California, United States of America",
            "locType": "city",
            "blogLinks": [
                "http://www.travbuddy.com/California-popular-cities-p85"
            ],
            "longitude": "-118.3959099"
        },
        "morro bay ca": {
            "latitude": "35.3658075",
            "closest_to": "pasadena",
            "address": "Morro Bay, San Luis Obispo County, California, United States of America",
            "locType": "city",
            "blogLinks": [
                "http://www.california-blog.com/"
            ],
            "longitude": "-120.8499012"
        },
        "monterey peninsula ca": {
            "latitude": "36.5878734",
            "closest_to": "fresno",
            "address": "Monterey Regional Airport, Airport Road, Seaside, Del Monte Heights, Monterey County, California, 93940, United States of America",
            "locType": "aerodrome",
            "blogLinks": [
                "http://www.california-blog.com/"
            ],
            "longitude": "-121.843618374407"
        },
        "houston": {
            "latitude": "34.4422871",
            "closest_to": "pasadena",
            "address": "Houston, Plum Canyon, Canyon Country, Los Angeles County, California, 91351, United States of America",
            "locType": "residential",
            "blogLinks": [
                "https://en.wikipedia.org/wiki/List_of_National_Historic_Landmarks_in_California"
            ],
            "longitude": "-118.4777157"
        },
        "new hampshire": {
            "latitude": "33.7157856",
            "closest_to": "pasadena",
            "address": "New Hampshire, Walnut, Irvine, Orange County, California, 92606, United States of America",
            "locType": "residential",
            "blogLinks": [
                "https://en.wikipedia.org/wiki/List_of_National_Historic_Landmarks_in_California"
            ],
            "longitude": "-117.7905719"
        },
        "boron": {
            "latitude": "35.0199035",
            "closest_to": "pasadena",
            "address": "Boron, Kern County, California, United States of America",
            "locType": "village",
            "blogLinks": [
                "http://www.movoto.com/blog/top-ten/most-boring-places-in-california/"
            ],
            "longitude": "-117.668060165467"
        },
        "pacific crest trail": {
            "latitude": "38.69418",
            "closest_to": "fresno",
            "address": "Pacific Crest Trail, Pleasant Valley, El Dorado County, California, 95667, United States of America",
            "locType": "residential",
            "blogLinks": [
                "http://www.tripleblaze.com/best/?c=8"
            ],
            "longitude": "-120.6375709"
        },
        "beaumont": {
            "latitude": "33.9294606",
            "closest_to": "pasadena",
            "address": "Beaumont, Riverside County, California, United States of America",
            "locType": "city",
            "blogLinks": [
                "http://www.movoto.com/blog/top-ten/most-boring-places-in-california/"
            ],
            "longitude": "-116.9772479"
        },
        "santa cruz": {
            "latitude": "36.9735903",
            "closest_to": "fresno",
            "address": "Santa Cruz, Santa Cruz County, California, United States of America",
            "locType": "city",
            "blogLinks": [
                "http://www.travbuddy.com/California-popular-cities-p85"
            ],
            "longitude": "-122.0260569"
        },
        "modesto": {
            "latitude": "37.6390972",
            "closest_to": "fresno",
            "address": "Modesto, Stanislaus County, California, United States of America",
            "locType": "city",
            "blogLinks": [
                "http://www.movoto.com/blog/top-ten/most-boring-places-in-california/"
            ],
            "longitude": "-120.9968781"
        },
        "national park": {
            "latitude": "37.7488554",
            "closest_to": "fresno",
            "address": "Yosemite, Village Drive, Yosemite Village, Yosemite Valley, Mariposa County, California, United States of America",
            "locType": "attraction",
            "blogLinks": [
                "https://en.wikipedia.org/wiki/List_of_National_Historic_Landmarks_in_California"
            ],
            "longitude": "-119.5893389"
        },
        "whittier hills whittier": {
            "latitude": "33.9397495",
            "closest_to": "pasadena",
            "address": "Whittwood Branch Whittier Public Library, Starbuck Street, Friendly Hills, Whittier, Los Angeles County, California, 90603, United States of America",
            "locType": "library",
            "blogLinks": [
                "http://www.tripleblaze.com/best/?c=8"
            ],
            "longitude": "-117.993545449378"
        },
        "vallejo": {
            "latitude": "38.1040864",
            "closest_to": "fresno",
            "address": "Vallejo, Solano County, California, United States of America",
            "locType": "city",
            "blogLinks": [
                "http://www.travbuddy.com/California-popular-cities-p85"
            ],
            "longitude": "-122.2566366"
        },
        "pebble beach ca": {
            "latitude": "36.5664874",
            "closest_to": "fresno",
            "address": "Pebble Beach, Monterey County, California, United States of America",
            "locType": "hamlet",
            "blogLinks": [
                "http://www.california-blog.com/"
            ],
            "longitude": "-121.9466112"
        },
        "santa barbara": {
            "latitude": "34.4221319",
            "closest_to": "pasadena",
            "address": "Santa Barbara, Santa Barbara County, California, United States of America",
            "locType": "city",
            "blogLinks": [
                "https://en.wikipedia.org/wiki/List_of_National_Historic_Landmarks_in_California"
            ],
            "longitude": "-119.7026672"
        },
        "chicago": {
            "latitude": "37.7850531",
            "closest_to": "fresno",
            "address": "Chicago, Woodstock, Alameda, Alameda County, California, 94501, United States of America",
            "locType": "residential",
            "blogLinks": [
                "http://www.movoto.com/blog/top-ten/most-boring-places-in-california/"
            ],
            "longitude": "-122.2872948"
        },
        "mission bay ca": {
            "latitude": "37.7707742",
            "closest_to": "fresno",
            "address": "Mission Bay, SF, California, 94158, United States of America",
            "locType": "neighbourhood",
            "blogLinks": [
                "http://www.california-blog.com/"
            ],
            "longitude": "-122.3911711"
        },
        "trona": {
            "latitude": "35.7627322",
            "closest_to": "pasadena",
            "address": "Trona, San Bernardino County, California, United States of America",
            "locType": "hamlet",
            "blogLinks": [
                "http://www.movoto.com/blog/top-ten/most-boring-places-in-california/"
            ],
            "longitude": "-117.3728345"
        },
        "sandusky county": {
            "latitude": "39.4898877",
            "closest_to": "fresno",
            "address": "Sandusky Creek, Sierra County, California, United States of America",
            "locType": "stream",
            "blogLinks": [
                "http://www.travbuddy.com/California-popular-cities-p85"
            ],
            "longitude": "-120.8679252"
        },
        "las angeles": {
            "latitude": "33.9995929",
            "closest_to": "pasadena",
            "address": "California, Obregon Street, West Whittier, Rosemead, Los Angeles County, California, 90606, United States of America",
            "locType": "abandoned",
            "blogLinks": [
                "http://www.travbuddy.com/California-popular-cities-p85"
            ],
            "longitude": "-118.0668337"
        },
        "oakland": {
            "latitude": "37.8044557",
            "closest_to": "fresno",
            "address": "Oakland, Alameda County, California, United States of America",
            "locType": "city",
            "blogLinks": [
                "https://en.wikipedia.org/wiki/List_of_National_Historic_Landmarks_in_California",
                "http://www.travbuddy.com/California-popular-cities-p85",
                "https://www.virtualtourist.com/travel/North_America/United_States_of_America/California/Things_To_Do-California-TG-C-1.html",
                "http://www.movoto.com/blog/top-ten/most-boring-places-in-california/"
            ],
            "longitude": "-122.2713562"
        },
        "monterey": {
            "latitude": "36.5844165",
            "closest_to": "fresno",
            "address": "Monterey, Monterey County, California, United States of America",
            "locType": "city",
            "blogLinks": [
                "https://en.wikipedia.org/wiki/List_of_National_Historic_Landmarks_in_California",
                "http://www.travbuddy.com/California-popular-cities-p85"
            ],
            "longitude": "-121.866792846206"
        },
        "anaheim": {
            "latitude": "33.8347516",
            "closest_to": "pasadena",
            "address": "Anaheim, Orange County, California, United States of America",
            "locType": "city",
            "blogLinks": [
                "http://places-to-see.net/california/",
                "https://www.virtualtourist.com/travel/North_America/United_States_of_America/California/Things_To_Do-California-TG-C-1.html"
            ],
            "longitude": "-117.9117319"
        },
        "hesperia": {
            "latitude": "34.4263886",
            "closest_to": "pasadena",
            "address": "Hesperia, San Bernardino County, California, United States of America",
            "locType": "city",
            "blogLinks": [
                "http://www.movoto.com/blog/top-ten/most-boring-places-in-california/"
            ],
            "longitude": "-117.3008783"
        },
        "petaluma adobe state historic park": {
            "latitude": "38.2565081",
            "closest_to": "fresno",
            "address": "Petaluma Adobe State Historic Park, Old Adobe Road, Sonoma County, California, 94954, United States of America",
            "locType": "park",
            "blogLinks": [
                "https://en.wikipedia.org/wiki/List_of_National_Historic_Landmarks_in_California"
            ],
            "longitude": "-122.583415289597"
        },
        "san jacinto": {
            "latitude": "33.7839084",
            "closest_to": "pasadena",
            "address": "San Jacinto, Riverside County, California, United States of America",
            "locType": "city",
            "blogLinks": [
                "https://www.virtualtourist.com/travel/North_America/United_States_of_America/California/Things_To_Do-California-TG-C-1.html"
            ],
            "longitude": "-116.9586349"
        },
        "glacier point": {
            "latitude": "37.499192",
            "closest_to": "fresno",
            "address": "Glacier Point, Darrah, Mariposa County, California, 95338, United States of America",
            "locType": "residential",
            "blogLinks": [
                "https://www.virtualtourist.com/travel/North_America/United_States_of_America/California/Things_To_Do-California-TG-C-1.html"
            ],
            "longitude": "-119.8282379"
        },
        "bay area": {
            "latitude": "37.7884969",
            "closest_to": "fresno",
            "address": "San Francisco Bay Area, SF, California, United States of America",
            "locType": "region",
            "blogLinks": [
                "https://en.wikipedia.org/wiki/List_of_National_Historic_Landmarks_in_California"
            ],
            "longitude": "-122.3558472"
        },
        "pearl harbor": {
            "latitude": "37.788139",
            "closest_to": "fresno",
            "address": "Pearl Harbor Road, Woodstock, Alameda, Alameda County, California, 94501, United States of America",
            "locType": "residential",
            "blogLinks": [
                "https://en.wikipedia.org/wiki/List_of_National_Historic_Landmarks_in_California"
            ],
            "longitude": "-122.2948823"
        },
        "mono lake ca": {
            "latitude": "38.0077189",
            "closest_to": "fresno",
            "address": "Mono Lake, Mono County, California, United States of America",
            "locType": "water",
            "blogLinks": [
                "http://www.california-blog.com/"
            ],
            "longitude": "-118.967033937845"
        },
        "san joes": {
            "latitude": "37.5800244",
            "closest_to": "fresno",
            "address": "Joe's, North Delaware Street, San Mateo, San Mateo County, California, 94401, United States of America",
            "locType": "restaurant",
            "blogLinks": [
                "http://places-to-see.net/california/"
            ],
            "longitude": "-122.3329393"
        },
        "san rafael": {
            "latitude": "37.9735346",
            "closest_to": "fresno",
            "address": "San Rafael, Marin County, California, United States of America",
            "locType": "city",
            "blogLinks": [
                "http://www.movoto.com/blog/top-ten/most-boring-places-in-california/"
            ],
            "longitude": "-122.5310873"
        },
        "napa valley ca": {
            "latitude": "38.2972603",
            "closest_to": "fresno",
            "address": "California Boulevard, Napa, Napa County, California, 94558, United States of America",
            "locType": "secondary",
            "blogLinks": [
                "http://www.california-blog.com/"
            ],
            "longitude": "-122.3002947"
        },
        "santa clara county": {
            "latitude": "37.2333253",
            "closest_to": "fresno",
            "address": "Santa Clara County, California, United States of America",
            "locType": "administrative",
            "blogLinks": [
                "http://www.travbuddy.com/California-popular-cities-p85"
            ],
            "longitude": "-121.6846348"
        },
        "mammoth creek": {
            "latitude": "37.6055761",
            "closest_to": "fresno",
            "address": "Mammoth Creek, Mammoth Lakes, Mono County, California, United States of America",
            "locType": "stream",
            "blogLinks": [
                "https://www.virtualtourist.com/travel/North_America/United_States_of_America/California/Things_To_Do-California-TG-C-1.html"
            ],
            "longitude": "-119.0090048"
        },
        "benicia": {
            "latitude": "38.049365",
            "closest_to": "fresno",
            "address": "Benicia, Solano County, California, United States of America",
            "locType": "administrative",
            "blogLinks": [
                "https://www.virtualtourist.com/travel/North_America/United_States_of_America/California/Things_To_Do-California-TG-C-1.html"
            ],
            "longitude": "-122.1585776"
        },
        "limekiln": {
            "latitude": "36.0227366",
            "closest_to": "fresno",
            "address": "Limekiln State Park, Twitchell Elevator, Lucia, Monterey County, California, United States of America",
            "locType": "park",
            "blogLinks": [
                "http://www.tripleblaze.com/best/?c=59"
            ],
            "longitude": "-121.527771252348"
        },
        "lake crowley": {
            "latitude": "37.61903895",
            "closest_to": "fresno",
            "address": "Lake Crowley, Layton Springs Road, North Landing, Mono County, California, United States of America",
            "locType": "water",
            "blogLinks": [
                "https://www.virtualtourist.com/travel/North_America/United_States_of_America/California/Things_To_Do-California-TG-C-1.html"
            ],
            "longitude": "-118.731056945814"
        },
        "westport beach": {
            "latitude": "33.637635",
            "closest_to": "pasadena",
            "address": "Westport, Newport Center, Newport Beach, Orange County, California, 92660, United States of America",
            "locType": "residential",
            "blogLinks": [
                "http://www.tripleblaze.com/best/?c=59"
            ],
            "longitude": "-117.8688239"
        },
        "sacramento": {
            "latitude": "38.5815719",
            "closest_to": "fresno",
            "address": "Sacramento, Sacramento County, California, United States of America",
            "locType": "city",
            "blogLinks": [
                "https://en.wikipedia.org/wiki/List_of_National_Historic_Landmarks_in_California",
                "https://www.virtualtourist.com/travel/North_America/United_States_of_America/California/Things_To_Do-California-TG-C-1.html"
            ],
            "longitude": "-121.4943995"
        },
        "pasadena": {
            "latitude": "34.1476452",
            "closest_to": "pasadena",
            "address": "Pasadena, Los Angeles County, California, United States of America",
            "locType": "city",
            "blogLinks": [
                "https://www.tripadvisor.com/Tourism-g32859-Pasadena_California-Vacations.html",
                "http://www.tripleblaze.com/best/?c=8",
                "http://www.distancesfrom.com/us/travel-from-Pasadena-to-Fresno-CA/TravelFromHistory/6287170.aspx",
                "http://www.movoto.com/blog/top-ten/most-boring-places-in-california/",
                "http://www.distancesfrom.com/us/flight-distance-from-Pasadena-to-Fresno/FlightHistory/21367872.aspx"
            ],
            "longitude": "-118.1444778"
        },
        "san simeon": {
            "latitude": "35.6438587",
            "closest_to": "fresno",
            "address": "San Simeon, San Luis Obispo County, California, United States of America",
            "locType": "hamlet",
            "blogLinks": [
                "http://www.travbuddy.com/California-popular-cities-p85"
            ],
            "longitude": "-121.1907532"
        },
        "oxnard": {
            "latitude": "34.1976308",
            "closest_to": "pasadena",
            "address": "Oxnard, Ventura County, California, United States of America",
            "locType": "city",
            "blogLinks": [
                "http://places-to-see.net/california/"
            ],
            "longitude": "-119.1803817"
        },
        "la jolla cove": {
            "latitude": "32.85051835",
            "closest_to": "pasadena",
            "address": "La Jolla Cove, Coast Boulevard, La Jolla, San Diego, San Diego County, California, 92037, United States of America",
            "locType": "beach",
            "blogLinks": [
                "https://www.virtualtourist.com/travel/North_America/United_States_of_America/California/Things_To_Do-California-TG-C-1.html"
            ],
            "longitude": "-117.273024234204"
        },
        "hollywood blvd": {
            "latitude": "34.1016312",
            "closest_to": "pasadena",
            "address": "Hollywood Boulevard, Hollywood, LA, Los Angeles County, California, 90028, United States of America",
            "locType": "secondary",
            "blogLinks": [
                "https://www.virtualtourist.com/travel/North_America/United_States_of_America/California/Things_To_Do-California-TG-C-1.html"
            ],
            "longitude": "-118.32684"
        },
        "malibu": {
            "latitude": "33.7932142",
            "closest_to": "pasadena",
            "address": "Malibu, Palm Springs, Riverside County, California, 92264, United States of America",
            "locType": "residential",
            "blogLinks": [
                "http://www.tripleblaze.com/best/?c=8",
                "http://www.movoto.com/blog/top-ten/most-boring-places-in-california/"
            ],
            "longitude": "-116.5023561"
        },
        "palm springs tramway": {
            "latitude": "33.85839515",
            "closest_to": "pasadena",
            "address": "Palm Springs Visitors Center, 2901, Tramway Road, Palm Springs, Riverside County, California, 92262, United States of America",
            "locType": "information",
            "blogLinks": [
                "https://www.virtualtourist.com/travel/North_America/United_States_of_America/California/Things_To_Do-California-TG-C-1.html"
            ],
            "longitude": "-116.558183152534"
        },
        "pebble": {
            "latitude": "33.6678374",
            "closest_to": "pasadena",
            "address": "Pebble, Woodbridge, Irvine, Orange County, California, 92604, United States of America",
            "locType": "residential",
            "blogLinks": [
                "https://www.virtualtourist.com/travel/North_America/United_States_of_America/California/Things_To_Do-California-TG-C-1.html"
            ],
            "longitude": "-117.7975199"
        },
        "mojave desert ca": {
            "latitude": "35.1456319",
            "closest_to": "pasadena",
            "address": "Mojave Desert, Utility Road, San Bernardino County, California, United States of America",
            "locType": "desert",
            "blogLinks": [
                "http://www.california-blog.com/"
            ],
            "longitude": "-115.548963686646"
        },
        "santa cruz wharf": {
            "latitude": "36.9604473",
            "closest_to": "fresno",
            "address": "Santa Cruz Bay Company, Municipal Wharf, Beach & Boardwalk District (Commercial), Downtown, Santa Cruz, Santa Cruz County, California, 95060, United States of America",
            "locType": "gift",
            "blogLinks": [
                "https://www.virtualtourist.com/travel/North_America/United_States_of_America/California/Things_To_Do-California-TG-C-1.html"
            ],
            "longitude": "-122.0205393"
        },
        "west covina": {
            "latitude": "34.0686208",
            "closest_to": "pasadena",
            "address": "West Covina, Los Angeles County, California, United States of America",
            "locType": "city",
            "blogLinks": [
                "http://www.movoto.com/blog/top-ten/most-boring-places-in-california/"
            ],
            "longitude": "-117.9389525"
        },
        "long beach": {
            "latitude": "33.78538945",
            "closest_to": "pasadena",
            "address": "Long Beach, Los Angeles County, California, United States of America",
            "locType": "city",
            "blogLinks": [
                "http://places-to-see.net/california/",
                "http://www.travbuddy.com/California-popular-cities-p85",
                "http://www.movoto.com/blog/top-ten/most-boring-places-in-california/"
            ],
            "longitude": "-118.158049215311"
        },
        "californio": {
            "latitude": "37.5744603",
            "closest_to": "fresno",
            "address": "Californio, Centerville District, Fremont, Alameda County, California, 94587, United States of America",
            "locType": "path",
            "blogLinks": [
                "https://en.wikipedia.org/wiki/List_of_National_Historic_Landmarks_in_California"
            ],
            "longitude": "-122.0116874"
        },
        "palm springs": {
            "latitude": "33.8246269",
            "closest_to": "pasadena",
            "address": "Palm Springs, Riverside County, California, United States of America",
            "locType": "city",
            "blogLinks": [
                "https://www.virtualtourist.com/travel/North_America/United_States_of_America/California/Things_To_Do-California-TG-C-1.html",
                "http://www.movoto.com/blog/top-ten/most-boring-places-in-california/"
            ],
            "longitude": "-116.5403029"
        },
        "alhambra": {
            "latitude": "34.0927361",
            "closest_to": "pasadena",
            "address": "Alhambra, Los Angeles County, California, United States of America",
            "locType": "city",
            "blogLinks": [
                "http://www.movoto.com/blog/top-ten/most-boring-places-in-california/"
            ],
            "longitude": "-118.1268241"
        },
        "kern river": {
            "latitude": "36.6816956",
            "closest_to": "pasadena",
            "address": "Kern River, Tulare County, California, United States of America",
            "locType": "river",
            "blogLinks": [
                "http://www.california-blog.com/"
            ],
            "longitude": "-118.4124188"
        },
        "south carlsbad": {
            "latitude": "33.1580933",
            "closest_to": "pasadena",
            "address": "Carlsbad, San Diego County, California, United States of America",
            "locType": "city",
            "blogLinks": [
                "http://www.tripleblaze.com/best/?c=59"
            ],
            "longitude": "-117.3505938"
        },
        "san diego county": {
            "latitude": "32.9637838",
            "closest_to": "pasadena",
            "address": "San Diego County, California, United States of America",
            "locType": "administrative",
            "blogLinks": [
                "http://www.travbuddy.com/California-popular-cities-p85"
            ],
            "longitude": "-116.7706276"
        },
        "city hall": {
            "latitude": "32.84439345",
            "closest_to": "pasadena",
            "address": "City Hall, Imperial, Imperial County, California, 92251, United States of America",
            "locType": "commercial",
            "blogLinks": [
                "https://www.tripadvisor.com/Tourism-g32859-Pasadena_California-Vacations.html"
            ],
            "longitude": "-115.569543523702"
        },
        "lancaster": {
            "latitude": "34.6981064",
            "closest_to": "pasadena",
            "address": "Lancaster, Los Angeles County, California, United States of America",
            "locType": "city",
            "blogLinks": [
                "http://www.movoto.com/blog/top-ten/most-boring-places-in-california/"
            ],
            "longitude": "-118.1366152"
        },
        "muscle beach": {
            "latitude": "33.985446",
            "closest_to": "pasadena",
            "address": "Muscle Beach, Ocean Front Walk, Venice, LA, Los Angeles County, California, 90292, United States of America",
            "locType": "sports_centre",
            "blogLinks": [
                "http://www.travbuddy.com/California-popular-cities-p85"
            ],
            "longitude": "-118.4725820875"
        },
        "barstow": {
            "latitude": "34.8957684",
            "closest_to": "pasadena",
            "address": "Barstow, San Bernardino County, California, United States of America",
            "locType": "administrative",
            "blogLinks": [
                "http://www.travbuddy.com/California-popular-cities-p85",
                "http://www.movoto.com/blog/top-ten/most-boring-places-in-california/"
            ],
            "longitude": "-117.0172076"
        },
        "merced": {
            "latitude": "37.3029568",
            "closest_to": "fresno",
            "address": "Merced, Merced County, California, United States of America",
            "locType": "city",
            "blogLinks": [
                "http://www.movoto.com/blog/top-ten/most-boring-places-in-california/"
            ],
            "longitude": "-120.4843268"
        },
        "arkansas": {
            "latitude": "37.7867077",
            "closest_to": "fresno",
            "address": "Arkansas, Woodstock, Alameda, Alameda County, California, 94501, United States of America",
            "locType": "residential",
            "blogLinks": [
                "https://en.wikipedia.org/wiki/List_of_National_Historic_Landmarks_in_California"
            ],
            "longitude": "-122.2896721"
        },
        "golden gate bridge": {
            "latitude": "37.8302809",
            "closest_to": "fresno",
            "address": "Golden Gate Bridge, Waldo, Marin County, California, 94965, United States of America",
            "locType": "motorway",
            "blogLinks": [
                "http://places-to-see.net/california/"
            ],
            "longitude": "-122.4798473"
        },
        "palos verdes peninsula ca": {
            "latitude": "33.77984925",
            "closest_to": "pasadena",
            "address": "Palos Verdes Peninsula High School, Hawthorne Boulevard, Rolling Hills Estates, Los Angeles County, California, 90274, United States of America",
            "locType": "school",
            "blogLinks": [
                "http://www.california-blog.com/"
            ],
            "longitude": "-118.372196730215"
        },
        "usa": {
            "latitude": "36.7014631",
            "closest_to": "pasadena",
            "address": "California, United States of America",
            "locType": "administrative",
            "blogLinks": [
                "http://www.distancesfrom.com/us/flight-distance-from-Pasadena-to-Fresno/FlightHistory/21367872.aspx"
            ],
            "longitude": "-118.7559973"
        },
        "arizona": {
            "latitude": "34.4631398",
            "closest_to": "pasadena",
            "address": "Arizona, San Bernardino County, California, 92371, United States of America",
            "locType": "track",
            "blogLinks": [
                "https://en.wikipedia.org/wiki/List_of_National_Historic_Landmarks_in_California"
            ],
            "longitude": "-117.5060679"
        },
        "beverly hills": {
            "latitude": "34.0736204",
            "closest_to": "pasadena",
            "address": "Beverly Hills, Los Angeles County, California, United States of America",
            "locType": "city",
            "blogLinks": [
                "http://www.distancesfrom.com/us/travel-from-Pasadena-to-Fresno-CA/TravelFromHistory/6287170.aspx",
                "http://www.travbuddy.com/California-popular-cities-p85"
            ],
            "longitude": "-118.4003562"
        },
        "rose bowl": {
            "latitude": "34.1613231",
            "closest_to": "pasadena",
            "address": "Rose Bowl, Rose Bowl Drive, Pasadena, Los Angeles County, California, 91103, United States of America",
            "locType": "stadium",
            "blogLinks": [
                "https://www.tripadvisor.com/Tourism-g32859-Pasadena_California-Vacations.html"
            ],
            "longitude": "-118.167655462606"
        },
        "monterey bay": {
            "latitude": "36.7999557",
            "closest_to": "fresno",
            "address": "Monterey Bay, Monterey County, California, United States of America",
            "locType": "bay",
            "blogLinks": [
                "http://www.travbuddy.com/California-popular-cities-p85"
            ],
            "longitude": "-121.9010667"
        },
        "mammoth lakes": {
            "latitude": "37.6432525",
            "closest_to": "fresno",
            "address": "Mammoth Lakes, Mono County, California, United States of America",
            "locType": "administrative",
            "blogLinks": [
                "https://www.virtualtourist.com/travel/North_America/United_States_of_America/California/Things_To_Do-California-TG-C-1.html"
            ],
            "longitude": "-118.9668508"
        },
        "huntington beach": {
            "latitude": "33.6783336",
            "closest_to": "pasadena",
            "address": "Huntington Beach, Orange County, California, United States of America",
            "locType": "city",
            "blogLinks": [
                "http://www.travbuddy.com/California-popular-cities-p85",
                "https://www.virtualtourist.com/travel/North_America/United_States_of_America/California/Things_To_Do-California-TG-C-1.html"
            ],
            "longitude": "-118.0000165"
        },
        "solano county": {
            "latitude": "38.2218938",
            "closest_to": "fresno",
            "address": "Solano County, California, United States of America",
            "locType": "administrative",
            "blogLinks": [
                "http://www.travbuddy.com/California-popular-cities-p85"
            ],
            "longitude": "-121.9163554"
        },
        "santa cruz mountains.the": {
            "latitude": "37.2188403",
            "closest_to": "fresno",
            "address": "Santa Cruz Mountains, Santa Clara County, California, United States of America",
            "locType": "mountain_range",
            "blogLinks": [
                "http://www.travbuddy.com/California-popular-cities-p85"
            ],
            "longitude": "-122.0712855"
        },
        "venice": {
            "latitude": "33.995044",
            "closest_to": "pasadena",
            "address": "Venice, LA, Los Angeles County, California, United States of America",
            "locType": "suburb",
            "blogLinks": [
                "http://www.travbuddy.com/California-popular-cities-p85"
            ],
            "longitude": "-118.4668874"
        },
        "illinois": {
            "latitude": "34.4646044",
            "closest_to": "pasadena",
            "address": "Illinois, Paris, Los Angeles County, California, 93510, United States of America",
            "locType": "residential",
            "blogLinks": [
                "http://www.movoto.com/blog/top-ten/most-boring-places-in-california/"
            ],
            "longitude": "-118.1758901"
        },
        "us": {
            "latitude": "36.7014631",
            "closest_to": "pasadena",
            "address": "California, United States of America",
            "locType": "administrative",
            "blogLinks": [
                "http://www.tripleblaze.com/best/?c=59",
                "https://en.wikipedia.org/wiki/List_of_National_Historic_Landmarks_in_California",
                "http://www.travbuddy.com/California-popular-cities-p85",
                "https://www.virtualtourist.com/travel/North_America/United_States_of_America/California/Things_To_Do-California-TG-C-1.html",
                "http://distancecalculator.globefeed.com/US_Distance_Calculator.asp?state=CA"
            ],
            "longitude": "-118.7559973"
        },
        "lone pine": {
            "latitude": "36.583176",
            "closest_to": "pasadena",
            "address": "Lone Pine, Tuttle Creek Road, Alabama Hills, Inyo County, California, 93545, United States of America",
            "locType": "administrative",
            "blogLinks": [
                "https://www.virtualtourist.com/travel/North_America/United_States_of_America/California/Things_To_Do-California-TG-C-1.html",
                "http://www.movoto.com/blog/top-ten/most-boring-places-in-california/"
            ],
            "longitude": "-118.078359194897"
        },
        "southern california": {
            "latitude": "34.0224149",
            "closest_to": "pasadena",
            "address": "University of Southern California, Watt Way, Saint James Park, LA, Los Angeles County, California, 90089, United States of America",
            "locType": "university",
            "blogLinks": [
                "http://places-to-see.net/california/",
                "http://www.travbuddy.com/California-popular-cities-p85",
                "http://www.movoto.com/blog/top-ten/most-boring-places-in-california/"
            ],
            "longitude": "-118.286343973446"
        },
        "winchester blvd": {
            "latitude": "37.2573553",
            "closest_to": "fresno",
            "address": "Winchester Boulevard, Los Gatos, Santa Clara County, California, 95030, United States of America",
            "locType": "primary",
            "blogLinks": [
                "https://www.virtualtourist.com/travel/North_America/United_States_of_America/California/Things_To_Do-California-TG-C-1.html"
            ],
            "longitude": "-121.965075"
        },
        "lakewood": {
            "latitude": "33.8503463",
            "closest_to": "pasadena",
            "address": "Lakewood, Los Angeles County, California, United States of America",
            "locType": "city",
            "blogLinks": [
                "http://www.movoto.com/blog/top-ten/most-boring-places-in-california/"
            ],
            "longitude": "-118.1171913"
        },
        "pacific": {
            "latitude": "38.7601815",
            "closest_to": "fresno",
            "address": "Pacific, El Dorado County, California, United States of America",
            "locType": "hamlet",
            "blogLinks": [
                "https://en.wikipedia.org/wiki/List_of_National_Historic_Landmarks_in_California",
                "http://www.travbuddy.com/California-popular-cities-p85"
            ],
            "longitude": "-120.507146"
        },
        "san luis obispo county": {
            "latitude": "35.3540209",
            "closest_to": "pasadena",
            "address": "San Luis Obispo County, California, United States of America",
            "locType": "administrative",
            "blogLinks": [
                "http://www.travbuddy.com/California-popular-cities-p85"
            ],
            "longitude": "-120.3757162"
        },
        "mission san luis rey": {
            "latitude": "33.22648",
            "closest_to": "pasadena",
            "address": "San Luis Rey Mission Expressway, Oceanside, San Diego County, California, 92057, United States of America",
            "locType": "trunk",
            "blogLinks": [
                "https://www.virtualtourist.com/travel/North_America/United_States_of_America/California/Things_To_Do-California-TG-C-1.html"
            ],
            "longitude": "-117.3235506"
        },
        "newport beach": {
            "latitude": "33.6170092",
            "closest_to": "pasadena",
            "address": "Newport Beach, Orange County, California, United States of America",
            "locType": "city",
            "blogLinks": [
                "http://www.travbuddy.com/California-popular-cities-p85"
            ],
            "longitude": "-117.92944"
        },
        "south coast plaza": {
            "latitude": "33.6907283",
            "closest_to": "pasadena",
            "address": "South Coast Plaza, Bear Street, Costa Mesa, Orange County, California, 92704, United States of America",
            "locType": "mall",
            "blogLinks": [
                "http://www.travbuddy.com/California-popular-cities-p85"
            ],
            "longitude": "-117.889168433903"
        },
        "sweeney ridge": {
            "latitude": "37.60933145",
            "closest_to": "fresno",
            "address": "Sweeney Ridge (GGNRA), Sweeney Ridge Trail, Pacifica, San Mateo County, California, 94044, United States of America",
            "locType": "park",
            "blogLinks": [
                "https://en.wikipedia.org/wiki/List_of_National_Historic_Landmarks_in_California"
            ],
            "longitude": "-122.463853421956"
        },
        "san elijo": {
            "latitude": "33.0228",
            "closest_to": "pasadena",
            "address": "San Elijo, Olivenhain, San Diego County, California, 92091, United States of America",
            "locType": "residential",
            "blogLinks": [
                "http://www.tripleblaze.com/best/?c=59"
            ],
            "longitude": "-117.2283709"
        },
        "oceanside": {
            "latitude": "33.1958696",
            "closest_to": "pasadena",
            "address": "Oceanside, San Diego County, California, United States of America",
            "locType": "city",
            "blogLinks": [
                "https://www.virtualtourist.com/travel/North_America/United_States_of_America/California/Things_To_Do-California-TG-C-1.html"
            ],
            "longitude": "-117.3794833"
        },
        "calico": {
            "latitude": "35.6327332",
            "closest_to": "pasadena",
            "address": "Calico, Kern County, California, United States of America",
            "locType": "locality",
            "blogLinks": [
                "http://www.travbuddy.com/California-popular-cities-p85"
            ],
            "longitude": "-119.206496"
        },
        "lakewood center": {
            "latitude": "38.7401815",
            "closest_to": "fresno",
            "address": "Lakewood Sierra, El Dorado County, California, United States of America",
            "locType": "hamlet",
            "blogLinks": [
                "http://www.movoto.com/blog/top-ten/most-boring-places-in-california/"
            ],
            "longitude": "-120.5690929"
        },
        "san juan capistrano": {
            "latitude": "33.5016932",
            "closest_to": "pasadena",
            "address": "San Juan Capistrano, Orange County, California, United States of America",
            "locType": "city",
            "blogLinks": [
                "http://www.travbuddy.com/California-popular-cities-p85"
            ],
            "longitude": "-117.6625508"
        },
        "aliso creek": {
            "latitude": "33.602558",
            "closest_to": "pasadena",
            "address": "Aliso Creek, Laguna Woods, Orange County, California, United States of America",
            "locType": "stream",
            "blogLinks": [
                "http://www.tripleblaze.com/best/?c=8"
            ],
            "longitude": "-117.7034805"
        },
        "mount baldy ca": {
            "latitude": "34.2361168",
            "closest_to": "pasadena",
            "address": "Mount Baldy, Los Angeles County, California, United States of America",
            "locType": "hamlet",
            "blogLinks": [
                "http://www.california-blog.com/"
            ],
            "longitude": "-117.6600552"
        },
        "presidio park": {
            "latitude": "32.7572722",
            "closest_to": "pasadena",
            "address": "Presidio Park, Cosoy Way, Old Town, San Diego, San Diego County, California, 92103, United States of America",
            "locType": "park",
            "blogLinks": [
                "https://en.wikipedia.org/wiki/List_of_National_Historic_Landmarks_in_California"
            ],
            "longitude": "-117.1944791"
        },
        "south lake tahoe": {
            "latitude": "38.929125",
            "closest_to": "fresno",
            "address": "South Lake Tahoe, El Dorado County, California, United States of America",
            "locType": "city",
            "blogLinks": [
                "http://www.travbuddy.com/California-popular-cities-p85",
                "https://www.virtualtourist.com/travel/North_America/United_States_of_America/California/Things_To_Do-California-TG-C-1.html"
            ],
            "longitude": "-119.987846390157"
        },
        "japan": {
            "latitude": "34.0833889",
            "closest_to": "pasadena",
            "address": "Japan LA, Melrose Avenue, Park La Brea, Hollywood, LA, Los Angeles County, California, 90069, United States of America",
            "locType": "clothes",
            "blogLinks": [
                "https://en.wikipedia.org/wiki/List_of_National_Historic_Landmarks_in_California"
            ],
            "longitude": "-118.3494693"
        },
        "vogue": {
            "latitude": "34.0909877",
            "closest_to": "pasadena",
            "address": "North Vogue Avenue, Covina, Los Angeles County, California, 91722, United States of America",
            "locType": "residential",
            "blogLinks": [
                "http://www.california-blog.com/"
            ],
            "longitude": "-117.9152754"
        },
        "antelope valley": {
            "latitude": "34.67743",
            "closest_to": "pasadena",
            "address": "Antelope Valley College, West Avenue K, Lancaster, Los Angeles County, California, 93536, United States of America",
            "locType": "college",
            "blogLinks": [
                "http://www.movoto.com/blog/top-ten/most-boring-places-in-california/"
            ],
            "longitude": "-118.1865629"
        },
        "morongo valley": {
            "latitude": "34.0537585",
            "closest_to": "pasadena",
            "address": "Morongo Valley, Vista Drive, Morongo Valley, San Bernardino County, California, 92256, United States of America",
            "locType": "administrative",
            "blogLinks": [
                "http://www.california-blog.com/"
            ],
            "longitude": "-116.596723958419"
        },
        "emerald bay": {
            "latitude": "38.9599078",
            "closest_to": "fresno",
            "address": "Emerald Bay, El Dorado County, California, United States of America",
            "locType": "hamlet",
            "blogLinks": [
                "https://www.virtualtourist.com/travel/North_America/United_States_of_America/California/Things_To_Do-California-TG-C-1.html"
            ],
            "longitude": "-120.0979629"
        },
        "loon lake": {
            "latitude": "38.9998212",
            "closest_to": "fresno",
            "address": "Loon Lake, Ice House Road, El Dorado County, California, United States of America",
            "locType": "water",
            "blogLinks": [
                "http://www.tripleblaze.com/best/?c=59"
            ],
            "longitude": "-120.306228938508"
        },
        "montana": {
            "latitude": "37.413991",
            "closest_to": "fresno",
            "address": "Montana, Rovana, Inyo County, California, United States of America",
            "locType": "residential",
            "blogLinks": [
                "http://www.tripleblaze.com/best/?c=59"
            ],
            "longitude": "-118.6129969"
        },
        "los angeles maritime museum": {
            "latitude": "33.7389075",
            "closest_to": "pasadena",
            "address": "Los Angeles Maritime Museum, Sampson Way, San Pedro, LA, Los Angeles County, California, 90731, United States of America",
            "locType": "museum",
            "blogLinks": [
                "https://en.wikipedia.org/wiki/List_of_National_Historic_Landmarks_in_California"
            ],
            "longitude": "-118.278682"
        },
        "mojave desert": {
            "latitude": "35.1456319",
            "closest_to": "pasadena",
            "address": "Mojave Desert, Utility Road, San Bernardino County, California, United States of America",
            "locType": "desert",
            "blogLinks": [
                "https://en.wikipedia.org/wiki/List_of_National_Historic_Landmarks_in_California",
                "http://www.movoto.com/blog/top-ten/most-boring-places-in-california/"
            ],
            "longitude": "-115.548963686646"
        },
        "ventura county": {
            "latitude": "34.4458248",
            "closest_to": "pasadena",
            "address": "Ventura County, California, United States of America",
            "locType": "administrative",
            "blogLinks": [
                "http://places-to-see.net/california/"
            ],
            "longitude": "-119.0779358"
        },
        "monterey bay aquarium ca": {
            "latitude": "36.61809095",
            "closest_to": "fresno",
            "address": "MBA, 886, Cannery Row, Monterey, Monterey County, California, 93940, United States of America",
            "locType": "aquarium",
            "blogLinks": [
                "http://www.california-blog.com/"
            ],
            "longitude": "-121.901680002002"
        },
        "monrovia": {
            "latitude": "34.1483499",
            "closest_to": "pasadena",
            "address": "Monrovia, Los Angeles County, California, United States of America",
            "locType": "city",
            "blogLinks": [
                "http://www.california-blog.com/"
            ],
            "longitude": "-118.0014516"
        },
        "west hollywood": {
            "latitude": "34.0900091",
            "closest_to": "pasadena",
            "address": "West Hollywood, Los Angeles County, California, United States of America",
            "locType": "city",
            "blogLinks": [
                "http://www.travbuddy.com/California-popular-cities-p85"
            ],
            "longitude": "-118.3617442"
        },
        "big bear lake": {
            "latitude": "34.253293",
            "closest_to": "pasadena",
            "address": "Big Bear Lake, Lagunita Lane, Big Bear Lake, San Bernardino County, California, 92315, United States of America",
            "locType": "water",
            "blogLinks": [
                "http://www.travbuddy.com/California-popular-cities-p85"
            ],
            "longitude": "-116.932209587315"
        },
        "newport beach ca": {
            "latitude": "33.6170092",
            "closest_to": "pasadena",
            "address": "Newport Beach, Orange County, California, United States of America",
            "locType": "city",
            "blogLinks": [
                "http://www.california-blog.com/"
            ],
            "longitude": "-117.92944"
        },
        "la": {
            "latitude": "36.7014631",
            "closest_to": "pasadena",
            "address": "California, United States of America",
            "locType": "administrative",
            "blogLinks": [
                "https://www.tripadvisor.com/Tourism-g32859-Pasadena_California-Vacations.html",
                "http://www.movoto.com/blog/top-ten/most-boring-places-in-california/"
            ],
            "longitude": "-118.7559973"
        },
        "palm springs air museum ca": {
            "latitude": "33.83250375",
            "closest_to": "pasadena",
            "address": "Palm Springs Air Museum, 745, North Gene Autry Trail, Palm Springs, Riverside County, California, 92262, United States of America",
            "locType": "museum",
            "blogLinks": [
                "http://www.california-blog.com/"
            ],
            "longitude": "-116.504677958796"
        },
        "san joaquin valley": {
            "latitude": "37.9372901",
            "closest_to": "fresno",
            "address": "San Joaquin County, California, United States of America",
            "locType": "administrative",
            "blogLinks": [
                "https://www.virtualtourist.com/travel/North_America/United_States_of_America/California/Fresno-752659/Things_To_Do-Fresno-TG-C-1.html"
            ],
            "longitude": "-121.2773718"
        },
        "san juan bautista historic district": {
            "latitude": "36.8460482",
            "closest_to": "fresno",
            "address": "San Juan Bautista Historic District, Polk Street, San Juan Bautista, San Benito County, California, 95045-0000, United States of America",
            "locType": "park",
            "blogLinks": [
                "https://en.wikipedia.org/wiki/List_of_National_Historic_Landmarks_in_California"
            ],
            "longitude": "-121.5366084"
        },
        "oregon": {
            "latitude": "33.7123207",
            "closest_to": "pasadena",
            "address": "Oregon, Walnut, Irvine, Orange County, California, 92606, United States of America",
            "locType": "residential",
            "blogLinks": [
                "https://en.wikipedia.org/wiki/List_of_National_Historic_Landmarks_in_California"
            ],
            "longitude": "-117.7911567"
        },
        "ojai valley": {
            "latitude": "34.4480495",
            "closest_to": "pasadena",
            "address": "Ojai, Ventura County, California, United States of America",
            "locType": "city",
            "blogLinks": [
                "http://www.california-blog.com/"
            ],
            "longitude": "-119.2428889"
        },
        "northern california": {
            "latitude": "32.7349196",
            "closest_to": "pasadena",
            "address": "Northern Frontier, San Diego, San Diego County, California, United States of America",
            "locType": "locality",
            "blogLinks": [
                "https://en.wikipedia.org/wiki/List_of_National_Historic_Landmarks_in_California"
            ],
            "longitude": "-117.1545973"
        },
        "sonoma pueblo": {
            "latitude": "34.2897295",
            "closest_to": "pasadena",
            "address": "Sonoma Way, Porter Ranch, LA, Los Angeles County, California, 91326, United States of America",
            "locType": "residential",
            "blogLinks": [
                "https://en.wikipedia.org/wiki/List_of_National_Historic_Landmarks_in_California"
            ],
            "longitude": "-118.5531494"
        },
        "chukchansi park": {
            "latitude": "36.73201265",
            "closest_to": "fresno",
            "address": "Chukchansi Park, Homerun Alley, Fresno County, California, 93721, United States of America",
            "locType": "stadium",
            "blogLinks": [
                "https://www.virtualtourist.com/travel/North_America/United_States_of_America/California/Fresno-752659/Things_To_Do-Fresno-TG-C-1.html"
            ],
            "longitude": "-119.790271628903"
        },
        "roeding": {
            "latitude": "37.587523",
            "closest_to": "fresno",
            "address": "Roeding Road, Keyes, Stanislaus County, California, 95326, United States of America",
            "locType": "residential",
            "blogLinks": [
                "https://www.virtualtourist.com/travel/North_America/United_States_of_America/California/Fresno-752659/Things_To_Do-Fresno-TG-C-1.html"
            ],
            "longitude": "-120.9108599"
        },
        "lake yosemite": {
            "latitude": "37.3782665",
            "closest_to": "fresno",
            "address": "Lake Yosemite, Lake Road, Merced County, California, United States of America",
            "locType": "water",
            "blogLinks": [
                "http://www.movoto.com/blog/top-ten/most-boring-places-in-california/"
            ],
            "longitude": "-120.428286428413"
        },
        "downtown los angeles": {
            "latitude": "34.1789188",
            "closest_to": "pasadena",
            "address": "Downtown Burbank, Front Street, Burbank, Los Angeles County, California, 91502, United States of America",
            "locType": "station",
            "blogLinks": [
                "http://www.movoto.com/blog/top-ten/most-boring-places-in-california/"
            ],
            "longitude": "-118.312628"
        },
        "orange county": {
            "latitude": "33.7500378",
            "closest_to": "pasadena",
            "address": "Orange County, California, United States of America",
            "locType": "administrative",
            "blogLinks": [
                "http://places-to-see.net/california/",
                "http://www.travbuddy.com/California-popular-cities-p85"
            ],
            "longitude": "-117.870493"
        },
        "north lake ca": {
            "latitude": "37.76958295",
            "closest_to": "fresno",
            "address": "North Lake, Chain of Lakes Drive East, Sunset District, SF, California, 94122, United States of America",
            "locType": "water",
            "blogLinks": [
                "http://www.california-blog.com/"
            ],
            "longitude": "-122.501983281136"
        },
        "angel island state park": {
            "latitude": "37.8629304",
            "closest_to": "fresno",
            "address": "Angel Island State Park, Perimeter Road, Tiburon, Marin County, California, 94920, United States of America",
            "locType": "park",
            "blogLinks": [
                "https://en.wikipedia.org/wiki/List_of_National_Historic_Landmarks_in_California"
            ],
            "longitude": "-122.430363458873"
        },
        "barnsdall art park": {
            "latitude": "34.1004417",
            "closest_to": "pasadena",
            "address": "Barnsdall Art Park, Upper Road, Little Armenia, LA, Los Angeles County, California, 90027, United States of America",
            "locType": "park",
            "blogLinks": [
                "https://en.wikipedia.org/wiki/List_of_National_Historic_Landmarks_in_California"
            ],
            "longitude": "-118.294214664916"
        },
        "los angeles": {
            "latitude": "34.0543942",
            "closest_to": "pasadena",
            "address": "LA, Los Angeles County, California, United States of America",
            "locType": "city",
            "blogLinks": [
                "http://www.movoto.com/blog/top-ten/most-boring-places-in-california/",
                "http://www.travelmath.com/places/",
                "http://places-to-see.net/california/",
                "http://www.travbuddy.com/California-popular-cities-p85",
                "https://en.wikipedia.org/wiki/List_of_National_Historic_Landmarks_in_California",
                "http://www.timeanddate.com/worldclock/distances.html?n=137",
                "http://www.distancesfrom.com/us/flight-distance-from-Pasadena-to-Fresno/FlightHistory/21367872.aspx"
            ],
            "longitude": "-118.2439408"
        },
        "san diego": {
            "latitude": "32.7174209",
            "closest_to": "pasadena",
            "address": "San Diego, San Diego County, California, United States of America",
            "locType": "city",
            "blogLinks": [
                "http://www.tripleblaze.com/best/?c=8",
                "http://www.movoto.com/blog/top-ten/most-boring-places-in-california/",
                "http://places-to-see.net/california/",
                "http://www.travbuddy.com/California-popular-cities-p85",
                "https://www.virtualtourist.com/travel/North_America/United_States_of_America/California/Things_To_Do-California-TG-C-1.html",
                "https://en.wikipedia.org/wiki/List_of_National_Historic_Landmarks_in_California"
            ],
            "longitude": "-117.1627713"
        },
        "america": {
            "latitude": "36.2573198",
            "closest_to": "pasadena",
            "address": "America, Kings County, California, 93246, United States of America",
            "locType": "residential",
            "blogLinks": [
                "https://www.virtualtourist.com/travel/North_America/United_States_of_America/California/Things_To_Do-California-TG-C-1.html",
                "http://www.movoto.com/blog/top-ten/most-boring-places-in-california/"
            ],
            "longitude": "-119.8948706"
        },
        "kern river valley": {
            "latitude": "36.6816956",
            "closest_to": "pasadena",
            "address": "Kern River, Tulare County, California, United States of America",
            "locType": "river",
            "blogLinks": [
                "https://www.virtualtourist.com/travel/North_America/United_States_of_America/California/Things_To_Do-California-TG-C-1.html"
            ],
            "longitude": "-118.4124188"
        },
        "eaton canyon park": {
            "latitude": "34.18216575",
            "closest_to": "pasadena",
            "address": "Eaton Canyon Park, Canyon View Lane, Pasadena, Los Angeles County, California, 91107, United States of America",
            "locType": "park",
            "blogLinks": [
                "http://www.tripleblaze.com/best/?c=8"
            ],
            "longitude": "-118.095556461784"
        },
        "ridgecrest": {
            "latitude": "35.6225064",
            "closest_to": "pasadena",
            "address": "Ridgecrest, Kern County, California, United States of America",
            "locType": "city",
            "blogLinks": [
                "http://www.movoto.com/blog/top-ten/most-boring-places-in-california/"
            ],
            "longitude": "-117.6699413"
        },
        "fulton mall": {
            "latitude": "36.73552975",
            "closest_to": "fresno",
            "address": "Fulton Mall, Fresno County, California, 93701, United States of America",
            "locType": "commercial",
            "blogLinks": [
                "https://www.virtualtourist.com/travel/North_America/United_States_of_America/California/Fresno-752659/Things_To_Do-Fresno-TG-C-1.html",
                "https://www.virtualtourist.com/travel/North_America/United_States_of_America/California/Things_To_Do-California-TG-C-1.html"
            ],
            "longitude": "-119.791520463653"
        },
        "silicon valley": {
            "latitude": "37.4105333",
            "closest_to": "fresno",
            "address": "Carnegie Mellon Silicon Valley, South Akron Road, Santa Clara County, California, 94035-0016, United States of America",
            "locType": "school",
            "blogLinks": [
                "http://www.travbuddy.com/California-popular-cities-p85"
            ],
            "longitude": "-122.0597491"
        },
        "ontario": {
            "latitude": "34.065846",
            "closest_to": "pasadena",
            "address": "Ontario, San Bernardino County, California, United States of America",
            "locType": "city",
            "blogLinks": [
                "http://www.california-blog.com/",
                "http://www.movoto.com/blog/top-ten/most-boring-places-in-california/"
            ],
            "longitude": "-117.6484303"
        },
        "pacific ocean": {
            "latitude": "36.16305775",
            "closest_to": "fresno",
            "address": "Pacific Ocean, Cabrillo Highway, Monterey County, California, 93920, United States of America",
            "locType": "cliff",
            "blogLinks": [
                "http://places-to-see.net/california/",
                "http://www.travbuddy.com/California-popular-cities-p85"
            ],
            "longitude": "-121.678715787326"
        },
        "san francisco": {
            "latitude": "37.7792808",
            "closest_to": "fresno",
            "address": "SF, California, United States of America",
            "locType": "city",
            "blogLinks": [
                "https://en.wikipedia.org/wiki/List_of_National_Historic_Landmarks_in_California",
                "http://places-to-see.net/california/",
                "http://www.travbuddy.com/California-popular-cities-p85",
                "http://www.movoto.com/blog/top-ten/most-boring-places-in-california/"
            ],
            "longitude": "-122.4192362"
        },
        "california trail": {
            "latitude": "34.1159292",
            "closest_to": "pasadena",
            "address": "California Trail, Sylvia Park, Los Angeles County, California, 90290, United States of America",
            "locType": "residential",
            "blogLinks": [
                "https://en.wikipedia.org/wiki/List_of_National_Historic_Landmarks_in_California"
            ],
            "longitude": "-118.5920458"
        },
        "owens river": {
            "latitude": "37.4100005",
            "closest_to": "fresno",
            "address": "Owens River, Inyo County, California, United States of America",
            "locType": "river",
            "blogLinks": [
                "https://www.virtualtourist.com/travel/North_America/United_States_of_America/California/Things_To_Do-California-TG-C-1.html"
            ],
            "longitude": "-118.3819013"
        },
        "san francisco de solano": {
            "latitude": "38.21389995",
            "closest_to": "fresno",
            "address": "California Missions Museum, Arnold Drive, McGill, Sonoma County, California, United States of America",
            "locType": "museum",
            "blogLinks": [
                "https://www.virtualtourist.com/travel/North_America/United_States_of_America/California/Things_To_Do-California-TG-C-1.html"
            ],
            "longitude": "-122.458560315194"
        },
        "carlsbad": {
            "latitude": "33.1580933",
            "closest_to": "pasadena",
            "address": "Carlsbad, San Diego County, California, United States of America",
            "locType": "city",
            "blogLinks": [
                "http://www.travbuddy.com/California-popular-cities-p85"
            ],
            "longitude": "-117.3505938"
        },
        "united states": {
            "latitude": "36.7014631",
            "closest_to": "pasadena",
            "address": "California, United States of America",
            "locType": "administrative",
            "blogLinks": [
                "https://en.wikipedia.org/wiki/List_of_National_Historic_Landmarks_in_California",
                "http://places-to-see.net/california/",
                "http://www.travbuddy.com/California-popular-cities-p85",
                "http://www.movoto.com/blog/top-ten/most-boring-places-in-california/"
            ],
            "longitude": "-118.7559973"
        },
        "almaden quicksilver county park": {
            "latitude": "37.1850743",
            "closest_to": "fresno",
            "address": "Almaden Quicksilver County Park, Santa Isabel Trail, Almaden, New Almaden, Santa Clara County, California, 95120, United States of America",
            "locType": "park",
            "blogLinks": [
                "https://en.wikipedia.org/wiki/List_of_National_Historic_Landmarks_in_California"
            ],
            "longitude": "-121.846334668715"
        },
        "donner lake rim": {
            "latitude": "39.349315",
            "closest_to": "fresno",
            "address": "Donner Lake Rim Trail, Donner, Nevada County, California, 95724, United States of America",
            "locType": "footway",
            "blogLinks": [
                "http://www.tripleblaze.com/best/?c=8"
            ],
            "longitude": "-120.3406539"
        },
        "manhattan beach": {
            "latitude": "33.8950839",
            "closest_to": "pasadena",
            "address": "Manhattan Beach, Los Angeles County, California, United States of America",
            "locType": "city",
            "blogLinks": [
                "http://www.travbuddy.com/California-popular-cities-p85"
            ],
            "longitude": "-118.4000146"
        },
        "riverside national cemetery": {
            "latitude": "33.87692125",
            "closest_to": "pasadena",
            "address": "Riverside National Cemetery, 22495, Alessandro, Riverside County, California, 92518, United States of America",
            "locType": "cemetery",
            "blogLinks": [
                "http://www.california-blog.com/"
            ],
            "longitude": "-117.270726607134"
        },
        "south orange boulevard": {
            "latitude": "33.7500378",
            "closest_to": "pasadena",
            "address": "Orange County, California, United States of America",
            "locType": "administrative",
            "blogLinks": [
                "https://www.tripadvisor.com/Tourism-g32859-Pasadena_California-Vacations.html"
            ],
            "longitude": "-117.870493"
        },
        "south bay": {
            "latitude": "37.794096",
            "closest_to": "fresno",
            "address": "South Bay, Sea Cliff Avenue, Seacliff, SF, California, 94121, United States of America",
            "locType": "bay",
            "blogLinks": [
                "http://www.travbuddy.com/California-popular-cities-p85"
            ],
            "longitude": "-122.4927499"
        },
        "playa del rey": {
            "latitude": "33.9550828",
            "closest_to": "pasadena",
            "address": "Playa del Rey, LA, Los Angeles County, California, United States of America",
            "locType": "suburb",
            "blogLinks": [
                "http://www.travbuddy.com/California-popular-cities-p85"
            ],
            "longitude": "-118.4367495"
        },
        "burbank": {
            "latitude": "34.1816482",
            "closest_to": "pasadena",
            "address": "Burbank, Los Angeles County, California, United States of America",
            "locType": "city",
            "blogLinks": [
                "http://www.travbuddy.com/California-popular-cities-p85"
            ],
            "longitude": "-118.3258553"
        },
        "united state": {
            "latitude": "32.7150508",
            "closest_to": "pasadena",
            "address": "Edward J. Schwartz United State Courthouse, Union Street, Hillcrest, San Diego, San Diego County, California, 92101-6144, United States of America",
            "locType": "yes",
            "blogLinks": [
                "http://places-to-see.net/california/"
            ],
            "longitude": "-117.165225662707"
        },
        "bakersfield": {
            "latitude": "35.3738712",
            "closest_to": "pasadena",
            "address": "Bakersfield, Kern County, California, United States of America",
            "locType": "city",
            "blogLinks": [
                "http://places-to-see.net/california/"
            ],
            "longitude": "-119.0194638"
        },
        "larkin house": {
            "latitude": "36.59810515",
            "closest_to": "fresno",
            "address": "Larkin House, Jefferson Street, Monterey, Monterey County, California, 93944, United States of America",
            "locType": "yes",
            "blogLinks": [
                "https://en.wikipedia.org/wiki/List_of_National_Historic_Landmarks_in_California"
            ],
            "longitude": "-121.896166042658"
        },
        "washington irving": {
            "latitude": "39.05527",
            "closest_to": "fresno",
            "address": "Washington Irving Drive, Weimar, Placer County, California, 95713, United States of America",
            "locType": "residential",
            "blogLinks": [
                "http://www.movoto.com/blog/top-ten/most-boring-places-in-california/"
            ],
            "longitude": "-120.9601919"
        },
        "temecula": {
            "latitude": "33.4946353",
            "closest_to": "pasadena",
            "address": "Temecula, Riverside County, California, United States of America",
            "locType": "city",
            "blogLinks": [
                "http://www.movoto.com/blog/top-ten/most-boring-places-in-california/"
            ],
            "longitude": "-117.147366"
        },
        "alcatraz island": {
            "latitude": "37.8267283",
            "closest_to": "fresno",
            "address": "Alcatraz Island, SF, California, United States of America",
            "locType": "island",
            "blogLinks": [
                "http://places-to-see.net/california/"
            ],
            "longitude": "-122.422746492409"
        },
        "half moon bay state beach": {
            "latitude": "37.47903115",
            "closest_to": "fresno",
            "address": "Half Moon Bay State Beach, Venice Boulevard, Half Moon Bay, San Mateo County, California, 94019, United States of America",
            "locType": "beach",
            "blogLinks": [
                "http://www.timeanddate.com/worldclock/distances.html?n=137"
            ],
            "longitude": "-122.449789014662"
        },
        "carmel": {
            "latitude": "38.75511285",
            "closest_to": "fresno",
            "address": "Carmel, Roseville, Placer County, California, 95747, United States of America",
            "locType": "residential",
            "blogLinks": [
                "http://www.timeanddate.com/worldclock/distances.html?n=390",
                "http://www.travbuddy.com/California-popular-cities-p85"
            ],
            "longitude": "-121.353308848273"
        }
    }
}