{
    "san bernardino": {
        "type": "city",
        "osm_id": "253639",
        "class": "place",
        "importance": 0.81183700771795,
        "lat": "34.1083449",
        "lon": "-117.2897651",
        "boundingbox": [
            "34.050346",
            "34.230706",
            "-117.4024519",
            "-117.1649719"
        ],
        "display_name": "San Bernardino, San Bernardino County, California, United States of America",
        "licence": "Data \u00a9 OpenStreetMap contributors, ODbL 1.0. http://www.openstreetmap.org/copyright",
        "icon": "https://nominatim.openstreetmap.org/images/mapicons/poi_place_city.p.20.png",
        "place_id": "159293643",
        "osm_type": "relation"
    },
    "temecula": {
        "type": "city",
        "osm_id": "3866463",
        "class": "place",
        "importance": 0.66507963701587,
        "lat": "33.4946353",
        "lon": "-117.147366",
        "boundingbox": [
            "33.4321253",
            "33.554625",
            "-117.2066944",
            "-117.0548702"
        ],
        "display_name": "Temecula, Riverside County, California, United States of America",
        "licence": "Data \u00a9 OpenStreetMap contributors, ODbL 1.0. http://www.openstreetmap.org/copyright",
        "icon": "https://nominatim.openstreetmap.org/images/mapicons/poi_place_city.p.20.png",
        "place_id": "159718106",
        "osm_type": "relation"
    },
    "mentions": {
        "san bernardino-riverside": {
            "latitude": "33.9664051",
            "closest_to": "temecula",
            "address": "KOLA-FM (San Bernardino), Box Springs Mountain Road, Box Springs, Riverside County, California, 92557, United States of America",
            "locType": "mast",
            "blogLinks": [
                "https://en.wikipedia.org/wiki/Inland_Empire"
            ],
            "longitude": "-117.2886527"
        },
        "san jacinto valley": {
            "latitude": "33.7839084",
            "closest_to": "temecula",
            "address": "San Jacinto, Riverside County, California, United States of America",
            "locType": "city",
            "blogLinks": [
                "https://en.wikipedia.org/wiki/Inland_Empire"
            ],
            "longitude": "-116.9586349"
        },
        "fallbrook": {
            "latitude": "33.3764196",
            "closest_to": "temecula",
            "address": "Fallbrook, San Diego County, California, United States of America",
            "locType": "town",
            "blogLinks": [
                "https://en.wikipedia.org/wiki/Interstate_15_in_California"
            ],
            "longitude": "-117.2511465"
        },
        "miramar": {
            "latitude": "32.8936581",
            "closest_to": "temecula",
            "address": "Miramar, San Diego County, California, United States of America",
            "locType": "hamlet",
            "blogLinks": [
                "https://en.wikipedia.org/wiki/Interstate_15_in_California"
            ],
            "longitude": "-117.118366"
        },
        "arizona": {
            "latitude": "34.4631398",
            "closest_to": "san bernardino",
            "address": "Arizona, San Bernardino County, California, 92371, United States of America",
            "locType": "track",
            "blogLinks": [
                "https://en.wikipedia.org/wiki/Interstate_15_in_California",
                "http://wikitravel.org/en/San_Diego"
            ],
            "longitude": "-117.5060679"
        },
        "legoland california": {
            "latitude": "33.1278683",
            "closest_to": "temecula",
            "address": "Legoland California, 1, LEGOLAND drive, Carlsbad, San Diego County, California, 92008, United States of America",
            "locType": "theme_park",
            "blogLinks": [
                "http://wikitravel.org/en/San_Diego"
            ],
            "longitude": "-117.311664211922"
        },
        "palmdale road": {
            "latitude": "34.5067072",
            "closest_to": "san bernardino",
            "address": "Palmdale Road, Victorville, San Bernardino County, California, 92392, United States of America",
            "locType": "primary",
            "blogLinks": [
                "https://en.wikipedia.org/wiki/Interstate_15_in_California"
            ],
            "longitude": "-117.3643316"
        },
        "fontana": {
            "latitude": "34.0922335",
            "closest_to": "san bernardino",
            "address": "Fontana, San Bernardino County, California, United States of America",
            "locType": "city",
            "blogLinks": [
                "https://en.wikipedia.org/wiki/Inland_Empire"
            ],
            "longitude": "-117.4350479"
        },
        "perris": {
            "latitude": "33.7825194",
            "closest_to": "temecula",
            "address": "Perris, Riverside County, California, United States of America",
            "locType": "city",
            "blogLinks": [
                "http://www.inlandempire.com/kids/",
                "https://en.wikipedia.org/wiki/Inland_Empire"
            ],
            "longitude": "-117.2286477"
        },
        "temecula valley": {
            "latitude": "33.4481335",
            "closest_to": "temecula",
            "address": "U.S. Mormon Battalion Trail, Temecula Valley, CA 79, Aguanga, Riverside County, California, United States of America",
            "locType": "memorial",
            "blogLinks": [
                "https://en.wikipedia.org/wiki/Inland_Empire"
            ],
            "longitude": "-116.8917787"
        },
        "perris valley": {
            "latitude": "33.8282825",
            "closest_to": "temecula",
            "address": "Perris Valley Storm Drain, Perris, Riverside County, California, United States of America",
            "locType": "drain",
            "blogLinks": [
                "https://en.wikipedia.org/wiki/Inland_Empire"
            ],
            "longitude": "-117.2096084"
        },
        "mount san gorgonio ca": {
            "latitude": "33.9121294",
            "closest_to": "temecula",
            "address": "San Gorgonio Avenue, Banning, Riverside County, California, 92220, United States of America",
            "locType": "secondary",
            "blogLinks": [
                "http://www.california-blog.com/"
            ],
            "longitude": "-116.8766731"
        },
        "san diego county": {
            "latitude": "32.9637838",
            "closest_to": "temecula",
            "address": "San Diego County, California, United States of America",
            "locType": "administrative",
            "blogLinks": [
                "https://en.wikipedia.org/wiki/Interstate_15_in_California",
                "http://wikitravel.org/en/San_Diego",
                "https://en.wikipedia.org/wiki/Inland_Empire"
            ],
            "longitude": "-116.7706276"
        },
        "pomona valley": {
            "latitude": "34.0553813",
            "closest_to": "san bernardino",
            "address": "Pomona, Los Angeles County, California, United States of America",
            "locType": "city",
            "blogLinks": [
                "https://en.wikipedia.org/wiki/Inland_Empire"
            ],
            "longitude": "-117.7517495"
        },
        "moreno valley ca": {
            "latitude": "33.937517",
            "closest_to": "temecula",
            "address": "Moreno Valley, Riverside County, California, United States of America",
            "locType": "city",
            "blogLinks": [
                "http://www.california-blog.com/"
            ],
            "longitude": "-117.2305943"
        },
        "santa ana river": {
            "latitude": "33.847255",
            "closest_to": "san bernardino",
            "address": "Santa Ana River, Anaheim, Orange County, California, United States of America",
            "locType": "river",
            "blogLinks": [
                "https://en.wikipedia.org/wiki/Inland_Empire"
            ],
            "longitude": "-117.8400508"
        },
        "pomona": {
            "latitude": "34.0553813",
            "closest_to": "san bernardino",
            "address": "Pomona, Los Angeles County, California, United States of America",
            "locType": "city",
            "blogLinks": [
                "https://en.wikipedia.org/wiki/Interstate_15_in_California",
                "https://en.wikipedia.org/wiki/Inland_Empire"
            ],
            "longitude": "-117.7517495"
        },
        "inland center mall": {
            "latitude": "34.08506055",
            "closest_to": "temecula",
            "address": "Inland Center, West Central Avenue, Inland Center, San Bernardino, San Bernardino County, California, 92408, United States of America",
            "locType": "mall",
            "blogLinks": [
                "https://en.wikipedia.org/wiki/Inland_Empire"
            ],
            "longitude": "-117.297473820788"
        },
        "san bernardino valley": {
            "latitude": "34.1083449",
            "closest_to": "san bernardino",
            "address": "San Bernardino, San Bernardino County, California, United States of America",
            "locType": "city",
            "blogLinks": [
                "https://en.wikipedia.org/wiki/Inland_Empire"
            ],
            "longitude": "-117.2897651"
        },
        "cajon pass": {
            "latitude": "34.3251973",
            "closest_to": "san bernardino",
            "address": "Cajon Pass, Summit Terrace, San Bernardino County, California, United States of America",
            "locType": "yes",
            "blogLinks": [
                "https://en.wikipedia.org/wiki/Interstate_15_in_California",
                "https://en.wikipedia.org/wiki/Inland_Empire"
            ],
            "longitude": "-117.4282748"
        },
        "hamner avenue": {
            "latitude": "33.9138514",
            "closest_to": "temecula",
            "address": "Hamner Avenue, Norco, Riverside County, California, 92880, United States of America",
            "locType": "primary",
            "blogLinks": [
                "https://en.wikipedia.org/wiki/Interstate_15_in_California"
            ],
            "longitude": "-117.5604605"
        },
        "lake arrowhead": {
            "latitude": "34.2592869",
            "closest_to": "san bernardino",
            "address": "Lake Arrowhead, Shelter Cove Lane, North Shore, San Bernardino County, California, 92407, United States of America",
            "locType": "water",
            "blogLinks": [
                "https://en.wikipedia.org/wiki/Inland_Empire"
            ],
            "longitude": "-117.185753981831"
        },
        "milliken avenue": {
            "latitude": "34.0717558",
            "closest_to": "san bernardino",
            "address": "Milliken Avenue, Ontario, San Bernardino County, California, 91761, United States of America",
            "locType": "primary",
            "blogLinks": [
                "https://en.wikipedia.org/wiki/Interstate_15_in_California"
            ],
            "longitude": "-117.5581282"
        },
        "moreno valley": {
            "latitude": "33.937517",
            "closest_to": "temecula",
            "address": "Moreno Valley, Riverside County, California, United States of America",
            "locType": "city",
            "blogLinks": [
                "http://www.inlandempire.com/shopping-malls/",
                "https://en.wikipedia.org/wiki/Inland_Empire"
            ],
            "longitude": "-117.2305943"
        },
        "san bernardino freeway": {
            "latitude": "34.083484",
            "closest_to": "temecula",
            "address": "San Bernardino Freeway, San Bernardino, San Bernardino County, California, 92401, United States of America",
            "locType": "motorway",
            "blogLinks": [
                "https://en.wikipedia.org/wiki/Inland_Empire"
            ],
            "longitude": "-117.2997551"
        },
        "encinitas": {
            "latitude": "33.0369867",
            "closest_to": "temecula",
            "address": "Encinitas, San Diego County, California, United States of America",
            "locType": "city",
            "blogLinks": [
                "http://wikitravel.org/en/San_Diego"
            ],
            "longitude": "-117.2919817"
        },
        "aspen glen picnic area mill creek rd": {
            "latitude": "34.2355633",
            "closest_to": "san bernardino",
            "address": "Aspen Glen Picnic Area, Mill Creek Road, Boulder Bay, San Bernardino County, California, 92315, United States of America",
            "locType": "picnic_site",
            "blogLinks": [
                "http://inlandempire.us/parks/"
            ],
            "longitude": "-116.9269772"
        },
        "san dimas": {
            "latitude": "34.1066756",
            "closest_to": "san bernardino",
            "address": "San Dimas, Los Angeles County, California, United States of America",
            "locType": "town",
            "blogLinks": [
                "http://www.inlandempire.com/kids/",
                "https://en.wikipedia.org/wiki/Inland_Empire"
            ],
            "longitude": "-117.8067256"
        },
        "cucamonga valley": {
            "latitude": "34.1033192",
            "closest_to": "san bernardino",
            "address": "Rancho Cucamonga, San Bernardino County, California, United States of America",
            "locType": "city",
            "blogLinks": [
                "https://en.wikipedia.org/wiki/Inland_Empire"
            ],
            "longitude": "-117.5751734"
        },
        "jurupa street": {
            "latitude": "34.0483343",
            "closest_to": "san bernardino",
            "address": "Jurupa Street, Ontario, San Bernardino County, California, 91761, United States of America",
            "locType": "secondary",
            "blogLinks": [
                "https://en.wikipedia.org/wiki/Interstate_15_in_California"
            ],
            "longitude": "-117.5764124"
        },
        "san clemente": {
            "latitude": "33.4270275",
            "closest_to": "temecula",
            "address": "San Clemente, Orange County, California, United States of America",
            "locType": "city",
            "blogLinks": [
                "http://wikitravel.org/en/San_Diego"
            ],
            "longitude": "-117.6124178"
        },
        "blair park": {
            "latitude": "34.1518678",
            "closest_to": "san bernardino",
            "address": "Blair Park, North Roberds Avenue, San Bernardino, San Bernardino County, California, 92405, United States of America",
            "locType": "park",
            "blogLinks": [
                "http://inlandempire.us/parks/"
            ],
            "longitude": "-117.317107707445"
        },
        "pomerado road/miramar road": {
            "latitude": "32.8939223",
            "closest_to": "temecula",
            "address": "Pomerado Road, San Diego, San Diego County, California, 92131, United States of America",
            "locType": "primary",
            "blogLinks": [
                "https://en.wikipedia.org/wiki/Interstate_15_in_California"
            ],
            "longitude": "-117.1113949"
        },
        "escondido": {
            "latitude": "33.1216751",
            "closest_to": "temecula",
            "address": "Escondido, San Diego County, California, United States of America",
            "locType": "city",
            "blogLinks": [
                "https://en.wikipedia.org/wiki/Interstate_15_in_California",
                "http://wikitravel.org/en/San_Diego"
            ],
            "longitude": "-117.0814848"
        },
        "san diego zoo safari park": {
            "latitude": "33.096694",
            "closest_to": "temecula",
            "address": "San Diego Zoo Safari Park, 15500, San Pasqual Valley Road, San Diego, San Diego County, California, 92025, United States of America",
            "locType": "zoo",
            "blogLinks": [
                "http://wikitravel.org/en/San_Diego"
            ],
            "longitude": "-116.995039439834"
        },
        "rialto": {
            "latitude": "34.1064001",
            "closest_to": "san bernardino",
            "address": "Rialto, San Bernardino County, California, United States of America",
            "locType": "city",
            "blogLinks": [
                "https://en.wikipedia.org/wiki/Interstate_15_in_California",
                "https://www.pinterest.com/inlandempireus/beauty-of-the-inland-empire/",
                "https://en.wikipedia.org/wiki/Inland_Empire"
            ],
            "longitude": "-117.3703234"
        },
        "moreno valley mall": {
            "latitude": "33.93868495",
            "closest_to": "temecula",
            "address": "Moreno Valley Mall, Town Circle, Moreno Valley, Riverside County, California, 92553, United States of America",
            "locType": "mall",
            "blogLinks": [
                "https://en.wikipedia.org/wiki/Inland_Empire"
            ],
            "longitude": "-117.271425211768"
        },
        "california theatre": {
            "latitude": "34.10680785",
            "closest_to": "temecula",
            "address": "California Theatre, 562, West 4th Street, San Bernardino, San Bernardino County, California, 92401, United States of America",
            "locType": "cinema",
            "blogLinks": [
                "https://en.wikipedia.org/wiki/Inland_Empire"
            ],
            "longitude": "-117.295461125042"
        },
        "norco": {
            "latitude": "33.9323307",
            "closest_to": "temecula",
            "address": "Norco, Riverside County, California, 92860, United States of America",
            "locType": "city",
            "blogLinks": [
                "https://en.wikipedia.org/wiki/Interstate_15_in_California",
                "http://www.inlandempire.com/kids/"
            ],
            "longitude": "-117.55089"
        },
        "oak hill road": {
            "latitude": "34.4519386",
            "closest_to": "san bernardino",
            "address": "Oak Hill Road, Victorville, San Bernardino County, California, 92392, United States of America",
            "locType": "track",
            "blogLinks": [
                "https://en.wikipedia.org/wiki/Interstate_15_in_California"
            ],
            "longitude": "-117.4083641"
        },
        "redlands blvd": {
            "latitude": "34.0606474",
            "closest_to": "temecula",
            "address": "Redlands Boulevard, Redlands, San Bernardino County, California, 92403, United States of America",
            "locType": "primary",
            "blogLinks": [
                "http://inlandempire.us/parks/"
            ],
            "longitude": "-117.1997826"
        },
        "adams avenue": {
            "latitude": "33.5405364",
            "closest_to": "temecula",
            "address": "Adams Avenue, Linda Rosa, Murrieta, Riverside County, California, 92562, United States of America",
            "locType": "tertiary",
            "blogLinks": [
                "https://en.wikipedia.org/wiki/Interstate_15_in_California"
            ],
            "longitude": "-117.1929278"
        },
        "inland center": {
            "latitude": "34.08565765",
            "closest_to": "temecula",
            "address": "Inland Center, San Bernardino, San Bernardino County, California, 92401, United States of America",
            "locType": "retail",
            "blogLinks": [
                "https://en.wikipedia.org/wiki/Inland_Empire"
            ],
            "longitude": "-117.297268584191"
        },
        "limonite avenue": {
            "latitude": "33.9930114",
            "closest_to": "temecula",
            "address": "Limonite Avenue, Rubidoux, Jurupa Valley, Riverside County, California, 91752, United States of America",
            "locType": "secondary",
            "blogLinks": [
                "https://en.wikipedia.org/wiki/Interstate_15_in_California"
            ],
            "longitude": "-117.422782"
        },
        "hemet": {
            "latitude": "33.778562",
            "closest_to": "temecula",
            "address": "Hemet, Riverside County, California, United States of America",
            "locType": "city",
            "blogLinks": [
                "https://en.wikipedia.org/wiki/Interstate_15_in_California",
                "http://www.inlandempire.com/kids/"
            ],
            "longitude": "-117.035766536246"
        },
        "victoria gardens": {
            "latitude": "34.1109434",
            "closest_to": "san bernardino",
            "address": "Victoria Gardens, South Mainstreet, Rancho Cucamonga, San Bernardino County, California, 91739, United States of America",
            "locType": "mall",
            "blogLinks": [
                "https://en.wikipedia.org/wiki/Inland_Empire"
            ],
            "longitude": "-117.532065718501"
        },
        "mount palomar ca": {
            "latitude": "33.1278146",
            "closest_to": "temecula",
            "address": "California Bank & Trust, 2501, Palomar Airport Road, Carlsbad, San Diego County, California, 92011, United States of America",
            "locType": "bank",
            "blogLinks": [
                "http://www.california-blog.com/"
            ],
            "longitude": "-117.270809764613"
        },
        "san diego county line": {
            "latitude": "32.9637838",
            "closest_to": "temecula",
            "address": "San Diego County, California, United States of America",
            "locType": "administrative",
            "blogLinks": [
                "https://en.wikipedia.org/wiki/Interstate_15_in_California"
            ],
            "longitude": "-116.7706276"
        },
        "latin america": {
            "latitude": "32.88513545",
            "closest_to": "temecula",
            "address": "Latin America Hall, North Torrey Pines Road, La Jolla, San Diego, San Diego County, California, 92037, United States of America",
            "locType": "yes",
            "blogLinks": [
                "http://wikitravel.org/en/San_Diego"
            ],
            "longitude": "-117.243474813578"
        },
        "chino": {
            "latitude": "34.0133561",
            "closest_to": "san bernardino",
            "address": "Chino, San Bernardino County, California, United States of America",
            "locType": "city",
            "blogLinks": [
                "http://www.inlandempire.com/kids/"
            ],
            "longitude": "-117.6900749"
        },
        "san juan capistrano": {
            "latitude": "33.5016932",
            "closest_to": "temecula",
            "address": "San Juan Capistrano, Orange County, California, United States of America",
            "locType": "city",
            "blogLinks": [
                "https://en.wikipedia.org/wiki/Interstate_15_in_California"
            ],
            "longitude": "-117.6625508"
        },
        "phoenix": {
            "latitude": "33.6988015",
            "closest_to": "temecula",
            "address": "Phoenix, Heritage Park Apartments, El Camino Real, Irvine, Orange County, California, 92604, United States of America",
            "locType": "residential",
            "blogLinks": [
                "http://wikitravel.org/en/San_Diego",
                "https://en.wikipedia.org/wiki/Inland_Empire"
            ],
            "longitude": "-117.7764481"
        },
        "morongo casino": {
            "latitude": "33.9232438",
            "closest_to": "temecula",
            "address": "Morongo Casino, Seminole Drive, Cabazon, Riverside County, California, 92230, United States of America",
            "locType": "bus_stop",
            "blogLinks": [
                "https://en.wikipedia.org/wiki/Inland_Empire"
            ],
            "longitude": "-116.800546"
        },
        "corona freeway": {
            "latitude": "33.7334253",
            "closest_to": "temecula",
            "address": "Corona Freeway, Horsethief Canyon Ranch, Menifee, Riverside County, California, 92881, United States of America",
            "locType": "motorway",
            "blogLinks": [
                "https://en.wikipedia.org/wiki/Interstate_15_in_California"
            ],
            "longitude": "-117.4143982"
        },
        "wildomar": {
            "latitude": "33.5939372",
            "closest_to": "temecula",
            "address": "Wildomar, Riverside County, California, United States of America",
            "locType": "town",
            "blogLinks": [
                "http://www.inlandempire.com/kids/"
            ],
            "longitude": "-117.2414988"
        },
        "morongo valley": {
            "latitude": "34.0537585",
            "closest_to": "san bernardino",
            "address": "Morongo Valley, Vista Drive, Morongo Valley, San Bernardino County, California, 92256, United States of America",
            "locType": "administrative",
            "blogLinks": [
                "http://www.california-blog.com/"
            ],
            "longitude": "-116.596723958419"
        },
        "cahuilla": {
            "latitude": "33.5408618",
            "closest_to": "temecula",
            "address": "Cahuilla, Riverside County, California, United States of America",
            "locType": "hamlet",
            "blogLinks": [
                "https://en.wikipedia.org/wiki/Inland_Empire"
            ],
            "longitude": "-116.7439091"
        },
        "solana beach": {
            "latitude": "32.9905597",
            "closest_to": "temecula",
            "address": "Solana Beach, San Diego County, California, United States of America",
            "locType": "city",
            "blogLinks": [
                "http://wikitravel.org/en/San_Diego"
            ],
            "longitude": "-117.2691315"
        },
        "inland san diego county": {
            "latitude": "33.119939",
            "closest_to": "temecula",
            "address": "Inland Rail Trail, Escondido, San Diego County, California, 92025, United States of America",
            "locType": "cycleway",
            "blogLinks": [
                "http://wikitravel.org/en/San_Diego"
            ],
            "longitude": "-117.0913462"
        },
        "chino canyon": {
            "latitude": "33.8458314",
            "closest_to": "temecula",
            "address": "West Chino Canyon Road, Palm Springs, Riverside County, California, 92262, United States of America",
            "locType": "residential",
            "blogLinks": [
                "http://www.inlandempire.com/kids/"
            ],
            "longitude": "-116.5510454"
        },
        "san diego airport": {
            "latitude": "33.1278146",
            "closest_to": "temecula",
            "address": "California Bank & Trust, 2501, Palomar Airport Road, Carlsbad, San Diego County, California, 92011, United States of America",
            "locType": "bank",
            "blogLinks": [
                "http://wikitravel.org/en/San_Diego"
            ],
            "longitude": "-117.270809764613"
        },
        "victorville": {
            "latitude": "34.5361067",
            "closest_to": "san bernardino",
            "address": "Victorville, San Bernardino County, California, United States of America",
            "locType": "city",
            "blogLinks": [
                "https://en.wikipedia.org/wiki/Interstate_15_in_California",
                "http://www.inlandempire.com/kids/",
                "https://en.wikipedia.org/wiki/Inland_Empire"
            ],
            "longitude": "-117.2911564"
        },
        "n. torrey pines rd": {
            "latitude": "32.9358252",
            "closest_to": "temecula",
            "address": "North Torrey Pines Road, Del Mar, San Diego, San Diego County, California, 92014, United States of America",
            "locType": "primary",
            "blogLinks": [
                "http://wikitravel.org/en/San_Diego"
            ],
            "longitude": "-117.2608353"
        },
        "sun city": {
            "latitude": "33.7010223",
            "closest_to": "temecula",
            "address": "Sun City, Menifee, Sun City, Riverside County, California, United States of America",
            "locType": "suburb",
            "blogLinks": [
                "https://en.wikipedia.org/wiki/Inland_Empire"
            ],
            "longitude": "-117.2027866"
        },
        "menifee valley": {
            "latitude": "33.67373085",
            "closest_to": "temecula",
            "address": "Mount San Jacinto Community College - Menifee Valley Campus, 28237, La Piedra Road, Menifee Lakes, Menifee, Riverside County, California, 92584, United States of America",
            "locType": "house",
            "blogLinks": [
                "https://en.wikipedia.org/wiki/Inland_Empire"
            ],
            "longitude": "-117.166744188531"
        },
        "colton": {
            "latitude": "34.0739016",
            "closest_to": "temecula",
            "address": "Colton, San Bernardino County, California, United States of America",
            "locType": "city",
            "blogLinks": [
                "http://www.inlandempire.com/kids/",
                "https://en.wikipedia.org/wiki/Inland_Empire"
            ],
            "longitude": "-117.3136546"
        },
        "orange empire": {
            "latitude": "33.7605517",
            "closest_to": "temecula",
            "address": "Orange Empire Railway Museum, Georgia Street, Perris, Riverside County, California, United States of America",
            "locType": "museum",
            "blogLinks": [
                "https://en.wikipedia.org/wiki/Inland_Empire"
            ],
            "longitude": "-117.2330019"
        },
        "poway": {
            "latitude": "32.9628234",
            "closest_to": "temecula",
            "address": "Poway, San Diego County, California, United States of America",
            "locType": "city",
            "blogLinks": [
                "http://wikitravel.org/en/San_Diego"
            ],
            "longitude": "-117.0358645"
        },
        "beaumont": {
            "latitude": "33.9294606",
            "closest_to": "temecula",
            "address": "Beaumont, Riverside County, California, United States of America",
            "locType": "city",
            "blogLinks": [
                "http://www.inlandempire.com/kids/",
                "https://en.wikipedia.org/wiki/Inland_Empire"
            ],
            "longitude": "-116.9772479"
        },
        "western riverside county": {
            "latitude": "33.91087165",
            "closest_to": "temecula",
            "address": "14205, Western Municipal Water District, West March, Riverside County, California, 92518, United States of America",
            "locType": "commercial",
            "blogLinks": [
                "https://en.wikipedia.org/wiki/Inland_Empire"
            ],
            "longitude": "-117.289693447994"
        },
        "verdemont": {
            "latitude": "34.1930639",
            "closest_to": "san bernardino",
            "address": "Verdemont, San Bernardino County, California, United States of America",
            "locType": "hamlet",
            "blogLinks": [
                "https://en.wikipedia.org/wiki/Inland_Empire"
            ],
            "longitude": "-117.3675462"
        },
        "monrovia": {
            "latitude": "34.1483499",
            "closest_to": "san bernardino",
            "address": "Monrovia, Los Angeles County, California, United States of America",
            "locType": "city",
            "blogLinks": [
                "http://www.california-blog.com/"
            ],
            "longitude": "-118.0014516"
        },
        "san jacinto": {
            "latitude": "33.7839084",
            "closest_to": "temecula",
            "address": "San Jacinto, Riverside County, California, United States of America",
            "locType": "city",
            "blogLinks": [
                "http://inlandempire.us/parks/"
            ],
            "longitude": "-116.9586349"
        },
        "ontario mills": {
            "latitude": "34.07298725",
            "closest_to": "san bernardino",
            "address": "Ontario Mills, 1, Mills Circle, Ontario, San Bernardino County, California, 91764, United States of America",
            "locType": "mall",
            "blogLinks": [
                "https://en.wikipedia.org/wiki/Inland_Empire"
            ],
            "longitude": "-117.551522311875"
        },
        "running springs": {
            "latitude": "34.2124412",
            "closest_to": "san bernardino",
            "address": "Running Springs, Mountain Oak Drive, Fredalba, San Bernardino County, California, 92314, United States of America",
            "locType": "administrative",
            "blogLinks": [
                "https://en.wikipedia.org/wiki/Inland_Empire"
            ],
            "longitude": "-117.124877511921"
        },
        "valencia": {
            "latitude": "34.1466768",
            "closest_to": "san bernardino",
            "address": "Valencia, San Bernardino County, California, United States of America",
            "locType": "hamlet",
            "blogLinks": [
                "https://en.wikipedia.org/wiki/Inland_Empire"
            ],
            "longitude": "-117.2725426"
        },
        "camp pendleton": {
            "latitude": "33.2167022",
            "closest_to": "temecula",
            "address": "Camp Pendleton Boat Basin, San Diego County, California, United States of America",
            "locType": "dock",
            "blogLinks": [
                "http://wikitravel.org/en/San_Diego"
            ],
            "longitude": "-117.4000394"
        },
        "palomar airport road": {
            "latitude": "33.1291437",
            "closest_to": "temecula",
            "address": "Palomar Airport Road, Carlsbad, San Diego County, California, 92009, United States of America",
            "locType": "primary",
            "blogLinks": [
                "http://wikitravel.org/en/San_Diego"
            ],
            "longitude": "-117.2418974"
        },
        "temecula valley freeway": {
            "latitude": "33.521846",
            "closest_to": "temecula",
            "address": "Temecula Valley Freeway, Solana Ridge, North Jefferson, Temecula, Riverside County, California, 92390, United States of America",
            "locType": "motorway",
            "blogLinks": [
                "https://en.wikipedia.org/wiki/Interstate_15_in_California"
            ],
            "longitude": "-117.1623233"
        },
        "inland california": {
            "latitude": "34.0227324",
            "closest_to": "temecula",
            "address": "Day Creek Inland Avenue Storm Drain, Eastvale, Riverside County, California, United States of America",
            "locType": "drain",
            "blogLinks": [
                "https://en.wikipedia.org/wiki/Inland_Empire"
            ],
            "longitude": "-117.5271257"
        },
        "mount san jacinto ca": {
            "latitude": "33.7839084",
            "closest_to": "temecula",
            "address": "San Jacinto, Riverside County, California, United States of America",
            "locType": "city",
            "blogLinks": [
                "http://www.california-blog.com/"
            ],
            "longitude": "-116.9586349"
        },
        "inland empire and southern california": {
            "latitude": "33.9423377",
            "closest_to": "temecula",
            "address": "Inland Empire Southern Baptist Association, Indiana Avenue, Riverside, Riverside County, California, 92503, United States of America",
            "locType": "yes",
            "blogLinks": [
                "https://en.wikipedia.org/wiki/Inland_Empire"
            ],
            "longitude": "-117.3932403"
        },
        "haven avenue": {
            "latitude": "34.0286666",
            "closest_to": "san bernardino",
            "address": "Haven Avenue, Ontario, San Bernardino County, California, 91764, United States of America",
            "locType": "primary",
            "blogLinks": [
                "https://en.wikipedia.org/wiki/Inland_Empire"
            ],
            "longitude": "-117.5758293"
        },
        "oregon": {
            "latitude": "33.7123207",
            "closest_to": "temecula",
            "address": "Oregon, Walnut, Irvine, Orange County, California, 92606, United States of America",
            "locType": "residential",
            "blogLinks": [
                "http://wikitravel.org/en/San_Diego"
            ],
            "longitude": "-117.7911567"
        },
        "orange avenue": {
            "latitude": "33.8115553",
            "closest_to": "temecula",
            "address": "Orange Avenue, Palm Springs, Riverside County, California, 92264, United States of America",
            "locType": "residential",
            "blogLinks": [
                "https://en.wikipedia.org/wiki/Interstate_15_in_California"
            ],
            "longitude": "-116.5084992"
        },
        "cable airport": {
            "latitude": "34.11242505",
            "closest_to": "san bernardino",
            "address": "Cable Airport, 13th Street, Upland, San Bernardino County, California, 91711, United States of America",
            "locType": "aerodrome",
            "blogLinks": [
                "http://www.inlandempire.com/kids/"
            ],
            "longitude": "-117.685395669533"
        },
        "oceanside": {
            "latitude": "33.1958696",
            "closest_to": "temecula",
            "address": "Oceanside, San Diego County, California, United States of America",
            "locType": "city",
            "blogLinks": [
                "http://wikitravel.org/en/San_Diego"
            ],
            "longitude": "-117.3794833"
        },
        "eastvale": {
            "latitude": "33.9766799",
            "closest_to": "temecula",
            "address": "Eastvale, Riverside County, California, United States of America",
            "locType": "city",
            "blogLinks": [
                "https://en.wikipedia.org/wiki/Interstate_15_in_California"
            ],
            "longitude": "-117.5598443"
        },
        "loma linda": {
            "latitude": "34.075626",
            "closest_to": "temecula",
            "address": "Loma Linda, San Bernardino County, California, United States of America",
            "locType": "city",
            "blogLinks": [
                "https://en.wikipedia.org/wiki/Inland_Empire"
            ],
            "longitude": "-117.25204765"
        },
        "canada": {
            "latitude": "33.7298842",
            "closest_to": "temecula",
            "address": "La Canada, Lower Peters Canyon, Irvine, Orange County, California, 92602, United States of America",
            "locType": "residential",
            "blogLinks": [
                "https://en.wikipedia.org/wiki/Interstate_15_in_California",
                "http://wikitravel.org/en/San_Diego"
            ],
            "longitude": "-117.7641381"
        },
        "claremont": {
            "latitude": "34.0966764",
            "closest_to": "san bernardino",
            "address": "Claremont, Los Angeles County, California, United States of America",
            "locType": "city",
            "blogLinks": [
                "http://www.inlandempire.com/shopping-malls/",
                "https://en.wikipedia.org/wiki/Inland_Empire"
            ],
            "longitude": "-117.7197784"
        },
        "torrey pines state beach": {
            "latitude": "32.91754945",
            "closest_to": "temecula",
            "address": "Torrey Pines State Beach, Yucca Point Trail, Del Mar, San Diego, San Diego County, California, 92121, United States of America",
            "locType": "beach",
            "blogLinks": [
                "http://wikitravel.org/en/San_Diego"
            ],
            "longitude": "-117.259044437013"
        },
        "mcclellan-palomar airport": {
            "latitude": "33.12754605",
            "closest_to": "temecula",
            "address": "McClellan-Palomar Airport, Aircraft Road, Carlsbad, San Diego County, California, 92011, United States of America",
            "locType": "aerodrome",
            "blogLinks": [
                "http://wikitravel.org/en/San_Diego"
            ],
            "longitude": "-117.281400045984"
        },
        "rubidoux": {
            "latitude": "33.994015",
            "closest_to": "temecula",
            "address": "Rubidoux, Pacific Avenue, Rubidoux, Jurupa Valley, Riverside County, California, 92509, United States of America",
            "locType": "administrative",
            "blogLinks": [
                "https://www.pinterest.com/inlandempireus/beauty-of-the-inland-empire/"
            ],
            "longitude": "-117.423740584529"
        },
        "san gorgonio mountain": {
            "latitude": "34.0992456",
            "closest_to": "san bernardino",
            "address": "San Gorgonio Mountain, San Bernardino County, California, United States of America",
            "locType": "peak",
            "blogLinks": [
                "https://en.wikipedia.org/wiki/Inland_Empire"
            ],
            "longitude": "-116.8248435"
        },
        "upland": {
            "latitude": "34.09751",
            "closest_to": "san bernardino",
            "address": "Upland, San Bernardino County, California, United States of America",
            "locType": "city",
            "blogLinks": [
                "http://www.inlandempire.com/kids/",
                "https://en.wikipedia.org/wiki/Inland_Empire"
            ],
            "longitude": "-117.6483875"
        },
        "jurupa": {
            "latitude": "33.9798472",
            "closest_to": "temecula",
            "address": "Jurupa Valley, Riverside County, California, United States of America",
            "locType": "city",
            "blogLinks": [
                "http://www.inlandempire.com/kids/"
            ],
            "longitude": "-117.4515753"
        },
        "a.k smiley library": {
            "latitude": "34.0542324",
            "closest_to": "temecula",
            "address": "A K Smiley Public Library, Eureka Street, Redlands, San Bernardino County, California, 92373, United States of America",
            "locType": "library",
            "blogLinks": [
                "http://www.inlandempire.com/kids/"
            ],
            "longitude": "-117.1840683"
        },
        "orange county": {
            "latitude": "33.7500378",
            "closest_to": "san bernardino",
            "address": "Orange County, California, United States of America",
            "locType": "administrative",
            "blogLinks": [
                "http://inlandempire.us/parks/",
                "https://en.wikipedia.org/wiki/Interstate_15_in_California",
                "http://wikitravel.org/en/San_Diego",
                "https://en.wikipedia.org/wiki/Inland_Empire"
            ],
            "longitude": "-117.870493"
        },
        "high desert": {
            "latitude": "34.480881",
            "closest_to": "san bernardino",
            "address": "High Desert Road, Victorville, San Bernardino County, California, 92392, United States of America",
            "locType": "residential",
            "blogLinks": [
                "https://en.wikipedia.org/wiki/Interstate_15_in_California"
            ],
            "longitude": "-117.3758689"
        },
        "jurupa valley": {
            "latitude": "33.9798472",
            "closest_to": "temecula",
            "address": "Jurupa Valley, Riverside County, California, United States of America",
            "locType": "city",
            "blogLinks": [
                "https://en.wikipedia.org/wiki/Interstate_15_in_California"
            ],
            "longitude": "-117.4515753"
        },
        "menifee": {
            "latitude": "33.6864432",
            "closest_to": "temecula",
            "address": "Menifee, Sun City, Riverside County, California, United States of America",
            "locType": "city",
            "blogLinks": [
                "http://www.inlandempire.com/kids/",
                "https://en.wikipedia.org/wiki/Inland_Empire"
            ],
            "longitude": "-117.1770436"
        },
        "riverside plaza": {
            "latitude": "33.95508355",
            "closest_to": "temecula",
            "address": "Riverside Plaza, Riverside, Riverside County, California, 92506, United States of America",
            "locType": "retail",
            "blogLinks": [
                "https://en.wikipedia.org/wiki/Inland_Empire"
            ],
            "longitude": "-117.390648360082"
        },
        "hesperia": {
            "latitude": "34.4263886",
            "closest_to": "san bernardino",
            "address": "Hesperia, San Bernardino County, California, United States of America",
            "locType": "city",
            "blogLinks": [
                "https://en.wikipedia.org/wiki/Interstate_15_in_California",
                "http://www.distancesfrom.com/us/how-far-is-Las-Vegas-from-Temecula-via-Murrieta-Lake-Elsinore-Riverside-Corona-San-Bernardino-Ontari/HowFarHistory/30681762.aspx",
                "http://www.distancesfrom.com/us/Trip-Cost-from-Temecula-to-San-Bernardino/TripCostHistory/11297045.aspx",
                "http://www.distancesfrom.com/us/distance-from-Temecula-to-Las-Vegas-via-Murrieta-Lake-Elsinore-Riverside-Corona-San-Bernardino-Ontar/DistanceHistory/31987269.aspx"
            ],
            "longitude": "-117.3008783"
        },
        "palomar mountain": {
            "latitude": "33.3228128",
            "closest_to": "temecula",
            "address": "Palomar Mountain, San Diego County, California, United States of America",
            "locType": "hamlet",
            "blogLinks": [
                "http://wikitravel.org/en/San_Diego"
            ],
            "longitude": "-116.8786358"
        },
        "inland empire": {
            "latitude": "33.73849885",
            "closest_to": "temecula",
            "address": "Inland Empire Energy Center, Romoland, Riverside County, California, 92585, United States of America",
            "locType": "industrial",
            "blogLinks": [
                "https://www.tripadvisor.com/Attractions-g33009-Activities-San_Bernardino_California.html",
                "https://en.wikipedia.org/wiki/Interstate_15_in_California",
                "http://inlandempire.us/parks/",
                "http://www.inlandempire.com/kids/",
                "https://en.wikipedia.org/wiki/Inland_Empire"
            ],
            "longitude": "-117.16947092864"
        },
        "new york": {
            "latitude": "34.0143928",
            "closest_to": "san bernardino",
            "address": "New York, West Covina, Los Angeles County, California, 91792, United States of America",
            "locType": "service",
            "blogLinks": [
                "http://inlandempire.us/parks/"
            ],
            "longitude": "-117.8984509"
        },
        "orange": {
            "latitude": "33.7500378",
            "closest_to": "san bernardino",
            "address": "Orange County, California, United States of America",
            "locType": "administrative",
            "blogLinks": [
                "https://en.wikipedia.org/wiki/Inland_Empire"
            ],
            "longitude": "-117.870493"
        },
        "ontario airport": {
            "latitude": "34.0417312",
            "closest_to": "san bernardino",
            "address": "Prologis Park Ontario Airport, Ontario, San Bernardino County, California, 91761, United States of America",
            "locType": "commercial",
            "blogLinks": [
                "https://en.wikipedia.org/wiki/Inland_Empire"
            ],
            "longitude": "-117.566879247477"
        },
        "apple valley": {
            "latitude": "34.5008311",
            "closest_to": "san bernardino",
            "address": "Apple Valley, San Bernardino County, California, United States of America",
            "locType": "administrative",
            "blogLinks": [
                "https://en.wikipedia.org/wiki/Interstate_15_in_California"
            ],
            "longitude": "-117.1858758"
        },
        "san bernardino route": {
            "latitude": "34.1083449",
            "closest_to": "san bernardino",
            "address": "San Bernardino, San Bernardino County, California, United States of America",
            "locType": "city",
            "blogLinks": [
                "http://www.distancesfrom.com/us/map-from-Temecula-to-San-Bernardino/MapHistory/11297045.aspx",
                "http://www.distancesfrom.com/us/directions-from-Temecula-to-San-Bernardino/DirectionHistory/11297045.aspx"
            ],
            "longitude": "-117.2897651"
        },
        "devore": {
            "latitude": "34.2163964",
            "closest_to": "san bernardino",
            "address": "Devore, San Bernardino County, California, United States of America",
            "locType": "hamlet",
            "blogLinks": [
                "https://en.wikipedia.org/wiki/Interstate_15_in_California"
            ],
            "longitude": "-117.4014364"
        },
        "lake elsinore": {
            "latitude": "33.6680772",
            "closest_to": "temecula",
            "address": "Lake Elsinore, Riverside County, California, United States of America",
            "locType": "administrative",
            "blogLinks": [
                "http://www.inlandempire.com/shopping-malls/",
                "https://en.wikipedia.org/wiki/Interstate_15_in_California",
                "http://www.distancesfrom.com/us/how-far-is-Las-Vegas-from-Temecula-via-Murrieta-Lake-Elsinore-Riverside-Corona-San-Bernardino-Ontari/HowFarHistory/30681762.aspx",
                "http://www.inlandempire.com/kids/",
                "http://www.distancesfrom.com/us/distance-from-Temecula-to-Las-Vegas-via-Murrieta-Lake-Elsinore-Riverside-Corona-San-Bernardino-Ontar/DistanceHistory/31987269.aspx"
            ],
            "longitude": "-117.3272614"
        },
        "big bear lake": {
            "latitude": "34.253293",
            "closest_to": "san bernardino",
            "address": "Big Bear Lake, Lagunita Lane, Big Bear Lake, San Bernardino County, California, 92315, United States of America",
            "locType": "water",
            "blogLinks": [
                "https://en.wikipedia.org/wiki/Inland_Empire"
            ],
            "longitude": "-116.932209587315"
        },
        "bundy canyon road": {
            "latitude": "33.6414912",
            "closest_to": "temecula",
            "address": "Bundy Canyon Road, Greer Ranch, Menifee, Riverside County, California, 92595, United States of America",
            "locType": "secondary",
            "blogLinks": [
                "https://en.wikipedia.org/wiki/Interstate_15_in_California"
            ],
            "longitude": "-117.2192359"
        },
        "tucson": {
            "latitude": "33.5678303",
            "closest_to": "temecula",
            "address": "Tucson, Coto de Caza, Orange County, California, 92690, United States of America",
            "locType": "residential",
            "blogLinks": [
                "http://wikitravel.org/en/San_Diego"
            ],
            "longitude": "-117.5934281"
        },
        "murrieta valley": {
            "latitude": "33.560832",
            "closest_to": "temecula",
            "address": "Murrieta, Riverside County, California, United States of America",
            "locType": "city",
            "blogLinks": [
                "https://en.wikipedia.org/wiki/Inland_Empire"
            ],
            "longitude": "-117.2106563"
        },
        "ontario": {
            "latitude": "34.065846",
            "closest_to": "san bernardino",
            "address": "Ontario, San Bernardino County, California, United States of America",
            "locType": "city",
            "blogLinks": [
                "http://www.inlandempire.com/kids/",
                "http://www.california-blog.com/",
                "http://www.distancesfrom.com/us/how-far-is-Las-Vegas-from-Temecula-via-Murrieta-Lake-Elsinore-Riverside-Corona-San-Bernardino-Ontari/HowFarHistory/30681762.aspx",
                "https://en.wikipedia.org/wiki/Inland_Empire",
                "https://en.wikipedia.org/wiki/Interstate_15_in_California",
                "http://inlandempire.us/parks/",
                "http://www.distancesfrom.com/us/distance-from-Temecula-to-Las-Vegas-via-Murrieta-Lake-Elsinore-Riverside-Corona-San-Bernardino-Ontar/DistanceHistory/31987269.aspx",
                "http://www.inlandempire.com/shopping-malls/"
            ],
            "longitude": "-117.6484303"
        },
        "jungle island": {
            "latitude": "33.72975405",
            "closest_to": "temecula",
            "address": "Jungle Island Paintball Park, Larson Avenue, Alberhill, Menifee, Riverside County, California, 92881, United States of America",
            "locType": "theme_park",
            "blogLinks": [
                "http://www.inlandempire.com/kids/"
            ],
            "longitude": "-117.405280290647"
        },
        "mount baldy ca": {
            "latitude": "34.2361168",
            "closest_to": "san bernardino",
            "address": "Mount Baldy, Los Angeles County, California, United States of America",
            "locType": "hamlet",
            "blogLinks": [
                "http://www.california-blog.com/"
            ],
            "longitude": "-117.6600552"
        },
        "montclair": {
            "latitude": "34.0775104",
            "closest_to": "san bernardino",
            "address": "Montclair, San Bernardino County, California, United States of America",
            "locType": "city",
            "blogLinks": [
                "http://www.inlandempire.com/shopping-malls/"
            ],
            "longitude": "-117.6897775"
        },
        "dos lagos": {
            "latitude": "33.8149199",
            "closest_to": "temecula",
            "address": "Dos Lagos, Corona, Riverside County, California, United States of America",
            "locType": "suburb",
            "blogLinks": [
                "http://www.inlandempire.com/shopping-malls/"
            ],
            "longitude": "-117.5038671"
        },
        "chino valley freeway": {
            "latitude": "34.0591918",
            "closest_to": "san bernardino",
            "address": "Chino Valley Freeway, Pomona, Los Angeles County, California, 91768, United States of America",
            "locType": "motorway",
            "blogLinks": [
                "https://en.wikipedia.org/wiki/Interstate_15_in_California"
            ],
            "longitude": "-117.7867259"
        },
        "archibald avenue": {
            "latitude": "34.048294",
            "closest_to": "san bernardino",
            "address": "Archibald Avenue, Ontario, San Bernardino County, California, 91710, United States of America",
            "locType": "secondary",
            "blogLinks": [
                "https://en.wikipedia.org/wiki/Inland_Empire"
            ],
            "longitude": "-117.5932917"
        },
        "idyllwild": {
            "latitude": "33.7400209",
            "closest_to": "temecula",
            "address": "Idyllwild, Riverside County, California, United States of America",
            "locType": "village",
            "blogLinks": [
                "https://en.wikipedia.org/wiki/Interstate_15_in_California",
                "http://distancecalculator.globefeed.com/US_Distance_Calculator.asp?state=CA",
                "https://en.wikipedia.org/wiki/Inland_Empire"
            ],
            "longitude": "-116.7189074"
        },
        "carlsbad": {
            "latitude": "33.1580933",
            "closest_to": "temecula",
            "address": "Carlsbad, San Diego County, California, United States of America",
            "locType": "city",
            "blogLinks": [
                "http://wikitravel.org/en/San_Diego"
            ],
            "longitude": "-117.3505938"
        },
        "san bernardino": {
            "latitude": "34.1083449",
            "closest_to": "san bernardino",
            "address": "San Bernardino, San Bernardino County, California, United States of America",
            "locType": "city",
            "blogLinks": [
                "http://www.distancesfrom.com/us/map-from-Temecula-to-San-Bernardino/MapHistory/11297045.aspx",
                "http://www.inlandempire.com/kids/",
                "http://www.distancesfrom.com/us/how-far-is-Las-Vegas-from-Temecula-via-Murrieta-Lake-Elsinore-Riverside-Corona-San-Bernardino-Ontari/HowFarHistory/30681762.aspx",
                "https://en.wikipedia.org/wiki/Inland_Empire",
                "https://en.wikipedia.org/wiki/Interstate_15_in_California",
                "http://wikitravel.org/en/San_Diego",
                "http://www.distancesfrom.com/us/directions-from-Temecula-to-San-Bernardino/DirectionHistory/11297045.aspx",
                "http://www.inlandempire.com/shopping-malls/",
                "http://inlandempire.us/parks/",
                "http://www.distancesfrom.com/us/distance-from-Temecula-to-Las-Vegas-via-Murrieta-Lake-Elsinore-Riverside-Corona-San-Bernardino-Ontar/DistanceHistory/31987269.aspx",
                "http://www.distancesfrom.com/us/Trip-Cost-from-Temecula-to-San-Bernardino/TripCostHistory/11297045.aspx"
            ],
            "longitude": "-117.2897651"
        },
        "canyon crest drive": {
            "latitude": "33.9575498",
            "closest_to": "temecula",
            "address": "Canyon Crest Drive, Riverside, Riverside County, California, 92521, United States of America",
            "locType": "primary",
            "blogLinks": [
                "http://wikitravel.org/en/San_Diego"
            ],
            "longitude": "-117.3300787"
        },
        "anaheim": {
            "latitude": "33.8347516",
            "closest_to": "san bernardino",
            "address": "Anaheim, Orange County, California, United States of America",
            "locType": "city",
            "blogLinks": [
                "http://wikitravel.org/en/San_Diego"
            ],
            "longitude": "-117.9117319"
        },
        "torrey pines": {
            "latitude": "33.6004207",
            "closest_to": "temecula",
            "address": "Torrey Pines, Coto de Caza, Orange County, California, 92679, United States of America",
            "locType": "residential",
            "blogLinks": [
                "http://wikitravel.org/en/San_Diego"
            ],
            "longitude": "-117.5806448"
        },
        "highland": {
            "latitude": "34.1283442",
            "closest_to": "san bernardino",
            "address": "Highland, San Bernardino County, California, United States of America",
            "locType": "city",
            "blogLinks": [
                "https://en.wikipedia.org/wiki/Inland_Empire"
            ],
            "longitude": "-117.2086512"
        },
        "murrieta": {
            "latitude": "33.560832",
            "closest_to": "temecula",
            "address": "Murrieta, Riverside County, California, United States of America",
            "locType": "city",
            "blogLinks": [
                "https://en.wikipedia.org/wiki/Interstate_15_in_California",
                "http://www.distancesfrom.com/us/how-far-is-Las-Vegas-from-Temecula-via-Murrieta-Lake-Elsinore-Riverside-Corona-San-Bernardino-Ontari/HowFarHistory/30681762.aspx",
                "http://www.distancesfrom.com/us/distance-from-Temecula-to-Las-Vegas-via-Murrieta-Lake-Elsinore-Riverside-Corona-San-Bernardino-Ontar/DistanceHistory/31987269.aspx"
            ],
            "longitude": "-117.2106563"
        },
        "mira loma": {
            "latitude": "33.98208635",
            "closest_to": "temecula",
            "address": "Mira Loma Locality, 58th Street, Mira Loma, Eastvale, Riverside County, California, 91752, United States of America",
            "locType": "administrative",
            "blogLinks": [
                "http://www.inlandempire.com/kids/"
            ],
            "longitude": "-117.515351035788"
        },
        "chino hills": {
            "latitude": "33.9926803",
            "closest_to": "san bernardino",
            "address": "Chino Hills, San Bernardino County, California, United States of America",
            "locType": "city",
            "blogLinks": [
                "http://www.inlandempire.com/kids/",
                "https://en.wikipedia.org/wiki/Inland_Empire"
            ],
            "longitude": "-117.7600559"
        },
        "riverside national cemetery": {
            "latitude": "33.87692125",
            "closest_to": "temecula",
            "address": "Riverside National Cemetery, 22495, Alessandro, Riverside County, California, 92518, United States of America",
            "locType": "cemetery",
            "blogLinks": [
                "http://www.california-blog.com/"
            ],
            "longitude": "-117.270726607134"
        },
        "riverside branch": {
            "latitude": "33.9533546",
            "closest_to": "temecula",
            "address": "Riverside, Riverside County, California, United States of America",
            "locType": "city",
            "blogLinks": [
                "http://www.inlandempire.com/kids/"
            ],
            "longitude": "-117.3961622"
        },
        "temecula wine country": {
            "latitude": "33.5334975",
            "closest_to": "temecula",
            "address": "Temecula Valley Wine Country, Valle de los Caballos, Riverside County, California, United States of America",
            "locType": "suburb",
            "blogLinks": [
                "http://wikitravel.org/en/San_Diego"
            ],
            "longitude": "-117.0334856"
        },
        "lethbridge": {
            "latitude": "32.971272",
            "closest_to": "temecula",
            "address": "Lethbridge Way, San Diego, San Diego County, California, 92129, United States of America",
            "locType": "residential",
            "blogLinks": [
                "http://wikitravel.org/en/San_Diego"
            ],
            "longitude": "-117.1296619"
        },
        "alberta": {
            "latitude": "33.5736346",
            "closest_to": "temecula",
            "address": "Alberta, Aliso Viejo, Orange County, California, 92656, United States of America",
            "locType": "residential",
            "blogLinks": [
                "https://en.wikipedia.org/wiki/Interstate_15_in_California",
                "http://wikitravel.org/en/San_Diego"
            ],
            "longitude": "-117.7344716"
        },
        "ontario freeway": {
            "latitude": "34.1445935",
            "closest_to": "san bernardino",
            "address": "Ontario Freeway, Rancho Cucamonga, San Bernardino County, California, 91739, United States of America",
            "locType": "motorway",
            "blogLinks": [
                "https://en.wikipedia.org/wiki/Interstate_15_in_California"
            ],
            "longitude": "-117.4856629"
        },
        "rancho cucamonga": {
            "latitude": "34.1033192",
            "closest_to": "san bernardino",
            "address": "Rancho Cucamonga, San Bernardino County, California, United States of America",
            "locType": "city",
            "blogLinks": [
                "http://www.inlandempire.com/kids/",
                "https://en.wikipedia.org/wiki/Inland_Empire"
            ],
            "longitude": "-117.5751734"
        },
        "santa ana": {
            "latitude": "33.7494951",
            "closest_to": "san bernardino",
            "address": "Santa Ana, Orange County, California, United States of America",
            "locType": "city",
            "blogLinks": [
                "http://wikitravel.org/en/San_Diego",
                "https://en.wikipedia.org/wiki/Inland_Empire"
            ],
            "longitude": "-117.8732212"
        },
        "point loma": {
            "latitude": "33.5466403",
            "closest_to": "temecula",
            "address": "Point Loma, Laguna Niguel, Orange County, California, 92677, United States of America",
            "locType": "residential",
            "blogLinks": [
                "http://wikitravel.org/en/San_Diego"
            ],
            "longitude": "-117.717867"
        },
        "redlands": {
            "latitude": "34.069909",
            "closest_to": "temecula",
            "address": "Redlands, San Bernardino County, California, United States of America",
            "locType": "city",
            "blogLinks": [
                "http://www.inlandempire.com/kids/",
                "https://en.wikipedia.org/wiki/Inland_Empire"
            ],
            "longitude": "-117.248983896912"
        },
        "denver": {
            "latitude": "33.6996403",
            "closest_to": "temecula",
            "address": "Denver, Heritage Park Apartments, El Camino Real, Irvine, Orange County, California, 92604, United States of America",
            "locType": "residential",
            "blogLinks": [
                "https://en.wikipedia.org/wiki/Interstate_15_in_California",
                "https://en.wikipedia.org/wiki/Inland_Empire"
            ],
            "longitude": "-117.7762651"
        },
        "riverside-san bernardino-ontario": {
            "latitude": "34.0189293",
            "closest_to": "san bernardino",
            "address": "East Riverside Drive, Ontario, San Bernardino County, California, 91761, United States of America",
            "locType": "secondary",
            "blogLinks": [
                "https://en.wikipedia.org/wiki/Inland_Empire"
            ],
            "longitude": "-117.562719"
        },
        "nakayama park": {
            "latitude": "33.54078235",
            "closest_to": "temecula",
            "address": "Nakayama Park, Santa Gertrudis Creek Trail, Monte Vista, Temecula, Riverside County, California, 92591, United States of America",
            "locType": "park",
            "blogLinks": [
                "http://inlandempire.us/parks/"
            ],
            "longitude": "-117.12392214441"
        },
        "foothill freeway": {
            "latitude": "34.1456794",
            "closest_to": "san bernardino",
            "address": "Foothill Freeway, San Bernardino, San Bernardino County, California, 92405, United States of America",
            "locType": "motorway",
            "blogLinks": [
                "https://en.wikipedia.org/wiki/Inland_Empire"
            ],
            "longitude": "-117.2913467"
        },
        "bellevue rd": {
            "latitude": "34.0374017",
            "closest_to": "temecula",
            "address": "Bellevue Road, Redlands, San Bernardino County, California, 92373, United States of America",
            "locType": "residential",
            "blogLinks": [
                "http://inlandempire.us/parks/"
            ],
            "longitude": "-117.2006531"
        },
        "harbor drive": {
            "latitude": "34.5013497",
            "closest_to": "san bernardino",
            "address": "Harbor Drive, San Bernardino County, California, 92392, United States of America",
            "locType": "residential",
            "blogLinks": [
                "https://en.wikipedia.org/wiki/Interstate_15_in_California",
                "http://wikitravel.org/en/San_Diego"
            ],
            "longitude": "-117.2654027"
        },
        "temecula": {
            "latitude": "33.4946353",
            "closest_to": "temecula",
            "address": "Temecula, Riverside County, California, United States of America",
            "locType": "city",
            "blogLinks": [
                "http://www.distancesfrom.com/us/map-from-Temecula-to-San-Bernardino/MapHistory/11297045.aspx",
                "http://www.inlandempire.com/kids/",
                "http://www.distancesfrom.com/us/how-far-is-Las-Vegas-from-Temecula-via-Murrieta-Lake-Elsinore-Riverside-Corona-San-Bernardino-Ontari/HowFarHistory/30681762.aspx",
                "https://en.wikipedia.org/wiki/Inland_Empire",
                "https://en.wikipedia.org/wiki/Interstate_15_in_California",
                "https://www.pinterest.com/inlandempireus/beauty-of-the-inland-empire/",
                "http://inlandempire.us/parks/",
                "http://www.distancesfrom.com/us/directions-from-Temecula-to-San-Bernardino/DirectionHistory/11297045.aspx",
                "http://www.inlandempire.com/shopping-malls/",
                "http://www.distancesfrom.com/us/distance-from-Temecula-to-Las-Vegas-via-Murrieta-Lake-Elsinore-Riverside-Corona-San-Bernardino-Ontar/DistanceHistory/31987269.aspx",
                "http://www.distancesfrom.com/us/Trip-Cost-from-Temecula-to-San-Bernardino/TripCostHistory/11297045.aspx"
            ],
            "longitude": "-117.147366"
        },
        "palm springs": {
            "latitude": "33.8246269",
            "closest_to": "temecula",
            "address": "Palm Springs, Riverside County, California, United States of America",
            "locType": "city",
            "blogLinks": [
                "http://www.inlandempire.com/shopping-malls/",
                "https://en.wikipedia.org/wiki/Inland_Empire",
                "http://www.inlandempire.com/kids/",
                "https://www.tripadvisor.com/ShowTopic-g60750-i41-k4277257-Places_to_visit_round_trip_between_Las_Vegas_San_Diego-San_Diego_California.html"
            ],
            "longitude": "-116.5403029"
        },
        "san bernardino national forest": {
            "latitude": "34.18055525",
            "closest_to": "san bernardino",
            "address": "San Bernardino National Forest, Clark's Grade, Pinezanita, San Bernardino County, California, 92305, United States of America",
            "locType": "national_park",
            "blogLinks": [
                "http://inlandempire.us/parks/"
            ],
            "longitude": "-116.968502795539"
        },
        "riverside": {
            "latitude": "33.9533546",
            "closest_to": "temecula",
            "address": "Riverside, Riverside County, California, United States of America",
            "locType": "city",
            "blogLinks": [
                "http://www.inlandempire.com/kids/",
                "http://www.distancesfrom.com/us/how-far-is-Las-Vegas-from-Temecula-via-Murrieta-Lake-Elsinore-Riverside-Corona-San-Bernardino-Ontari/HowFarHistory/30681762.aspx",
                "https://en.wikipedia.org/wiki/Inland_Empire",
                "https://en.wikipedia.org/wiki/Interstate_15_in_California",
                "https://www.pinterest.com/inlandempireus/beauty-of-the-inland-empire/",
                "http://inlandempire.us/parks/",
                "http://www.distancesfrom.com/us/distance-from-Temecula-to-Las-Vegas-via-Murrieta-Lake-Elsinore-Riverside-Corona-San-Bernardino-Ontar/DistanceHistory/31987269.aspx",
                "http://www.inlandempire.com/shopping-malls/"
            ],
            "longitude": "-117.3961622"
        },
        "marine corps air station miramar": {
            "latitude": "32.8763782",
            "closest_to": "temecula",
            "address": "Marine Corps Air Station Miramar, San Diego, San Diego County, California, 92126, United States of America",
            "locType": "military",
            "blogLinks": [
                "https://en.wikipedia.org/wiki/Interstate_15_in_California"
            ],
            "longitude": "-117.082492537217"
        },
        "monroe avenue": {
            "latitude": "33.5636424",
            "closest_to": "temecula",
            "address": "Monroe Avenue, California Oaks, Murrieta, Riverside County, California, 92562, United States of America",
            "locType": "tertiary",
            "blogLinks": [
                "https://en.wikipedia.org/wiki/Interstate_15_in_California"
            ],
            "longitude": "-117.196129"
        },
        "colony park": {
            "latitude": "34.05266275",
            "closest_to": "temecula",
            "address": "Colony Park, East Harwick Drive, San Bernardino, San Bernardino County, California, 92408, United States of America",
            "locType": "park",
            "blogLinks": [
                "http://inlandempire.us/parks/"
            ],
            "longitude": "-117.283060100509"
        },
        "escondido freeway": {
            "latitude": "33.9350358",
            "closest_to": "temecula",
            "address": "Escondido Freeway, Riverside, Riverside County, California, 92557, United States of America",
            "locType": "motorway",
            "blogLinks": [
                "https://en.wikipedia.org/wiki/Interstate_15_in_California"
            ],
            "longitude": "-117.2902497"
        },
        "dana point": {
            "latitude": "33.4669721",
            "closest_to": "temecula",
            "address": "Dana Point, Orange County, California, United States of America",
            "locType": "city",
            "blogLinks": [
                "http://wikitravel.org/en/San_Diego"
            ],
            "longitude": "-117.6981074"
        }
    }
}