{
    "mentions": {
        "siddapura": {
            "blogLinks": [
                "https://en.wikipedia.org/wiki/Kodagu_district"
            ],
            "locType": "town",
            "longitude": "74.8924253",
            "latitude": "14.3409562",
            "address": "Siddapura, Siddapura taluk, Uttara Kannada, Karnataka, India",
            "closest_to": "agumbe"
        },
        "kukke-subrahmanya": {
            "blogLinks": [
                "http://www.holidayiq.com/Kukke-Subrahmanya-Sightseeing-972.html"
            ],
            "locType": "village",
            "longitude": "75.6131771",
            "latitude": "12.6677868",
            "address": "Kukke Subrahmanya, Sulya taluk, Dakshina Kannada, Karnataka, 574238, India",
            "closest_to": "virajpet"
        },
        "kukke subrahmanya": {
            "blogLinks": [
                "http://www.holidayiq.com/Kukke-Subrahmanya-Sightseeing-972.html"
            ],
            "locType": "village",
            "longitude": "75.6131771",
            "latitude": "12.6677868",
            "address": "Kukke Subrahmanya, Sulya taluk, Dakshina Kannada, Karnataka, 574238, India",
            "closest_to": "virajpet"
        },
        "kundapur": {
            "blogLinks": [
                "http://travel.india.com/agumbe/"
            ],
            "locType": "school",
            "longitude": "74.6906749",
            "latitude": "13.6343509",
            "address": "United Basel mission church Higher Primary School, Kundapur, Chikkansal Road, Vaderahobali, Kundapura, \u0c95\u0cc1\u0c82\u0ca6\u0cbe\u0caa\u0cc1\u0cb0 \u0ca4\u0cbe\u0cb2\u0cc2\u0c95\u0cc1, Udupi district, Karnataka, 576200, India",
            "closest_to": "agumbe"
        },
        "harangi dam": {
            "blogLinks": [
                "https://www.thrillophilia.com/places-to-visit-in-coorg"
            ],
            "locType": "dam",
            "longitude": "75.9056999171375",
            "latitude": "12.4928663",
            "address": "Harangi dam, Somawarpet taluk, Kodagu, Karnataka, India",
            "closest_to": "virajpet"
        },
        "kanhangad": {
            "blogLinks": [
                "https://en.wikipedia.org/wiki/Kodagu_district"
            ],
            "locType": "primary",
            "longitude": "75.0896592",
            "latitude": "12.8011738",
            "address": "Kalladka Kanhangad Highway, Mangalapadavu, Bantwal taluk, Dakshina Kannada, Karnataka, 574243, India",
            "closest_to": "virajpet"
        },
        "bhagavathi temple": {
            "blogLinks": [
                "http://www.holidayiq.com/Virajpet-Sightseeing-976.html"
            ],
            "locType": "place_of_worship",
            "longitude": "74.8431692",
            "latitude": "12.8201341",
            "address": "Sri Cheerumbha Bhagavathi Temple, Mangaluru-Kasargod Highway, Bolar, Thokkottu, Mangaluru taluk, Dakshina Kannada, Karnataka, 574159, India",
            "closest_to": "virajpet"
        },
        "snake river": {
            "blogLinks": [
                "http://wikitravel.org/en/Kodagu"
            ],
            "locType": "attraction",
            "longitude": "76.66743",
            "latitude": "12.3003272",
            "address": "Snake Zone, \u0cae\u0cc1\u0c96\u0ccd\u0caf \u0cb0\u0cb8\u0ccd\u0ca4\u0cc6, Race Course, Mysuru, Mysuru taluk, Mysuru district, Karnataka, 570001, India",
            "closest_to": "virajpet"
        },
        "talakaveri": {
            "blogLinks": [
                "https://en.wikipedia.org/wiki/Kodagu_district",
                "http://wikitravel.org/en/Kodagu"
            ],
            "locType": "hamlet",
            "longitude": "75.4930074",
            "latitude": "12.3858456",
            "address": "Talakaveri, Madikeri taluku, Kodagu, Karnataka, India",
            "closest_to": "virajpet"
        },
        "sowparnika": {
            "blogLinks": [
                "http://www.beontheroad.com/2014/06/top-10-monsoon-holidays-in-karnataka.html"
            ],
            "locType": "guest_house",
            "longitude": "74.8121600727933",
            "latitude": "13.86533575",
            "address": "Sowparnika Guest House, NH766C;SH26, Kollur, \u0c95\u0cc1\u0c82\u0ca6\u0cbe\u0caa\u0cc1\u0cb0 \u0ca4\u0cbe\u0cb2\u0cc2\u0c95\u0cc1, Udupi district, Karnataka, 576220, India",
            "closest_to": "agumbe"
        },
        "madikeri": {
            "blogLinks": [
                "https://en.wikipedia.org/wiki/Kodagu_district",
                "https://www.thrillophilia.com/places-to-visit-in-coorg",
                "http://www.nivalink.com/destination/coorg-(virajpet)",
                "http://wikitravel.org/en/Kodagu",
                "http://goindia.about.com/od/karnataka/tp/6-Coorg-Places-To-Visit.htm",
                "https://www.tripadvisor.com/Hotel_Review-g1638802-d4341806-Reviews-Club_Mahindra_Virajpet_Coorg-Virajpet_Kodagu_Coorg_Karnataka.html"
            ],
            "locType": "town",
            "longitude": "75.740031",
            "latitude": "12.4204003",
            "address": "Madikeri, Madikeri taluku, Kodagu, Karnataka, India",
            "closest_to": "virajpet"
        },
        "mandalpatti": {
            "blogLinks": [
                "https://www.thrillophilia.com/places-to-visit-in-coorg",
                "http://wikitravel.org/en/Kodagu",
                "http://goindia.about.com/od/karnataka/tp/6-Coorg-Places-To-Visit.htm"
            ],
            "locType": "attraction",
            "longitude": "75.7307012",
            "latitude": "12.4486242",
            "address": "Mandalpatti road junction, Galibidu Road, Kalakeri Nidugane, Madikeri taluku, Kodagu, Karnataka, India",
            "closest_to": "virajpet"
        },
        "kaveri": {
            "blogLinks": [
                "https://en.wikipedia.org/wiki/Kodagu_district",
                "http://wikitravel.org/en/Kodagu"
            ],
            "locType": "river",
            "longitude": "77.0635531",
            "latitude": "12.1687878",
            "address": "Kaveri, Kollegala taluk, Chamarajanagar district, Karnataka, India",
            "closest_to": "virajpet"
        },
        "club mahindra kodagu valley": {
            "blogLinks": [
                "http://wikitravel.org/en/Kodagu"
            ],
            "locType": "hotel",
            "longitude": "75.7164394",
            "latitude": "12.4413137",
            "address": "Club Mahindra, Galibidu Road, Kalakeri Nidugane, Madikeri taluku, Kodagu, Karnataka, India",
            "closest_to": "virajpet"
        },
        "lal bagh": {
            "blogLinks": [
                "https://www.tripoto.com/weekend-getaways/from-virajpet"
            ],
            "locType": "bus_stop",
            "longitude": "74.8386152",
            "latitude": "12.8859223",
            "address": "Lal Bagh Bus Stop, Mahatma Gandhi Road, Lalbagh, Ladyhill, Mangaluru, Mangaluru taluk, Dakshina Kannada, Karnataka, 575001, India",
            "closest_to": "virajpet"
        },
        "dakshina kannada": {
            "blogLinks": [
                "https://en.wikipedia.org/wiki/Kodagu_district"
            ],
            "locType": "administrative",
            "longitude": "75.1008028650794",
            "latitude": "12.8114089",
            "address": "Dakshina Kannada, Karnataka, India",
            "closest_to": "virajpet"
        },
        "kutta": {
            "blogLinks": [
                "http://wikitravel.org/en/Kodagu"
            ],
            "locType": "village",
            "longitude": "76.0491296",
            "latitude": "11.9696155",
            "address": "Kutta, Virajpet taluk, Kodagu, Karnataka, India",
            "closest_to": "virajpet"
        },
        "brahma": {
            "blogLinks": [
                "https://en.wikipedia.org/wiki/Kodagu_district",
                "http://wikitravel.org/en/Kodagu"
            ],
            "locType": "place_of_worship",
            "longitude": "75.9026723908286",
            "latitude": "14.4564816",
            "address": "Sadguru Brahma Chaitanya Mandira, Ring Road, Vinobanagara, Davanagere, Davanagere taluku, Davanagere district, Karnataka, 577004, India",
            "closest_to": "agumbe"
        },
        "ooty lake": {
            "blogLinks": [
                "https://www.tripoto.com/weekend-getaways/from-virajpet"
            ],
            "locType": "primary",
            "longitude": "76.6586807",
            "latitude": "12.2774807",
            "address": "Ooty Road, Vidyaranyapuram, Mysuru, Mysuru taluk, Mysuru district, Karnataka, 570001, India",
            "closest_to": "virajpet"
        },
        "kannur": {
            "blogLinks": [
                "https://www.tripoto.com/weekend-getaways/from-virajpet",
                "https://en.wikipedia.org/wiki/Kodagu_district",
                "http://www.onefivenine.com/india/Travel/Place/Agumbe",
                "http://www.nivalink.com/destination/coorg-(virajpet)"
            ],
            "locType": "construction",
            "longitude": "74.8858161",
            "latitude": "12.8487602",
            "address": "Netravati bridge - Kannur Bypass Road (Proposed), Padil, Bajal, Mangaluru taluk, Dakshina Kannada, Karnataka, 575007, India",
            "closest_to": "virajpet"
        },
        "chelavara falls": {
            "blogLinks": [
                "https://www.thrillophilia.com/places-to-visit-in-coorg",
                "http://wikitravel.org/en/Kodagu"
            ],
            "locType": "waterfall",
            "longitude": "75.6734811730693",
            "latitude": "12.20601005",
            "address": "Chelavara Falls, Madikeri taluku, Kodagu, Karnataka, India",
            "closest_to": "virajpet"
        },
        "moyar": {
            "blogLinks": [
                "https://www.tripoto.com/weekend-getaways/from-virajpet"
            ],
            "locType": "viewpoint",
            "longitude": "76.631118",
            "latitude": "11.6161121",
            "address": "Moyar Gorge, Gundlupet - Coimbatore Highway, Bandipur, Gundlupet taluk, Chamarajanagar district, Karnataka, India",
            "closest_to": "virajpet"
        },
        "shankaranarayana": {
            "blogLinks": [
                "http://travel.india.com/agumbe/"
            ],
            "locType": "village",
            "longitude": "74.8600862",
            "latitude": "13.6058955",
            "address": "Shankaranarayana, \u0c95\u0cc1\u0c82\u0ca6\u0cbe\u0caa\u0cc1\u0cb0 \u0ca4\u0cbe\u0cb2\u0cc2\u0c95\u0cc1, Udupi district, Karnataka, 576227, India",
            "closest_to": "agumbe"
        },
        "irupu falls": {
            "blogLinks": [
                "http://goindia.about.com/od/karnataka/tp/6-Coorg-Places-To-Visit.htm",
                "http://www.nivalink.com/destination/coorg-(virajpet)"
            ],
            "locType": "attraction",
            "longitude": "75.9839484",
            "latitude": "11.9667954",
            "address": "Iruppu Falls, SH89, Taila, Virajpet taluk, Kodagu, Karnataka, 571217, India",
            "closest_to": "virajpet"
        },
        "kundapura": {
            "blogLinks": [
                "http://www.nivalink.com/destination/coorg-(virajpet)"
            ],
            "locType": "town",
            "longitude": "74.6915722",
            "latitude": "13.6250993",
            "address": "Kundapura, \u0c95\u0cc1\u0c82\u0ca6\u0cbe\u0caa\u0cc1\u0cb0 \u0ca4\u0cbe\u0cb2\u0cc2\u0c95\u0cc1, Udupi district, Karnataka, 576200, India",
            "closest_to": "agumbe"
        },
        "nagarahole national park": {
            "blogLinks": [
                "https://en.wikipedia.org/wiki/Kodagu_district"
            ],
            "locType": "national_park",
            "longitude": "76.1537073415874",
            "latitude": "12.0600362",
            "address": "Nagarahole National Park, Virajpet taluk, Kodagu, Karnataka, India",
            "closest_to": "virajpet"
        },
        "tadiandamol": {
            "blogLinks": [
                "https://www.tripoto.com/weekend-getaways/from-virajpet",
                "https://en.wikipedia.org/wiki/Kodagu_district",
                "https://www.thrillophilia.com/places-to-visit-in-coorg"
            ],
            "locType": "peak",
            "longitude": "75.608815",
            "latitude": "12.2175641",
            "address": "Tadiandamol, Madikeri taluku, Kodagu, Karnataka, India",
            "closest_to": "virajpet"
        },
        "mangalore international airport": {
            "blogLinks": [
                "https://en.wikipedia.org/wiki/Kodagu_district"
            ],
            "locType": "aerodrome",
            "longitude": "74.887492668144",
            "latitude": "12.95518575",
            "address": "Mangalore International Airport, Airport Entry Road, Gandhinagar, Kenjar, Mangaluru taluk, Dakshina Kannada, Karnataka, 575015, India",
            "closest_to": "virajpet"
        },
        "south kodagu": {
            "blogLinks": [
                "https://en.wikipedia.org/wiki/Kodagu_district"
            ],
            "locType": "administrative",
            "longitude": "75.6677235950852",
            "latitude": "12.38117345",
            "address": "Kodagu, Karnataka, India",
            "closest_to": "virajpet"
        },
        "coimbatore": {
            "blogLinks": [
                "https://www.tripoto.com/weekend-getaways/from-virajpet",
                "http://www.nivalink.com/destination/coorg-(virajpet)"
            ],
            "locType": "trunk",
            "longitude": "76.6318246",
            "latitude": "11.6793976",
            "address": "Gundlupet - Coimbatore Highway, Bandipur, Gundlupet taluk, Chamarajanagar district, Karnataka, India",
            "closest_to": "virajpet"
        },
        "dubare": {
            "blogLinks": [
                "https://en.wikipedia.org/wiki/Kodagu_district"
            ],
            "locType": "attraction",
            "longitude": "75.9066719",
            "latitude": "12.3716865",
            "address": "Dubare Elephant Camp, SH91, Dodda Bettageri, Somawarpet taluk, Kodagu, Karnataka, India",
            "closest_to": "virajpet"
        },
        "river kaveri": {
            "blogLinks": [
                "https://en.wikipedia.org/wiki/Kodagu_district",
                "http://wikitravel.org/en/Kodagu"
            ],
            "locType": "river",
            "longitude": "77.0635531",
            "latitude": "12.1687878",
            "address": "Kaveri, Kollegala taluk, Chamarajanagar district, Karnataka, India",
            "closest_to": "virajpet"
        },
        "north coorg": {
            "blogLinks": [
                "https://www.thrillophilia.com/places-to-visit-in-coorg"
            ],
            "locType": "town",
            "longitude": "75.740031",
            "latitude": "12.4204003",
            "address": "Madikeri, Madikeri taluku, Kodagu, Karnataka, India",
            "closest_to": "virajpet"
        },
        "ganiga": {
            "blogLinks": [
                "https://en.wikipedia.org/wiki/Kodagu_district"
            ],
            "locType": "village",
            "longitude": "76.8817824",
            "latitude": "12.7518557",
            "address": "Ganiga, Mandya taluk, Mandya district, Karnataka, India",
            "closest_to": "virajpet"
        },
        "vidyashankara": {
            "blogLinks": [
                "http://www.holidayiq.com/Kukke-Subrahmanya-Sightseeing-972.html"
            ],
            "locType": "place_of_worship",
            "longitude": "75.2514472909836",
            "latitude": "13.41567005",
            "address": "Sri Vidyashankara Swamy Temple, Sri Vidyateertha Setu, Sringeri, Sringeri taluku, Chikkamagaluru district, Karnataka, 577592, India",
            "closest_to": "virajpet"
        },
        "lakya dam": {
            "blogLinks": [
                "http://www.beontheroad.com/2014/06/top-10-monsoon-holidays-in-karnataka.html"
            ],
            "locType": "dam",
            "longitude": "75.2271128",
            "latitude": "13.2189611",
            "address": "Lakya Dam, Mudigere taluk, Chikkamagaluru district, Karnataka, India",
            "closest_to": "virajpet"
        },
        "brahmagiri": {
            "blogLinks": [
                "https://en.wikipedia.org/wiki/Kodagu_district",
                "https://www.thrillophilia.com/places-to-visit-in-coorg",
                "http://wikitravel.org/en/Kodagu"
            ],
            "locType": "peak",
            "longitude": "75.490746",
            "latitude": "12.3868578",
            "address": "Brahmagiri, Madikeri taluku, Kodagu, Karnataka, India",
            "closest_to": "virajpet"
        },
        "india": {
            "blogLinks": [
                "http://travel.india.com/agumbe/",
                "https://www.tripoto.com/weekend-getaways/from-virajpet",
                "http://www.beontheroad.com/2014/06/top-10-monsoon-holidays-in-karnataka.html",
                "http://www.onefivenine.com/india/Travel/Place/Agumbe",
                "https://en.wikipedia.org/wiki/Kodagu_district",
                "http://www.holidayiq.com/Virajpet-Sightseeing-976.html",
                "https://www.thrillophilia.com/places-to-visit-in-coorg",
                "http://www.nivalink.com/destination/coorg-(virajpet)",
                "http://wikitravel.org/en/Kodagu",
                "http://www.distancesfrom.com/in/travel-from-Bengaluru-to-Gokarna-via-Dandeli-Agumbe/TravelFromHistory/32202819.aspx",
                "http://goindia.about.com/od/karnataka/tp/6-Coorg-Places-To-Visit.htm"
            ],
            "locType": "administrative",
            "longitude": "75.7223521",
            "latitude": "14.5203896",
            "address": "Karnataka, India",
            "closest_to": "agumbe"
        },
        "kaveri river": {
            "blogLinks": [
                "http://www.holidayiq.com/Virajpet-Sightseeing-976.html"
            ],
            "locType": "river",
            "longitude": "77.1600751",
            "latitude": "12.2873835",
            "address": "Kaveri, Malavalli taluk, Mandya district, Karnataka, India",
            "closest_to": "virajpet"
        },
        "kutta road": {
            "blogLinks": [
                "http://wikitravel.org/en/Kodagu"
            ],
            "locType": "village",
            "longitude": "76.0491296",
            "latitude": "11.9696155",
            "address": "Kutta, Virajpet taluk, Kodagu, Karnataka, India",
            "closest_to": "virajpet"
        },
        "lakshmana tirtha river": {
            "blogLinks": [
                "https://en.wikipedia.org/wiki/Kodagu_district",
                "http://www.nivalink.com/destination/coorg-(virajpet)"
            ],
            "locType": "attraction",
            "longitude": "75.9839484",
            "latitude": "11.9667954",
            "address": "Iruppu Falls, SH89, Taila, Virajpet taluk, Kodagu, Karnataka, 571217, India",
            "closest_to": "virajpet"
        },
        "mercara": {
            "blogLinks": [
                "https://en.wikipedia.org/wiki/Kodagu_district",
                "http://wikitravel.org/en/Kodagu"
            ],
            "locType": "town",
            "longitude": "75.740031",
            "latitude": "12.4204003",
            "address": "Madikeri, Madikeri taluku, Kodagu, Karnataka, India",
            "closest_to": "virajpet"
        },
        "south coorg": {
            "blogLinks": [
                "http://wikitravel.org/en/Kodagu",
                "http://www.nivalink.com/destination/coorg-(virajpet)"
            ],
            "locType": "town",
            "longitude": "75.740031",
            "latitude": "12.4204003",
            "address": "Madikeri, Madikeri taluku, Kodagu, Karnataka, India",
            "closest_to": "virajpet"
        },
        "nagarahole": {
            "blogLinks": [
                "https://en.wikipedia.org/wiki/Kodagu_district"
            ],
            "locType": "river",
            "longitude": "76.2286805",
            "latitude": "12.0229466",
            "address": "Nagarahole, Heggadadevanakote taluk, Mysuru district, Karnataka, India",
            "closest_to": "virajpet"
        },
        "london": {
            "blogLinks": [
                "https://en.wikipedia.org/wiki/Kodagu_district"
            ],
            "locType": "administrative",
            "longitude": "75.7223521",
            "latitude": "14.5203896",
            "address": "Karnataka, India",
            "closest_to": "agumbe"
        },
        "mandya": {
            "blogLinks": [
                "https://www.tripoto.com/weekend-getaways/from-virajpet"
            ],
            "locType": "town",
            "longitude": "76.8937392",
            "latitude": "12.5217836",
            "address": "Mandya, Mandya taluk, Mandya district, Karnataka, 571401, India",
            "closest_to": "virajpet"
        },
        "kabini": {
            "blogLinks": [
                "http://www.beontheroad.com/2014/06/top-10-monsoon-holidays-in-karnataka.html"
            ],
            "locType": "river",
            "longitude": "76.4152088",
            "latitude": "12.0140065",
            "address": "Kabini, Heggadadevanakote taluk, Mysuru district, Karnataka, India",
            "closest_to": "virajpet"
        },
        "irupu": {
            "blogLinks": [
                "http://www.nivalink.com/destination/coorg-(virajpet)"
            ],
            "locType": "attraction",
            "longitude": "75.9839484",
            "latitude": "11.9667954",
            "address": "Iruppu Falls, SH89, Taila, Virajpet taluk, Kodagu, Karnataka, 571217, India",
            "closest_to": "virajpet"
        },
        "kavadi": {
            "blogLinks": [
                "https://en.wikipedia.org/wiki/Kodagu_district"
            ],
            "locType": "village",
            "longitude": "75.229639",
            "latitude": "14.3281576",
            "address": "Kavadi, Soraba taluk, Shimoga district, Karnataka, India",
            "closest_to": "agumbe"
        },
        "madikeri fort": {
            "blogLinks": [
                "https://www.thrillophilia.com/places-to-visit-in-coorg"
            ],
            "locType": "museum",
            "longitude": "75.7392494",
            "latitude": "12.4203606",
            "address": "Madikeri Museum, Fort Internal Road, Madikeri, Madikeri taluku, Kodagu, Karnataka, India",
            "closest_to": "virajpet"
        },
        "hebbe falls": {
            "blogLinks": [
                "http://www.beontheroad.com/2014/06/top-10-monsoon-holidays-in-karnataka.html"
            ],
            "locType": "attraction",
            "longitude": "75.7253701",
            "latitude": "13.5414025",
            "address": "Hebbe falls, Kemmannagundi Road, Attigundi, Chikkamagaluru taluku, Chikkamagaluru district, Karnataka, India",
            "closest_to": "virajpet"
        },
        "dakshin kannada of karnataka": {
            "blogLinks": [
                "http://www.onefivenine.com/india/Travel/Place/Agumbe"
            ],
            "locType": "restaurant",
            "longitude": "75.0309089",
            "latitude": "12.8827367",
            "address": "Dakshin Court, NH73, Kaikunje, Bantwal Cross Road, Bantwal taluk, Dakshina Kannada, Karnataka, India",
            "closest_to": "virajpet"
        },
        "mallalli falls": {
            "blogLinks": [
                "https://www.thrillophilia.com/places-to-visit-in-coorg",
                "http://wikitravel.org/en/Kodagu"
            ],
            "locType": "waterfall",
            "longitude": "75.723663",
            "latitude": "12.6813778",
            "address": "Mallalli Falls, Somawarpet taluk, Kodagu, Karnataka, India",
            "closest_to": "virajpet"
        },
        "kumara parvatha": {
            "blogLinks": [
                "http://www.holidayiq.com/Kukke-Subrahmanya-Sightseeing-972.html",
                "https://www.thrillophilia.com/places-to-visit-in-coorg"
            ],
            "locType": "peak",
            "longitude": "75.6865652",
            "latitude": "12.6623315",
            "address": "Kumara Parvatha, Somawarpet taluk, Kodagu, Karnataka, India",
            "closest_to": "virajpet"
        },
        "virajpet": {
            "blogLinks": [
                "https://www.tripoto.com/weekend-getaways/from-virajpet",
                "http://www.holidayiq.com/Virajpet-Sightseeing-976.html",
                "http://goindia.about.com/od/karnataka/tp/6-Coorg-Places-To-Visit.htm"
            ],
            "locType": "town",
            "longitude": "75.8033421",
            "latitude": "12.1972711",
            "address": "Virajpet, Virajpet taluk, Kodagu, Karnataka, 571218, India",
            "closest_to": "virajpet"
        },
        "kodagu": {
            "blogLinks": [
                "https://www.tripoto.com/weekend-getaways/from-virajpet",
                "https://en.wikipedia.org/wiki/Kodagu_district",
                "https://www.thrillophilia.com/places-to-visit-in-coorg",
                "http://www.nivalink.com/destination/coorg-(virajpet)",
                "https://www.tripadvisor.in/Hotel_Review-g1638802-d4341806-Reviews-Club_Mahindra_Virajpet_Coorg-Virajpet_Kodagu_Coorg_Karnataka.html",
                "http://wikitravel.org/en/Kodagu",
                "http://goindia.about.com/od/karnataka/tp/6-Coorg-Places-To-Visit.htm",
                "https://www.tripadvisor.com/Hotel_Review-g1638802-d4341806-Reviews-Club_Mahindra_Virajpet_Coorg-Virajpet_Kodagu_Coorg_Karnataka.html"
            ],
            "locType": "administrative",
            "longitude": "75.6677235950852",
            "latitude": "12.38117345",
            "address": "Kodagu, Karnataka, India",
            "closest_to": "virajpet"
        },
        "hassan district": {
            "blogLinks": [
                "https://en.wikipedia.org/wiki/Kodagu_district"
            ],
            "locType": "administrative",
            "longitude": "76.1745460751981",
            "latitude": "13.0315068",
            "address": "Hassan district, Karnataka, India",
            "closest_to": "virajpet"
        },
        "urdu": {
            "blogLinks": [
                "https://en.wikipedia.org/wiki/Kodagu_district"
            ],
            "locType": "recreation_ground",
            "longitude": "75.636575371858",
            "latitude": "14.6180369",
            "address": "Urdu Ground, Ranebennur, Ranebennuru taluk, Haveri district, Karnataka, 581115, India",
            "closest_to": "agumbe"
        },
        "chikkamagaluru": {
            "blogLinks": [
                "https://en.wikipedia.org/wiki/Kodagu_district"
            ],
            "locType": "city",
            "longitude": "75.7738743",
            "latitude": "13.318014",
            "address": "Chikkamagaluru, Chikkamagaluru taluku, Chikkamagaluru district, Karnataka, 577101, India",
            "closest_to": "virajpet"
        },
        "club mahindra": {
            "blogLinks": [
                "http://www.beontheroad.com/2014/06/top-10-monsoon-holidays-in-karnataka.html",
                "https://www.tripadvisor.com/Hotel_Review-g1638802-d4341806-Reviews-Club_Mahindra_Virajpet_Coorg-Virajpet_Kodagu_Coorg_Karnataka.html"
            ],
            "locType": "hotel",
            "longitude": "75.7164394",
            "latitude": "12.4413137",
            "address": "Club Mahindra, Galibidu Road, Kalakeri Nidugane, Madikeri taluku, Kodagu, Karnataka, India",
            "closest_to": "virajpet"
        },
        "subrahmanya": {
            "blogLinks": [
                "http://www.holidayiq.com/Kukke-Subrahmanya-Sightseeing-972.html"
            ],
            "locType": "village",
            "longitude": "75.6131771",
            "latitude": "12.6677868",
            "address": "Kukke Subrahmanya, Sulya taluk, Dakshina Kannada, Karnataka, 574238, India",
            "closest_to": "virajpet"
        },
        "hassan": {
            "blogLinks": [
                "http://www.nivalink.com/destination/coorg-(virajpet)"
            ],
            "locType": "town",
            "longitude": "76.0992703",
            "latitude": "13.0070817",
            "address": "Hassan, Hasana taluk, Hassan district, Karnataka, 573201, India",
            "closest_to": "virajpet"
        },
        "coorg": {
            "blogLinks": [
                "https://en.wikipedia.org/wiki/Kodagu_district",
                "https://www.thrillophilia.com/places-to-visit-in-coorg",
                "http://www.distancesfrom.com/in/travel-from-Bengaluru-to-Gokarna-via-Dandeli-Agumbe/TravelFromHistory/32202819.aspx",
                "http://wikitravel.org/en/Kodagu",
                "http://www.nivalink.com/destination/coorg-(virajpet)"
            ],
            "locType": "town",
            "longitude": "75.740031",
            "latitude": "12.4204003",
            "address": "Madikeri, Madikeri taluku, Kodagu, Karnataka, India",
            "closest_to": "virajpet"
        },
        "kodagu district": {
            "blogLinks": [
                "https://en.wikipedia.org/wiki/Kodagu_district"
            ],
            "locType": "county",
            "longitude": "75.7412148",
            "latitude": "12.2519249",
            "address": "Kodagu, Karnataka, India",
            "closest_to": "virajpet"
        },
        "gokarna": {
            "blogLinks": [
                "http://www.distancesfrom.com/in/travel-from-Bengaluru-to-Gokarna-via-Dandeli-Agumbe/TravelFromHistory/32202819.aspx"
            ],
            "locType": "town",
            "longitude": "74.3184418",
            "latitude": "14.5439629",
            "address": "Gokarna, Kumata taluk, Uttara Kannada, Karnataka, 581326, India",
            "closest_to": "agumbe"
        },
        "kudremukh": {
            "blogLinks": [
                "http://www.beontheroad.com/2014/06/top-10-monsoon-holidays-in-karnataka.html"
            ],
            "locType": "village",
            "longitude": "75.2523304",
            "latitude": "13.2144007",
            "address": "Kudremukha, Mudigere taluk, Chikkamagaluru district, Karnataka, India",
            "closest_to": "virajpet"
        },
        "siddapur": {
            "blogLinks": [
                "http://wikitravel.org/en/Kodagu"
            ],
            "locType": "village",
            "longitude": "74.911019",
            "latitude": "13.6626885",
            "address": "Siddapur, \u0c95\u0cc1\u0c82\u0ca6\u0cbe\u0caa\u0cc1\u0cb0 \u0ca4\u0cbe\u0cb2\u0cc2\u0c95\u0cc1, Udupi district, Karnataka, 576229, India",
            "closest_to": "agumbe"
        },
        "kumaradhara river": {
            "blogLinks": [
                "http://www.holidayiq.com/Kukke-Subrahmanya-Sightseeing-972.html",
                "https://www.thrillophilia.com/places-to-visit-in-coorg"
            ],
            "locType": "river",
            "longitude": "75.4390597",
            "latitude": "12.7370168",
            "address": "Kumaradhara, Putturu taluk, Dakshina Kannada, Karnataka, India",
            "closest_to": "virajpet"
        },
        "madikeri fort museum": {
            "blogLinks": [
                "https://en.wikipedia.org/wiki/Kodagu_district"
            ],
            "locType": "museum",
            "longitude": "75.7392494",
            "latitude": "12.4203606",
            "address": "Madikeri Museum, Fort Internal Road, Madikeri, Madikeri taluku, Kodagu, Karnataka, India",
            "closest_to": "virajpet"
        },
        "doddamakali": {
            "blogLinks": [
                "http://www.nivalink.com/destination/coorg-(virajpet)"
            ],
            "locType": "locality",
            "longitude": "77.2173416",
            "latitude": "12.3096676",
            "address": "Doddamakali, Dalanakatte, Malavalli taluk, Mandya district, Karnataka, India",
            "closest_to": "virajpet"
        },
        "bhagamandala": {
            "blogLinks": [
                "https://en.wikipedia.org/wiki/Kodagu_district",
                "https://www.thrillophilia.com/places-to-visit-in-coorg"
            ],
            "locType": "village",
            "longitude": "75.5290234",
            "latitude": "12.3857285",
            "address": "Bhagamandala, Madikeri taluku, Kodagu, Karnataka, India",
            "closest_to": "virajpet"
        },
        "west coorg": {
            "blogLinks": [
                "http://www.nivalink.com/destination/coorg-(virajpet)"
            ],
            "locType": "town",
            "longitude": "75.740031",
            "latitude": "12.4204003",
            "address": "Madikeri, Madikeri taluku, Kodagu, Karnataka, India",
            "closest_to": "virajpet"
        },
        "iruppu": {
            "blogLinks": [
                "http://wikitravel.org/en/Kodagu"
            ],
            "locType": "attraction",
            "longitude": "75.9839484",
            "latitude": "11.9667954",
            "address": "Iruppu Falls, SH89, Taila, Virajpet taluk, Kodagu, Karnataka, 571217, India",
            "closest_to": "virajpet"
        },
        "us": {
            "blogLinks": [
                "https://en.wikipedia.org/wiki/Kodagu_district"
            ],
            "locType": "administrative",
            "longitude": "75.7223521",
            "latitude": "14.5203896",
            "address": "Karnataka, India",
            "closest_to": "agumbe"
        },
        "karnataka": {
            "blogLinks": [
                "http://travel.india.com/agumbe/",
                "https://www.tripoto.com/weekend-getaways/from-virajpet",
                "http://www.beontheroad.com/2014/06/top-10-monsoon-holidays-in-karnataka.html",
                "https://en.wikipedia.org/wiki/Kodagu_district",
                "https://www.thrillophilia.com/places-to-visit-in-coorg",
                "http://www.nivalink.com/destination/coorg-(virajpet)",
                "http://wikitravel.org/en/Kodagu",
                "http://www.distancesfrom.com/in/travel-from-Bengaluru-to-Gokarna-via-Dandeli-Agumbe/TravelFromHistory/32202819.aspx",
                "http://goindia.about.com/od/karnataka/tp/6-Coorg-Places-To-Visit.htm"
            ],
            "locType": "atm",
            "longitude": "76.6639936",
            "latitude": "12.3084901",
            "address": "Karnataka, Shalivahana Road, Nazarbad, Mysuru, Mysuru taluk, Mysuru district, Karnataka, 570001, India",
            "closest_to": "virajpet"
        },
        "uppinangadi": {
            "blogLinks": [
                "http://www.holidayiq.com/Kukke-Subrahmanya-Sightseeing-972.html"
            ],
            "locType": "town",
            "longitude": "75.2485277",
            "latitude": "12.83834",
            "address": "Uppinangadi, Putturu taluk, Dakshina Kannada, Karnataka, India",
            "closest_to": "virajpet"
        },
        "kakkabe": {
            "blogLinks": [
                "https://www.thrillophilia.com/places-to-visit-in-coorg",
                "http://goindia.about.com/od/karnataka/tp/6-Coorg-Places-To-Visit.htm",
                "http://www.nivalink.com/destination/coorg-(virajpet)"
            ],
            "locType": "village",
            "longitude": "75.6444603",
            "latitude": "12.2571817",
            "address": "Kakkabe, Madikeri taluku, Kodagu, Karnataka, India",
            "closest_to": "virajpet"
        },
        "gaddige": {
            "blogLinks": [
                "https://www.thrillophilia.com/places-to-visit-in-coorg"
            ],
            "locType": "village",
            "longitude": "76.3734451",
            "latitude": "12.1891771",
            "address": "Gaddige, Hunasuru taluk, Mysuru district, Karnataka, India",
            "closest_to": "virajpet"
        },
        "iruppu falls": {
            "blogLinks": [
                "https://en.wikipedia.org/wiki/Kodagu_district",
                "https://www.thrillophilia.com/places-to-visit-in-coorg",
                "http://wikitravel.org/en/Kodagu"
            ],
            "locType": "attraction",
            "longitude": "75.9839484",
            "latitude": "11.9667954",
            "address": "Iruppu Falls, SH89, Taila, Virajpet taluk, Kodagu, Karnataka, 571217, India",
            "closest_to": "virajpet"
        },
        "karnataka state": {
            "blogLinks": [
                "https://en.wikipedia.org/wiki/Kodagu_district"
            ],
            "locType": "university",
            "longitude": "76.6236231",
            "latitude": "12.315382",
            "address": "Karnataka State Open University, \u0cb9\u0cc1\u0ca3\u0cb8\u0cc2\u0cb0\u0cc1 \u0cb0\u0cb8\u0ccd\u0ca4\u0cc6, Gokulam, Mysuru, Mysuru taluk, Mysuru district, Karnataka, 570001, India",
            "closest_to": "virajpet"
        },
        "nagarhole national park": {
            "blogLinks": [
                "http://goindia.about.com/od/karnataka/tp/6-Coorg-Places-To-Visit.htm"
            ],
            "locType": "national_park",
            "longitude": "76.1537073415874",
            "latitude": "12.0600362",
            "address": "Nagarahole National Park, Virajpet taluk, Kodagu, Karnataka, India",
            "closest_to": "virajpet"
        },
        "madikeri taluk": {
            "blogLinks": [
                "http://wikitravel.org/en/Kodagu"
            ],
            "locType": "primary",
            "longitude": "75.772911",
            "latitude": "12.23531",
            "address": "Virajapet - Madikeri Road, Arameri, Virajpet taluk, Kodagu, Karnataka, India",
            "closest_to": "virajpet"
        },
        "mangalore": {
            "blogLinks": [
                "http://www.onefivenine.com/india/Travel/Place/Agumbe",
                "https://en.wikipedia.org/wiki/Kodagu_district",
                "http://wikitravel.org/en/Kodagu",
                "http://www.nivalink.com/destination/coorg-(virajpet)"
            ],
            "locType": "city",
            "longitude": "74.8430082",
            "latitude": "12.8698101",
            "address": "Mangaluru, Mangaluru taluk, Dakshina Kannada, Karnataka, 575001, India",
            "closest_to": "virajpet"
        },
        "raja 's seat": {
            "blogLinks": [
                "http://goindia.about.com/od/karnataka/tp/6-Coorg-Places-To-Visit.htm"
            ],
            "locType": "park",
            "longitude": "75.7369653316478",
            "latitude": "12.41421975",
            "address": "Raja Seat, Mahatma Gandhi Road, Madikeri, Madikeri taluku, Kodagu, Karnataka, India",
            "closest_to": "virajpet"
        },
        "kashi": {
            "blogLinks": [
                "https://en.wikipedia.org/wiki/Kodagu_district",
                "https://www.thrillophilia.com/places-to-visit-in-coorg"
            ],
            "locType": "town",
            "longitude": "74.9977469",
            "latitude": "13.0699218",
            "address": "Moodabidri, Mangaluru taluk, Dakshina Kannada, Karnataka, 574227, India",
            "closest_to": "virajpet"
        },
        "nilgiri range": {
            "blogLinks": [
                "https://www.tripoto.com/weekend-getaways/from-virajpet"
            ],
            "locType": "primary",
            "longitude": "76.658639",
            "latitude": "12.304105",
            "address": "Bangalore Nilgiri Road, Ittigegudu, Mysuru, Mysuru taluk, Mysuru district, Karnataka, 570001, India",
            "closest_to": "virajpet"
        },
        "kohinoor road": {
            "blogLinks": [
                "http://wikitravel.org/en/Kodagu"
            ],
            "locType": "industrial",
            "longitude": "74.8302988354928",
            "latitude": "13.398788",
            "address": "kohinoor industies, Kukkikatte, Udupi taluku, Udupi district, Karnataka, India",
            "closest_to": "agumbe"
        },
        "barapole river": {
            "blogLinks": [
                "https://www.thrillophilia.com/places-to-visit-in-coorg"
            ],
            "locType": "river",
            "longitude": "75.8218551",
            "latitude": "12.0738308",
            "address": "Barapole, Virajpet taluk, Kodagu, Karnataka, India",
            "closest_to": "virajpet"
        },
        "barapole": {
            "blogLinks": [
                "http://wikitravel.org/en/Kodagu"
            ],
            "locType": "river",
            "longitude": "75.8218551",
            "latitude": "12.0738308",
            "address": "Barapole, Virajpet taluk, Kodagu, Karnataka, India",
            "closest_to": "virajpet"
        },
        "linganamakki reservoir": {
            "blogLinks": [
                "http://www.beontheroad.com/2014/06/top-10-monsoon-holidays-in-karnataka.html"
            ],
            "locType": "water",
            "longitude": "75.0410123818511",
            "latitude": "14.0035104",
            "address": "Linganamakki Reservoir, Hosanagara taluk, Shimoga district, Karnataka, India",
            "closest_to": "agumbe"
        },
        "river varahi": {
            "blogLinks": [
                "http://www.onefivenine.com/india/Travel/Place/Agumbe"
            ],
            "locType": "river",
            "longitude": "74.9489117",
            "latitude": "13.6582668",
            "address": "Varahi, \u0c95\u0cc1\u0c82\u0ca6\u0cbe\u0caa\u0cc1\u0cb0 \u0ca4\u0cbe\u0cb2\u0cc2\u0c95\u0cc1, Udupi district, Karnataka, India",
            "closest_to": "agumbe"
        },
        "somwarpet": {
            "blogLinks": [
                "https://en.wikipedia.org/wiki/Kodagu_district",
                "http://wikitravel.org/en/Kodagu"
            ],
            "locType": "town",
            "longitude": "75.8457638",
            "latitude": "12.6004446",
            "address": "Somwarpet, Somawarpet taluk, Kodagu, Karnataka, 571236, India",
            "closest_to": "virajpet"
        },
        "kushalanagara": {
            "blogLinks": [
                "https://en.wikipedia.org/wiki/Kodagu_district"
            ],
            "locType": "town",
            "longitude": "75.961437",
            "latitude": "12.4585525",
            "address": "Kushalanagara, Somawarpet taluk, Kodagu, Karnataka, 571234, India",
            "closest_to": "virajpet"
        },
        "dakshina kannada district": {
            "blogLinks": [
                "http://www.holidayiq.com/Kukke-Subrahmanya-Sightseeing-972.html"
            ],
            "locType": "county",
            "longitude": "74.9813132",
            "latitude": "12.9324457",
            "address": "Dakshina Kannada, Karnataka, India",
            "closest_to": "virajpet"
        },
        "golden temple": {
            "blogLinks": [
                "https://www.thrillophilia.com/places-to-visit-in-coorg"
            ],
            "locType": "place_of_worship",
            "longitude": "75.9674656",
            "latitude": "12.430821",
            "address": "Padmasambhava Buddhist Vihara (Golden Temple), MDR21, Koppa, Piriyapattana taluk, Mysuru district, Karnataka, India",
            "closest_to": "virajpet"
        },
        "kalaseshwara temple": {
            "blogLinks": [
                "http://www.nivalink.com/destination/coorg-(virajpet)"
            ],
            "locType": "place_of_worship",
            "longitude": "75.363446975",
            "latitude": "13.23228505",
            "address": "Kalaseshwara Temple, SH66, Kalasa, Mudigere taluk, Chikkamagaluru district, Karnataka, 577124, India",
            "closest_to": "virajpet"
        },
        "kasargod": {
            "blogLinks": [
                "https://en.wikipedia.org/wiki/Kodagu_district"
            ],
            "locType": "trunk",
            "longitude": "74.8585848",
            "latitude": "12.8107348",
            "address": "Mangaluru-Kasargod Highway, Bolar, Thokkottu, Mangaluru taluk, Dakshina Kannada, Karnataka, 574159, India",
            "closest_to": "virajpet"
        },
        "anjaneya": {
            "blogLinks": [
                "http://www.holidayiq.com/Kukke-Subrahmanya-Sightseeing-972.html"
            ],
            "locType": "industrial",
            "longitude": "75.9641294673087",
            "latitude": "14.4269975",
            "address": "Anjaneya Mills, Nituvalli, Davanagere, Davanagere taluku, Davanagere district, Karnataka, 577000, India",
            "closest_to": "agumbe"
        },
        "kotebetta": {
            "blogLinks": [
                "http://wikitravel.org/en/Kodagu"
            ],
            "locType": "village",
            "longitude": "76.7953096",
            "latitude": "12.8458901",
            "address": "Kotebetta, Nagamangala taluk, Mandya district, Karnataka, India",
            "closest_to": "virajpet"
        },
        "omkareshwara temple": {
            "blogLinks": [
                "https://en.wikipedia.org/wiki/Kodagu_district"
            ],
            "locType": "place_of_worship",
            "longitude": "75.741304",
            "latitude": "12.420546",
            "address": "Omkareshwara Temple, Main Road, Madikeri, Madikeri taluku, Kodagu, Karnataka, India",
            "closest_to": "virajpet"
        },
        "panambur": {
            "blogLinks": [
                "https://en.wikipedia.org/wiki/Kodagu_district"
            ],
            "locType": "village",
            "longitude": "74.8031577",
            "latitude": "12.9535736",
            "address": "Panambur, Mangaluru taluk, Dakshina Kannada, Karnataka, India",
            "closest_to": "virajpet"
        },
        "kannada": {
            "blogLinks": [
                "https://en.wikipedia.org/wiki/Kodagu_district"
            ],
            "locType": "administrative",
            "longitude": "75.1008028650794",
            "latitude": "12.8114089",
            "address": "Dakshina Kannada, Karnataka, India",
            "closest_to": "virajpet"
        },
        "subrahmanya temple": {
            "blogLinks": [
                "http://www.holidayiq.com/Kukke-Subrahmanya-Sightseeing-972.html"
            ],
            "locType": "residential",
            "longitude": "76.2499985",
            "latitude": "13.3105901",
            "address": "Subrahmanya Temple Road, Lakshmi Puram, Arasikere, Arasikere taluku, Hassan district, Karnataka, 573103, India",
            "closest_to": "virajpet"
        },
        "ooty": {
            "blogLinks": [
                "https://www.tripoto.com/weekend-getaways/from-virajpet"
            ],
            "locType": "primary",
            "longitude": "76.6586807",
            "latitude": "12.2774807",
            "address": "Ooty Road, Vidyaranyapuram, Mysuru, Mysuru taluk, Mysuru district, Karnataka, 570001, India",
            "closest_to": "virajpet"
        },
        "mysore": {
            "blogLinks": [
                "https://en.wikipedia.org/wiki/Kodagu_district"
            ],
            "locType": "city",
            "longitude": "76.6553609",
            "latitude": "12.3051828",
            "address": "Mysuru, Mysuru taluk, Mysuru district, Karnataka, 570001, India",
            "closest_to": "virajpet"
        }
    },
    "virajpet": {
        "icon": "https://nominatim.openstreetmap.org/images/mapicons/poi_place_town.p.20.png",
        "osm_type": "node",
        "boundingbox": [
            "12.1572711",
            "12.2372711",
            "75.7633421",
            "75.8433421"
        ],
        "display_name": "Virajpet, Virajpet taluk, Kodagu, Karnataka, 571218, India",
        "class": "place",
        "osm_id": "412854951",
        "type": "town",
        "licence": "Data \u00a9 OpenStreetMap contributors, ODbL 1.0. http://www.openstreetmap.org/copyright",
        "lon": "75.8033421",
        "lat": "12.1972711",
        "place_id": "3770481",
        "importance": 0.5
    },
    "agumbe": {
        "icon": "https://nominatim.openstreetmap.org/images/mapicons/poi_place_village.p.20.png",
        "osm_type": "node",
        "boundingbox": [
            "13.4894998",
            "13.5294998",
            "75.0765525",
            "75.1165525"
        ],
        "display_name": "Agumbe, Tirthahalli taluk, Shimoga district, Karnataka, 577411, India",
        "class": "place",
        "osm_id": "910403408",
        "type": "village",
        "licence": "Data \u00a9 OpenStreetMap contributors, ODbL 1.0. http://www.openstreetmap.org/copyright",
        "lon": "75.0965525",
        "lat": "13.5094998",
        "place_id": "8561493",
        "importance": 0.475
    }
}